~Version ---------------------------------------------------
VERS.   2.0 : CWLS log ASCII Standard -VERSION 2.0
WRAP.    NO : One line per depth step
DLM . SPACE : Column Data Section Delimiter
~Well ------------------------------------------------------
STRT .F                3495.0 : START DEPTH
STOP .F                6880.0 : STOP DEPTH
STEP .F                   0.5 : STEP
NULL .               -9999.25 : NULL VALUE
COMP .                        : COMPANY
WELL .                        : WELL
FLD  .                        : FIELD
LOC  .                        : LOCATION
PROV .                        : PROVINCE
CNTY .                        : COUNTY
STAT .                        : STATE
CTRY .                        : COUNTRY
SRVC .                        : SERVICE COMPANY
DATE .                        : DATE
UWI  .                        : UNIQUE WELL ID
API  .                        : API NUMBER
SLAT .WGS84 1.678958417317098 : SURFACE LATITUDE
SLON .WGS84 6.390538637896995 : SURFACE LONGITUDE
DATUM.F               2661.54 : DEPTH DATUM ELEV
~Curve Information -----------------------------------------
DEPT.F     : 1 MEASURED DEPTH
DTCO.US/F  : DELTA-T COMPRESSIONAL
GRS .GAPI  : GAMMA RAY FROM SONIC LOG
DTSM.US/F  : DELTA-T SHEAR
~Params ----------------------------------------------------
~Other -----------------------------------------------------
~ASCII -----------------------------------------------------
# ...
 3673.00000   56.05940   35.89940  127.77230
 3673.50000   56.10560   36.70940  126.76750
 3674.00000   56.10660   37.46190  126.59140
 3674.50000   56.10630   37.79420  126.41530
 3675.00000   56.10610   37.83730  126.29480
 3675.50000   56.10580   37.92890  126.26320
 3676.00000   56.12170   38.35500  126.26640
 3676.50000   56.09980   38.73410  126.27740
 3677.00000   56.10060   38.56130  126.28700
 3677.50000   56.11970   37.65550  126.29640
 3678.00000   56.12290   36.33800  126.30590
 3678.50000   56.12320   35.05690  126.30320
 3679.00000   56.12280   35.70410  126.20220
 3679.50000   56.12240   36.22170  126.13090
 3680.00000   56.12200   35.86950  126.15070
 3680.50000   56.12370   35.62940  126.09820
 3681.00000   56.16410   37.17170  126.04570
 3681.50000   56.31880   40.02260  126.54570
 3682.00000   56.32060   41.34140  127.04370
 3682.50000   55.79540   40.87380  126.46500
 3683.00000   55.20350   38.64530  125.18900
 3683.50000   55.11880   35.80940  123.67530
 3684.00000   55.15630   33.05240  122.11030
 3684.50000   55.37550   31.34890  120.65370
 3685.00000   55.77210   30.33080  119.46340
 3685.50000   56.08230   29.67020  117.97700
 3686.00000   56.13380   28.49490  116.49940
 3686.50000   56.16080   26.64570  115.35900
 3687.00000   56.35880   24.57570  115.96340
 3687.50000   56.56310   22.26120  116.12710
 3688.00000   56.38030   20.32130  114.18580
 3688.50000   56.16520   18.77550  111.91230
 3689.00000   56.13280   17.91170  111.68140
 3689.50000   56.12400   18.23380  111.50170
 3690.00000   56.11840   20.32500  111.24050
 3690.50000   56.11750   22.87590  110.97940
 3691.00000   56.13090   24.76450  109.81080
 3691.50000   56.14230   25.21510  109.27750
 3692.00000   56.36210   24.95950  110.80950
 3692.50000   56.71730   24.18710  113.14520
 3693.00000   56.59680   23.38610  115.60170
 3693.50000   56.00790   22.02520  117.87110
 3694.00000   55.90550   21.50600  119.07280
 3694.50000   56.06180   21.58230  120.54140
 3695.00000   56.11060   21.45090  121.24140
 3695.50000   56.10880   20.76950  121.32170
 3696.00000   56.06300   20.54390  121.24570
 3696.50000   55.89400   21.39470  120.82580
 3697.00000   55.53340   23.26370  120.58200
 3697.50000   55.39470   25.31660  120.97140
 3698.00000   55.95140   27.19350  121.52520
 3698.50000   57.07850   29.45400  122.15270
 3699.00000   58.25750   32.09650  122.71730
 3699.50000   58.94640   34.18010  122.71730
 3700.00000   58.66670   35.35600  122.91050
 3700.50000   57.84320   35.87200  123.41520
 3701.00000   57.05360   34.95240  123.91990
 3701.50000   56.43530   32.92950  124.42460
 3702.00000   56.22950   31.03870  125.18490
 3702.50000   56.30620   29.90150  126.33160
 3703.00000   56.52850   28.85590  126.13230
 3703.50000   56.37810   27.08650  124.04870
 3704.00000   56.17330   24.17910  121.20430
 3704.50000   56.13150   21.79390  117.20190
 3705.00000   56.51590   21.89090  114.74580
 3705.50000   57.82600   24.25870  112.49630
 3706.00000   59.32320   26.29380  112.34810
 3706.50000   60.05770   25.90400  111.98820
 3707.00000   60.93830   22.63880  111.58890
 3707.50000   61.02870   19.33040  110.80410
 3708.00000   58.87300   18.05670  109.66450
 3708.50000   56.94640   20.27530  108.14480
 3709.00000   56.19200   25.03460  106.37930
 3709.50000   56.12980   29.01420  106.75740
 3710.00000   58.16160   30.82820  110.17060
 3710.50000   61.62690   28.16220  114.58760
 3711.00000   61.06530   23.68330  117.36710
 3711.50000   56.90470   20.04730  118.60920
 3712.00000   55.24490   18.00050  119.32280
 3712.50000   56.10050   16.78280  120.05270
 3713.00000   56.30750   15.95530  119.50130
 3713.50000   56.15700   15.47830  118.26210
 3714.00000   56.42130   14.81250  116.52790
 3714.50000   57.40880   13.67020  114.54370
 3715.00000   58.46990   12.87950  112.36720
 3715.50000   57.39810   13.00030  109.34140
 3716.00000   55.51980   13.42940  105.53920
 3716.50000   54.33900   14.42690  103.52610
 3717.00000   54.30250   18.24350  104.32670
 3717.50000   55.05010   26.76830  105.98520
 3718.00000   55.80700   35.56590  107.14620
 3718.50000   55.54780   35.88720  106.66800
 3719.00000   54.83090   32.30560  105.23390
 3719.50000   54.96940   25.96300  105.22890
 3720.00000   55.70450   21.91170  105.80430
 3720.50000   56.04770   20.32040  106.36770
 3721.00000   56.08960   21.55200  107.17010
 3721.50000   56.10190   23.80220  108.19540
 3722.00000   56.14710   27.15590  107.17800
 3722.50000   56.49700   29.52920  104.80500
 3723.00000   57.39090   30.62060  102.93490
 3723.50000   57.75420   31.08780  101.22840
 3724.00000   57.01240   31.75210   99.50970
 3724.50000   56.42030   33.26530   97.92880
 3725.00000   57.02110   35.81610   98.77910
 3725.50000   57.95240   37.17850  102.04260
 3726.00000   58.35950   31.92760  102.43950
 3726.50000   57.73200   25.69580  101.08450
 3727.00000   56.53090   19.41390   98.77180
 3727.50000   56.16220   15.40230   97.24390
 3728.00000   56.15790   16.07510   99.82230
 3728.50000   56.33430   19.17430  107.69660
 3729.00000   56.75930   22.91560  117.64290
 3729.50000   57.85910   27.63730  124.04280
 3730.00000   58.58320   32.10940  125.10770
 3730.50000   56.87790   35.08030  126.62470
 3731.00000   54.70810   37.07660  127.10650
 3731.50000   55.32380   37.70780  127.24840
 3732.00000   56.07180   37.46500  127.25220
 3732.50000   56.55840   36.90990  126.44790
 3733.00000   58.94710   37.62420  124.79590
 3733.50000   64.46360   38.87050  122.60880
 3734.00000   68.39470   38.18290  120.59260
 3734.50000   68.58930   36.57510  119.31260
 3735.00000   67.89430   34.68980  118.76800
 3735.50000   66.83880   32.65760  118.32470
 3736.00000   65.71530   30.08000  117.27780
 3736.50000   64.29430   26.26790  115.14890
 3737.00000   62.97380   21.46240  111.60020
 3737.50000   64.08490   18.20810  112.67450
 3738.00000   63.67040   16.65390  112.67450
 3738.50000   61.48080   16.15630  109.78540
 3739.00000   59.92060   16.79250  107.16920
 3739.50000   59.28760   16.43220  107.84980
 3740.00000   60.44010   16.90890  111.75690
 3740.50000   62.37190   18.58800  117.02450
 3741.00000   63.74570   22.02880  119.58300
 3741.50000   61.84390   26.53580  118.16080
 3742.00000   62.69070   29.66780  119.26860
 3742.50000   65.91990   29.40950  125.31400
 3743.00000   66.46570   26.91270  130.53250
 3743.50000   64.83020   25.51130  128.41570
 3744.00000   63.65520   25.80900  125.03590
 3744.50000   62.77550   26.27860  121.17030
 3745.00000   62.00270   27.22580  117.24260
 3745.50000   61.49100   29.26090  113.35980
 3746.00000   61.16020   31.57570  110.69980
 3746.50000   61.38530   33.50670  110.06450
 3747.00000   62.11290   33.71130  109.81850
 3747.50000   61.93700   32.96370  109.84960
 3748.00000   59.63030   32.48300  110.13280
 3748.50000   57.42110   32.77520  110.27730
 3749.00000   56.48480   34.84350  109.53660
 3749.50000   56.19660   38.91270  107.50300
 3750.00000   56.12240   41.33420  105.17750
 3750.50000   56.13700   42.34580  105.53580
 3751.00000   56.13150   42.28810  108.27440
 3751.50000   56.12610   42.52490  112.99040
 3752.00000   56.12060   42.65220  119.69760
 3752.50000   56.12560   42.51500  124.23500
 3753.00000   56.12590   41.23200  125.04420
 3753.50000   56.12410   38.73630  121.43010
 3754.00000   56.11880   34.37760  114.62980
 3754.50000   56.11610   28.93750  109.19170
 3755.00000   56.11700   24.90920  105.73560
 3755.50000   56.11680   21.87590  106.11390
 3756.00000   56.11890   18.95000  109.95890
 3756.50000   56.11720   15.51840  117.72120
 3757.00000   56.10540   13.81150  123.34580
 3757.50000   56.09910   13.12370  126.40180
 3758.00000   56.08190   12.84680  125.71550
 3758.50000   55.93030   12.82170  124.22230
 3759.00000   55.69410   13.42900  123.29980
 3759.50000   55.81870   13.65230  123.21270
 3760.00000   56.20440   13.28460  123.22600
 3760.50000   56.72730   12.73700  123.22320
 3761.00000   57.04590   12.68300  123.28210
 3761.50000   57.10530   13.18650  123.37590
