~Version ---------------------------------------------------
VERS.   2.0 : CWLS log ASCII Standard -VERSION 2.0
WRAP.    NO : One line per depth step
DLM . SPACE : Column Data Section Delimiter
~Well ------------------------------------------------------
STRT .F                3495.0 : START DEPTH
STOP .F                6880.0 : STOP DEPTH
STEP .F                   0.5 : STEP
NULL .               -9999.25 : NULL VALUE
COMP .                        : COMPANY
WELL .                        : WELL
FLD  .                        : FIELD
LOC  .                        : LOCATION
PROV .                        : PROVINCE
CNTY .                        : COUNTY
STAT .                        : STATE
CTRY .                        : COUNTRY
SRVC .                        : SERVICE COMPANY
DATE .                        : DATE
UWI  .                        : UNIQUE WELL ID
API  .                        : API NUMBER
SLAT .WGS84 1.678958417317098 : SURFACE LATITUDE
SLON .WGS84 6.390538637896995 : SURFACE LONGITUDE
DATUM.F               2661.54 : DEPTH DATUM ELEV
~Curve Information -----------------------------------------
DEPT.F     : 1 MEASURED DEPTH
DTCO.US/F  : DELTA-T COMPRESSIONAL
GRS .GAPI  : GAMMA RAY FROM SONIC LOG
DTSM.US/F  : DELTA-T SHEAR
~Params ----------------------------------------------------
~Other -----------------------------------------------------
~ASCII -----------------------------------------------------
# ...
 6610.00000   76.17670   71.53280  125.88180
 6610.50000   76.87900   79.46770  128.59190
 6611.00000   79.07710   84.38920  131.28020
 6611.50000   80.96750   84.36330  131.88990
 6612.00000   80.02130   78.00320  130.09330
 6612.50000   77.53100   67.67380  125.77660
 6613.00000   73.81030   57.48150  120.45620
 6613.50000   70.32080   52.77330  117.33630
 6614.00000   68.35040   54.85600  117.34270
 6614.50000   68.05970   60.86930  118.01500
 6615.00000   69.51720   64.43490  119.81970
 6615.50000   72.55800   66.44640  122.53220
 6616.00000   74.89100   68.49630  125.65810
 6616.50000   76.45900   71.48420  128.43620
 6617.00000   77.69800   76.33570  131.33990
 6617.50000   78.68700   80.54120  133.97190
 6618.00000   79.63330   81.56830  136.03910
 6618.50000   79.87520   80.63700  136.53100
 6619.00000   79.23410   78.51610  136.45490
 6619.50000   78.20150   75.95370  135.27640
 6620.00000   77.03270   73.36160  133.83320
 6620.50000   75.83530   72.30760  132.49620
 6621.00000   75.84790   74.80050  132.20910
 6621.50000   77.40760   79.75490  132.99830
 6622.00000   79.11740   83.87830  133.78760
 6622.50000   79.62950   85.99930  134.34890
 6623.00000   79.86980   86.55340  134.73300
 6623.50000   80.05740   85.35980  134.14500
 6624.00000   79.68050   83.53530  131.79440
 6624.50000   78.61330   80.65510  129.82830
 6625.00000   77.12280   75.76090  127.86220
 6625.50000   75.41880   70.08390  125.06480
 6626.00000   73.38810   66.23690  121.89780
 6626.50000   71.54430   65.85780  120.86340
 6627.00000   71.10170   68.89210  121.78840
 6627.50000   72.18570   73.00640  124.15040
 6628.00000   75.13730   77.82180  128.86690
 6628.50000   78.10400   83.09730  132.56960
 6629.00000   79.83750   84.89420  134.94010
 6629.50000   80.11200   83.82630  134.81050
 6630.00000   80.11450   81.26620  134.48490
 6630.50000   80.14260   79.17750  134.15930
 6631.00000   80.32740   78.20090  133.83360
 6631.50000   80.54230   77.62510  133.34840
 6632.00000   80.41790   77.30880  132.56370
 6632.50000   80.14790   76.93990  131.77900
 6633.00000   79.52110   75.79940  130.96290
 6633.50000   78.16570   74.35510  129.92170
 6634.00000   77.24760   74.69000  128.85560
 6634.50000   77.11380   77.89120  129.49130
 6635.00000   77.31080   80.25920  131.55820
 6635.50000   78.09200   80.33970  133.97540
 6636.00000   79.36390   80.27430  136.42150
 6636.50000   80.20340   79.88250  136.83160
 6637.00000   80.55690   78.53260  137.24180
 6637.50000   80.42100   75.39330  136.81110
 6638.00000   79.79900   73.16860  136.13500
 6638.50000   78.96220   71.73500  135.45900
 6639.00000   78.66810   71.39720  135.17560
 6639.50000   78.79130   72.38130  135.28940
 6640.00000   79.43020   74.66660  135.59650
 6640.50000   80.20970   79.08940  136.03620
 6641.00000   80.97960   83.19180  136.47600
 6641.50000   81.68460   86.65630  136.22880
 6642.00000   81.87930   88.44710  135.61870
 6642.50000   81.86280   89.02610  135.00870
 6643.00000   81.45730   89.39820  134.43460
 6643.50000   81.18490   90.01590  134.25920
 6644.00000   81.11000   88.96470  134.10420
 6644.50000   80.93650   84.29170  133.87180
 6645.00000   80.44250   76.98420  133.11510
 6645.50000   79.75990   70.04680  132.21420
 6646.00000   78.63200   67.75290  131.66310
 6646.50000   77.50880   71.04610  131.29580
 6647.00000   77.34720   76.26300  131.18280
 6647.50000   77.90470   80.24210  131.75310
 6648.00000   78.89240   82.33930  132.56200
 6648.50000   79.66050   83.84980  133.89680
 6649.00000   80.22530   84.43980  134.86790
 6649.50000   80.52430   83.99020  134.86790
 6650.00000   80.37890   82.94540  135.24000
 6650.50000   80.18810   81.74930  136.42500
 6651.00000   79.92730   80.77050  138.00900
 6651.50000   79.72950   79.22600  138.38930
 6652.00000   79.86650   76.77930  138.46840
 6652.50000   80.79790   75.56560  138.50840
 6653.00000   82.44420   76.96800  138.41160
 6653.50000   83.14690   79.98340  138.31480
 6654.00000   82.87600   82.47500  137.43030
 6654.50000   82.00310   82.71490  135.90380
 6655.00000   80.56070   80.65300  134.37690
 6655.50000   79.76860   79.08600  132.74100
 6656.00000   79.66410   79.76930  131.38610
 6656.50000   79.67850   81.23000  130.03700
 6657.00000   79.84880   82.58620  129.84430
 6657.50000   80.07500   82.74890  131.02700
 6658.00000   80.07190   83.56390  131.56040
 6658.50000   79.74710   84.93670  129.95450
 6659.00000   78.12750   85.59000  128.45940
 6659.50000   76.17620   84.05500  127.54060
 6660.00000   74.96620   79.76820  126.62180
 6660.50000   74.61040   76.26490  125.70300
 6661.00000   74.40690   76.34550  125.05340
 6661.50000   74.17340   79.30340  125.22270
 6662.00000   74.27890   80.92160  125.91610
 6662.50000   75.38800   80.79910  126.60130
 6663.00000   77.11710   82.39960  127.50930
 6663.50000   78.61330   85.71740  128.78290
 6664.00000   79.36550   88.68180  130.04020
 6664.50000   79.77610   88.77950  129.65260
 6665.00000   79.65720   87.22070  129.37260
 6665.50000   78.51090   85.13390  129.31070
 6666.00000   77.79990   82.23460  129.24880
 6666.50000   77.84410   79.97120  129.18700
 6667.00000   78.22880   79.28730  129.16150
 6667.50000   78.12040   79.78060  129.64840
 6668.00000   76.19770   78.54160  132.75660
 6668.50000   73.79440   72.86840  138.87610
 6669.00000   71.49180   65.09130  142.09720
 6669.50000   70.18450   62.26190  141.22900
 6670.00000   70.04740   64.40590  136.96340
 6670.50000   71.96970   70.31640  132.58830
 6671.00000   75.10860   76.94000  129.38440
 6671.50000   76.82070   82.94780  129.34990
 6672.00000   77.03800   86.46650  128.99990
 6672.50000   76.57820   87.13310  127.42560
 6673.00000   75.70570   84.51620  124.59010
 6673.50000   74.50110   78.07740  121.85690
 6674.00000   72.99240   71.51630  120.56060
 6674.50000   71.23290   66.61680  120.81080
 6675.00000   70.37650   64.92980  121.82700
 6675.50000   70.08540   65.10610  123.10330
 6676.00000   70.31390   67.41240  124.33060
 6676.50000   71.85690   70.66080  124.57470
 6677.00000   73.39330   73.90920  124.76980
 6677.50000   74.46260   77.75580  124.61880
 6678.00000   74.90760   80.41040  124.04510
 6678.50000   75.31230   79.75610  123.17640
 6679.00000   73.76590   75.83550  122.30770
 6679.50000   71.70310   72.13650  121.79140
 6680.00000   70.97470   68.88580  121.93760
 6680.50000   71.26960   67.39260  123.42160
 6681.00000   71.98080   67.22190  123.87050
 6681.50000   72.93520   68.48630  124.04750
 6682.00000   73.66350   71.05700  124.13090
 6682.50000   74.25410   74.73960  123.87660
 6683.00000   75.17640   78.27970  123.70680
 6683.50000   75.73870   81.38160  123.93320
 6684.00000   75.17430   80.14980  124.10060
 6684.50000   74.90460   77.36750  124.10060
 6685.00000   75.06440   76.45710  124.10060
 6685.50000   75.09750   78.27670  124.00570
 6686.00000   74.88000   79.65410  123.66550
 6686.50000   74.40140   80.44210  122.54590
 6687.00000   74.13290   78.54820  121.42640
 6687.50000   73.89340   75.30350  120.36650
 6688.00000   73.09480   72.19810  119.85820
 6688.50000   71.90950   68.79160  119.34970
 6689.00000   71.68140   66.85400  119.84700
 6689.50000   72.33900   67.81020  121.41240
 6690.00000   73.11960   73.95910  123.74740
 6690.50000   74.09120   80.30140  126.41320
 6691.00000   75.47590   84.18880  128.88530
 6691.50000   76.37230   83.45310  130.05830
 6692.00000   76.64200   79.86680  131.22270
 6692.50000   76.63270   75.66980  131.39310
 6693.00000   76.45300   74.14170  129.69710
 6693.50000   76.00040   74.06020  127.41970
 6694.00000   75.49110   73.48600  125.43940
 6694.50000   74.81410   72.14170  123.31380
 6695.00000   73.58460   70.52890  121.14440
 6695.50000   71.94590   69.19600  118.97500
 6696.00000   70.83540   68.16010  118.61060
 6696.50000   70.29060   67.31070  119.92350
 6697.00000   69.25960   66.94240  121.57200
 6697.50000   68.20680   65.62220  123.26740
 6698.00000   68.49100   63.23400  124.54390
 6698.50000   70.16870   61.85170  125.34170
