~Version ---------------------------------------------------
VERS.   2.0 : CWLS log ASCII Standard -VERSION 2.0
WRAP.    NO : One line per depth step
DLM . SPACE : Column Data Section Delimiter
~Well ------------------------------------------------------
STRT .F                3495.0 : START DEPTH
STOP .F                6880.0 : STOP DEPTH
STEP .F                   0.5 : STEP
NULL .               -9999.25 : NULL VALUE
COMP .                        : COMPANY
WELL .                        : WELL
FLD  .                        : FIELD
LOC  .                        : LOCATION
PROV .                        : PROVINCE
CNTY .                        : COUNTY
STAT .                        : STATE
CTRY .                        : COUNTRY
SRVC .                        : SERVICE COMPANY
DATE .                        : DATE
UWI  .                        : UNIQUE WELL ID
API  .                        : API NUMBER
SLAT .WGS84 1.678958417317098 : SURFACE LATITUDE
SLON .WGS84 6.390538637896995 : SURFACE LONGITUDE
DATUM.F               2661.54 : DEPTH DATUM ELEV
~Curve Information -----------------------------------------
DEPT.F     : 1 MEASURED DEPTH
DTCO.US/F  : DELTA-T COMPRESSIONAL
GRS .GAPI  : GAMMA RAY FROM SONIC LOG
DTSM.US/F  : DELTA-T SHEAR
~Params ----------------------------------------------------
~Other -----------------------------------------------------
~ASCII -----------------------------------------------------
# ...
 6165.00000   82.87740  120.49880  142.55610
 6165.50000   82.72050  112.86610  143.07010
 6166.00000   82.95630  104.18050  143.68560
 6166.50000   83.43880  100.07150  144.77280
 6167.00000   84.23200  105.45710  146.55050
 6167.50000   84.41500  110.41380  148.32830
 6168.00000   84.64580  104.40410  148.91500
 6168.50000   84.78450   96.27670  147.85360
 6169.00000   83.71750   87.39390  146.21710
 6169.50000   82.58750   82.06750  143.57610
 6170.00000   82.23090   81.59270  142.60740
 6170.50000   82.36950   85.58420  143.72010
 6171.00000   82.90260   91.73670  145.96150
 6171.50000   84.08900   96.00400  147.74850
 6172.00000   84.62750   94.61480  147.65920
 6172.50000   83.98240   89.50310  147.40080
 6173.00000   82.95880   84.21780  146.89010
 6173.50000   82.66400   82.01160  146.25410
 6174.00000   82.55280   85.26690  145.61800
 6174.50000   82.18270   92.40170  144.28370
 6175.00000   81.74440   98.61940  142.90590
 6175.50000   81.95300  100.89970  142.16830
 6176.00000   82.60690   99.60260  142.29750
 6176.50000   82.82800   97.14640  141.77860
 6177.00000   82.13970   95.52370  141.09100
 6177.50000   81.26720   95.39630  140.53450
 6178.00000   80.47620   93.01450  139.97810
 6178.50000   80.20890   92.42580  139.72920
 6179.00000   80.73900   94.98770  139.69390
 6179.50000   81.60900   98.12590  139.27850
 6180.00000   81.94720   99.63090  138.86320
 6180.50000   82.03750   98.79150  139.12740
 6181.00000   82.04030   98.90240  139.39970
 6181.50000   82.06510  103.42510  139.98450
 6182.00000   82.34650  107.61620  141.38990
 6182.50000   82.97190  108.28570  142.96630
 6183.00000   83.97310  107.98970  142.86810
 6183.50000   84.76250  110.67130  141.44240
 6184.00000   84.77970  109.50900  139.27370
 6184.50000   83.89320   94.03310  138.84990
 6185.00000   80.92810   78.55710  138.64270
 6185.50000   75.69890   55.97920  128.33040
 6186.00000   69.78590   39.04990  114.65060
 6186.50000   61.11690   29.51200  104.04980
 6187.00000   55.95860   25.41790   98.70570
 6187.50000   53.56260   24.87030   97.04750
 6188.00000   53.53960   29.03390   99.21640
 6188.50000   55.56520   40.42800  104.15140
 6189.00000   59.01860   63.14490  111.22910
 6189.50000   62.72280   84.92370  121.24710
 6190.00000   67.25610   92.95470  129.98340
 6190.50000   72.52650   86.90140  133.38840
 6191.00000   75.52770   75.85630  133.46180
 6191.50000   77.01420   71.07680  133.80840
 6192.00000   79.24550   73.79070  136.36090
 6192.50000   81.71300   79.98740  139.25430
 6193.00000   83.67750   84.75910  142.12320
 6193.50000   84.63870   85.35060  143.45730
 6194.00000   84.57300   83.58830  142.84160
 6194.50000   83.77610   82.22760  141.62910
 6195.00000   82.82520   81.73290  140.41660
 6195.50000   81.87420   80.49140  140.39870
 6196.00000   81.64460   79.61430  140.53960
 6196.50000   82.33250   81.34640  140.72700
 6197.00000   82.61840   85.34640  140.91450
 6197.50000   82.79180   90.85300  142.36360
 6198.00000   82.88730   94.02910  143.96600
 6198.50000   82.47950   95.81890  144.32580
 6199.00000   80.99430   94.59780  144.20190
 6199.50000   79.54900   90.00210  143.75220
 6200.00000   80.08520   82.60360  144.11870
 6200.50000   81.11970   78.87340  144.21600
 6201.00000   81.55450   82.34360  142.35470
 6201.50000   81.58720   86.39150  139.08910
 6202.00000   81.52470   85.32780  137.32060
 6202.50000   80.36900   78.23640  137.44640
 6203.00000   78.72050   71.58880  135.95620
 6203.50000   78.38670   68.79610  136.28380
 6204.00000   79.98500   72.70220  138.42730
 6204.50000   82.06350   80.27020  141.32910
 6205.00000   82.96080   87.21200  143.10340
 6205.50000   83.78760   89.69660  144.33290
 6206.00000   85.12580   91.17590  144.14960
 6206.50000   85.52750   92.00900  143.81630
 6207.00000   84.94910   90.75550  142.75810
 6207.50000   84.89720   88.92290  141.45830
 6208.00000   84.75930   90.51060  140.60700
 6208.50000   84.16000   94.47680  141.04740
 6209.00000   83.39270   94.08280  141.03180
 6209.50000   83.03150   90.42980  140.60310
 6210.00000   82.54810   86.12020  139.47540
 6210.50000   81.52760   83.60530  138.12110
 6211.00000   79.95220   79.98890  136.76670
 6211.50000   78.28070   75.68960  135.41240
 6212.00000   78.22260   73.75840  135.85930
 6212.50000   79.55420   76.29750  138.02540
 6213.00000   81.50960   82.27580  141.61280
 6213.50000   83.74210   87.45570  144.19530
 6214.00000   85.33350   88.01870  144.35190
 6214.50000   85.78240   86.51370  143.28440
 6215.00000   85.68340   84.87300  142.10400
 6215.50000   85.79350   86.07040  141.10280
 6216.00000   85.39730   88.45060  140.12070
 6216.50000   84.22570   89.92760  138.95660
 6217.00000   82.88430   89.86460  137.79260
 6217.50000   81.81470   87.46360  136.67100
 6218.00000   81.24070   84.91500  136.60830
 6218.50000   81.50470   84.18970  137.84430
 6219.00000   82.36630   88.05280  139.53040
 6219.50000   83.12530   93.89640  142.42490
 6220.00000   84.11890   94.64950  142.64510
 6220.50000   85.10270   90.86600  141.56810
 6221.00000   85.07430   88.64100  142.03320
 6221.50000   84.28320   92.52930  142.49840
 6222.00000   84.00400   99.60970  142.74570
 6222.50000   84.49580  101.58610  142.99130
 6223.00000   84.56510   97.07160  142.60860
 6223.50000   83.05010   87.39890  139.97080
 6224.00000   80.24510   75.05060  136.47720
 6224.50000   76.21890   59.85470  129.86140
 6225.00000   71.01970   47.03880  121.76670
 6225.50000   65.64610   39.21250  121.04150
 6226.00000   62.63090   43.08450  126.10710
 6226.50000   65.53800   55.81810  140.01320
 6227.00000   70.34320   73.43980  150.83530
 6227.50000   77.60060   88.88550  154.56060
 6228.00000   82.74970   99.02910  151.61100
 6228.50000   85.36430   98.91050  147.20700
 6229.00000   85.34230   94.63690  144.50920
 6229.50000   84.06590   88.45090  142.48610
 6230.00000   83.70820   86.37410  141.13100
 6230.50000   84.23650   87.81080  140.74050
 6231.00000   84.57820   89.78600  140.84410
 6231.50000   84.64440   89.45520  141.41500
 6232.00000   84.84630   86.76520  142.78890
 6232.50000   85.12910   84.22020  144.16280
 6233.00000   84.70740   82.51190  144.51050
 6233.50000   84.05690   82.44540  144.23520
 6234.00000   83.95300   83.94860  143.87250
 6234.50000   84.65470   88.10140  145.32040
 6235.00000   86.02120   97.43980  148.62810
 6235.50000   87.46680  105.74650  150.75550
 6236.00000   88.96480  113.15270  150.54670
 6236.50000   89.84160  113.03110  150.37540
 6237.00000   89.46990  105.18200  151.34920
 6237.50000   88.20970   98.13050  148.02190
 6238.00000   86.79220   88.19980  143.45700
 6238.50000   85.33460   81.53500  140.49590
 6239.00000   83.83130   79.35500  137.79210
 6239.50000   82.25980   77.89980  136.08370
 6240.00000   81.53470   76.39600  135.90310
 6240.50000   81.75250   75.70340  136.14420
 6241.00000   82.29730   77.29690  137.34330
 6241.50000   82.77770   79.83630  139.21940
 6242.00000   83.72430   82.29270  141.08560
 6242.50000   84.48490   84.69320  142.00020
 6243.00000   84.15270   87.16390  140.88350
 6243.50000   83.38030   88.10260  139.25520
 6244.00000   82.63700   84.23960  137.89010
 6244.50000   81.70440   78.37070  136.27760
 6245.00000   80.76920   73.88410  135.77740
 6245.50000   80.91820   72.80370  136.27810
 6246.00000   81.95060   75.26670  137.48940
 6246.50000   82.56130   78.39180  138.88940
 6247.00000   82.89240   79.67890  140.28940
 6247.50000   83.06100   79.63450  140.97110
 6248.00000   83.09820   79.72450  141.06350
 6248.50000   83.47380   80.12520  140.80190
 6249.00000   83.98300   80.57440  140.12050
 6249.50000   83.67900   81.13150  139.43920
 6250.00000   83.60350   80.45630  139.52470
 6250.50000   83.89240   78.92770  140.28960
 6251.00000   83.44530   77.02930  141.12040
 6251.50000   83.14700   78.81470  142.40890
 6252.00000   83.65220   83.93930  143.31020
 6252.50000   83.39770   86.74870  144.18870
 6253.00000   81.63490   80.90740  143.01190
 6253.50000   79.74970   72.48230  140.10400
