~Version ---------------------------------------------------
VERS.   2.0 : CWLS log ASCII Standard -VERSION 2.0
WRAP.    NO : One line per depth step
DLM . SPACE : Column Data Section Delimiter
~Well ------------------------------------------------------
STRT .F                3495.0 : START DEPTH
STOP .F                6880.0 : STOP DEPTH
STEP .F                   0.5 : STEP
NULL .               -9999.25 : NULL VALUE
COMP .                        : COMPANY
WELL .                        : WELL
FLD  .                        : FIELD
LOC  .                        : LOCATION
PROV .                        : PROVINCE
CNTY .                        : COUNTY
STAT .                        : STATE
CTRY .                        : COUNTRY
SRVC .                        : SERVICE COMPANY
DATE .                        : DATE
UWI  .                        : UNIQUE WELL ID
API  .                        : API NUMBER
SLAT .WGS84 1.678958417317098 : SURFACE LATITUDE
SLON .WGS84 6.390538637896995 : SURFACE LONGITUDE
DATUM.F               2661.54 : DEPTH DATUM ELEV
~Curve Information -----------------------------------------
DEPT.F     : 1 MEASURED DEPTH
DTCO.US/F  : DELTA-T COMPRESSIONAL
GRS .GAPI  : GAMMA RAY FROM SONIC LOG
DTSM.US/F  : DELTA-T SHEAR
~Params ----------------------------------------------------
~Other -----------------------------------------------------
~ASCII -----------------------------------------------------
# ...
 6076.00000   81.55600   72.07520  137.03060
 6076.50000   81.22330   74.16210  137.35070
 6077.00000   81.36660   77.42760  137.30580
 6077.50000   81.54240   78.90420  137.35400
 6078.00000   81.22340   78.75800  137.21320
 6078.50000   80.32510   78.32700  136.79190
 6079.00000   79.15740   77.15980  135.07990
 6079.50000   78.45010   73.84400  133.80580
 6080.00000   78.41720   70.71360  133.91470
 6080.50000   79.18110   71.72850  135.16310
 6081.00000   80.38320   75.35390  137.41570
 6081.50000   81.40810   78.75260  139.88530
 6082.00000   82.43650   79.70710  140.29100
 6082.50000   82.94660   79.24170  140.21000
 6083.00000   82.85120   77.61350  140.20440
 6083.50000   82.19850   75.38440  140.13840
 6084.00000   81.24090   71.07820  139.61300
 6084.50000   79.65410   65.37650  139.22420
 6085.00000   78.71520   61.02000  138.86050
 6085.50000   78.62000   63.07790  138.49670
 6086.00000   78.65130   67.48850  138.14840
 6086.50000   78.81660   70.16750  137.80500
 6087.00000   79.06820   68.81770  137.46150
 6087.50000   79.34780   66.62410  137.33160
 6088.00000   79.85590   67.55350  137.50120
 6088.50000   80.88560   71.99590  138.17050
 6089.00000   82.04120   77.15680  139.45770
 6089.50000   83.25790   80.07020  141.59320
 6090.00000   84.32960   81.35460  143.97100
 6090.50000   85.01720   82.05170  144.82290
 6091.00000   85.09190   82.58030  144.51290
 6091.50000   84.84310   83.06900  144.12120
 6092.00000   84.29400   83.86370  143.37930
 6092.50000   83.95060   83.82220  143.14450
 6093.00000   84.70140   82.53920  144.71330
 6093.50000   85.46970   81.51460  146.28210
 6094.00000   85.60890   83.04230  147.26500
 6094.50000   85.63030   84.95290  146.69240
 6095.00000   85.62720   86.78300  145.52760
 6095.50000   85.58320   90.19790  144.13440
 6096.00000   85.37140   92.36150  143.01990
 6096.50000   85.13550   89.29920  143.15330
 6097.00000   84.68750   82.83120  143.28660
 6097.50000   84.22200   79.51050  143.42000
 6098.00000   84.45330   83.53700  144.58940
 6098.50000   84.97050   88.71400  146.26100
 6099.00000   84.69770   88.90780  146.26350
 6099.50000   83.77750   84.54060  144.03810
 6100.00000   82.79830   78.84560  141.78530
 6100.50000   81.66310   73.94280  139.53570
 6101.00000   80.61450   71.10110  137.38980
 6101.50000   79.57540   68.89290  135.26720
 6102.00000   77.77160   65.28020  134.33830
 6102.50000   75.07440   58.30320  136.99290
 6103.00000   71.03570   47.19210  133.52610
 6103.50000   64.26840   35.53610  123.35830
 6104.00000   56.43010   28.06220  105.77440
 6104.50000   52.64900   24.24100   97.06290
 6105.00000   54.44000   28.38050   98.56950
 6105.50000   59.65290   41.35170  109.34870
 6106.00000   66.10010   58.27180  119.15390
 6106.50000   71.13780   71.07870  130.69210
 6107.00000   75.02570   81.31140  133.29860
 6107.50000   78.31900   85.89450  135.71340
 6108.00000   79.39950   86.03010  137.59890
 6108.50000   79.22900   84.25270  138.97420
 6109.00000   79.95950   80.88140  140.41500
 6109.50000   81.60660   77.65780  142.83830
 6110.00000   82.90140   78.09670  147.22170
 6110.50000   84.18670   85.44250  150.29390
 6111.00000   85.33840   97.30650  152.50670
 6111.50000   86.16880  103.87300  154.27210
 6112.00000   86.74210   97.89500  155.96840
 6112.50000   87.03770   91.91700  156.59540
 6113.00000   86.85280   83.33850  155.76650
 6113.50000   85.76620   78.37080  154.01340
 6114.00000   84.82480   75.33040  152.88060
 6114.50000   84.57760   73.29020  151.74770
 6115.00000   84.79470   72.34450  150.68940
 6115.50000   84.66090   72.24870  149.92000
 6116.00000   85.04290   73.16000  149.15070
 6116.50000   85.46590   76.77500  148.38130
 6117.00000   85.37680   83.55710  147.31100
 6117.50000   84.69830   88.33300  144.83920
 6118.00000   83.23150   85.92010  142.36740
 6118.50000   81.61400   78.32290  139.64040
 6119.00000   79.91980   73.37080  136.41760
 6119.50000   78.19140   73.54100  135.53150
 6120.00000   77.30750   76.40740  134.74320
 6120.50000   77.12040   78.48600  134.27320
 6121.00000   77.33850   77.75440  134.48880
 6121.50000   77.93010   75.20240  135.38450
 6122.00000   78.30600   73.96730  134.86970
 6122.50000   78.38410   74.80720  134.35490
 6123.00000   79.66470   77.53510  136.58540
 6123.50000   81.33750   81.59040  139.11950
 6124.00000   82.11870   86.32540  140.35920
 6124.50000   81.29790   88.77880  138.67730
 6125.00000   79.68490   87.56040  136.85910
 6125.50000   79.81350   83.73570  135.60070
 6126.00000   80.36060   79.76790  138.01620
 6126.50000   80.63570   81.23880  139.28750
 6127.00000   80.89210   86.22570  138.87460
 6127.50000   80.88520   91.74990  138.40390
 6128.00000   80.68920   92.60180  138.02570
 6128.50000   80.61780   89.38260  138.36570
 6129.00000   80.66720   88.57000  139.25270
 6129.50000   80.92170   91.57490  142.31200
 6130.00000   82.45840   93.47460  148.26080
 6130.50000   84.73640   91.69340  154.29850
 6131.00000   86.56940   89.05600  155.36160
 6131.50000   86.64340   89.54040  154.23140
 6132.00000   85.30740   90.47820  149.82520
 6132.50000   83.15060   87.05170  144.00610
 6133.00000   80.81010   79.53640  138.08270
 6133.50000   78.37750   70.69600  132.89610
 6134.00000   74.43250   57.50480  126.39480
 6134.50000   73.59760   42.13800  122.89650
 6135.00000   77.63430   26.65820  129.21450
 6135.50000   73.64560   19.31760  129.71170
 6136.00000   61.94570   17.12310  112.72760
 6136.50000   55.50210   20.31670  102.28080
 6137.00000   56.64840   31.05260  101.71240
 6137.50000   63.15980   48.23310  108.84270
 6138.00000   70.15140   68.84190  123.31230
 6138.50000   76.00490   81.27730  134.78850
 6139.00000   80.06500   85.21170  141.56590
 6139.50000   82.24300   82.23960  142.61450
 6140.00000   82.86670   79.79080  142.18250
 6140.50000   82.87790   81.01270  140.94320
 6141.00000   82.22430   83.52310  139.77030
 6141.50000   81.51920   83.24550  138.61980
 6142.00000   80.61820   79.07450  137.52330
 6142.50000   78.47990   72.92960  134.51060
 6143.00000   75.94480   66.37310  129.21560
 6143.50000   73.22480   59.76430  124.18280
 6144.00000   72.37720   58.24200  123.27170
 6144.50000   73.16510   62.40840  124.22480
 6145.00000   75.93000   73.44790  128.83810
 6145.50000   79.37920   85.44220  136.02810
 6146.00000   82.83330   96.03770  142.38850
 6146.50000   85.17790  103.17920  143.18760
 6147.00000   85.99380  104.48250  142.61870
 6147.50000   85.87320   99.42140  143.26810
 6148.00000   85.12730   94.36040  142.48920
 6148.50000   84.06020   92.78040  141.05430
 6149.00000   82.33150   95.96890  139.35500
 6149.50000   81.18060   98.86340  138.48950
 6150.00000   80.91420  101.21640  138.95870
 6150.50000   80.90680  106.93860  139.10280
 6151.00000   80.43810  114.88360  138.05240
 6151.50000   80.19300  116.23260  137.37300
 6152.00000   80.38270  107.81540  136.93480
 6152.50000   80.80340   93.32260  138.24060
 6153.00000   81.28350   93.16530  138.81930
 6153.50000   81.77060  108.16500  139.86550
 6154.00000   81.99690  123.15690  141.01790
 6154.50000   82.09230  129.93060  141.27840
 6155.00000   82.05060  115.80210  141.10880
 6155.50000   81.57520   96.86570  139.91060
 6156.00000   79.53740   84.42790  137.28930
 6156.50000   76.69470   77.58380  132.69120
 6157.00000   73.85200   70.08810  125.17360
 6157.50000   71.28670   60.71510  120.78500
 6158.00000   69.81820   55.21360  120.37400
 6158.50000   70.09860   58.83560  120.87490
 6159.00000   71.74360   71.53180  122.71920
 6159.50000   74.24670   86.03820  126.69500
 6160.00000   77.94450   98.46630  131.93410
 6160.50000   81.12290  105.13740  135.68480
 6161.00000   82.38930  110.44350  137.25400
 6161.50000   81.61170  110.27840  137.28310
 6162.00000   80.79830  103.50580  137.26010
 6162.50000   80.61270   97.56300  137.05860
 6163.00000   80.42240   94.19050  137.00600
 6163.50000   80.85990   96.13200  138.20340
 6164.00000   82.09520  106.61530  141.02640
 6164.50000   82.94540  114.40240  142.16750
