~Version ---------------------------------------------------
VERS.   2.0 : CWLS log ASCII Standard -VERSION 2.0
WRAP.    NO : One line per depth step
DLM . SPACE : Column Data Section Delimiter
~Well ------------------------------------------------------
STRT .F                3495.0 : START DEPTH
STOP .F                6880.0 : STOP DEPTH
STEP .F                   0.5 : STEP
NULL .               -9999.25 : NULL VALUE
COMP .                        : COMPANY
WELL .                        : WELL
FLD  .                        : FIELD
LOC  .                        : LOCATION
PROV .                        : PROVINCE
CNTY .                        : COUNTY
STAT .                        : STATE
CTRY .                        : COUNTRY
SRVC .                        : SERVICE COMPANY
DATE .                        : DATE
UWI  .                        : UNIQUE WELL ID
API  .                        : API NUMBER
SLAT .WGS84 1.678958417317098 : SURFACE LATITUDE
SLON .WGS84 6.390538637896995 : SURFACE LONGITUDE
DATUM.F               2661.54 : DEPTH DATUM ELEV
~Curve Information -----------------------------------------
DEPT.F     : 1 MEASURED DEPTH
DTCO.US/F  : DELTA-T COMPRESSIONAL
GRS .GAPI  : GAMMA RAY FROM SONIC LOG
DTSM.US/F  : DELTA-T SHEAR
~Params ----------------------------------------------------
~Other -----------------------------------------------------
~ASCII -----------------------------------------------------
# ...
 6343.00000   87.02050   81.21230  141.45820
 6343.50000   86.20650   80.24690  141.99480
 6344.00000   86.31100   80.80900  142.39640
 6344.50000   87.28270   81.56340  143.28160
 6345.00000   88.31380   82.15950  145.47400
 6345.50000   88.62940   83.26710  146.31980
 6346.00000   88.71020   84.38470  146.78630
 6346.50000   88.88570   84.44070  146.40820
 6347.00000   89.09380   82.34120  144.59910
 6347.50000   88.72260   82.01750  146.58610
 6348.00000   88.86140   86.78130  147.57980
 6348.50000   89.19560   91.76590  148.70530
 6349.00000   88.54850   95.00340  147.68640
 6349.50000   87.43530   94.80700  145.67720
 6350.00000   86.57460   93.00080  144.63400
 6350.50000   85.97140   89.63130  143.99750
 6351.00000   85.69950   86.20960  144.69030
 6351.50000   85.92840   82.64850  146.25640
 6352.00000   86.43240   80.77170  147.79000
 6352.50000   86.93600   81.13440  148.16960
 6353.00000   87.77680   82.61150  147.92790
 6353.50000   88.42620   82.81250  146.95330
 6354.00000   87.76010   80.43680  145.12950
 6354.50000   85.58750   76.27220  141.76290
 6355.00000   83.36140   72.81340  139.27910
 6355.50000   81.97540   72.23510  138.42720
 6356.00000   81.37050   74.80240  139.77520
 6356.50000   81.59230   78.62150  141.41470
 6357.00000   82.66500   80.39510  143.50230
 6357.50000   83.77680   81.32990  146.53910
 6358.00000   84.93390   82.96410  150.00700
 6358.50000   86.27860   84.05460  152.91420
 6359.00000   87.62310   83.36260  152.94760
 6359.50000   88.26610   79.57490  151.73300
 6360.00000   88.59610   76.46360  148.89360
 6360.50000   88.60550   75.64570  147.33430
 6361.00000   88.02350   78.03270  146.23020
 6361.50000   87.06050   78.86590  144.90450
 6362.00000   85.96220   77.62960  143.77080
 6362.50000   85.39600   74.82930  142.78880
 6363.00000   84.87310   73.36990  141.70530
 6363.50000   84.21190   72.67110  140.73120
 6364.00000   83.99410   72.80070  140.56790
 6364.50000   84.30020   73.33570  140.55880
 6365.00000   84.79440   75.11100  141.13890
 6365.50000   85.49140   77.03050  141.19000
 6366.00000   85.98990   78.37220  140.87920
 6366.50000   86.05890   78.90540  140.87420
 6367.00000   85.86140   78.63770  140.71770
 6367.50000   85.37780   77.80540  140.47380
 6368.00000   85.18150   76.85870  140.98600
 6368.50000   85.14430   76.82490  141.53440
 6369.00000   85.37380   78.63320  142.45900
 6369.50000   85.77330   79.72910  142.81170
 6370.00000   85.81110   78.26530  141.68890
 6370.50000   84.99080   75.61250  140.56600
 6371.00000   83.81690   74.82460  140.30770
 6371.50000   83.37390   75.47930  140.30270
 6372.00000   83.47920   75.08750  140.30880
 6372.50000   83.79030   73.10100  140.84560
 6373.00000   84.36930   71.92900  141.38240
 6373.50000   85.00970   73.13800  141.91920
 6374.00000   85.11980   73.42030  142.38460
 6374.50000   85.11380   71.90450  142.75120
 6375.00000   84.95450   70.15880  143.11780
 6375.50000   84.83640   71.80020  143.48450
 6376.00000   85.22510   75.34690  143.85110
 6376.50000   85.68460   78.24860  144.02120
 6377.00000   86.16640   77.86790  144.12990
 6377.50000   86.54510   76.33800  144.14130
 6378.00000   86.63210   75.39740  144.13630
 6378.50000   86.97720   74.92860  144.84150
 6379.00000   87.69690   74.25600  145.86810
 6379.50000   88.12010   74.59040  146.06590
 6380.00000   88.34730   77.30150  146.19130
 6380.50000   88.39250   80.91090  146.32760
 6381.00000   88.08700   82.94580  145.76480
 6381.50000   87.56520   82.19320  143.54310
 6382.00000   85.69660   78.13890  141.37520
 6382.50000   82.56760   72.04890  139.03160
 6383.00000   79.22100   64.83610  135.88280
 6383.50000   77.85660   57.68830  133.18490
 6384.00000   78.25670   58.35790  133.65200
 6384.50000   80.56790   63.58640  135.44000
 6385.00000   83.10740   69.97650  140.73740
 6385.50000   85.34910   74.21910  143.66150
 6386.00000   85.92340   76.66800  144.41290
 6386.50000   86.12230   78.31610  144.98720
 6387.00000   86.56380   78.12480  146.45350
 6387.50000   87.44770   76.90530  148.01660
 6388.00000   88.24960   77.32200  149.54120
 6388.50000   88.81320   79.61470  150.05550
 6389.00000   89.28330   82.25040  150.36700
 6389.50000   89.56180   82.13400  150.30570
 6390.00000   89.59310   81.16090  149.83750
 6390.50000   89.58790   79.92360  149.36930
 6391.00000   89.56640   79.58590  148.47880
 6391.50000   88.99970   78.47780  147.38770
 6392.00000   87.46400   75.65770  146.23860
 6392.50000   86.30180   73.04670  146.46050
 6393.00000   86.08760   72.16610  146.61150
 6393.50000   86.07960   73.26950  146.34980
 6394.00000   86.05460   75.23180  146.20380
 6394.50000   85.88680   75.63850  146.19810
 6395.00000   85.47790   74.88720  146.18870
 6395.50000   85.22380   73.42620  146.24570
 6396.00000   85.31110   72.35370  146.47450
 6396.50000   85.66000   72.58450  146.70330
 6397.00000   86.03910   74.18500  146.87080
 6397.50000   86.27260   76.96730  147.32230
 6398.00000   86.79890   78.72860  148.99800
 6398.50000   87.89350   78.52060  150.05700
 6399.00000   88.65590   77.03100  150.23760
 6399.50000   89.22520   76.39220  150.23030
 6400.00000   89.43210   77.35170  150.22310
 6400.50000   89.39080   78.38440  150.10030
 6401.00000   89.16570   79.02820  150.17190
 6401.50000   89.09350   80.43040  150.60330
 6402.00000   88.70710   81.20440  150.59530
 6402.50000   88.45930   80.43760  150.20680
 6403.00000   88.52630   76.91420  149.52030
 6403.50000   87.55190   74.01110  148.49010
 6404.00000   86.45210   73.82360  148.07580
 6404.50000   86.06060   76.10970  148.12850
 6405.00000   85.81760   78.57740  148.25920
 6405.50000   85.67000   79.05800  148.83700
 6406.00000   86.13100   77.64860  149.41480
 6406.50000   86.98370   76.75930  149.99260
 6407.00000   87.26230   77.64720  150.39040
 6407.50000   86.73840   79.62710  151.00610
 6408.00000   86.46820   79.59940  151.74320
 6408.50000   86.99640   77.56720  152.48040
 6409.00000   87.88160   74.95740  154.78970
 6409.50000   87.87050   75.90840  155.36560
 6410.00000   87.51650   79.77820  155.58350
 6410.50000   88.63910   83.57340  158.17700
 6411.00000   90.05470   84.90740  159.65710
 6411.50000   90.48230   85.49740  159.25500
 6412.00000   89.29680   86.70500  158.29750
 6412.50000   86.34750   87.60740  156.89620
 6413.00000   83.28440   86.24510  155.24050
 6413.50000   83.11790   82.26690  152.66160
 6414.00000   82.85760   77.50150  149.54260
 6414.50000   80.37270   72.94500  144.21020
 6415.00000   75.99890   68.48050  138.80780
 6415.50000   72.93230   67.73140  131.51570
 6416.00000   72.83610   69.81530  129.14020
 6416.50000   75.77880   72.72830  128.56970
 6417.00000   79.13680   74.59840  128.28720
 6417.50000   82.32560   76.31500  130.41030
 6418.00000   86.11140   77.39970  136.41170
 6418.50000   89.43980   76.45460  144.46240
 6419.00000   91.07660   73.14060  144.79640
 6419.50000   90.34510   65.10240  135.08680
 6420.00000   82.65310   56.07600  122.62380
 6420.50000   70.07020   47.61880  110.86620
 6421.00000   63.34250   43.58090  103.62530
 6421.50000   59.28530   48.02430  100.87120
 6422.00000   56.06280   59.55600   99.17800
 6422.50000   56.38770   73.56000   98.90890
 6423.00000   64.22020   81.76290  108.67650
 6423.50000   73.27100   84.64380  122.41870
 6424.00000   83.50000   81.96850  126.76620
 6424.50000   85.36710   78.18930  126.77410
 6425.00000   83.41470   75.75670  126.70990
 6425.50000   81.65530   72.61690  129.80620
 6426.00000   81.65900   68.39080  134.59060
 6426.50000   83.15350   66.04140  138.51400
 6427.00000   85.32780   68.55910  141.83630
 6427.50000   87.40970   74.03450  144.41490
 6428.00000   89.32850   80.49720  148.01340
 6428.50000   90.44040   82.34960  151.02030
 6429.00000   90.87740   80.11830  151.74110
 6429.50000   91.13770   76.62250  152.18400
 6430.00000   91.35620   75.97000  152.35770
 6430.50000   91.76610   78.36770  152.39450
 6431.00000   91.12630   81.87570  151.94630
 6431.50000   88.73400   82.80330  150.97620
