~Version ---------------------------------------------------
VERS.   2.0 : CWLS log ASCII Standard -VERSION 2.0
WRAP.    NO : One line per depth step
DLM . SPACE : Column Data Section Delimiter
~Well ------------------------------------------------------
STRT .F                3495.0 : START DEPTH
STOP .F                6880.0 : STOP DEPTH
STEP .F                   0.5 : STEP
NULL .               -9999.25 : NULL VALUE
COMP .                        : COMPANY
WELL .                        : WELL
FLD  .                        : FIELD
LOC  .                        : LOCATION
PROV .                        : PROVINCE
CNTY .                        : COUNTY
STAT .                        : STATE
CTRY .                        : COUNTRY
SRVC .                        : SERVICE COMPANY
DATE .                        : DATE
UWI  .                        : UNIQUE WELL ID
API  .                        : API NUMBER
SLAT .WGS84 1.678958417317098 : SURFACE LATITUDE
SLON .WGS84 6.390538637896995 : SURFACE LONGITUDE
DATUM.F               2661.54 : DEPTH DATUM ELEV
~Curve Information -----------------------------------------
DEPT.F     : 1 MEASURED DEPTH
DTCO.US/F  : DELTA-T COMPRESSIONAL
GRS .GAPI  : GAMMA RAY FROM SONIC LOG
DTSM.US/F  : DELTA-T SHEAR
~Params ----------------------------------------------------
~Other -----------------------------------------------------
~ASCII -----------------------------------------------------
# ...
 6521.00000   86.32990   83.13610  144.72810
 6521.50000   86.11980   84.75960  144.31240
 6522.00000   86.02410   85.07060  144.30730
 6522.50000   85.57170   84.21020  143.83580
 6523.00000   84.44000   82.37020  143.45660
 6523.50000   83.91820   79.92070  144.95790
 6524.00000   84.53390   78.00510  146.51990
 6524.50000   85.08130   77.49610  148.08170
 6525.00000   85.38030   77.58930  148.05870
 6525.50000   85.73320   76.00520  145.80110
 6526.00000   84.59800   71.88900  142.63670
 6526.50000   82.07620   67.72620  138.66110
 6527.00000   79.87390   69.38740  137.45490
 6527.50000   79.41050   74.72400  138.42820
 6528.00000   79.86970   79.01150  140.01940
 6528.50000   80.95710   79.81880  142.20300
 6529.00000   83.08210   79.97340  144.22040
 6529.50000   85.16580   80.52750  145.85140
 6530.00000   85.68580   80.34990  146.35250
 6530.50000   85.68740   79.77910  146.85360
 6531.00000   85.79600   80.49080  147.35480
 6531.50000   86.17570   83.02730  148.16220
 6532.00000   86.75260   86.23730  149.42090
 6532.50000   87.23150   86.65930  150.67950
 6533.00000   87.71810   86.41260  151.93820
 6533.50000   88.26930   86.45600  151.96650
 6534.00000   88.55100   87.71150  151.96150
 6534.50000   88.43990   89.60610  151.64500
 6535.00000   88.13390   90.22590  150.85640
 6535.50000   87.64090   88.84080  149.39620
 6536.00000   86.24950   84.82000  146.58050
 6536.50000   83.44100   77.52310  142.40760
 6537.00000   80.52320   70.41920  138.12510
 6537.50000   77.72090   68.44770  136.52250
 6538.00000   77.00730   73.11170  139.08090
 6538.50000   77.88920   80.86580  142.95430
 6539.00000   80.77660   84.97480  146.58060
 6539.50000   84.09950   85.09260  149.30350
 6540.00000   87.45770   84.70730  151.26940
 6540.50000   88.45250   84.06260  151.61170
 6541.00000   88.02080   83.37680  151.61700
 6541.50000   86.63740   82.74820  148.66620
 6542.00000   85.45690   82.10980  145.58160
 6542.50000   84.78390   81.57360  143.55050
 6543.00000   84.65840   82.68140  144.30460
 6543.50000   86.00760   86.08680  146.80270
 6544.00000   87.66630   88.74030  149.69560
 6544.50000   87.16020   88.65530  149.94810
 6545.00000   86.48880   87.40870  150.14820
 6545.50000   86.56370   86.18590  150.36580
 6546.00000   86.68420   86.23300  150.36310
 6546.50000   86.83550   86.97450  150.27250
 6547.00000   87.36320   88.88370  150.17400
 6547.50000   87.77300   90.43790  150.04060
 6548.00000   87.11990   91.37260  148.95740
 6548.50000   86.28350   91.84740  148.67620
 6549.00000   86.12710   92.41070  149.35710
 6549.50000   86.21260   92.46870  150.03800
 6550.00000   86.50620   92.80180  150.43870
 6550.50000   86.91040   93.34790  150.54570
 6551.00000   87.38990   93.89400  150.24800
 6551.50000   87.36650   93.81390  149.57880
 6552.00000   86.94650   91.53780  148.11410
 6552.50000   86.11060   89.37740  145.09020
 6553.00000   83.66480   87.28900  137.86220
 6553.50000   81.50360   85.92340  132.70380
 6554.00000   79.57450   82.12710  129.44020
 6554.50000   76.77180   74.84820  125.48440
 6555.00000   72.84480   66.04360  119.25810
 6555.50000   68.78410   58.30620  117.93360
 6556.00000   66.47820   58.35510  122.25590
 6556.50000   68.61040   64.15080  128.44670
 6557.00000   72.74210   73.26940  133.29700
 6557.50000   75.26390   82.63740  136.41460
 6558.00000   77.14390   85.49560  138.87250
 6558.50000   79.13850   83.94100  139.49420
 6559.00000   80.00890   79.76880  139.49420
 6559.50000   80.36050   77.37650  139.88150
 6560.00000   80.66210   79.06290  140.79520
 6560.50000   81.09060   82.79220  141.23060
 6561.00000   82.20470   86.52160  140.59710
 6561.50000   82.71430   87.91550  139.23360
 6562.00000   81.82060   87.23280  137.87000
 6562.50000   80.76060   84.03720  136.76550
 6563.00000   80.17000   80.19900  137.52630
 6563.50000   79.96610   78.63540  138.39030
 6564.00000   80.55700   81.37120  139.25420
 6564.50000   82.39360   86.18190  140.08050
 6565.00000   83.36870   90.88340  140.40120
 6565.50000   82.75600   91.62880  139.45270
 6566.00000   81.26680   87.05210  138.52230
 6566.50000   80.06620   81.71960  137.98270
 6567.00000   79.73900   83.86940  139.08820
 6567.50000   80.48370   92.20820  141.03490
 6568.00000   82.09180  100.53440  142.45420
 6568.50000   82.92020   99.98580  142.53700
 6569.00000   83.03730   95.56790  140.80890
 6569.50000   82.37040   90.50360  137.70410
 6570.00000   81.07730   87.64070  133.79990
 6570.50000   80.27350   84.97370  132.96330
 6571.00000   80.30830   81.13630  135.04770
 6571.50000   80.92620   78.07150  138.30730
 6572.00000   82.34710   79.57260  141.02370
 6572.50000   83.76120   85.65270  141.35270
 6573.00000   84.06620   90.04960  140.94350
 6573.50000   83.07600   88.35780  139.97970
 6574.00000   81.72640   83.58050  138.10100
 6574.50000   80.20260   79.40030  136.42260
 6575.00000   77.91210   79.11940  134.74420
 6575.50000   76.62820   78.04830  133.06580
 6576.00000   76.82960   74.71290  132.29170
 6576.50000   77.45290   73.26950  132.35050
 6577.00000   78.19310   75.57380  133.26870
 6577.50000   79.42700   78.97530  136.14250
 6578.00000   80.69820   81.28770  138.56760
 6578.50000   81.44500   82.85140  140.79170
 6579.00000   81.55390   84.60420  141.29750
 6579.50000   80.77340   86.53140  141.23910
 6580.00000   80.69080   87.40550  140.17220
 6580.50000   81.56630   87.63660  138.76180
 6581.00000   82.03550   87.93970  137.85460
 6581.50000   81.67190   87.78690  137.20560
 6582.00000   81.46820   86.01100  136.40560
 6582.50000   81.03050   82.89230  135.60570
 6583.00000   80.26650   81.56090  134.94900
 6583.50000   80.09390   83.29620  133.10160
 6584.00000   79.48430   87.06290  130.81330
 6584.50000   77.93360   88.50680  127.39740
 6585.00000   76.06570   82.96760  124.09660
 6585.50000   73.18280   72.88140  120.15230
 6586.00000   68.30290   60.75230  115.39900
 6586.50000   65.01860   54.54900  113.48930
 6587.00000   64.67290   54.13890  113.73260
 6587.50000   66.07540   59.83990  115.63700
 6588.00000   70.24470   68.85630  119.75420
 6588.50000   74.36600   76.67150  123.88530
 6589.00000   76.96250   79.96790  127.09290
 6589.50000   78.53990   81.03870  129.98760
 6590.00000   79.79270   84.82310  133.31470
 6590.50000   80.48980   90.15620  135.47020
 6591.00000   81.01920   94.74940  138.10610
 6591.50000   82.10160   94.87960  139.53010
 6592.00000   82.75970   91.39470  140.51880
 6592.50000   82.86960   89.38020  140.64810
 6593.00000   82.69980   88.96670  140.63450
 6593.50000   82.89880   89.33000  140.57220
 6594.00000   83.35750   89.40730  139.77580
 6594.50000   83.05650   89.52540  138.46710
 6595.00000   82.07850   88.73380  136.73070
 6595.50000   80.93760   85.57500  134.64940
 6596.00000   79.17660   80.75720  132.09300
 6596.50000   76.72880   73.81790  129.11560
 6597.00000   74.04730   68.68250  126.33950
 6597.50000   71.83540   66.86100  125.56260
 6598.00000   71.42780   71.89830  126.17630
 6598.50000   72.13000   79.09420  127.75260
 6599.00000   74.30910   84.02560  129.78420
 6599.50000   76.84870   85.07100  132.50430
 6600.00000   78.99100   84.43450  134.97850
 6600.50000   79.12220   83.58390  136.38870
 6601.00000   78.70840   81.11100  135.57010
 6601.50000   78.37080   78.86880  133.78480
 6602.00000   77.72490   79.43610  131.87920
 6602.50000   77.41210   82.51580  129.97630
 6603.00000   77.74750   85.36320  131.22510
 6603.50000   78.43070   85.17710  132.91380
 6604.00000   79.74160   82.54760  134.38390
 6604.50000   80.70800   81.20050  135.85390
 6605.00000   81.27050   83.03490  136.31940
 6605.50000   81.78720   87.45470  136.75560
 6606.00000   81.99210   91.61640  136.73630
 6606.50000   82.03740   94.79860  136.60930
 6607.00000   82.02140   94.39400  135.97520
 6607.50000   81.67130   87.97160  134.35770
 6608.00000   80.34730   78.68530  131.40950
 6608.50000   78.54940   69.63580  127.23410
 6609.00000   77.01890   63.96430  124.84490
 6609.50000   76.15920   65.11490  124.43110
