~Version ---------------------------------------------------
VERS.   2.0 : CWLS log ASCII Standard -VERSION 2.0
WRAP.    NO : One line per depth step
DLM . SPACE : Column Data Section Delimiter
~Well ------------------------------------------------------
STRT .F                3495.0 : START DEPTH
STOP .F                6880.0 : STOP DEPTH
STEP .F                   0.5 : STEP
NULL .               -9999.25 : NULL VALUE
COMP .                        : COMPANY
WELL .                        : WELL
FLD  .                        : FIELD
LOC  .                        : LOCATION
PROV .                        : PROVINCE
CNTY .                        : COUNTY
STAT .                        : STATE
CTRY .                        : COUNTRY
SRVC .                        : SERVICE COMPANY
DATE .                        : DATE
UWI  .                        : UNIQUE WELL ID
API  .                        : API NUMBER
SLAT .WGS84 1.678958417317098 : SURFACE LATITUDE
SLON .WGS84 6.390538637896995 : SURFACE LONGITUDE
DATUM.F               2661.54 : DEPTH DATUM ELEV
~Curve Information -----------------------------------------
DEPT.F     : 1 MEASURED DEPTH
DTCO.US/F  : DELTA-T COMPRESSIONAL
GRS .GAPI  : GAMMA RAY FROM SONIC LOG
DTSM.US/F  : DELTA-T SHEAR
~Params ----------------------------------------------------
~Other -----------------------------------------------------
~ASCII -----------------------------------------------------
# ...
 3584.00000   56.63350   34.37580  108.64570
 3584.50000   58.83910   34.41530  109.59620
 3585.00000   63.83520   33.54290  114.37950
 3585.50000   66.56220   31.93150  118.75730
 3586.00000   66.10290   31.13910  120.21270
 3586.50000   65.63840   31.67450  121.78550
 3587.00000   65.55820   34.02790  122.71560
 3587.50000   63.70810   35.94940  122.67570
 3588.00000   60.33630   35.50190  120.50930
 3588.50000   58.60630   33.97600  121.97910
 3589.00000   57.76100   31.23820  125.42330
 3589.50000   56.17690   29.13850  125.22110
 3590.00000   54.90290   28.67360  121.92180
 3590.50000   55.11220   28.97090  117.12030
 3591.00000   57.84140   30.84220  112.81070
 3591.50000   60.98610   34.88820  110.69350
 3592.00000   59.17360   39.10390  107.35530
 3592.50000   56.54960   41.58720  104.33670
 3593.00000   55.18670   41.49390  107.84720
 3593.50000   55.00680   40.15230  112.51320
 3594.00000   55.66820   38.60460  116.32660
 3594.50000   56.65050   38.26310  119.70470
 3595.00000   56.89120   39.70350  121.41910
 3595.50000   56.90920   40.74320  123.18170
 3596.00000   57.34550   40.21160  125.80670
 3596.50000   58.07900   38.34380  128.76690
 3597.00000   59.14190   37.55550  131.22450
 3597.50000   60.66160   37.60690  129.72950
 3598.00000   60.77180   36.43560  126.47050
 3598.50000   57.92530   32.39050  122.07270
 3599.00000   55.79290   25.84340  118.05150
 3599.50000   55.31860   18.53860  114.36140
 3600.00000   55.87130   13.19840  110.87560
 3600.50000   57.07810    8.70090  105.90430
 3601.00000   58.92420    6.02950  100.97310
 3601.50000   60.31010    4.22730   98.31990
 3602.00000   60.11890    3.60230   96.35720
 3602.50000   58.75790    3.80640   96.50980
 3603.00000   57.67080    4.94920   99.23280
 3603.50000   57.18030    8.01740  102.50140
 3604.00000   57.12310   14.57880  103.56410
 3604.50000   57.09630   21.57020  103.62830
 3605.00000   56.70820   27.52950  104.11560
 3605.50000   55.92760   30.62940  105.38420
 3606.00000   55.27160   30.42490  110.82640
 3606.50000   55.44170   26.97990  112.14030
 3607.00000   56.26370   21.71520  110.79150
 3607.50000   56.95540   14.81090  107.33230
 3608.00000   57.12980    8.57950  102.90340
 3608.50000   57.13220    5.32400   99.15510
 3609.00000   57.13310    4.50090   98.41490
 3609.50000   57.14090    4.76760   98.16160
 3610.00000   57.15620    5.09750   97.27390
 3610.50000   57.29130    5.70380   96.73720
 3611.00000   57.65140    6.85110   96.38750
 3611.50000   57.72930   10.07740   99.37910
 3612.00000   57.28030   13.77430  107.50040
 3612.50000   57.51790   23.61120  114.81790
 3613.00000   57.96730   33.72410  116.21670
 3613.50000   58.07810   38.28200  114.88810
 3614.00000   58.09470   38.94570  113.54520
 3614.50000   58.09640   37.18560  113.26440
 3615.00000   58.09600   34.75240  114.90040
 3615.50000   58.79720   32.82200  116.83450
 3616.00000   60.39420   32.59790  122.46520
 3616.50000   60.10470   33.27690  126.05910
 3617.00000   58.20490   34.13580  125.00260
 3617.50000   58.01410   33.87440  123.90010
 3618.00000   58.67140   33.65730  125.63840
 3618.50000   57.89270   34.04110  125.43100
 3619.00000   56.39030   36.17290  122.90300
 3619.50000   56.13380   37.04290  122.01140
 3620.00000   56.64900   33.56020  120.28180
 3620.50000   57.06360   26.28270  117.18650
 3621.00000   57.12150   19.04850  113.72810
 3621.50000   57.11470   15.38320  108.45770
 3622.00000   56.93160   13.46050  104.53640
 3622.50000   56.67880   11.37280  103.65260
 3623.00000   56.78440    9.51360  105.08560
 3623.50000   56.28530   10.62910  104.22650
 3624.00000   54.52560   14.80490  104.39560
 3624.50000   53.43280   18.55000  103.03620
 3625.00000   53.42900   17.51700  102.77330
 3625.50000   54.14760   14.67830  104.39030
 3626.00000   54.17730   11.24310  103.65210
 3626.50000   53.52410    9.42850  102.63530
 3627.00000   53.37150   10.65170  101.52650
 3627.50000   54.02760   13.99600  101.25760
 3628.00000   55.32340   19.17040  102.33580
 3628.50000   55.93310   25.49520  105.13710
 3629.00000   55.91150   31.72310  109.17090
 3629.50000   55.53010   37.05710  112.93790
 3630.00000   55.16400   40.25390  116.90590
 3630.50000   55.42180   40.18840  117.54850
 3631.00000   56.41480   37.81430  115.44570
 3631.50000   57.34280   31.16540  110.89840
 3632.00000   57.37950   23.11910  106.62440
 3632.50000   56.98730   15.20430  103.98550
 3633.00000   56.51370    9.91570  101.49790
 3633.50000   56.20140    6.29750   99.83080
 3634.00000   56.30680    5.57180   98.61860
 3634.50000   56.75960    6.88750   97.42420
 3635.00000   57.07130   10.84280   97.44540
 3635.50000   57.40170   16.28210   97.51920
 3636.00000   57.81110   21.58800   97.70010
 3636.50000   57.72500   23.96200   98.09940
 3637.00000   57.07380   23.27040   98.27990
 3637.50000   56.72320   21.42110   97.10110
 3638.00000   56.57020   18.71380   96.12470
 3638.50000   56.39660   16.94850   96.15980
 3639.00000   56.21570   15.27420   96.77320
 3639.50000   56.70760   15.29770   97.52380
 3640.00000   57.98030   18.75680   98.49430
 3640.50000   58.50880   24.11560   99.56470
 3641.00000   57.96480   27.52940  100.63510
 3641.50000   57.25120   27.82600  101.26180
 3642.00000   57.13430   26.48470  101.14760
 3642.50000   57.13050   25.14360  100.09260
 3643.00000   57.11090   23.47210   98.99680
 3643.50000   56.91340   22.59640   97.93250
 3644.00000   56.46560   22.88110   97.33310
 3644.50000   56.16850   24.39320   97.32730
 3645.00000   56.12220   29.48100   97.54040
 3645.50000   56.16750   34.69170   98.38510
 3646.00000   56.35340   38.69640   97.98520
 3646.50000   56.78510   39.62990   97.18740
 3647.00000   57.07090   38.97710   98.15830
 3647.50000   57.10940   38.66130   99.13290
 3648.00000   56.91920   40.53670  102.19480
 3648.50000   56.62310   42.58050  103.08140
 3649.00000   56.57070   42.38620  102.30820
 3649.50000   56.59560   39.09470  103.29340
 3650.00000   57.19610   34.03900  103.80320
 3650.50000   58.23770   29.32330  102.05740
 3651.00000   58.58230   25.52380   99.80270
 3651.50000   57.85370   24.22650   98.11210
 3652.00000   57.03320   25.30400   97.35830
 3652.50000   56.45750   27.42570   97.96570
 3653.00000   56.37330   28.99070   98.90250
 3653.50000   56.74790   28.68320   99.83920
 3654.00000   57.01550   26.82660  100.36590
 3654.50000   56.70100   24.40810   98.84690
 3655.00000   56.06520   22.92610   96.27090
 3655.50000   56.07840   23.34650   96.97380
 3656.00000   56.86110   25.78410   97.94130
 3656.50000   57.42390   30.81180   98.27890
 3657.00000   57.42720   37.18580  100.05070
 3657.50000   57.21180   43.74300  104.70890
 3658.00000   57.61800   46.89220  110.44180
 3658.50000   58.62110   46.48470  114.14390
 3659.00000   58.47290   43.29160  115.57390
 3659.50000   57.56450   36.87270  117.87120
 3660.00000   57.26750   30.93890  116.93950
 3660.50000   57.33680   26.77600  113.87300
 3661.00000   57.54340   25.18700  112.45940
 3661.50000   57.60850   25.39520  114.05210
 3662.00000   57.56060   27.43840  116.23740
 3662.50000   57.24370   31.69760  115.22050
 3663.00000   56.57180   36.65990  116.22310
 3663.50000   56.17490   39.10350  117.44030
 3664.00000   56.13360   38.92320  120.62230
 3664.50000   56.12150   37.91130  123.16390
 3665.00000   56.12340   38.12230  124.88430
 3665.50000   56.11500   39.24940  126.62610
 3666.00000   56.13970   39.45740  125.95970
 3666.50000   56.09340   38.31870  127.12780
 3667.00000   55.91140   37.04310  128.38340
 3667.50000   55.49300   36.22320  128.67930
 3668.00000   55.21260   36.75050  128.19820
 3668.50000   55.10770   36.81090  128.05140
 3669.00000   55.10460   36.02820  127.88640
 3669.50000   55.10160   34.56090  127.66630
 3670.00000   55.10230   33.44990  127.43330
 3670.50000   55.10730   33.30980  127.48990
 3671.00000   55.11220   34.43300  127.97090
 3671.50000   55.11720   35.45290  128.39760
 3672.00000   55.39420   35.78230  128.80230
 3672.50000   55.74640   35.70980  128.51560
