~Version ---------------------------------------------------
VERS.   2.0 : CWLS log ASCII Standard -VERSION 2.0
WRAP.    NO : One line per depth step
DLM . SPACE : Column Data Section Delimiter
~Well ------------------------------------------------------
STRT .F                3495.0 : START DEPTH
STOP .F                6880.0 : STOP DEPTH
STEP .F                   0.5 : STEP
NULL .               -9999.25 : NULL VALUE
COMP .                        : COMPANY
WELL .                        : WELL
FLD  .                        : FIELD
LOC  .                        : LOCATION
PROV .                        : PROVINCE
CNTY .                        : COUNTY
STAT .                        : STATE
CTRY .                        : COUNTRY
SRVC .                        : SERVICE COMPANY
DATE .                        : DATE
UWI  .                        : UNIQUE WELL ID
API  .                        : API NUMBER
SLAT .WGS84 1.678958417317098 : SURFACE LATITUDE
SLON .WGS84 6.390538637896995 : SURFACE LONGITUDE
DATUM.F               2661.54 : DEPTH DATUM ELEV
~Curve Information -----------------------------------------
DEPT.F     : 1 MEASURED DEPTH
DTCO.US/F  : DELTA-T COMPRESSIONAL
GRS .GAPI  : GAMMA RAY FROM SONIC LOG
DTSM.US/F  : DELTA-T SHEAR
~Params ----------------------------------------------------
~Other -----------------------------------------------------
~ASCII -----------------------------------------------------
# ...
 6254.00000   77.94540   68.15790  137.41530
 6254.50000   76.65040   70.11290  136.98690
 6255.00000   77.78990   74.13720  137.20270
 6255.50000   80.23680   75.13350  137.70550
 6256.00000   81.33780   73.71350  137.17270
 6256.50000   81.62790   72.47600  136.36000
 6257.00000   81.79010   74.26840  136.16240
 6257.50000   81.65890   78.09000  136.41000
 6258.00000   81.50480   80.37200  136.75650
 6258.50000   82.14650   81.10260  137.04790
 6259.00000   82.92190   81.36550  137.13450
 6259.50000   83.12350   82.48630  137.22110
 6260.00000   83.27580   82.07310  137.77720
 6260.50000   83.92730   81.87400  138.44990
 6261.00000   84.46730   85.29060  139.07740
 6261.50000   84.44020   90.91650  139.70490
 6262.00000   84.37560   92.43700  139.97430
 6262.50000   84.99010   88.77380  139.83950
 6263.00000   85.07520   83.47720  139.19890
 6263.50000   84.51940   82.89680  138.40680
 6264.00000   84.48750   84.66670  137.61500
 6264.50000   84.16520   84.90320  136.84760
 6265.00000   82.09830   79.85970  135.02820
 6265.50000   79.38570   72.22780  132.31310
 6266.00000   77.87490   65.08200  129.85350
 6266.50000   76.70570   64.90070  129.71940
 6267.00000   76.47910   72.45630  130.68810
 6267.50000   77.97080   81.39900  134.90130
 6268.00000   81.80760   88.57870  139.04890
 6268.50000   84.13710   86.94240  140.43040
 6269.00000   84.39960   80.57520  140.34180
 6269.50000   82.85790   73.01690  138.43280
 6270.00000   80.97060   71.76260  136.24860
 6270.50000   79.34270   75.44940  135.35180
 6271.00000   79.35230   84.28230  135.89960
 6271.50000   80.33810   90.12340  136.60680
 6272.00000   81.12880   87.77200  137.17580
 6272.50000   81.74440   79.22330  137.27620
 6273.00000   82.02500   73.89140  137.38370
 6273.50000   82.08010   74.93080  137.99680
 6274.00000   82.14840   78.96010  138.60990
 6274.50000   82.65130   82.68760  138.67100
 6275.00000   83.76400   83.89400  138.64840
 6275.50000   83.32630   83.06170  138.41610
 6276.00000   80.46660   76.29420  136.94000
 6276.50000   76.80810   66.86320  131.37530
 6277.00000   73.45400   55.79390  125.43240
 6277.50000   71.14440   52.39490  121.20750
 6278.00000   70.45550   58.13990  122.42200
 6278.50000   71.91020   68.23820  125.78240
 6279.00000   75.05760   76.80420  129.78700
 6279.50000   79.40240   84.01020  135.36740
 6280.00000   81.98400   89.89850  140.41350
 6280.50000   83.33580   93.16970  142.30620
 6281.00000   84.39970   92.80470  142.41110
 6281.50000   84.58480   88.78070  141.10800
 6282.00000   83.61140   82.52670  139.26790
 6282.50000   82.48960   76.78610  138.75320
 6283.00000   82.12580   74.94640  139.19040
 6283.50000   82.39700   76.64630  139.73390
 6284.00000   82.93410   79.94130  139.96380
 6284.50000   84.02080   82.65490  140.02900
 6285.00000   84.29180   83.58410  139.58710
 6285.50000   83.64480   84.09440  138.68730
 6286.00000   82.93780   84.45680  137.65630
 6286.50000   82.52400   84.42480  137.70470
 6287.00000   82.63930   83.88350  138.17160
 6287.50000   83.21040   83.19030  139.11050
 6288.00000   83.27920   82.94870  141.54340
 6288.50000   83.16200   83.33140  143.17560
 6289.00000   83.30630   83.70630  143.17560
 6289.50000   84.20390   85.26920  143.48670
 6290.00000   85.31160   90.62100  143.99880
 6290.50000   85.78110   95.97360  143.91800
 6291.00000   84.90100   95.78070  142.50230
 6291.50000   83.56680   88.02600  141.08670
 6292.00000   82.84230   79.01450  140.29040
 6292.50000   82.98680   73.70590  140.60230
 6293.00000   83.68240   74.68260  141.42740
 6293.50000   84.42130   79.02260  142.07070
 6294.00000   84.74500   83.05100  141.78200
 6294.50000   84.55270   86.42470  141.29580
 6295.00000   84.56970   89.78370  140.87660
 6295.50000   84.61500   90.02040  141.46860
 6296.00000   84.36000   87.42360  142.83110
 6296.50000   84.42450   82.77740  143.58270
 6297.00000   84.79590   79.93480  143.14480
 6297.50000   84.71840   79.20740  142.29850
 6298.00000   84.95510   80.59700  143.09840
 6298.50000   85.46080   83.84120  143.79830
 6299.00000   85.80330   86.37080  143.79800
 6299.50000   86.15160   86.46370  143.79000
 6300.00000   86.26920   85.61560  143.37900
 6300.50000   86.18810   85.23570  141.91590
 6301.00000   86.11100   86.48840  140.38700
 6301.50000   85.93390   88.14000  138.85810
 6302.00000   85.21430   88.45420  138.31230
 6302.50000   84.25810   87.65090  138.27960
 6303.00000   83.37120   83.81780  138.48150
 6303.50000   83.04820   80.19530  136.50340
 6304.00000   82.21980   78.04470  133.40840
 6304.50000   80.28030   73.98310  130.31550
 6305.00000   77.43290   64.79370  125.47820
 6305.50000   74.33760   53.29550  121.46200
 6306.00000   71.15560   46.00500  117.43260
 6306.50000   68.66250   45.25350  117.28160
 6307.00000   68.60540   48.86630  120.98850
 6307.50000   69.18410   52.59310  125.58410
 6308.00000   68.46130   51.87590  124.84590
 6308.50000   66.64810   45.72680  117.18360
 6309.00000   65.75260   38.57600  112.66380
 6309.50000   66.02980   36.15520  115.25760
 6310.00000   68.48120   46.37970  120.93290
 6310.50000   72.21100   63.73510  129.39050
 6311.00000   77.83560   76.86130  137.19500
 6311.50000   83.41700   84.44080  143.83420
 6312.00000   86.46780   87.80670  147.26690
 6312.50000   88.26470   88.08680  149.06440
 6313.00000   88.57540   86.07500  148.17960
 6313.50000   88.40880   84.33660  147.24150
 6314.00000   87.69210   86.05300  147.33760
 6314.50000   87.60930   89.29820  148.05060
 6315.00000   88.29250   91.90610  148.76370
 6315.50000   88.65100   92.71730  148.94580
 6316.00000   88.91410   91.41410  148.72680
 6316.50000   89.09010   88.73960  148.13170
 6317.00000   88.61880   84.71510  147.82580
 6317.50000   87.41720   79.76760  146.98920
 6318.00000   86.24180   77.61100  145.11710
 6318.50000   85.49530   78.13130  144.89290
 6319.00000   85.40480   82.64670  145.16790
 6319.50000   86.18170   86.84790  145.58370
 6320.00000   87.57160   88.67850  145.99940
 6320.50000   88.48640   88.26220  146.41520
 6321.00000   88.41600   86.36990  145.80560
 6321.50000   88.14980   85.40560  145.15140
 6322.00000   87.72880   86.02580  144.77690
 6322.50000   86.81120   86.48670  145.12440
 6323.00000   85.95470   84.76370  145.47190
 6323.50000   86.09650   83.80220  145.27120
 6324.00000   86.51630   83.78970  144.75730
 6324.50000   86.31170   83.61430  143.23680
 6325.00000   85.67230   81.75850  142.44810
 6325.50000   84.87370   79.97400  143.06240
 6326.00000   85.04850   80.36310  144.13740
 6326.50000   85.95930   81.88520  145.81370
 6327.00000   87.03310   84.79490  148.47530
 6327.50000   88.31300   87.01110  150.28580
 6328.00000   89.17450   86.22110  150.43060
 6328.50000   89.10190   83.52810  149.89030
 6329.00000   88.70690   82.07250  148.09520
 6329.50000   88.64830   85.02890  146.52120
 6330.00000   88.64630   92.25110  145.59870
 6330.50000   88.59490   96.94760  144.96110
 6331.00000   87.91720   92.50960  144.53770
 6331.50000   87.07050   86.03490  144.32260
 6332.00000   86.43100   79.88130  144.10740
 6332.50000   85.36730   77.99020  144.06040
 6333.00000   84.75230   78.63350  144.34860
 6333.50000   85.80460   78.03100  144.58280
 6334.00000   87.07740   77.69620  144.80650
 6334.50000   87.14550   78.97140  144.45320
 6335.00000   87.27330   81.26590  143.68600
 6335.50000   87.10550   80.89460  143.15230
 6336.00000   86.46690   79.12380  142.71180
 6336.50000   86.16180   81.36450  141.50310
 6337.00000   86.70880   85.91720  144.03140
 6337.50000   87.95220   88.81400  148.65470
 6338.00000   87.92010   88.31810  149.13960
 6338.50000   87.47860   85.34150  147.10790
 6339.00000   86.96730   82.14480  145.73130
 6339.50000   87.09890   79.04370  145.56160
 6340.00000   88.49260   78.70820  149.03240
 6340.50000   90.12840   81.29710  151.47690
 6341.00000   91.41390   86.00190  153.74970
 6341.50000   91.30210   88.21660  151.46530
 6342.00000   89.90390   87.37310  146.71330
 6342.50000   88.55330   84.05470  141.20470
