~Version ---------------------------------------------------
VERS.   2.0 : CWLS log ASCII Standard -VERSION 2.0
WRAP.    NO : One line per depth step
DLM . SPACE : Column Data Section Delimiter
~Well ------------------------------------------------------
STRT .F                3495.0 : START DEPTH
STOP .F                6880.0 : STOP DEPTH
STEP .F                   0.5 : STEP
NULL .               -9999.25 : NULL VALUE
COMP .                        : COMPANY
WELL .                        : WELL
FLD  .                        : FIELD
LOC  .                        : LOCATION
PROV .                        : PROVINCE
CNTY .                        : COUNTY
STAT .                        : STATE
CTRY .                        : COUNTRY
SRVC .                        : SERVICE COMPANY
DATE .                        : DATE
UWI  .                        : UNIQUE WELL ID
API  .                        : API NUMBER
SLAT .WGS84 1.678958417317098 : SURFACE LATITUDE
SLON .WGS84 6.390538637896995 : SURFACE LONGITUDE
DATUM.F               2661.54 : DEPTH DATUM ELEV
~Curve Information -----------------------------------------
DEPT.F     : 1 MEASURED DEPTH
DTCO.US/F  : DELTA-T COMPRESSIONAL
GRS .GAPI  : GAMMA RAY FROM SONIC LOG
DTSM.US/F  : DELTA-T SHEAR
~Params ----------------------------------------------------
~Other -----------------------------------------------------
~ASCII -----------------------------------------------------
# ...
 3851.00000   54.60840   17.81930  124.70800
 3851.50000   54.61130   17.20670  123.46220
 3852.00000   54.80960   16.12300  121.35650
 3852.50000   55.39180   14.21690  121.31180
 3853.00000   56.23250   12.81520  122.06600
 3853.50000   56.89680   12.36750  121.66360
 3854.00000   57.14070   12.43760  120.88320
 3854.50000   57.16160   13.50860  120.39970
 3855.00000   56.98770   15.07770  121.35890
 3855.50000   56.30740   16.38810  122.74060
 3856.00000   55.23990   17.15020  124.73940
 3856.50000   54.91840   17.28820  125.97570
 3857.00000   55.03120   17.00440  125.80010
 3857.50000   55.14050   16.41460  125.53350
 3858.00000   55.32410   16.16340  126.16620
 3858.50000   55.71810   16.23790  126.28970
 3859.00000   56.06730   17.34240  125.61440
 3859.50000   55.92030   18.62780  124.22000
 3860.00000   55.25520   19.50620  122.55830
 3860.50000   54.65310   20.17030  120.89660
 3861.00000   54.53970   20.30850  119.68470
 3861.50000   54.56330   20.69310  118.49660
 3862.00000   54.50770   21.37390  118.50140
 3862.50000   54.34520   22.18270  118.80680
 3863.00000   54.36810   22.91070  119.17530
 3863.50000   54.85440   23.17530  119.48520
 3864.00000   55.37670   23.38560  119.74000
 3864.50000   55.81670   23.69530  119.99110
 3865.00000   56.06220   23.56780  120.17670
 3865.50000   56.11560   22.59890  119.94460
 3866.00000   56.17730   21.07210  119.66630
 3866.50000   56.33620   19.86480  118.87890
 3867.00000   56.52750   18.85390  118.62250
 3867.50000   56.35140   18.33240  119.02930
 3868.00000   55.91850   18.92820  119.30950
 3868.50000   55.49060   19.79280  119.91250
 3869.00000   55.40940   20.58500  120.78360
 3869.50000   55.71350   21.43100  121.80100
 3870.00000   55.94730   22.23190  122.42100
 3870.50000   55.93150   22.77370  122.37870
 3871.00000   55.50460   22.03000  122.19220
 3871.50000   55.39960   20.21180  120.57750
 3872.00000   55.70660   17.80230  118.82420
 3872.50000   56.04730   16.12990  116.07400
 3873.00000   56.11430   16.06300  114.27700
 3873.50000   56.10350   16.42130  114.32270
 3874.00000   56.11660   15.98480  114.60170
 3874.50000   56.11830   15.18020  115.06740
 3875.00000   56.11810   14.99970  116.25210
 3875.50000   56.11900   16.67760  117.70030
 3876.00000   56.15760   18.92850  118.47410
 3876.50000   56.29120   20.66100  116.31790
 3877.00000   56.73050   21.05930  116.36170
 3877.50000   57.06820   20.64630  116.91880
 3878.00000   56.88190   20.13870  117.66850
 3878.50000   56.26630   19.68800  118.16230
 3879.00000   55.55410   19.61150  117.26470
 3879.50000   55.75500   19.44120  116.99140
 3880.00000   57.98910   19.22600  117.50330
 3880.50000   60.86320   18.80040  120.08250
 3881.00000   63.21230   17.55460  121.56740
 3881.50000   64.09460   16.03490  122.26170
 3882.00000   64.60840   15.47200  123.50830
 3882.50000   63.73520   15.13650  125.68540
 3883.00000   61.94700   15.27680  126.63190
 3883.50000   60.97040   15.35190  126.59250
 3884.00000   60.43400   15.75100  126.55310
 3884.50000   59.90820   16.22490  127.29640
 3885.00000   58.76090   16.00080  127.95480
 3885.50000   56.75400   15.18550  126.98460
 3886.00000   55.36660   14.70750  124.21830
 3886.50000   54.10900   16.93170  120.92380
 3887.00000   53.43100   20.26370  116.59280
 3887.50000   54.20500   23.47260  111.83720
 3888.00000   55.94020   25.35550  106.78020
 3888.50000   58.18200   25.76540  104.33770
 3889.00000   59.43610   24.87830  104.30580
 3889.50000   59.84880   23.20310  104.27170
 3890.00000   59.76900   21.13000  103.41600
 3890.50000   59.28760   19.62690  102.34680
 3891.00000   58.28100   19.92840  101.09070
 3891.50000   57.22160   21.86230  101.64700
 3892.00000   55.98230   21.96710  103.49190
 3892.50000   55.46000   20.61390  105.14380
 3893.00000   56.11490   17.59910  104.07170
 3893.50000   56.56830   14.33170  102.24810
 3894.00000   55.96440   11.80380   99.42300
 3894.50000   56.98400   11.29780  100.69390
 3895.00000   59.11120   12.23850  104.17860
 3895.50000   58.11510   13.32020  105.98380
 3896.00000   57.05810   14.10840  106.50150
 3896.50000   56.90310   15.04580  106.75450
 3897.00000   56.52120   16.08330  107.64610
 3897.50000   56.20140   16.03130  108.20860
 3898.00000   56.26810   15.13870  108.18930
 3898.50000   56.51890   14.06660  107.96840
 3899.00000   56.56820   13.71530  107.16480
 3899.50000   56.56120   14.09140  106.90050
 3900.00000   56.40480   14.82910  106.57530
 3900.50000   56.19000   15.65670  107.49810
 3901.00000   56.16300   16.59110  109.10510
 3901.50000   56.33100   17.24380  111.98630
 3902.00000   56.48490   17.96920  114.10860
 3902.50000   56.38480   18.55100  115.77990
 3903.00000   56.18800   18.40200  114.57740
 3903.50000   56.34240   16.86070  114.13810
 3904.00000   56.69950   16.46010  114.47920
 3904.50000   56.87490   17.58110  114.94850
 3905.00000   56.66240   19.75520  112.79290
 3905.50000   56.87170   21.30400  112.30470
 3906.00000   56.90060   21.71480  113.18730
 3906.50000   56.91520   21.42950  114.57940
 3907.00000   57.12070   20.51590  115.90550
 3907.50000   57.36200   20.04600  116.73990
 3908.00000   58.02330   20.04780  116.36480
 3908.50000   58.34030   20.21890  115.78530
 3909.00000   58.13870   21.85660  115.86370
 3909.50000   58.33820   25.22350  116.84130
 3910.00000   59.00620   28.86490  117.81900
 3910.50000   59.73200   31.18920  117.02810
 3911.00000   59.91160   31.16800  115.30550
 3911.50000   59.50100   30.50780  113.39240
 3912.00000   59.20520   30.15120  112.36140
 3912.50000   58.72510   30.02090  111.33040
 3913.00000   57.73500   30.02140  110.29930
 3913.50000   56.82900   30.02190  108.73440
 3914.00000   56.57160   30.02130  107.47370
 3914.50000   56.42980   30.00420  106.36040
 3915.00000   55.88940   29.98710  106.17150
 3915.50000   55.29030   29.97010  106.54100
 3916.00000   55.48280   29.95300  107.41600
 3916.50000   56.08020   29.93590  109.36540
 3917.00000   56.52380   29.91880  110.82860
 3917.50000   56.41910   29.90180  112.13810
 3918.00000   56.21470   29.88470  115.95610
 3918.50000   56.10630   29.86760  119.10030
 3919.00000   55.92910   29.88640  121.30660
 3919.50000   55.29030   29.92670  123.78040
 3920.00000   54.61890   29.96710  124.84190
 3920.50000   54.36750   30.00740  125.21710
 3921.00000   54.54730   30.02660  123.97930
 3921.50000   54.82200   30.03760  122.89790
 3922.00000   55.21680   30.04090  122.37910
 3922.50000   55.60990   30.03570  122.30070
 3923.00000   56.03500   30.03480  122.08080
 3923.50000   56.75090   30.03940  121.28080
 3924.00000   57.09650   30.03150  121.50930
 3924.50000   57.11960   30.02350  122.40820
 3925.00000   57.14240   30.01550  124.20620
 3925.50000   57.14240   30.00750  126.10080
 3926.00000   57.14240   29.99950  126.28150
 3926.50000   57.14390   29.99150  125.86490
 3927.00000   57.14640   29.98350  125.42720
 3927.50000   57.14500   29.97550  124.99090
 3928.00000   57.14320   29.96750  124.61410
 3928.50000   57.14110   29.95960  125.56440
 3929.00000   57.13900   29.95160  127.91590
 3929.50000   57.13900   29.94360  130.73140
 3930.00000   57.14230   29.93560  130.78010
 3930.50000   57.13360   29.92760  130.19700
 3931.00000   57.11380   29.91960  129.68950
 3931.50000   56.56360   29.91160  128.72710
 3932.00000   55.93120   29.90360  127.26640
 3932.50000   56.28010   29.89560  127.71270
 3933.00000   57.44550   29.88770  128.67470
 3933.50000   53.80160   29.87970  130.08520
 3934.00000   42.47130   29.87170  110.36210
 3934.50000   -9999.25   -9999.25   -9999.25
 3935.00000   -9999.25   -9999.25   -9999.25
 3935.50000   -9999.25   -9999.25   -9999.25
 3936.00000   -9999.25   -9999.25   -9999.25
 3936.50000   -9999.25   -9999.25   -9999.25
 3937.00000   -9999.25   -9999.25   -9999.25
 3937.50000   -9999.25   -9999.25   -9999.25
 3938.00000   -9999.25   -9999.25   -9999.25
 3938.50000   -9999.25   -9999.25   -9999.25
 3939.00000   -9999.25   -9999.25   -9999.25
 3939.50000   -9999.25   -9999.25   -9999.25
