~Version ---------------------------------------------------
VERS.   2.0 : CWLS log ASCII Standard -VERSION 2.0
WRAP.    NO : One line per depth step
DLM . SPACE : Column Data Section Delimiter
~Well ------------------------------------------------------
STRT .F                3495.0 : START DEPTH
STOP .F                6880.0 : STOP DEPTH
STEP .F                   0.5 : STEP
NULL .               -9999.25 : NULL VALUE
COMP .                        : COMPANY
WELL .                        : WELL
FLD  .                        : FIELD
LOC  .                        : LOCATION
PROV .                        : PROVINCE
CNTY .                        : COUNTY
STAT .                        : STATE
CTRY .                        : COUNTRY
SRVC .                        : SERVICE COMPANY
DATE .                        : DATE
UWI  .                        : UNIQUE WELL ID
API  .                        : API NUMBER
SLAT .WGS84 1.678958417317098 : SURFACE LATITUDE
SLON .WGS84 6.390538637896995 : SURFACE LONGITUDE
DATUM.F               2661.54 : DEPTH DATUM ELEV
~Curve Information -----------------------------------------
DEPT.F     : 1 MEASURED DEPTH
DTCO.US/F  : DELTA-T COMPRESSIONAL
GRS .GAPI  : GAMMA RAY FROM SONIC LOG
DTSM.US/F  : DELTA-T SHEAR
~Params ----------------------------------------------------
~Other -----------------------------------------------------
~ASCII -----------------------------------------------------
# ...
 3762.00000   57.11410   14.16410  123.46980
 3762.50000   57.11100   14.69400  123.56360
 3763.00000   57.08250   14.81870  123.65740
 3763.50000   56.92230   15.16720  123.87410
 3764.00000   56.43440   15.82530  124.10110
 3764.50000   56.16390   16.00610  124.32820
 3765.00000   56.11410   15.23000  125.04960
 3765.50000   56.10200   14.36470  126.39330
 3766.00000   56.10620   14.15020  127.61710
 3766.50000   56.08720   14.41780  128.55820
 3767.00000   56.08340   15.09630  129.51440
 3767.50000   56.10340   15.87200  130.37520
 3768.00000   56.10300   16.63800  129.31730
 3768.50000   56.10730   17.24160  127.69990
 3769.00000   56.14370   17.57180  126.41140
 3769.50000   56.30350   17.90480  126.74550
 3770.00000   56.70300   17.40450  126.74160
 3770.50000   57.06920   16.46410  124.30600
 3771.00000   57.12940   15.52100  122.11050
 3771.50000   57.10890   15.05920  121.19520
 3772.00000   57.07620   14.98220  122.00250
 3772.50000   56.93320   14.95750  122.62000
 3773.00000   56.67410   14.97690  122.11760
 3773.50000   56.85320   15.27980  121.21660
 3774.00000   57.47180   15.45620  121.23500
 3774.50000   58.80590   15.37010  121.24930
 3775.00000   59.32230   15.20530  121.25930
 3775.50000   59.19290   14.83850  122.03740
 3776.00000   58.68630   14.44710  122.83310
 3776.50000   57.83560   14.06620  125.05200
 3777.00000   57.23690   14.42860  126.37970
 3777.50000   57.13720   15.50360  126.52190
 3778.00000   57.14190   16.04950  125.90080
 3778.50000   57.14240   15.96340  125.07540
 3779.00000   57.11700   15.18110  124.24990
 3779.50000   56.92790   15.05080  123.64190
 3780.00000   56.47610   15.30480  123.33440
 3780.50000   56.17830   15.50270  123.21130
 3781.00000   56.12720   15.04400  123.08830
 3781.50000   56.13390   14.48720  123.02570
 3782.00000   56.12030   14.05570  123.06070
 3782.50000   56.14250   13.84510  123.09560
 3783.00000   56.11010   14.03450  123.13050
 3783.50000   55.90160   14.55100  123.50990
 3784.00000   55.78250   15.45010  124.33700
 3784.50000   55.87310   16.23770  125.38570
 3785.00000   56.09490   15.76850  126.52570
 3785.50000   56.14240   15.11180  127.94290
 3786.00000   56.07810   14.86180  128.27370
 3786.50000   55.88740   14.53810  127.12420
 3787.00000   55.43530   13.56230  125.97470
 3787.50000   55.14010   12.84280  124.77550
 3788.00000   55.33860   13.36950  122.71700
 3788.50000   55.80760   15.05630  119.29130
 3789.00000   55.85040   16.65740  115.75490
 3789.50000   55.50480   17.39340  114.08540
 3790.00000   55.42040   16.73330  114.46750
 3790.50000   55.75540   16.51060  115.17350
 3791.00000   55.71170   16.35430  117.04330
 3791.50000   54.82780   15.63640  117.95440
 3792.00000   54.12060   14.97550  118.16040
 3792.50000   56.41480   14.57620  118.30930
 3793.00000   61.88510   14.88510  118.70760
 3793.50000   65.40560   14.77790  118.99330
 3794.00000   65.50250   14.48340  119.35980
 3794.50000   65.20540   14.43690  121.01830
 3795.00000   65.39710   14.81810  121.45420
 3795.50000   66.93490   15.19360  122.49690
 3796.00000   68.72580   14.72520  123.85330
 3796.50000   70.31030   13.83120  123.56540
 3797.00000   70.99070   13.66180  123.58520
 3797.50000   70.89640   13.95920  124.07570
 3798.00000   70.37790   14.18270  125.58630
 3798.50000   69.28680   13.75050  127.09700
 3799.00000   68.23150   12.32250  127.86260
 3799.50000   67.58030   11.03660  125.07370
 3800.00000   66.67340   10.61710  121.49710
 3800.50000   65.03610   14.84210  115.20860
 3801.00000   63.10930   19.47280  108.74340
 3801.50000   60.96770   24.69940  105.09000
 3802.00000   59.61000   30.44420  104.85870
 3802.50000   58.49130   35.05350  105.04860
 3803.00000   57.97510   36.91030  105.05830
 3803.50000   57.89460   36.75190  105.06790
 3804.00000   57.94540   36.46560  104.84980
 3804.50000   57.90810   36.57290  105.05310
 3805.00000   57.41330   36.11170  104.66080
 3805.50000   56.96140   33.16570  103.93840
 3806.00000   55.97950   28.42470  103.04850
 3806.50000   54.84290   23.68960  102.68340
 3807.00000   54.21800   20.55430  102.93470
 3807.50000   54.16340   18.56940  103.14390
 3808.00000   54.16090   16.91700  103.45730
 3808.50000   54.19050   15.79580  103.60750
 3809.00000   54.30720   16.01130  104.03130
 3809.50000   54.74760   17.07290  104.45520
 3810.00000   54.82700   17.55560  104.87910
 3810.50000   54.48300   17.46390  105.28800
 3811.00000   54.55820   17.43470  105.81450
 3811.50000   55.02810   17.15090  106.92740
 3812.00000   55.54980   17.52910  108.17420
 3812.50000   56.04290   18.02340  110.24850
 3813.00000   58.72700   19.50160  117.79630
 3813.50000   64.58950   20.16260  132.88990
 3814.00000   71.63500   19.82580  143.31160
 3814.50000   69.76660   18.71540  139.50130
 3815.00000   62.95970   17.21680  123.16740
 3815.50000   58.56050   17.06820  115.11030
 3816.00000   57.66560   16.87950  113.64270
 3816.50000   57.84600   15.01890  113.50140
 3817.00000   58.22840   13.65460  113.21480
 3817.50000   58.53590   13.28220  112.64040
 3818.00000   58.14810   13.74730  112.41280
 3818.50000   57.48470   14.54560  112.21280
 3819.00000   56.95280   15.51050  110.91420
 3819.50000   56.42200   16.19540  108.42400
 3820.00000   56.19780   15.99790  106.69270
 3820.50000   56.12540   15.23990  106.25030
 3821.00000   56.12400   14.22490  106.87630
 3821.50000   56.12260   14.61810  108.48570
 3822.00000   56.07290   16.27530  110.01400
 3822.50000   55.91460   17.49820  110.41820
 3823.00000   55.73680   17.71850  110.36340
 3823.50000   55.86400   16.20110  110.13690
 3824.00000   56.26900   14.40150  110.49620
 3824.50000   56.79660   12.86390  110.73170
 3825.00000   56.90310   12.95660  111.70120
 3825.50000   56.67590   14.41840  114.12410
 3826.00000   56.62020   15.26970  112.78210
 3826.50000   56.63270   15.67400  112.41090
 3827.00000   56.86020   15.22090  113.95860
 3827.50000   57.09880   14.31320  115.50630
 3828.00000   57.15520   13.84270  117.05400
 3828.50000   57.14510   14.00440  117.49740
 3829.00000   56.93440   15.04340  117.26290
 3829.50000   56.66810   16.09680  117.69050
 3830.00000   56.33650   16.83730  118.42690
 3830.50000   55.76590   16.74340  119.16330
 3831.00000   55.20280   16.00020  119.76920
 3831.50000   55.16980   15.50950  120.06110
 3832.00000   55.38500   14.95140  119.34470
 3832.50000   55.58860   14.83810  117.66130
 3833.00000   55.45630   15.63540  119.20980
 3833.50000   55.04490   16.35790  119.71050
 3834.00000   54.52870   16.40570  119.01510
 3834.50000   54.38590   15.62610  118.64040
 3835.00000   54.53010   14.63790  118.26570
 3835.50000   54.39180   14.03490  118.61720
 3836.00000   54.20660   13.94050  120.24830
 3836.50000   54.17170   13.79800  122.22580
 3837.00000   54.33390   13.81360  122.00720
 3837.50000   55.00150   14.02380  120.84970
 3838.00000   55.74350   14.46790  119.57850
 3838.50000   55.88860   15.25300  118.33150
 3839.00000   55.72300   15.96410  119.31470
 3839.50000   55.85900   16.44050  121.84780
 3840.00000   55.84650   16.91480  123.86970
 3840.50000   55.71980   17.32570  123.51060
 3841.00000   55.98570   17.51640  121.67510
 3841.50000   56.45310   16.89620  119.15460
 3842.00000   56.15220   16.57590  117.87140
 3842.50000   55.53890   16.53400  117.45840
 3843.00000   55.21090   16.88760  118.01490
 3843.50000   55.16800   17.20910  118.14660
 3844.00000   55.11970   17.36950  114.96910
 3844.50000   55.06130   17.42910  114.98760
 3845.00000   55.00280   17.29430  116.80630
 3845.50000   54.92580   17.60080  121.32410
 3846.00000   54.41370   18.39230  121.36600
 3846.50000   54.17800   19.31250  120.32590
 3847.00000   54.13160   19.84700  120.74140
 3847.50000   54.12760   20.26270  122.45580
 3848.00000   54.15140   20.44080  122.41110
 3848.50000   54.32270   19.73490  122.27140
 3849.00000   54.71800   18.17560  122.94360
 3849.50000   55.03080   17.11510  123.69790
 3850.00000   54.90620   16.52460  124.44660
 3850.50000   54.64880   17.17970  124.99690
