~Version ---------------------------------------------------
VERS.   2.0 : CWLS log ASCII Standard -VERSION 2.0
WRAP.    NO : One line per depth step
DLM . SPACE : Column Data Section Delimiter
~Well ------------------------------------------------------
STRT .F                3495.0 : START DEPTH
STOP .F                6880.0 : STOP DEPTH
STEP .F                   0.5 : STEP
NULL .               -9999.25 : NULL VALUE
COMP .                        : COMPANY
WELL .                        : WELL
FLD  .                        : FIELD
LOC  .                        : LOCATION
PROV .                        : PROVINCE
CNTY .                        : COUNTY
STAT .                        : STATE
CTRY .                        : COUNTRY
SRVC .                        : SERVICE COMPANY
DATE .                        : DATE
UWI  .                        : UNIQUE WELL ID
API  .                        : API NUMBER
SLAT .WGS84 1.678958417317098 : SURFACE LATITUDE
SLON .WGS84 6.390538637896995 : SURFACE LONGITUDE
DATUM.F               2661.54 : DEPTH DATUM ELEV
~Curve Information -----------------------------------------
DEPT.F     : 1 MEASURED DEPTH
DTCO.US/F  : DELTA-T COMPRESSIONAL
GRS .GAPI  : GAMMA RAY FROM SONIC LOG
DTSM.US/F  : DELTA-T SHEAR
~Params ----------------------------------------------------
~Other -----------------------------------------------------
~ASCII -----------------------------------------------------
# ...
 6788.00000   70.01940   67.99210  119.29940
 6788.50000   70.61330   69.75400  119.39110
 6789.00000   71.04910   69.23840  119.55240
 6789.50000   71.31730   66.73060  120.78140
 6790.00000   71.97350   64.44770  123.83870
 6790.50000   72.65030   62.72890  124.10420
 6791.00000   73.08430   62.27090  124.00020
 6791.50000   73.49680   63.22140  124.59440
 6792.00000   74.15370   63.79950  124.35830
 6792.50000   74.57720   63.75310  124.21290
 6793.00000   74.62930   63.78410  123.36610
 6793.50000   74.20480   64.67250  122.64730
 6794.00000   73.10290   67.23330  122.77510
 6794.50000   72.19610   70.28750  122.94500
 6795.00000   72.12600   71.78870  123.06280
 6795.50000   73.03140   71.42520  122.97030
 6796.00000   73.94870   71.58610  122.58870
 6796.50000   74.36160   73.04190  122.14120
 6797.00000   74.02170   74.18910  121.75050
 6797.50000   73.56300   72.85770  121.93600
 6798.00000   73.22780   69.58230  122.12140
 6798.50000   72.96100   68.08640  123.15420
 6799.00000   72.56200   70.90660  123.93730
 6799.50000   72.66290   74.57290  124.46550
 6800.00000   73.69830   77.41410  124.89510
 6800.50000   74.60450   79.72490  124.92950
 6801.00000   74.49950   81.39400  124.63580
 6801.50000   74.21490   80.76150  124.34200
 6802.00000   74.29640   75.72800  124.27120
 6802.50000   74.68030   72.93990  124.26240
 6803.00000   74.81450   73.60560  124.28130
 6803.50000   74.41750   76.35290  124.36500
 6804.00000   74.36520   78.01100  124.44870
 6804.50000   74.52770   78.21500  124.53240
 6805.00000   74.36330   78.61980  125.07600
 6805.50000   74.12160   79.01550  125.67600
 6806.00000   73.90530   78.12110  126.19720
 6806.50000   73.67860   75.82980  126.71840
 6807.00000   73.61790   73.36800  126.77810
 6807.50000   73.67560   70.74840  126.86490
 6808.00000   74.18770   68.45270  125.69800
 6808.50000   74.97430   67.36320  122.46300
 6809.00000   74.18670   65.95280  119.36960
 6809.50000   71.63930   61.80890  116.65130
 6810.00000   69.07850   58.86740  115.29690
 6810.50000   67.20540   59.15950  115.56830
 6811.00000   66.28030   63.58380  117.51300
 6811.50000   66.15930   67.45630  118.98090
 6812.00000   68.48040   68.70870  120.56850
 6812.50000   72.05600   68.73980  122.56050
 6813.00000   73.11320   68.71750  122.83670
 6813.50000   72.95340   68.59180  122.49300
 6814.00000   72.48590   68.07290  122.36500
 6814.50000   72.20600   67.43990  122.41800
 6815.00000   72.15510   67.22180  122.94890
 6815.50000   72.51170   68.94110  124.05300
 6816.00000   73.41070   72.89970  125.10780
 6816.50000   74.16310   77.37930  126.16260
 6817.00000   74.93440   80.35530  126.93050
 6817.50000   75.49560   79.87560  126.98060
 6818.00000   75.39180   76.50570  125.44740
 6818.50000   74.77690   70.26130  122.53250
 6819.00000   73.82450   63.90030  120.17460
 6819.50000   72.82120   58.38380  117.59180
 6820.00000   71.33950   54.92270  115.67500
 6820.50000   69.96240   53.19730  115.50280
 6821.00000   69.30360   53.40500  115.40050
 6821.50000   69.13300   57.19550  115.66960
 6822.00000   70.35680   63.35310  116.61120
 6822.50000   72.12970   70.88860  118.44660
 6823.00000   72.56970   74.61000  118.34790
 6823.50000   72.84000   74.39810  117.57030
 6824.00000   73.34260   70.15740  117.08630
 6824.50000   72.65010   67.66720  116.61400
 6825.00000   71.54800   67.76170  116.43100
 6825.50000   71.15820   69.53490  116.62130
 6826.00000   71.35420   71.59830  117.56970
 6826.50000   71.99900   73.31620  119.89760
 6827.00000   72.92660   75.01960  121.94790
 6827.50000   73.53430   77.38370  123.81720
 6828.00000   73.88110   81.15970  125.76380
 6828.50000   74.87740   84.50930  127.34300
 6829.00000   75.85660   84.56130  127.39610
 6829.50000   75.67930   80.20430  126.61730
 6830.00000   75.17990   74.09650  125.76900
 6830.50000   74.69430   68.99210  124.92060
 6831.00000   73.81720   67.25220  123.23020
 6831.50000   73.22660   70.97790  121.67850
 6832.00000   72.87420   78.37350  121.08160
 6832.50000   72.66870   85.35200  120.48460
 6833.00000   73.03540   84.40600  119.57200
 6833.50000   72.43610   75.12900  118.26220
 6834.00000   69.22780   64.17500  116.20750
 6834.50000   66.42460   61.05550  115.04860
 6835.00000   65.22670   65.34980  115.05070
 6835.50000   65.12550   72.54740  115.88990
 6836.00000   66.05170   77.31250  116.96150
 6836.50000   68.67220   77.64720  119.56250
 6837.00000   70.60710   73.67700  119.98740
 6837.50000   71.02020   66.86870  120.09190
 6838.00000   70.86720   62.34240  120.09320
 6838.50000   70.64880   61.30830  121.05870
 6839.00000   70.98380   64.72040  122.85970
 6839.50000   72.13060   70.59680  125.09010
 6840.00000   73.87360   75.76710  127.20130
 6840.50000   76.18840   80.04440  129.39150
 6841.00000   78.02170   83.50800  131.04020
 6841.50000   79.09800   85.03790  131.21360
 6842.00000   79.08020   85.03160  131.08480
 6842.50000   78.49410   84.31850  129.79840
 6843.00000   77.74090   83.62190  128.32430
 6843.50000   76.69410   82.46790  126.57690
 6844.00000   75.55290   81.41960  124.82960
 6844.50000   74.59870   80.88860  123.08220
 6845.00000   72.86110   79.17650  121.15910
 6845.50000   70.66170   73.99620  118.60020
 6846.00000   68.80960   67.41150  114.96410
 6846.50000   67.26550   62.12340  113.30730
 6847.00000   66.18200   61.55760  113.33830
 6847.50000   65.89360   62.08270  113.65350
 6848.00000   66.39700   62.62540  114.56080
 6848.50000   68.22220   65.68260  117.45960
 6849.00000   69.96390   73.03140  120.23360
 6849.50000   71.23980   79.72060  122.34460
 6850.00000   73.26010   81.80090  124.67120
 6850.50000   75.14930   81.84850  126.04810
 6851.00000   75.44320   81.29580  126.04240
 6851.50000   74.79860   80.34550  126.03750
 6852.00000   74.47690   77.61630  126.12510
 6852.50000   75.13230   75.74740  126.21260
 6853.00000   75.95570   77.40560  126.23630
 6853.50000   76.06250   83.37200  126.15200
 6854.00000   76.06650   89.55100  125.62740
 6854.50000   76.02910   91.88310  124.14230
 6855.00000   75.65860   88.37850  121.79890
 6855.50000   74.52220   82.56840  119.87130
 6856.00000   73.13030   76.75820  117.94360
 6856.50000   71.15480   70.71190  116.01590
 6857.00000   70.23670   66.42430  115.43190
 6857.50000   69.87750   -9999.25  114.84930
 6858.00000   69.64980   -9999.25  114.29960
 6858.50000   69.54440   -9999.25  113.80000
 6859.00000   68.97430   -9999.25  113.07730
 6859.50000   67.66890   -9999.25  112.24060
 6860.00000   66.56920   -9999.25  111.40400
 6860.50000   65.94700   -9999.25  110.56730
 6861.00000   65.62350   -9999.25  109.88270
 6861.50000   65.39100   -9999.25  109.44720
 6862.00000   64.97900   -9999.25  109.01180
 6862.50000   64.85810   -9999.25  108.57640
 6863.00000   64.84750   -9999.25  108.67750
 6863.50000   64.70650   -9999.25  108.88770
 6864.00000   64.80660   -9999.25  109.26200
 6864.50000   65.18460   -9999.25  109.67800
 6865.00000   65.85240   -9999.25  110.09370
 6865.50000   66.59990   -9999.25  110.50980
 6866.00000   66.92310   -9999.25  111.50980
 6866.50000   67.03780   -9999.25  113.46500
 6867.00000   67.28870   -9999.25  116.07090
 6867.50000   67.03150   -9999.25  118.62630
 6868.00000   66.95860   -9999.25  119.73290
 6868.50000   67.65130   -9999.25  119.76570
 6869.00000   68.38730   -9999.25  119.48610
 6869.50000   68.09130   -9999.25  118.36780
 6870.00000   67.57180   -9999.25  117.24940
 6870.50000   67.15150   -9999.25  116.43710
 6871.00000   67.10270   -9999.25  116.29490
 6871.50000   67.33720   -9999.25  116.94680
 6872.00000   68.01060   -9999.25  117.51720
 6872.50000   68.67720   -9999.25  117.92610
 6873.00000   69.21250   -9999.25  118.52250
 6873.50000   69.94040   -9999.25  120.16510
 6874.00000   70.66460   -9999.25  121.74260
 6874.50000   71.24860   -9999.25  122.27570
 6875.00000   72.04950   -9999.25  122.92980
 6875.50000   73.46290   -9999.25  123.78790
 6876.00000   74.47120   -9999.25  124.61000
 6876.50000   74.69050   -9999.25  123.71030
