~Version ---------------------------------------------------
VERS.   2.0 : CWLS log ASCII Standard -VERSION 2.0
WRAP.    NO : One line per depth step
DLM . SPACE : Column Data Section Delimiter
~Well ------------------------------------------------------
STRT .F                3495.0 : START DEPTH
STOP .F                6880.0 : STOP DEPTH
STEP .F                   0.5 : STEP
NULL .               -9999.25 : NULL VALUE
COMP .                        : COMPANY
WELL .                        : WELL
FLD  .                        : FIELD
LOC  .                        : LOCATION
PROV .                        : PROVINCE
CNTY .                        : COUNTY
STAT .                        : STATE
CTRY .                        : COUNTRY
SRVC .                        : SERVICE COMPANY
DATE .                        : DATE
UWI  .                        : UNIQUE WELL ID
API  .                        : API NUMBER
SLAT .WGS84 1.678958417317098 : SURFACE LATITUDE
SLON .WGS84 6.390538637896995 : SURFACE LONGITUDE
DATUM.F               2661.54 : DEPTH DATUM ELEV
~Curve Information -----------------------------------------
DEPT.F     : 1 MEASURED DEPTH
DTCO.US/F  : DELTA-T COMPRESSIONAL
GRS .GAPI  : GAMMA RAY FROM SONIC LOG
DTSM.US/F  : DELTA-T SHEAR
~Params ----------------------------------------------------
~Other -----------------------------------------------------
~ASCII -----------------------------------------------------
 3495.00000   55.86980   11.16320   99.23720
 3495.50000   56.09240    9.61840  102.27650
 3496.00000   56.34160    9.37410  103.05200
 3496.50000   56.60000   10.48070   99.33070
 3497.00000   56.86740   11.50990   95.67630
 3497.50000   57.09420   11.42340   94.55500
 3498.00000   56.95900   11.17020   95.32010
 3498.50000   56.69510   11.44780   98.10610
 3499.00000   56.30400   12.19770   95.17040
 3499.50000   55.85640   13.15890   88.00420
 3500.00000   55.69150   15.54590   85.01080
 3500.50000   56.75480   20.01790   84.56950
 3501.00000   57.77750   27.39030   85.03390
 3501.50000   57.42350   32.82600   84.35190
 3502.00000   56.31110   34.59840   80.22020
 3502.50000   56.34930   34.08080   78.64470
 3503.00000   57.08000   31.68640   79.84640
 3503.50000   57.52970   25.77480   81.41970
 3504.00000   57.41480   19.47310   85.47310
 3504.50000   57.22040   13.17140   92.17370
 3505.00000   57.13770    8.70630   97.03750
 3505.50000   57.13190    6.76340  100.79900
 3506.00000   57.13680    6.45380  102.65390
 3506.50000   57.12950    6.69350  102.11310
 3507.00000   57.12330    6.90930  101.58820
 3507.50000   57.12230    6.84010  101.66120
 3508.00000   57.09420    6.60490  102.88930
 3508.50000   56.92260    6.60010  102.10540
 3509.00000   56.45010    7.47710   98.14870
 3509.50000   55.97080    9.09150   95.66370
 3510.00000   55.75470   10.30700   97.06810
 3510.50000   55.86900   11.37460  102.27150
 3511.00000   56.39530   11.70380  107.65670
 3511.50000   57.20720   12.00090  112.07530
 3512.00000   57.96250   13.08230  117.77180
 3512.50000   57.88580   15.06410  120.75610
 3513.00000   57.42160   17.70720  122.32880
 3513.50000   56.92330   19.41700  122.49250
 3514.00000   56.13290   19.47110  122.40750
 3514.50000   55.49310   19.16530  122.59070
 3515.00000   55.19860   18.20970  123.35350
 3515.50000   55.16780   16.81720  123.82550
 3516.00000   55.16120   15.34360  124.73300
 3516.50000   55.15490   14.47820  123.04590
 3517.00000   55.14860   14.15950  119.08660
 3517.50000   55.14230   13.82900  114.90640
 3518.00000   55.13600   13.61890  111.43450
 3518.50000   55.12970   13.59440  112.19530
 3519.00000   55.12340   13.97390  113.91480
 3519.50000   55.11730   14.51100  112.14050
 3520.00000   55.11130   15.24070   99.27190
 3520.50000   55.10530   15.63540   88.59500
 3521.00000   55.09930   15.61960   78.25090
 3521.50000   55.09330   15.05060   77.31710
 3522.00000   55.08730   14.08720   81.33620
 3522.50000   55.08130   12.66340   90.24200
 3523.00000   55.04670   12.42790  100.82230
 3523.50000   54.93900   12.99230  108.98610
 3524.00000   54.83130   13.31140  115.45200
 3524.50000   54.92410   12.21480  120.19810
 3525.00000   55.06070   11.02390  119.68340
 3525.50000   55.12020   10.04210  119.20880
 3526.00000   55.30780   10.87030  119.55600
 3526.50000   55.73480   11.98310  119.59560
 3527.00000   56.05450   13.02720  118.70490
 3527.50000   55.94430   13.84930  117.42710
 3528.00000   55.74100   14.01220  115.38660
 3528.50000   55.66200   13.36290  113.94120
 3529.00000   55.69310   12.31590  111.83630
 3529.50000   55.87100   11.51640  111.41020
 3530.00000   56.05490   12.30030  112.20600
 3530.50000   56.11800   13.36490  113.10710
 3531.00000   56.11490   14.37720  113.74480
 3531.50000   56.11190   14.89040  112.75060
 3532.00000   56.06470   15.03280  107.06660
 3532.50000   55.89560   14.83130  100.58450
 3533.00000   55.46840   14.20510   95.09780
 3533.50000   55.43460   14.16920   89.47710
 3534.00000   55.78590   15.14110   85.08600
 3534.50000   56.26270   17.05580   86.63450
 3535.00000   56.81130   19.44160   91.79190
 3535.50000   57.09860   20.69180   99.45150
 3536.00000   58.22310   20.35040  109.58190
 3536.50000   60.02640   19.20610  119.22950
 3537.00000   59.62330   19.55460  121.11110
 3537.50000   58.04680   20.48660  118.97880
 3538.00000   56.70220   21.04470  115.23880
 3538.50000   56.56400   20.26220  115.50550
 3539.00000   56.89580   18.32870  117.06810
 3539.50000   57.27750   16.30580  118.60050
 3540.00000   57.60400   14.67330  119.31870
 3540.50000   56.72960   12.72400  117.16340
 3541.00000   55.51330   10.95080  113.66520
 3541.50000   54.91620    9.57090  111.43820
 3542.00000   54.81180    9.32590  110.58510
 3542.50000   54.70540    9.26820  110.27960
 3543.00000   55.30490    8.46650  108.22520
 3543.50000   56.58590    6.87760  107.28350
 3544.00000   57.05550    5.49480  106.11840
 3544.50000   56.35410    4.38530  105.34600
 3545.00000   55.59300    3.87130  105.34440
 3545.50000   55.16840    3.38960  104.91530
 3546.00000   55.04040    3.12000  104.59510
 3546.50000   54.89850    3.53030  104.24080
 3547.00000   54.49410    4.30010  103.05960
 3547.50000   54.21000    4.91930  101.10420
 3548.00000   54.59740    5.69740   99.32600
 3548.50000   56.65080    7.03670   96.89100
 3549.00000   59.20250   10.49370   97.08460
 3549.50000   60.41780   15.32050   99.87500
 3550.00000   58.47080   20.15320  100.10520
 3550.50000   55.54560   23.55010   99.36560
 3551.00000   54.88310   20.52670   99.00860
 3551.50000   54.85050   14.79760   99.25420
 3552.00000   54.44820    9.03750   98.35930
 3552.50000   53.73640    5.57590   97.09080
 3553.00000   52.68690    4.16650   97.08200
 3553.50000   53.32820    3.73070   97.93250
 3554.00000   56.01900    3.39750  100.87630
 3554.50000   54.62380    3.19560   98.78880
 3555.00000   52.35060    3.29690   95.48910
 3555.50000   52.28260    3.69700   93.80870
 3556.00000   52.44850    4.22900   91.38670
 3556.50000   52.60900    4.97520   87.96050
 3557.00000   54.99560    5.80590   90.11480
 3557.50000   55.91210    7.07290   92.72870
 3558.00000   54.83300   10.53380   92.60720
 3558.50000   53.98570   15.47560   91.99800
 3559.00000   53.20610   20.90460   90.86900
 3559.50000   53.45540   25.77920   91.32570
 3560.00000   55.54050   27.39260   95.08170
 3560.50000   57.35960   27.78260  100.95450
 3561.00000   57.60730   28.27940  103.49370
 3561.50000   56.75620   29.75320  104.76140
 3562.00000   56.29050   31.73840  105.67110
 3562.50000   56.30080   33.71760  107.11400
 3563.00000   56.75590   34.78270  110.36280
 3563.50000   57.06520   34.50850  114.15000
 3564.00000   57.11400   33.62570  114.62630
 3564.50000   57.10400   32.89210  113.45990
 3565.00000   57.10400   32.47900  111.73820
 3565.50000   57.11520   31.07710  110.17640
 3566.00000   57.12640   28.78230  110.32610
 3566.50000   57.11490   27.37220  111.44600
 3567.00000   57.08580   28.58570  111.41700
 3567.50000   56.92540   29.64080  111.08400
 3568.00000   56.38760   26.57110  110.71680
 3568.50000   56.18540   19.47120  109.38040
 3569.00000   56.32420   12.25250  106.92120
 3569.50000   56.94300    7.77680  106.12210
 3570.00000   57.38060    6.53440  106.53260
 3570.50000   57.40190    7.07390  108.56340
 3571.00000   56.93840    8.84280  111.39400
 3571.50000   56.41950    9.84820  115.16870
 3572.00000   55.92650   10.39690  120.47690
 3572.50000   55.71250   10.81160  124.28940
 3573.00000   57.24060   11.34110  126.86210
 3573.50000   60.12660   12.03870  132.94670
 3574.00000   57.59380   12.29870  124.79580
 3574.50000   54.41640   12.18700  115.72180
 3575.00000   55.71100   11.95900  114.91680
 3575.50000   56.25940   12.20010  113.67510
 3576.00000   55.42010   12.85450  107.92970
 3576.50000   54.87180   14.56370  106.48170
 3577.00000   55.32140   17.99830  108.44300
 3577.50000   55.13080   22.90200  108.40110
 3578.00000   54.75690   28.21680  108.32150
 3578.50000   54.90550   32.12060  108.88990
 3579.00000   55.25510   32.94960  109.53070
 3579.50000   55.75660   32.06270  110.17150
 3580.00000   55.82650   30.07660  110.44350
 3580.50000   55.68250   28.46430  109.95940
 3581.00000   55.98440   27.88270  109.64940
 3581.50000   57.13460   28.07470  111.72410
 3582.00000   58.20740   28.54690  114.78750
 3582.50000   57.61680   29.29310  115.56930
 3583.00000   56.76190   31.00600  114.34110
 3583.50000   56.58380   33.27810  112.32720
