~Version ---------------------------------------------------
VERS.   2.0 : CWLS log ASCII Standard -VERSION 2.0
WRAP.    NO : One line per depth step
DLM . SPACE : Column Data Section Delimiter
~Well ------------------------------------------------------
STRT .F                3495.0 : START DEPTH
STOP .F                6880.0 : STOP DEPTH
STEP .F                   0.5 : STEP
NULL .               -9999.25 : NULL VALUE
COMP .                        : COMPANY
WELL .                        : WELL
FLD  .                        : FIELD
LOC  .                        : LOCATION
PROV .                        : PROVINCE
CNTY .                        : COUNTY
STAT .                        : STATE
CTRY .                        : COUNTRY
SRVC .                        : SERVICE COMPANY
DATE .                        : DATE
UWI  .                        : UNIQUE WELL ID
API  .                        : API NUMBER
SLAT .WGS84 1.678958417317098 : SURFACE LATITUDE
SLON .WGS84 6.390538637896995 : SURFACE LONGITUDE
DATUM.F               2661.54 : DEPTH DATUM ELEV
~Curve Information -----------------------------------------
DEPT.F     : 1 MEASURED DEPTH
DTCO.US/F  : DELTA-T COMPRESSIONAL
GRS .GAPI  : GAMMA RAY FROM SONIC LOG
DTSM.US/F  : DELTA-T SHEAR
~Params ----------------------------------------------------
~Other -----------------------------------------------------
~ASCII -----------------------------------------------------
# ...
 6432.00000   86.08590   79.09610  150.87890
 6432.50000   84.75330   73.59980  151.38290
 6433.00000   84.38210   68.60680  151.92910
 6433.50000   84.97270   70.24090  152.17460
 6434.00000   86.21660   75.35060  152.03800
 6434.50000   87.75360   80.01040  151.88870
 6435.00000   88.34670   82.95880  151.33160
 6435.50000   88.15680   84.29020  151.10760
 6436.00000   87.93170   82.87170  151.04290
 6436.50000   87.22810   78.95840  150.84960
 6437.00000   86.51550   76.02580  151.13760
 6437.50000   86.60730   76.24810  151.19170
 6438.00000   87.16380   77.97980  151.29270
 6438.50000   87.79080   78.58050  151.27780
 6439.00000   88.50710   78.54950  152.38370
 6439.50000   88.85900   78.99760  151.81460
 6440.00000   89.23890   79.92750  150.86580
 6440.50000   89.72000   80.99610  149.47800
 6441.00000   89.84880   82.09920  148.84830
 6441.50000   89.39820   83.69010  148.28730
 6442.00000   89.11520   85.33780  149.00550
 6442.50000   88.81410   85.34810  149.25430
 6443.00000   87.09860   84.55160  149.86780
 6443.50000   85.41240   84.87030  150.73940
 6444.00000   86.33990   86.02310  152.81270
 6444.50000   87.87980   86.82540  156.20730
 6445.00000   88.80360   86.71640  159.77060
 6445.50000   87.29000   87.15590  161.46690
 6446.00000   85.56970   88.41100  159.72240
 6446.50000   85.04270   89.63190  157.06720
 6447.00000   85.79340   90.54960  155.50610
 6447.50000   86.56780   90.51610  153.94010
 6448.00000   84.80350   90.33430  152.94240
 6448.50000   82.36360   90.05300  150.84110
 6449.00000   80.95780   88.99290  148.42730
 6449.50000   81.54510   85.76530  146.27080
 6450.00000   82.75610   83.98070  143.98300
 6450.50000   81.95650   82.94590  142.36730
 6451.00000   79.74950   80.24960  140.41910
 6451.50000   78.96340   74.86600  137.91600
 6452.00000   79.21430   66.95800  138.29410
 6452.50000   80.05840   67.07880  140.84860
 6453.00000   81.78080   71.50920  145.86190
 6453.50000   84.40380   77.05280  152.41310
 6454.00000   87.26280   82.23050  155.51150
 6454.50000   89.52940   86.11120  154.89290
 6455.00000   89.86620   87.92310  153.26230
 6455.50000   89.48460   89.22000  152.22560
 6456.00000   89.19490   89.22570  154.52220
 6456.50000   89.10720   88.75980  157.08280
 6457.00000   88.95110   89.15730  159.12900
 6457.50000   88.53600   90.73180  159.54120
 6458.00000   88.22340   90.55280  158.95910
 6458.50000   87.42880   87.95950  157.92110
 6459.00000   86.43890   84.48410  157.47830
 6459.50000   87.63990   82.68060  158.73650
 6460.00000   89.13610   81.96710  161.73830
 6460.50000   89.39110   80.58650  164.34950
 6461.00000   90.21870   79.05910  161.18460
 6461.50000   90.45310   79.35290  150.44120
 6462.00000   89.53000   81.31980  140.38650
 6462.50000   89.18930   84.10690  134.29860
 6463.00000   89.52610   86.73350  130.04750
 6463.50000   89.09350   89.19900  129.60100
 6464.00000   88.02520   90.10260  130.62820
 6464.50000   86.90090   91.18900  135.58720
 6465.00000   86.55080   92.22640  144.93670
 6465.50000   85.71560   92.43550  152.58230
 6466.00000   85.69130   90.98560  154.98510
 6466.50000   87.89930   89.50850  157.50330
 6467.00000   89.89570   90.24580  159.92900
 6467.50000   89.56770   90.37730  161.19940
 6468.00000   88.01280   88.15880  159.92080
 6468.50000   86.77260   83.59250  156.89050
 6469.00000   84.51320   78.67180  151.74970
 6469.50000   80.74970   73.30530  145.77720
 6470.00000   79.31600   69.08660  145.75790
 6470.50000   78.97400   69.90500  148.71900
 6471.00000   78.99330   75.04460  150.19000
 6471.50000   80.55370   80.92900  149.19010
 6472.00000   83.86140   83.10850  148.37430
 6472.50000   86.63230   83.23170  149.06490
 6473.00000   87.69040   85.86710  148.75600
 6473.50000   88.06050   89.85800  148.44700
 6474.00000   88.13570   90.92750  147.99090
 6474.50000   88.10450   89.00930  147.47660
 6475.00000   88.34210   85.13560  146.36890
 6475.50000   88.11940   81.99700  145.26110
 6476.00000   85.66300   78.27410  142.33710
 6476.50000   82.66540   72.45530  140.34110
 6477.00000   80.90720   67.24910  140.57820
 6477.50000   80.88020   65.97080  141.46780
 6478.00000   81.79020   70.03330  143.91280
 6478.50000   83.85480   76.09620  146.70340
 6479.00000   85.82580   78.72200  149.14880
 6479.50000   87.20820   78.91910  149.95740
 6480.00000   87.06870   80.32520  148.43220
 6480.50000   86.17040   82.36290  146.90700
 6481.00000   86.10620   83.32610  146.91560
 6481.50000   86.51530   82.43210  147.14370
 6482.00000   86.30930   80.75240  147.37180
 6482.50000   86.12090   78.89690  147.59980
 6483.00000   86.09900   77.47520  148.19490
 6483.50000   86.60020   77.28770  148.90530
 6484.00000   87.79010   80.10190  149.61570
 6484.50000   88.75340   84.57630  149.92480
 6485.00000   88.59050   87.17920  148.16560
 6485.50000   87.63760   86.72480  142.60210
 6486.00000   86.98880   86.12230  140.21310
 6486.50000   86.66690   87.18020  142.33880
 6487.00000   87.06380   88.63730  145.41680
 6487.50000   87.24900   88.44450  146.92610
 6488.00000   86.90970   87.02570  147.99140
 6488.50000   86.90600   84.94040  148.88720
 6489.00000   87.43330   83.60890  148.81640
 6489.50000   88.00320   83.79900  147.95320
 6490.00000   87.68700   86.10120  146.44390
 6490.50000   87.18330   88.16560  144.62390
 6491.00000   86.70200   87.83400  143.88260
 6491.50000   86.80390   83.53050  144.43730
 6492.00000   86.63390   77.87530  144.28020
 6492.50000   86.21930   73.29620  143.41380
 6493.00000   86.29630   73.90710  142.54730
 6493.50000   87.14100   77.83640  143.05250
 6494.00000   88.21190   82.75350  144.53420
 6494.50000   88.97310   86.77880  145.67780
 6495.00000   88.90950   87.66760  147.65340
 6495.50000   88.25830   86.38690  148.48040
 6496.00000   87.73440   83.27110  148.94510
 6496.50000   87.95740   81.26960  149.80650
 6497.00000   88.51640   80.57440  150.37090
 6497.50000   88.17090   81.07840  149.87080
 6498.00000   87.68800   81.74430  148.99040
 6498.50000   87.56510   82.94540  148.41320
 6499.00000   87.60030   84.71250  149.13080
 6499.50000   87.82810   85.43640  150.97820
 6500.00000   88.10250   83.97440  151.44140
 6500.50000   88.36260   82.45870  151.24700
 6501.00000   88.78840   84.42240  152.92990
 6501.50000   89.31470   88.89400  155.70120
 6502.00000   90.07460   91.28190  158.47260
 6502.50000   90.71310   90.43560  159.83140
 6503.00000   90.70290   90.79240  160.24550
 6503.50000   89.59240   92.75290  159.31640
 6504.00000   87.80180   93.93130  157.54760
 6504.50000   86.40240   91.65720  155.77890
 6505.00000   86.07340   86.03700  153.91050
 6505.50000   85.79640   80.31620  152.20240
 6506.00000   85.06610   77.02250  150.08320
 6506.50000   84.19460   75.52880  146.93150
 6507.00000   83.61180   75.66060  147.24510
 6507.50000   84.01930   76.74100  149.76870
 6508.00000   85.09590   78.49390  152.29230
 6508.50000   86.20290   81.31920  153.23450
 6509.00000   87.35510   84.33920  152.75300
 6509.50000   88.04450   86.19530  151.61130
 6510.00000   87.97550   84.91480  149.11720
 6510.50000   87.63860   81.23340  146.03110
 6511.00000   87.03190   78.18030  146.15250
 6511.50000   86.67450   77.15750  146.95580
 6512.00000   86.39930   79.40270  147.42060
 6512.50000   86.16240   82.65880  147.50000
 6513.00000   86.11200   85.15380  147.57940
 6513.50000   86.47110   86.15160  147.73850
 6514.00000   87.37990   85.36890  147.92610
 6514.50000   88.12840   82.78290  148.07020
 6515.00000   88.72070   80.80270  148.15540
 6515.50000   88.84740   80.43750  148.24060
 6516.00000   88.23460   80.74470  148.24660
 6516.50000   87.12860   81.02670  148.24410
 6517.00000   86.86640   80.99790  148.19090
 6517.50000   86.83800   81.26600  148.10250
 6518.00000   86.73230   82.44210  147.97480
 6518.50000   86.82750   83.99830  147.28560
 6519.00000   87.03630   84.85870  146.75290
 6519.50000   86.88380   84.12440  146.97970
 6520.00000   86.68590   82.42510  146.37080
 6520.50000   86.59530   81.84600  145.43660
