~Version ---------------------------------------------------
VERS.   2.0 : CWLS log ASCII Standard -VERSION 2.0
WRAP.    NO : One line per depth step
DLM . SPACE : Column Data Section Delimiter
~Well ------------------------------------------------------
STRT .F                3495.0 : START DEPTH
STOP .F                6880.0 : STOP DEPTH
STEP .F                   0.5 : STEP
NULL .               -9999.25 : NULL VALUE
COMP .                        : COMPANY
WELL .                        : WELL
FLD  .                        : FIELD
LOC  .                        : LOCATION
PROV .                        : PROVINCE
CNTY .                        : COUNTY
STAT .                        : STATE
CTRY .                        : COUNTRY
SRVC .                        : SERVICE COMPANY
DATE .                        : DATE
UWI  .                        : UNIQUE WELL ID
API  .                        : API NUMBER
SLAT .WGS84 1.678958417317098 : SURFACE LATITUDE
SLON .WGS84 6.390538637896995 : SURFACE LONGITUDE
DATUM.F               2661.54 : DEPTH DATUM ELEV
~Curve Information -----------------------------------------
DEPT.F     : 1 MEASURED DEPTH
DTCO.US/F  : DELTA-T COMPRESSIONAL
GRS .GAPI  : GAMMA RAY FROM SONIC LOG
DTSM.US/F  : DELTA-T SHEAR
~Params ----------------------------------------------------
~Other -----------------------------------------------------
~ASCII -----------------------------------------------------
# ...
 5987.00000   -9999.25   -9999.25   -9999.25
 5987.50000   -9999.25   -9999.25   -9999.25
 5988.00000   -9999.25   -9999.25   -9999.25
 5988.50000   -9999.25   -9999.25   -9999.25
 5989.00000   -9999.25   -9999.25   -9999.25
 5989.50000   -9999.25   -9999.25   -9999.25
 5990.00000   -9999.25   -9999.25   -9999.25
 5990.50000   -9999.25   -9999.25   -9999.25
 5991.00000   -9999.25   -9999.25   -9999.25
 5991.50000   -9999.25   -9999.25   -9999.25
 5992.00000   -9999.25   -9999.25   -9999.25
 5992.50000   -9999.25   -9999.25   -9999.25
 5993.00000   -9999.25   -9999.25   -9999.25
 5993.50000   -9999.25   -9999.25   -9999.25
 5994.00000   -9999.25   -9999.25   -9999.25
 5994.50000   -9999.25   -9999.25   -9999.25
 5995.00000   -9999.25   -9999.25   -9999.25
 5995.50000   -9999.25   -9999.25   -9999.25
 5996.00000   -9999.25   -9999.25   -9999.25
 5996.50000   -9999.25   -9999.25   -9999.25
 5997.00000   88.99850   76.81360  163.05530
 5997.50000   89.14340   76.66910  163.50570
 5998.00000   89.54640   75.34200  164.02240
 5998.50000   90.49470   73.87830  164.88640
 5999.00000   91.20490   73.53640  165.63100
 5999.50000   90.46540   74.90060  165.86160
 6000.00000   88.88750   78.62050  164.45330
 6000.50000   87.95950   82.46480  162.41910
 6001.00000   87.61510   84.37160  163.93510
 6001.50000   87.60670   82.87230  164.27640
 6002.00000   87.59590   79.26580  163.76610
 6002.50000   87.60270   77.50030  162.67110
 6003.00000   87.56810   78.52080  160.34690
 6003.50000   87.19210   79.65760  157.29000
 6004.00000   85.71460   76.78960  154.07620
 6004.50000   82.29630   70.34440  150.37330
 6005.00000   80.79790   64.36790  149.47370
 6005.50000   80.97300   62.17700  152.38870
 6006.00000   81.81520   63.70440  156.54240
 6006.50000   81.86920   65.33760  155.11390
 6007.00000   82.37610   66.24570  150.78060
 6007.50000   83.06020   67.74960  148.03600
 6008.00000   82.21490   70.12350  143.45300
 6008.50000   80.37640   71.99360  138.53420
 6009.00000   79.50590   71.64680  134.85800
 6009.50000   78.87750   70.01470  134.16290
 6010.00000   78.58020   70.35910  134.58420
 6010.50000   78.61320   72.07710  135.11980
 6011.00000   79.94440   77.15220  136.28550
 6011.50000   81.39960   82.76090  137.89790
 6012.00000   82.85280   87.84610  139.35890
 6012.50000   83.79950   89.39320  140.89260
 6013.00000   84.14260   89.50600  143.03600
 6013.50000   84.60850   88.43920  146.84340
 6014.00000   85.67510   86.61820  156.82790
 6014.50000   87.05650   83.53690  160.53060
 6015.00000   88.32540   80.65670  158.60480
 6015.50000   88.83720   80.40800  158.77040
 6016.00000   89.22040   82.66430  158.66860
 6016.50000   89.08660   85.13340  157.05240
 6017.00000   86.86920   86.58430  151.73850
 6017.50000   82.40260   83.66480  142.98890
 6018.00000   78.12920   74.49660  133.32200
 6018.50000   75.35450   62.92630  125.64710
 6019.00000   74.72170   59.13290  126.51430
 6019.50000   75.88010   65.00210  129.91080
 6020.00000   77.67480   72.98110  134.02680
 6020.50000   80.39030   77.75700  137.17440
 6021.00000   83.41360   77.36720  141.02270
 6021.50000   85.55550   74.87220  144.78400
 6022.00000   85.82720   74.05590  147.01040
 6022.50000   85.67580   77.94270  148.83760
 6023.00000   85.84990   82.70420  148.99310
 6023.50000   86.20460   87.34050  148.85090
 6024.00000   86.98370   87.01140  150.92720
 6024.50000   87.90740   85.21150  153.96940
 6025.00000   88.69190   84.84490  156.62570
 6025.50000   88.86330   85.86600  157.92060
 6026.00000   88.63680   86.31870  156.26510
 6026.50000   88.16720   85.58690  155.19170
 6027.00000   86.70400   84.42730  152.25210
 6027.50000   84.85910   83.73660  147.63430
 6028.00000   83.76580   82.02220  145.33770
 6028.50000   82.77730   78.97520  143.16760
 6029.00000   82.13020   77.16650  141.30910
 6029.50000   81.68940   79.63080  140.03070
 6030.00000   81.07560   82.89280  139.84530
 6030.50000   80.62710   83.29730  139.62130
 6031.00000   80.39920   78.85900  139.41970
 6031.50000   80.20880   74.29250  139.22580
 6032.00000   80.37630   75.60670  139.07300
 6032.50000   81.21480   82.01450  141.01900
 6033.00000   82.49460   87.73320  145.30820
 6033.50000   82.64970   88.72190  151.19580
 6034.00000   83.27360   86.97310  158.14860
 6034.50000   85.65700   84.30680  163.06910
 6035.00000   87.90940   82.88470  165.40210
 6035.50000   88.78910   83.48420  164.49190
 6036.00000   88.74880   86.66250  162.01340
 6036.50000   87.83350   89.06870  158.73630
 6037.00000   85.36570   86.72120  157.62160
 6037.50000   82.03060   78.06590  156.91210
 6038.00000   79.00700   70.77680  153.54700
 6038.50000   77.93060   72.35110  149.96630
 6039.00000   79.70870   78.94060  150.07590
 6039.50000   82.62510   84.14010  150.57210
 6040.00000   84.80490   86.22400  151.06830
 6040.50000   85.69400   87.44200  151.26020
 6041.00000   85.62470   87.20370  148.96520
 6041.50000   84.34700   85.90980  144.69730
 6042.00000   82.72800   83.98830  139.07700
 6042.50000   81.54530   82.25590  138.64020
 6043.00000   81.17180   80.97680  138.09600
 6043.50000   80.90360   79.76140  136.22470
 6044.00000   79.83820   78.97930  133.84480
 6044.50000   77.98680   77.71280  131.40760
 6045.00000   75.93780   76.23120  129.76370
 6045.50000   74.66340   76.21440  130.08260
 6046.00000   74.74090   78.48270  130.96880
 6046.50000   76.86060   81.79350  131.95950
 6047.00000   79.95850   81.65500  133.23840
 6047.50000   82.68830   80.58460  134.95970
 6048.00000   81.93310   81.56520  136.67760
 6048.50000   80.04830   84.06250  137.09360
 6049.00000   78.43890   86.24520  137.59200
 6049.50000   79.19390   86.96390  139.45650
 6050.00000   81.03590   85.55440  145.61150
 6050.50000   83.82170   81.97310  154.75580
 6051.00000   85.34410   77.39550  162.51220
 6051.50000   86.00890   72.73740  167.98070
 6052.00000   86.47610   69.87890  167.57340
 6052.50000   86.34850   68.08730  164.17320
 6053.00000   86.04110   68.08210  160.93830
 6053.50000   85.37660   70.69870  159.84340
 6054.00000   84.22890   73.75030  161.73190
 6054.50000   83.58910   76.81680  165.38630
 6055.00000   83.55430   79.40980  169.44650
 6055.50000   84.25040   79.77780  170.84160
 6056.00000   85.78580   77.86290  166.64190
 6056.50000   87.85890   74.20300  161.06080
 6057.00000   89.76380   71.51370  163.19280
 6057.50000   89.62060   69.91830  164.65180
 6058.00000   88.68060   73.65810  160.77770
 6058.50000   87.47810   79.91530  155.94360
 6059.00000   86.04270   85.60640  151.58130
 6059.50000   85.88510   86.99680  148.87540
 6060.00000   86.06700   86.15850  147.05640
 6060.50000   85.74740   83.97690  147.17130
 6061.00000   85.45920   84.20730  147.31070
 6061.50000   85.75650   86.72000  147.76900
 6062.00000   86.24120   87.88820  149.62070
 6062.50000   86.77260   87.58490  152.33740
 6063.00000   87.02890   86.53840  154.59420
 6063.50000   86.41190   87.40340  153.02010
 6064.00000   85.61660   90.48590  151.10490
 6064.50000   85.54880   92.40990  150.14820
 6065.00000   85.55960   92.53270  150.46920
 6065.50000   84.86750   91.05170  149.93890
 6066.00000   83.52570   89.18960  148.89070
 6066.50000   82.54470   88.05080  148.19760
 6067.00000   81.87860   86.20200  147.50460
 6067.50000   80.33610   78.54950  145.87490
 6068.00000   78.01650   68.06200  142.75740
 6068.50000   76.79670   57.35120  140.80640
 6069.00000   76.83900   54.66670  141.52360
 6069.50000   77.17730   56.90510  142.46340
 6070.00000   77.75440   58.39140  142.97600
 6070.50000   78.66510   59.65990  141.37720
 6071.00000   80.07350   63.65410  141.24680
 6071.50000   80.57270   70.75910  141.78810
 6072.00000   80.85710   78.12280  145.94320
 6072.50000   82.52970   82.08310  151.19400
 6073.00000   84.83480   81.76160  155.28150
 6073.50000   86.94060   80.13470  155.11970
 6074.00000   87.64760   79.14080  153.60470
 6074.50000   86.94830   78.22360  149.10680
 6075.00000   84.95180   75.83070  143.03850
 6075.50000   82.97920   72.53550  138.24110
