~Version ---------------------------------------------------
VERS.   2.0 : CWLS log ASCII Standard -VERSION 2.0
WRAP.    NO : One line per depth step
DLM . SPACE : Column Data Section Delimiter
~Well ------------------------------------------------------
STRT .F                3495.0 : START DEPTH
STOP .F                6880.0 : STOP DEPTH
STEP .F                   0.5 : STEP
NULL .               -9999.25 : NULL VALUE
COMP .                        : COMPANY
WELL .                        : WELL
FLD  .                        : FIELD
LOC  .                        : LOCATION
PROV .                        : PROVINCE
CNTY .                        : COUNTY
STAT .                        : STATE
CTRY .                        : COUNTRY
SRVC .                        : SERVICE COMPANY
DATE .                        : DATE
UWI  .                        : UNIQUE WELL ID
API  .                        : API NUMBER
SLAT .WGS84 1.678958417317098 : SURFACE LATITUDE
SLON .WGS84 6.390538637896995 : SURFACE LONGITUDE
DATUM.F               2661.54 : DEPTH DATUM ELEV
~Curve Information -----------------------------------------
DEPT.F     : 1 MEASURED DEPTH
DTCO.US/F  : DELTA-T COMPRESSIONAL
GRS .GAPI  : GAMMA RAY FROM SONIC LOG
DTSM.US/F  : DELTA-T SHEAR
~Params ----------------------------------------------------
~Other -----------------------------------------------------
~ASCII -----------------------------------------------------
# ...
 6699.00000   72.15540   61.69850  125.34170
 6699.50000   72.62480   61.77650  125.29790
 6700.00000   72.74980   62.72350  125.23060
 6700.50000   72.85510   65.19460  125.16340
 6701.00000   72.52060   69.64280  125.33100
 6701.50000   72.37850   74.68160  125.74090
 6702.00000   72.64810   76.89560  126.15070
 6702.50000   73.21180   76.79770  126.22770
 6703.00000   73.67820   76.72430  126.15330
 6703.50000   73.84830   78.44490  125.70620
 6704.00000   73.27470   78.90790  123.71380
 6704.50000   72.43400   76.29820  121.14960
 6705.00000   71.52950   72.13210  119.66250
 6705.50000   71.41280   67.84870  119.43220
 6706.00000   71.54050   64.12070  118.98660
 6706.50000   71.03240   60.85510  117.59010
 6707.00000   69.31520   56.45480  115.91490
 6707.50000   66.96940   51.79880  113.36400
 6708.00000   64.04100   48.17880  111.98430
 6708.50000   62.77400   49.56120  111.67080
 6709.00000   63.73310   56.45580  114.72130
 6709.50000   66.00610   65.00100  117.95200
 6710.00000   68.76450   70.67820  120.06580
 6710.50000   71.57270   71.95870  118.91010
 6711.00000   72.34140   67.61880  116.31560
 6711.50000   70.76580   58.70420  113.72100
 6712.00000   68.59960   49.95840  111.21920
 6712.50000   66.77880   44.83850  109.05590
 6713.00000   66.56480   45.77800  109.13320
 6713.50000   66.89830   51.87030  109.23570
 6714.00000   66.95880   59.14650  108.68990
 6714.50000   66.89230   63.44500  108.14410
 6715.00000   66.16160   60.27510  107.87820
 6715.50000   65.20270   52.56100  107.66400
 6716.00000   64.77190   46.04140  107.44990
 6716.50000   65.48540   44.57720  110.09900
 6717.00000   68.00840   46.32850  114.70870
 6717.50000   70.94710   48.23050  119.65100
 6718.00000   72.20270   49.86180  123.85850
 6718.50000   72.74080   51.41540  124.86170
 6719.00000   73.03880   51.67530  126.04460
 6719.50000   73.11410   52.02030  126.27140
 6720.00000   72.86920   55.77480  126.17440
 6720.50000   72.47580   62.50470  126.07160
 6721.00000   71.57830   68.10390  125.96660
 6721.50000   70.97160   70.15910  125.71600
 6722.00000   71.77910   68.51820  125.42490
 6722.50000   72.82300   65.85520  125.29790
 6723.00000   72.71920   64.77780  124.86580
 6723.50000   71.88710   65.75260  122.88440
 6724.00000   71.03900   67.10370  121.14450
 6724.50000   70.44700   66.96130  119.61160
 6725.00000   69.93600   63.64930  118.07870
 6725.50000   69.65900   57.86340  116.54580
 6726.00000   69.74850   52.61680  115.72850
 6726.50000   70.20240   50.08100  115.36900
 6727.00000   70.68780   49.12930  115.40920
 6727.50000   71.01160   49.01920  115.97190
 6728.00000   71.07950   50.58480  117.10830
 6728.50000   71.05750   53.57010  118.53200
 6729.00000   70.88400   56.56400  121.20120
 6729.50000   70.64860   58.76180  122.61120
 6730.00000   70.61000   59.07700  122.98420
 6730.50000   70.61430   58.92230  123.39360
 6731.00000   70.93990   59.21530  123.90080
 6731.50000   71.60060   61.32800  124.16980
 6732.00000   71.85790   62.76140  123.47430
 6732.50000   71.29290   60.80220  122.00140
 6733.00000   70.11640   52.14180  119.65030
 6733.50000   68.71320   43.66330  116.89530
 6734.00000   67.17900   39.41400  114.29800
 6734.50000   65.24600   37.56500  113.76370
 6735.00000   64.52020   37.89890  113.98660
 6735.50000   64.74510   39.31570  115.40450
 6736.00000   65.53200   45.58170  118.61770
 6736.50000   67.26660   53.13960  121.89070
 6737.00000   69.14720   62.88350  123.76650
 6737.50000   70.64600   70.21500  124.43380
 6738.00000   71.46060   70.52590  124.22440
 6738.50000   71.41890   65.66200  122.78190
 6739.00000   70.90830   58.24010  121.33950
 6739.50000   70.27220   52.98780  119.95550
 6740.00000   69.55770   49.52060  119.44770
 6740.50000   69.19270   50.38320  119.63200
 6741.00000   69.31310   53.68220  120.08280
 6741.50000   69.94130   61.04020  121.53880
 6742.00000   70.57920   70.96960  123.32670
 6742.50000   71.49900   79.82730  124.75770
 6743.00000   72.83740   86.87300  125.40600
 6743.50000   73.80010   87.33290  125.40630
 6744.00000   73.92180   81.36570  125.07370
 6744.50000   73.49430   73.96940  124.71000
 6745.00000   72.89170   69.60140  123.97410
 6745.50000   71.95450   68.48500  123.23820
 6746.00000   71.27110   69.08400  122.50240
 6746.50000   71.06350   68.40730  121.76650
 6747.00000   71.07530   66.03440  121.03070
 6747.50000   71.09320   63.66790  120.29480
 6748.00000   71.27860   62.12420  119.82450
 6748.50000   71.68830   60.52760  119.66150
 6749.00000   72.06620   58.37720  120.57710
 6749.50000   72.41650   57.45520  121.95010
 6750.00000   73.03350   60.78340  121.95170
 6750.50000   73.20890   68.42530  121.95220
 6751.00000   72.99270   73.96240  121.79650
 6751.50000   73.29220   76.31610  121.25160
 6752.00000   73.85030   76.06290  119.55910
 6752.50000   73.79350   74.01590  119.24170
 6753.00000   73.06420   71.84710  119.34890
 6753.50000   72.35290   69.71630  119.24600
 6754.00000   72.31880   70.34940  118.73580
 6754.50000   72.52820   74.05410  118.23440
 6755.00000   72.32140   77.45190  117.84180
 6755.50000   71.50280   77.81300  117.44920
 6756.00000   70.57220   75.66740  117.71630
 6756.50000   69.97930   75.09990  118.03630
 6757.00000   69.53590   76.98900  118.36880
 6757.50000   69.23240   79.67160  118.70730
 6758.00000   69.26910   79.35080  119.04580
 6758.50000   70.73300   77.13450  119.13260
 6759.00000   72.43280   72.43610  118.35910
 6759.50000   72.09950   65.18000  114.69870
 6760.00000   69.69020   57.67670  110.06990
 6760.50000   65.99620   48.84300  105.44110
 6761.00000   62.42440   40.42940  102.24930
 6761.50000   57.68520   33.99460   99.11400
 6762.00000   54.67700   35.76530   98.80960
 6762.50000   55.61390   47.58770  101.76810
 6763.00000   58.37780   62.18060  107.88670
 6763.50000   61.98440   77.13160  115.14190
 6764.00000   66.98830   83.31210  124.10860
 6764.50000   72.00420   82.69710  125.14620
 6765.00000   73.36950   76.53570  124.38410
 6765.50000   73.09030   70.13360  122.88440
 6766.00000   71.92480   65.49910  121.38460
 6766.50000   70.96060   66.12160  120.55700
 6767.00000   70.22340   69.61860  120.45750
 6767.50000   69.74240   70.25130  120.58590
 6768.00000   69.96110   68.07590  120.46960
 6768.50000   70.85680   62.89960  120.15390
 6769.00000   71.45800   60.58350  119.83820
 6769.50000   71.43750   61.17160  119.36410
 6770.00000   71.38700   61.92740  119.81910
 6770.50000   71.93460   62.61010  121.27850
 6771.00000   72.17680   64.47190  122.31980
 6771.50000   72.33740   67.28270  122.41620
 6772.00000   73.79080   68.94420  121.84590
 6772.50000   74.89880   67.75150  119.49810
 6773.00000   73.61320   62.89010  116.79910
 6773.50000   70.19030   55.75510  114.10030
 6774.00000   66.54530   51.72730  112.93700
 6774.50000   63.93220   55.18800  112.24140
 6775.00000   63.98820   64.20490  112.43980
 6775.50000   65.95010   72.27960  114.98910
 6776.00000   68.32460   77.22500  118.58880
 6776.50000   69.56500   80.39450  121.89770
 6777.00000   70.04620   82.07290  123.54290
 6777.50000   70.13260   79.54620  122.51350
 6778.00000   70.47570   72.97080  120.37320
 6778.50000   70.92110   66.05620  117.77290
 6779.00000   70.49430   61.37040  115.26670
 6779.50000   68.34180   57.55540  113.12780
 6780.00000   65.88680   53.51930  111.90760
 6780.50000   63.91570   51.63730  110.72230
 6781.00000   63.29230   53.42510  109.64300
 6781.50000   63.48220   56.36570  109.55340
 6782.00000   65.09310   55.39530  111.62130
 6782.50000   66.97740   51.59610  112.99870
 6783.00000   67.84420   49.80660  113.22520
 6783.50000   68.28830   52.65020  113.74070
 6784.00000   68.63640   60.07010  115.49110
 6784.50000   69.18280   66.36690  117.87760
 6785.00000   69.48870   68.60400  118.73950
 6785.50000   69.39960   67.27750  118.32150
 6786.00000   69.01380   63.36320  117.91300
 6786.50000   68.64530   60.59590  118.08700
 6787.00000   68.82720   60.49750  118.54710
 6787.50000   69.18870   63.45000  119.06090
