~Version ---------------------------------------------------
VERS.   2.0 : CWLS log ASCII Standard -VERSION 2.0
WRAP.    NO : One line per depth step
DLM . SPACE : Column Data Section Delimiter
~Well ------------------------------------------------------
STRT .F                  15.0 : START DEPTH
STOP .F                3592.0 : STOP DEPTH
STEP .F                   0.5 : STEP
NULL .               -9999.25 : NULL VALUE
COMP .                        : COMPANY
WELL .                        : WELL
FLD  .                        : FIELD
LOC  .                        : LOCATION
PROV .                        : PROVINCE
CNTY .                        : COUNTY
STAT .                        : STATE
CTRY .                        : COUNTRY
SRVC .                        : SERVICE COMPANY
DATE .                        : DATE
UWI  .                        : UNIQUE WELL ID
API  .                        : API NUMBER
SLAT .WGS84 2.763907729221394 : SURFACE LATITUDE
SLON .WGS84  9.10495536851299 : SURFACE LONGITUDE
DATUM.F                   nan : DEPTH DATUM ELEV
~Curve Information -----------------------------------------
DEPT   .F     : 1 MEASURED DEPTH
SGRDD  .GAPI  : SPECTROSCOPY GAMMA RAY FROM DENSITY LOG
TNPH_LS.DEC   : THERMAL NEUTRON POROSITY [LIMESTONE]
PXND   .DEC   : CROSSPLOT POROSITY FOR NEUTRON DENSITY
HDRA   .G/C3  : HRDD SPINE AND RIBS DENSITY CORRECTION
PEFZ   .B/E   : HRDD STANDARD RESOLUTION FORMATION PHOTOELECTRIC FACTOR
DTCO   .US/F  : DELTA-T COMPRESSIONAL
DTSM   .US/F  : DELTA-T SHEAR
RLA3   .OHMM  : APPARENT RESISTIVITY FROM COMPUTED FOCUSING MODE 3
RXOZ   .OHMM  : INVADED FORMATION RESISTIVITY FILTERED AT 18 INCHES
~Params ----------------------------------------------------
~Other -----------------------------------------------------
~ASCII -----------------------------------------------------
# ...
 3186.00000   21.33210    0.09590    0.07480   -0.00130    3.14660   49.14280   89.67550 1503.88500  758.68350
 3186.50000   20.78090    0.08720    0.06630    0.00000    3.10430   48.67190   89.73020 1923.99110  971.19270
 3187.00000   20.20780    0.08260    0.06130    0.00140    3.08850   48.08660   89.26120 2006.24240 1338.63820
 3187.50000   19.47170    0.07930    0.05970    0.00150    3.09910   47.49710   88.23880 2274.27730 1363.59170
 3188.00000   18.83070    0.07670    0.05780    0.00120    3.11850   47.00390   87.29950 2542.31200 1361.29990
 3188.50000   18.26640    0.07520    0.05620    0.00090    3.11030   46.60350   86.48020 2907.16870 1662.37270
 3189.00000   18.12220    0.07920    0.05670    0.00070    3.11310   46.31000   85.66600 3097.02610 1841.41430
 3189.50000   18.46220    0.08420    0.06290    0.00060    3.10560   46.16740   84.99120 1995.45810 1515.38390
 3190.00000   19.38110    0.09420    0.07050    0.00150    3.09590   46.18710   84.87750 1037.16410  807.92680
 3190.50000   19.97910    0.10070    0.07880    0.00250    3.08630   46.24230   84.92870  626.31970  437.40080
 3191.00000   20.01360    0.11460    0.09000    0.00130    3.10430   46.40920   85.14610  451.66670  279.33910
 3191.50000   19.15720    0.12230    0.09720    0.00100    3.11760   46.65150   85.36350  375.48810  213.51320
 3192.00000   19.63160    0.11980    0.09870    0.00070    3.12610   47.13060   85.77560  335.03080  170.06520
 3192.50000   20.70820    0.11630    0.10010   -0.00030    3.13350   47.59010   86.49040  336.45330  155.89990
 3193.00000   26.26310    0.11720    0.09930   -0.00100    3.14690   48.09010   87.19700  343.16800  152.75740
 3193.50000   32.23170    0.12140    0.09810   -0.00100    3.15560   48.40560   87.63430  335.17100  165.09520
 3194.00000   33.04740    0.11800    0.09690   -0.00100    3.17030   48.57210   87.93600  302.14660  138.49850
 3194.50000   30.01810    0.11360    0.09370    0.00010    3.18180   48.76010   88.54780  230.44610  115.56700
 3195.00000   25.94110    0.10880    0.08870    0.00050    3.19470   48.84910   89.48240  289.18160  129.34240
 3195.50000   24.03030    0.10590    0.08630    0.00090    3.18640   48.87290   88.59990  373.23870  207.03880
 3196.00000   22.01790    0.10680    0.08560    0.00110    3.17800   48.77240   88.35460  490.74860  371.84350
 3196.50000   18.68800    0.11130    0.08890    0.00420    3.17840   48.50610   88.18880  580.84090  359.88700
 3197.00000   16.96780    0.11820    0.09220    0.00890    3.21440   48.25900   88.07230  712.21690  520.64910
 3197.50000   16.89340    0.11980    0.09240    0.01110    3.27930   48.11680   87.95020 1329.45290  742.18680
 3198.00000   18.07790    0.10510    0.08300    0.00780    3.34150   48.07000   87.66220 2444.19970 1458.21700
 3198.50000   19.29600    0.08780    0.07040    0.00210    3.35520   48.04610   87.31700 3558.94680 2012.42420
 3199.00000   20.92350    0.07520    0.06100    0.00030    3.29410   47.97180   86.97040 7839.65380 2037.43360
 3199.50000   23.09800    0.07040    0.05490    0.00070    3.22370   47.84510   86.55600 16072.65330 2033.29040
 3200.00000   24.30280    0.07340    0.05660    0.00090    3.20460   47.28580   86.05110 15315.39550 2011.17940
 3200.50000   24.47160    0.07790    0.06200    0.00080    3.23790   46.65790   85.54120 6492.37650 1795.91910
 3201.00000   22.63280    0.08470    0.06880    0.00070    3.28040   46.01790   85.01190 2841.37870 1309.91770
 3201.50000   22.71190    0.08880    0.07380    0.00070    3.24960   45.46390   84.77310 1360.85900  773.99110
 3202.00000   23.34850    0.09670    0.08230    0.00070    3.19530   45.45450   84.53920  430.16620  327.93270
 3202.50000   24.97650    0.11430    0.09770    0.00060    3.14470   45.58630   84.50240  214.32180  160.26980
 3203.00000   25.86570    0.13570    0.10830    0.00070    3.12400   46.11330   84.81090  201.98420  114.84960
 3203.50000   25.72270    0.14750    0.11610    0.00110    3.11330   46.94710   86.04230  232.47920  109.85200
 3204.00000   23.28840    0.15190    0.11910    0.00150    3.08430   47.92120   87.27380  278.17110   98.23670
 3204.50000   19.89060    0.14270    0.11410    0.00190    3.05040   48.82900   88.46880  265.91740   85.22440
 3205.00000   17.28780    0.13380    0.10920    0.00170    3.05890   49.76430   89.25630  207.14020   71.98530
 3205.50000   16.85380    0.12940    0.10560    0.00150    3.07130   50.18310   89.70670  235.73680   89.18810
 3206.00000   18.05490    0.12980    0.10300    0.00120    3.07830   50.53400   89.90450  274.96020  100.85070
 3206.50000   18.54770    0.12620    0.10070   -0.00000    3.08130   50.50210   90.10210  279.29220  136.91800
 3207.00000   18.51210    0.12030    0.09690   -0.00230    3.10190   50.36430   90.27680  350.84650  181.87050
 3207.50000   16.71980    0.10890    0.08950   -0.00450    3.12520   49.89370   90.20040  449.10470  300.29550
 3208.00000   14.12910    0.09030    0.07400   -0.00500    3.12610   49.44670   89.93240  835.59370  571.91240
 3208.50000   12.23490    0.07820    0.06220   -0.00370    3.12570   48.95070   89.07270 2929.88940 1550.68770
 3209.00000   11.27830    0.07160    0.05600   -0.00240    3.13870   48.39340   88.26680 9503.13480 2047.24850
 3209.50000   12.86390    0.07400    0.05720   -0.00120    3.16000   47.90900   88.36120 13294.89450 2047.85890
 3210.00000   14.96920    0.07850    0.06080   -0.00140    3.15760   47.32370   87.53800 6583.26220 2037.03880
 3210.50000   17.30480    0.08400    0.06510   -0.00170    3.17480   46.71970   86.52880 3940.42500 1343.63220
 3211.00000   19.70420    0.09690    0.07670   -0.00200    3.18760   46.29220   85.51970 1297.58790  710.61830
 3211.50000   20.73560    0.11270    0.09180   -0.00310    3.20030   46.08700   85.03200  701.02100  435.41520
 3212.00000   20.32400    0.12330    0.10040   -0.00390    3.20080   46.35480   85.01360  324.06100  215.08110
 3212.50000   19.64800    0.12740    0.10320   -0.00310    3.20070   46.71100   85.46200  314.89260  155.22810
 3213.00000   18.93950    0.11780    0.09420   -0.00230    3.19160   47.61910   86.17110  539.67900  176.48240
 3213.50000   20.02350    0.09780    0.07920   -0.00110    3.17890   48.26430   86.98450 1035.63980  336.24250
 3214.00000   21.60540    0.07910    0.06520   -0.00030    3.15970   48.63120   87.86500 3713.58180  817.91200
 3214.50000   24.33020    0.07350    0.05710    0.00040    3.14500   48.60650   88.60640 7785.02290 2057.96360
 3215.00000   28.14860    0.06990    0.05370    0.00070    3.16000   48.18890   87.97230 4393.01950 2046.74850
 3215.50000   31.16290    0.07330    0.05610   -0.00070    3.21800   47.66510   87.27940 2345.27860 1976.94690
 3216.00000   32.20350    0.08420    0.06510    0.00020    3.24800   47.14220   86.52180 1679.64990 1352.57150
 3216.50000   31.90640    0.09830    0.07550    0.00110    3.22110   46.76310   85.87950 1034.56410  899.67790
 3217.00000   30.40940    0.11580    0.08610    0.00200    3.19710   46.74450   85.66730  807.52190  638.80800
 3217.50000   27.73220    0.12720    0.09660    0.00250    3.17990   47.09300   86.92350  652.23740  359.07810
 3218.00000   25.44640    0.13640    0.10480    0.00220    3.16780   47.66630   86.85280  547.80650  302.24030
 3218.50000   24.38340    0.14190    0.11030    0.00190    3.16680   48.17300   87.33240  462.64450  202.27620
 3219.00000   22.72790    0.14030    0.11160    0.00130    3.15930   48.65100   88.25760  172.09920  114.25900
 3219.50000   19.62750    0.13760    0.11280    0.00060    3.15120   48.94220   88.64360  135.32390   86.60510
 3220.00000   16.40260    0.13400    0.11370   -0.00010    3.13730   49.47400   89.10210  171.55810   68.35320
 3220.50000   14.63760    0.14300    0.11540   -0.00070    3.12540   49.84950   89.74520  163.00560   64.13090
 3221.00000   14.70300    0.14360    0.11780   -0.00120    3.13440   49.94590   90.38840  145.81850   68.66820
 3221.50000   14.78320    0.13870    0.11650   -0.00110    3.15580   50.17390   91.69690  212.86370  120.80880
 3222.00000   15.24290    0.12050    0.10000   -0.00090    3.16930   50.68600   91.95040  415.13840  198.84340
