~Version ---------------------------------------------------
VERS.   2.0 : CWLS log ASCII Standard -VERSION 2.0
WRAP.    NO : One line per depth step
DLM . SPACE : Column Data Section Delimiter
~Well ------------------------------------------------------
STRT .F                  15.0 : START DEPTH
STOP .F                3592.0 : STOP DEPTH
STEP .F                   0.5 : STEP
NULL .               -9999.25 : NULL VALUE
COMP .                        : COMPANY
WELL .                        : WELL
FLD  .                        : FIELD
LOC  .                        : LOCATION
PROV .                        : PROVINCE
CNTY .                        : COUNTY
STAT .                        : STATE
CTRY .                        : COUNTRY
SRVC .                        : SERVICE COMPANY
DATE .                        : DATE
UWI  .                        : UNIQUE WELL ID
API  .                        : API NUMBER
SLAT .WGS84 2.763907729221394 : SURFACE LATITUDE
SLON .WGS84  9.10495536851299 : SURFACE LONGITUDE
DATUM.F                   nan : DEPTH DATUM ELEV
~Curve Information -----------------------------------------
DEPT   .F     : 1 MEASURED DEPTH
SGRDD  .GAPI  : SPECTROSCOPY GAMMA RAY FROM DENSITY LOG
TNPH_LS.DEC   : THERMAL NEUTRON POROSITY [LIMESTONE]
PXND   .DEC   : CROSSPLOT POROSITY FOR NEUTRON DENSITY
HDRA   .G/C3  : HRDD SPINE AND RIBS DENSITY CORRECTION
PEFZ   .B/E   : HRDD STANDARD RESOLUTION FORMATION PHOTOELECTRIC FACTOR
DTCO   .US/F  : DELTA-T COMPRESSIONAL
DTSM   .US/F  : DELTA-T SHEAR
RLA3   .OHMM  : APPARENT RESISTIVITY FROM COMPUTED FOCUSING MODE 3
RXOZ   .OHMM  : INVADED FORMATION RESISTIVITY FILTERED AT 18 INCHES
~Params ----------------------------------------------------
~Other -----------------------------------------------------
~ASCII -----------------------------------------------------
# ...
 1328.50000   17.91280    0.10430    0.08900    0.00400    3.07730   50.11480  100.88900  165.65690  107.11090
 1329.00000   23.72680    0.10940    0.09210   -0.00100    3.12420   50.04860  100.75080  211.69440   93.02290
 1329.50000   24.75210    0.10940    0.09240   -0.00440    3.16680   49.80370   99.63690   88.09110   35.20570
 1330.00000   20.25730    0.10260    0.08090   -0.00410    3.16730   49.13590   97.96010   78.34710   34.29220
 1330.50000   13.06240    0.07380    0.05890   -0.00240    3.13890   48.65460   98.32770  108.96990   51.86140
 1331.00000   10.71090    0.05580    0.04790   -0.00040    3.12360   48.26220   98.68610  141.86240   96.20030
 1331.50000    9.95570    0.05510    0.04360   -0.00090    3.12050   48.21510   99.12290  164.90770  102.32820
 1332.00000   10.45850    0.05870    0.04690   -0.00190    3.11730   47.92890   99.14070  151.80180  167.75380
 1332.50000   11.10080    0.06210    0.04960   -0.00300    3.09870   47.84610   99.09260  122.28250  108.42440
 1333.00000   12.19720    0.06680    0.05540   -0.00170    3.04760   47.57090   99.04440   92.39600   67.67760
 1333.50000   14.55120    0.08160    0.06630   -0.00140    3.04420   48.03330   99.64970   83.03850   68.11900
 1334.00000   15.70300    0.09260    0.07480   -0.00100    3.06860   49.21550  102.16550   91.08480   89.13020
 1334.50000   17.91600    0.09540    0.07870   -0.00080    3.13690   50.00350  104.03440   82.42460   87.54280
 1335.00000   18.88650    0.09340    0.08130   -0.00330    3.17980   50.21540  105.28990   70.79380   69.34260
 1335.50000   19.42290    0.09400    0.08130   -0.00350    3.17220   50.24310  106.11370   80.15900   68.15720
 1336.00000   18.92960    0.08830    0.07490   -0.00370    3.11270   49.96940  105.16380  130.97030   90.89260
 1336.50000   17.54560    0.08040    0.06650   -0.00290    3.05660   49.47950  103.38420  205.68140  134.31520
 1337.00000   21.61290    0.07480    0.06050   -0.00080    3.03450   49.03950  101.27400  241.84470  157.14580
 1337.50000   30.63430    0.07780    0.06330    0.00140    3.07200   49.02220  100.25320  214.23190  209.70710
 1338.00000   44.03730    0.08580    0.06750    0.00190    3.12560   49.03740   99.71090  206.96740  160.82800
 1338.50000   53.91870    0.08480    0.06840    0.00070    3.17270   49.10860   99.76010  205.90890  136.98400
 1339.00000   51.57000    0.08640    0.06880    0.00070    3.18910   49.51270  100.25400  256.75980  115.78770
 1339.50000   38.49000    0.09140    0.07140    0.00050    3.20490   49.44800  100.70690  292.19670  108.99630
 1340.00000   27.22450    0.10330    0.07760    0.00040    3.19570   50.03380   99.60800  326.27440  100.98220
 1340.50000   23.53690    0.11450    0.08800    0.00060    3.14260   50.54050   98.37220  359.31880   93.55320
 1341.00000   24.37200    0.13110    0.10430    0.00080    3.08120   50.71370   97.48140  216.54040   82.79780
 1341.50000   26.73340    0.15080    0.12540    0.00070    3.08150   50.79190   97.20270   64.50040   22.18170
 1342.00000   26.10040    0.19140    0.15530   -0.00120    3.10410   51.43290   98.05060   20.28830    8.88770
 1342.50000   23.58050    0.20650    0.17110   -0.00290    3.10870   54.08110   98.74280   26.38550    8.78770
 1343.00000   18.25460    0.16570    0.13730   -0.00330    3.07430   55.38920  101.99590  132.16870   20.08680
 1343.50000   13.52150    0.12030    0.10070   -0.00360    3.02070   55.97050  103.00720  194.72580   81.08380
 1344.00000    9.38410    0.09310    0.07620   -0.00320    2.99940   55.74210  102.88890  263.54780  106.64670
 1344.50000    8.62960    0.08380    0.06850   -0.00200    2.99540   55.05990  101.76800  445.94570  130.35040
 1345.00000    9.04120    0.07630    0.06170    0.00090    2.99160   53.57300  100.04300  704.43670  229.70730
 1345.50000   11.53640    0.06770    0.05270    0.00280    2.99440   50.77620   98.05260  961.45290  244.31620
 1346.00000   13.84130    0.06920    0.05470    0.00480    2.98850   48.79680   95.88080  510.18640  130.92970
 1346.50000   16.57500    0.07370    0.05920    0.00570    2.97700   47.84270   94.01280  229.91270   86.53400
 1347.00000   19.66350    0.08240    0.06930    0.00420    2.96550   47.35590   92.41260  224.64150   78.69560
 1347.50000   21.49450    0.08330    0.06930    0.00280    2.98680   47.33440   92.41180  280.55320   95.67810
 1348.00000   22.37840    0.08340    0.06800    0.00150    3.01380   47.56360   92.77650  353.62700  105.35280
 1348.50000   22.78680    0.08200    0.06590    0.00110    3.02050   47.71910   92.82670  419.47230  135.48150
 1349.00000   24.12030    0.07880    0.06180    0.00070    3.00940   48.36090   93.11300  358.07870  155.22640
 1349.50000   29.26250    0.07100    0.05490    0.00030    3.01900   48.59820   93.79310  351.88390  200.35990
 1350.00000   34.76030    0.06300    0.04990    0.00060    3.08710   48.46270   93.16070  564.42740  249.00620
 1350.50000   40.67210    0.05620    0.04570    0.00110    3.14750   48.13990   91.48540 1167.90720  582.70450
 1351.00000   43.02980    0.05500    0.04560   -0.00070    3.17390   47.64600   90.10600 2359.86300 1132.55110
 1351.50000   44.02110    0.06030    0.04860   -0.00450    3.17190   46.93550   88.89700 3551.81880 1211.57470
 1352.00000   40.92030    0.06420    0.05330   -0.00510    3.16980   46.51020   88.27600 2724.22290 1345.26180
 1352.50000   36.60860    0.06820    0.05810   -0.00470    3.16960   46.17580   87.63980 2618.33230 1342.98330
 1353.00000   31.48870    0.07240    0.06140   -0.00420    3.17460   46.27270   87.29780 2846.00730 1601.25720
 1353.50000   28.58900    0.08110    0.06590   -0.00250    3.18330   46.53310   88.13120 3371.88530 1570.62010
 1354.00000   26.50610    0.08840    0.06950    0.00030    3.18630   46.38420   87.58240 3290.75710 1672.57950
 1354.50000   25.78270    0.09100    0.07190    0.00140    3.17230   46.95470   86.77550 3578.15940 1906.32800
 1355.00000   25.38740    0.07920    0.06470    0.00180    3.14670   47.30500   86.30380 3028.16280 1523.82390
 1355.50000   24.80900    0.07050    0.05900    0.00070    3.12910   47.59590   86.22450 2962.48780 1279.54170
 1356.00000   22.37510    0.06030    0.05400   -0.00050    3.11860   47.62400   86.05330 2926.18600 1273.21450
 1356.50000   18.49780    0.05870    0.05050   -0.00340    3.09530   47.78140   84.82560 3830.86230 1826.34620
 1357.00000   13.39940    0.05940    0.05090    0.00020    3.05020   47.79000   84.48620 6092.99800 1978.27140
 1357.50000    9.60680    0.06090    0.05200    0.00200    3.00630   47.62820   84.27220 7599.89600 1518.65600
 1358.00000    7.56510    0.06510    0.05340    0.00230    2.98450   47.51350   84.13740 7080.64940 1170.29720
 1358.50000    7.82130    0.06950    0.05750    0.00220    2.98880   47.47140   84.12780 7990.28270 1089.90660
 1359.00000    7.82230    0.08030    0.06360    0.00160    2.99550   47.04510   85.15200 7750.33740 1257.77490
 1359.50000    7.89040    0.09120    0.07160    0.00120    3.02040   46.86890   86.47030 5930.35010 1427.15820
 1360.00000    7.84060    0.10840    0.08330    0.00080    3.09590   46.72170   87.94840 5623.01810 1536.45920
 1360.50000    7.90750    0.12240    0.09370    0.00100    3.18310   46.70140   89.42660 4050.22000 1707.28210
 1361.00000    8.20510    0.11320    0.08830    0.00220    3.29180   46.83260   90.33630 3464.23630 1995.45260
 1361.50000    6.27040    0.10170    0.07780    0.00620    3.37360   47.09820   90.81770 4540.40620 1995.53160
 1362.00000    5.47730    0.08890    0.06670    0.00810    3.41390   47.45240   90.81070 5009.64750 1995.60940
 1362.50000    4.66560    0.08200    0.06440    0.00650    3.38860   47.60690   90.31200 4314.03220 1952.87720
 1363.00000    4.93160    0.08240    0.06700    0.00410    3.30370   47.66670   89.50520 4936.44920 1860.17540
 1363.50000    5.16030    0.08310    0.07060    0.00170    3.22310   47.63640   88.88330 4561.67290 1675.12490
 1364.00000    5.70830    0.09300    0.07760    0.00600    3.14860   47.61990   88.43150 3344.04570 1434.71680
 1364.50000    6.56670    0.10410    0.08240    0.01740    3.11880   47.78350   87.59140 3285.07150 1090.80630
