~Version ---------------------------------------------------
VERS.   2.0 : CWLS log ASCII Standard -VERSION 2.0
WRAP.    NO : One line per depth step
DLM . SPACE : Column Data Section Delimiter
~Well ------------------------------------------------------
STRT .F                  15.0 : START DEPTH
STOP .F                3592.0 : STOP DEPTH
STEP .F                   0.5 : STEP
NULL .               -9999.25 : NULL VALUE
COMP .                        : COMPANY
WELL .                        : WELL
FLD  .                        : FIELD
LOC  .                        : LOCATION
PROV .                        : PROVINCE
CNTY .                        : COUNTY
STAT .                        : STATE
CTRY .                        : COUNTRY
SRVC .                        : SERVICE COMPANY
DATE .                        : DATE
UWI  .                        : UNIQUE WELL ID
API  .                        : API NUMBER
SLAT .WGS84 2.763907729221394 : SURFACE LATITUDE
SLON .WGS84  9.10495536851299 : SURFACE LONGITUDE
DATUM.F                   nan : DEPTH DATUM ELEV
~Curve Information -----------------------------------------
DEPT   .F     : 1 MEASURED DEPTH
SGRDD  .GAPI  : SPECTROSCOPY GAMMA RAY FROM DENSITY LOG
TNPH_LS.DEC   : THERMAL NEUTRON POROSITY [LIMESTONE]
PXND   .DEC   : CROSSPLOT POROSITY FOR NEUTRON DENSITY
HDRA   .G/C3  : HRDD SPINE AND RIBS DENSITY CORRECTION
PEFZ   .B/E   : HRDD STANDARD RESOLUTION FORMATION PHOTOELECTRIC FACTOR
DTCO   .US/F  : DELTA-T COMPRESSIONAL
DTSM   .US/F  : DELTA-T SHEAR
RLA3   .OHMM  : APPARENT RESISTIVITY FROM COMPUTED FOCUSING MODE 3
RXOZ   .OHMM  : INVADED FORMATION RESISTIVITY FILTERED AT 18 INCHES
~Params ----------------------------------------------------
~Other -----------------------------------------------------
~ASCII -----------------------------------------------------
# ...
 2822.50000   33.77040    0.09430    0.07970   -0.00460    3.00730   50.21400   89.48840  113.01620  104.16740
 2823.00000   34.32620    0.10040    0.08180   -0.00220    2.92900   50.76950   90.49290  108.95440   95.46450
 2823.50000   36.12210    0.10370    0.08350   -0.00050    2.88320   51.38840   91.49740  102.79340   83.22260
 2824.00000   38.45170    0.10470    0.08470    0.00020    2.90990   52.02480   92.26920  109.50390   97.59770
 2824.50000   39.82140    0.10080    0.08440   -0.00020    2.95840   52.20420   92.52430  137.65480  145.78800
 2825.00000   38.89590    0.10280    0.08390   -0.00080    3.02850   52.25680   92.39050  110.76970  121.03290
 2825.50000   37.60630    0.10520    0.08470   -0.00140    3.08400   52.23330   92.45980   58.82620   71.57260
 2826.00000   34.04960    0.10400    0.08630   -0.00160    3.12140   52.08420   92.43600   55.43840   51.41350
 2826.50000   32.51130    0.11390    0.08740   -0.00120    3.13540   51.89910   92.20320   51.41570   44.16950
 2827.00000   27.95090    0.11610    0.08500   -0.00070    3.14400   51.79660   91.82210   48.65530   46.54310
 2827.50000   26.34080    0.10180    0.07890   -0.00030    3.16530   51.47740   91.43490   99.80200   66.03090
 2828.00000   25.50310    0.08590    0.06830   -0.00010    3.20230   51.01840   90.83550  136.92210  119.43710
 2828.50000   24.14990    0.07370    0.05910   -0.00010    3.24960   50.29550   90.21180  113.73990  170.32250
 2829.00000   18.11430    0.07010    0.05450   -0.00010    3.31440   49.54400   89.53690  198.56240  174.12920
 2829.50000   10.81470    0.06930    0.05550   -0.00020    3.35510   48.88940   88.74910  250.27090  230.44950
 2830.00000    7.43380    0.07310    0.05760   -0.00070    3.33400   48.14670   87.95870  241.30670  249.62210
 2830.50000    6.19940    0.07930    0.06160   -0.00140    3.28360   47.61240   87.25510  137.69450  183.56050
 2831.00000    6.11510    0.08370    0.06680   -0.00210    3.19240   47.62460   86.69180   94.87300  110.34340
 2831.50000    6.45670    0.08330    0.06980   -0.00280    3.12140   47.97330   86.76300   66.63500   65.92390
 2832.00000    8.14180    0.08330    0.07310   -0.00240    3.02860   48.83170   87.32280   47.44160   51.23240
 2832.50000   12.70700    0.08620    0.07650   -0.00210    2.89910   50.11550   89.01470   37.40600   41.09440
 2833.00000   20.82560    0.09250    0.08130   -0.00180    2.82760   52.43050   91.86760   34.91530   34.56020
 2833.50000   31.67820    0.09810    0.08560   -0.00230    2.79290   55.09120   94.73450   37.85640   33.23120
 2834.00000   42.03550    0.10510    0.08680   -0.00090    2.82900   57.08000   97.61500   44.92100   35.78650
 2834.50000   50.14800    0.10260    0.08800   -0.00020    2.89540   58.60990  100.28070   54.83990   41.08480
 2835.00000   56.96810    0.11010    0.08900   -0.00190    2.96620   59.16510  100.94890   65.15070   45.08780
 2835.50000   53.19630    0.11100    0.08910   -0.00220    2.98650   58.70790  100.81370  102.47590   51.70860
 2836.00000   47.94340    0.10880    0.08860   -0.00290    2.94900   57.75970  100.21120   79.54970   55.75490
 2836.50000   40.84830    0.09450    0.08600   -0.00350    2.84730   56.77020   99.69390   50.67700   38.81420
 2837.00000   38.62600    0.08960    0.08640   -0.00240    2.67710   56.25700   99.32310   34.56800   31.62270
 2837.50000   38.78700    0.09920    0.09420   -0.00240    2.55100   57.20160   99.76760   25.82730   21.27300
 2838.00000   41.29890    0.11160    0.10750   -0.00300    2.49780   58.91710  100.53040   17.67860   15.67960
 2838.50000   47.51670    0.12440    0.11850   -0.00350    2.46750   60.98980  101.59170   17.16760   13.66110
 2839.00000   54.16920    0.12720    0.11950   -0.00160    2.48530   63.65530  105.27930   21.20680   16.58130
 2839.50000   61.53160    0.12860    0.11780   -0.00110    2.52870   65.86150  109.90160   26.20120   23.54630
 2840.00000   62.03420    0.12360    0.11100   -0.00050    2.64040   67.30040  111.40670   40.32530   37.79140
 2840.50000   63.01710    0.11800    0.10050   -0.00010    2.79050   66.98040  111.85020   69.12090   57.39770
 2841.00000   62.08120    0.11140    0.08980    0.00000    2.94230   65.90160  111.19370  131.18900  118.40820
 2841.50000   58.83030    0.10080    0.08000    0.00070    3.08060   63.86280  106.55400  432.77980  296.33210
 2842.00000   52.65860    0.08900    0.06930    0.00150    3.14770   59.60510   99.62960 1363.79370 1246.03990
 2842.50000   47.24090    0.08770    0.06670    0.00220    3.18440   55.85870   96.15780 1927.74330 1372.42350
 2843.00000   43.26730    0.08780    0.06950    0.00210    3.21950   51.75480   93.45730 2391.21020 1434.72710
 2843.50000   37.71050    0.08950    0.07170    0.00130    3.20380   49.29950   90.75680 2164.24020 1200.15990
 2844.00000   32.01620    0.08970    0.07260    0.00050    3.17230   47.82480   88.81100 1022.45790  576.07840
 2844.50000   28.76560    0.08990    0.07270   -0.00070    3.13970   46.72060   87.05340  991.48830  406.74240
 2845.00000   27.73640    0.08850    0.07130   -0.00360    3.11280   46.41570   86.02360 1292.09950  377.66710
 2845.50000   25.16480    0.08660    0.07010   -0.00700    3.12180   47.00230   86.00500 2188.46020  541.92260
 2846.00000   24.14270    0.08970    0.07280   -0.00560    3.13300   47.28620   86.33860 2406.22220  673.35000
 2846.50000   23.21210    0.09310    0.07600   -0.00010    3.14030   47.30320   86.72810 2040.75940  539.66720
 2847.00000   22.57230    0.10180    0.08120    0.00260    3.12560   47.25270   87.11200 1403.99040  392.50920
 2847.50000   21.39310    0.10860    0.08880    0.00320    3.10590   47.45570   87.56660 1218.39210  361.61610
 2848.00000   21.72770    0.11530    0.09350    0.00210    3.09150   47.68400   87.40070 1352.33620  439.13100
 2848.50000   22.79880    0.11600    0.09530    0.00100    3.11380   47.92990   87.89990 1377.42410  554.44390
 2849.00000   22.07630    0.11890    0.10030    0.00010    3.14780   48.33220   88.35950 1605.38440  501.48920
 2849.50000   19.72280    0.12110    0.09990    0.00050    3.14270   48.89280   88.66960  794.49330  317.23470
 2850.00000   17.97720    0.11780    0.09640    0.00070    3.13280   49.15170   88.91310  718.81480  283.06410
 2850.50000   16.92230    0.11090    0.09120    0.00020    3.15510   49.09660   89.23300 1044.83680  320.08300
 2851.00000   16.72690    0.10180    0.08250   -0.00130    3.20790   49.08400   89.63740 1774.92820  490.96850
 2851.50000   16.66390    0.08710    0.07050    0.00120    3.24270   49.29250   89.45560 4120.66310 1070.68770
 2852.00000   16.89510    0.07700    0.05860    0.00270    3.22430   49.08140   89.22670 2389.86650  894.13170
 2852.50000   19.31250    0.07130    0.05580    0.00430    3.17170   48.81190   88.99780 2864.53520  993.40550
 2853.00000   22.33590    0.07330    0.05600    0.00590    3.09410   48.18280   88.65500 2602.90580  747.32440
 2853.50000   24.62760    0.07880    0.06210    0.00730    3.03070   47.71240   88.04270 1583.66610  562.75540
 2854.00000   25.31040    0.08550    0.06960    0.00620    3.04940   47.37450   87.27000  880.21190  326.94690
 2854.50000   23.07100    0.09090    0.07600    0.00430    3.06650   47.12340   86.08320  567.34950  243.54400
 2855.00000   19.73900    0.09810    0.08360    0.00250    3.09890   47.14880   85.66850  446.53780  184.54500
 2855.50000   15.90490    0.10600    0.09100    0.00050    3.13410   47.59670   86.14760  366.69230  213.41940
 2856.00000   13.49980    0.11110    0.09460   -0.00160    3.16520   48.24650   86.98940  290.06410  266.98570
 2856.50000   15.31030    0.11410    0.09710   -0.00320    3.18720   49.01110   87.52060  343.85170  262.92190
 2857.00000   18.79990    0.11410    0.09760   -0.00410    3.18970   49.44350   88.33660  529.06770  303.39350
 2857.50000   26.24560    0.11520    0.09600   -0.00360    3.15760   49.70810   89.35440  771.96280  507.81710
 2858.00000   30.09640    0.11190    0.09340   -0.00310    3.12100   49.78480   89.77320  575.37710  251.62900
 2858.50000   29.59170    0.10790    0.09210   -0.00270    3.10360   49.67390   89.99310  472.76250  224.14680
