~Version ---------------------------------------------------
VERS.   2.0 : CWLS log ASCII Standard -VERSION 2.0
WRAP.    NO : One line per depth step
DLM . SPACE : Column Data Section Delimiter
~Well ------------------------------------------------------
STRT .F                  15.0 : START DEPTH
STOP .F                3592.0 : STOP DEPTH
STEP .F                   0.5 : STEP
NULL .               -9999.25 : NULL VALUE
COMP .                        : COMPANY
WELL .                        : WELL
FLD  .                        : FIELD
LOC  .                        : LOCATION
PROV .                        : PROVINCE
CNTY .                        : COUNTY
STAT .                        : STATE
CTRY .                        : COUNTRY
SRVC .                        : SERVICE COMPANY
DATE .                        : DATE
UWI  .                        : UNIQUE WELL ID
API  .                        : API NUMBER
SLAT .WGS84 2.763907729221394 : SURFACE LATITUDE
SLON .WGS84  9.10495536851299 : SURFACE LONGITUDE
DATUM.F                   nan : DEPTH DATUM ELEV
~Curve Information -----------------------------------------
DEPT   .F     : 1 MEASURED DEPTH
SGRDD  .GAPI  : SPECTROSCOPY GAMMA RAY FROM DENSITY LOG
TNPH_LS.DEC   : THERMAL NEUTRON POROSITY [LIMESTONE]
PXND   .DEC   : CROSSPLOT POROSITY FOR NEUTRON DENSITY
HDRA   .G/C3  : HRDD SPINE AND RIBS DENSITY CORRECTION
PEFZ   .B/E   : HRDD STANDARD RESOLUTION FORMATION PHOTOELECTRIC FACTOR
DTCO   .US/F  : DELTA-T COMPRESSIONAL
DTSM   .US/F  : DELTA-T SHEAR
RLA3   .OHMM  : APPARENT RESISTIVITY FROM COMPUTED FOCUSING MODE 3
RXOZ   .OHMM  : INVADED FORMATION RESISTIVITY FILTERED AT 18 INCHES
~Params ----------------------------------------------------
~Other -----------------------------------------------------
~ASCII -----------------------------------------------------
# ...
 2276.00000   14.60710    0.01800    0.01530    0.00060    5.13620   49.56320   94.02250 2213.62940 1083.06700
 2276.50000   13.71330    0.02070    0.01340   -0.00270    5.18970   49.57850   93.88730 1979.40110 1051.90550
 2277.00000   11.68240    0.02110    0.01620   -0.00270    5.22640   49.48580   93.60840 1865.16550  894.23910
 2277.50000   11.68730    0.01650    0.01600   -0.00090    5.19130   49.22920   93.37250 2363.19920  869.47510
 2278.00000   11.56920    0.01560    0.01510    0.00040    5.10410   49.20870   93.37630 2245.68020 1018.54700
 2278.50000   10.58920    0.01530    0.01470    0.00120    5.00620   49.30320   93.55530 2022.24740 1186.00220
 2279.00000    8.99740    0.01660    0.01590    0.00200    4.96090   49.39490   93.55590 1941.07390 1169.04970
 2279.50000    8.25300    0.01690    0.01640    0.00230    4.94270   49.46020   93.69570 1726.90690 1105.89970
 2280.00000    8.58230    0.01790    0.01770    0.00190    4.95290   49.46380   93.93090 1646.41160  925.98210
 2280.50000   10.11310    0.01990    0.01940    0.00250    4.94760   49.62790   94.17500 1643.70410  816.29360
 2281.00000   11.01170    0.02240    0.02170    0.00310    4.92810   49.71080   94.33360 1912.38450  792.50820
 2281.50000    9.94780    0.02470    0.02420    0.00360    4.89940   49.92130   94.35250 2181.06490  900.44120
 2282.00000    7.54900    0.02590    0.02560    0.00330    4.89870   50.16000   94.61160 1773.07100  962.23860
 2282.50000    5.86430    0.02830    0.02770    0.00410    4.88000   50.29540   95.07830 1462.57690  978.91780
 2283.00000    6.84310    0.03290    0.03200    0.00480    4.87120   50.83090   96.16030 2303.19430 1125.42740
 2283.50000    8.48200    0.03460    0.03410    0.00630    4.88600   51.58230   96.05010 3143.81180 1577.91160
 2284.00000   11.61620    0.02910    0.02840    0.00580    4.92710   52.26560   95.91930 4025.28740 2007.18550
 2284.50000   14.69710    0.02490    0.02420    0.00450    4.96360   52.47340   95.83430 4015.05570 2035.79220
 2285.00000   15.38900    0.02280    0.02190    0.00250    4.95790   52.66250   95.31570 3045.51120 2001.85830
 2285.50000   12.93630    0.02210    0.02150    0.00150    4.89510   52.80200   94.69080 2649.57840 1962.28260
 2286.00000   10.01460    0.02170    0.02110    0.00200    4.73550   52.50130   94.30910 4723.07280 1974.78390
 2286.50000    8.72540    0.02120    0.02100    0.00260    4.60990   52.10830   93.78180 4141.19340 1996.97600
 2287.00000    9.84010    0.02100    0.02100    0.00350    4.52470   52.00670   93.51350 4206.84420 2003.13790
 2287.50000    9.82400    0.02140    0.02120    0.00370    4.46050   51.88400   93.04850 4603.03420 2002.44410
 2288.00000    9.73130    0.02270    0.02200    0.00350    4.37580   51.87530   92.86070 4325.80470 1999.19070
 2288.50000    9.28570    0.02320    0.02260    0.00330    4.28270   51.87010   92.48290 4474.75980 1967.21510
 2289.00000    9.73100    0.02190    0.02130    0.00360    4.31090   51.85690   92.34160 5054.95700 1876.79150
 2289.50000   10.60140    0.02060    0.02010    0.00430    4.39440   51.92590   92.33210 4803.80180 2014.14610
 2290.00000   11.47240    0.02090    0.02040    0.00490    4.46680   51.70870   92.21800 4569.63820 2014.76320
 2290.50000   12.09800    0.02250    0.02190    0.00660    4.46900   51.59890   92.02090 4055.39060 2004.08280
 2291.00000   12.04470    0.02350    0.02370    0.00640    4.40280   51.74260   91.98900 4924.73730 1879.71890
 2291.50000   11.36150    0.02610    0.02560    0.00590    4.34880   51.86780   91.93090 4375.41110 1791.05030
 2292.00000   10.79150    0.02770    0.02730    0.00550    4.33220   51.96600   91.87290 3954.87870 1560.09310
 2292.50000   10.24400    0.02750    0.02700    0.00530    4.31840   52.06300   91.81640 3875.72050 1458.06340
 2293.00000   10.25070    0.02600    0.02510    0.00380    4.29840   52.19090   91.61470 5618.65820 1597.69840
 2293.50000   11.29850    0.02280    0.02250    0.00150    4.26550   52.20010   92.09350 4946.53560 2001.02100
 2294.00000   12.39920    0.02380    0.02360   -0.00160    4.23780   52.11140   93.08600 3390.72270 2042.86890
 2294.50000   12.19880    0.02570    0.02500   -0.00140    4.19370   51.89950   93.14120 3757.03370 2025.86990
 2295.00000   11.61070    0.02680    0.02640    0.00180    4.13060   51.83840   92.29810 4279.05520 1712.75230
 2295.50000   10.97240    0.02740    0.02690    0.00300    4.05660   51.72220   92.25980 4757.86130 1568.87590
 2296.00000   12.80650    0.02650    0.02600    0.00290    4.06650   51.70350   92.36370 4977.02390 1668.10280
 2296.50000   14.25980    0.02720    0.02690    0.00350    4.12050   51.72420   92.40480 4665.04590 1702.88350
 2297.00000   13.97520    0.02700    0.02640    0.00230    4.18480   51.86590   92.32620 4282.90480 1750.68660
 2297.50000   12.56230    0.02540    0.02500    0.00020    4.22760   51.87510   92.33350 5226.80960 1673.54380
 2298.00000   11.72110    0.02550    0.02530   -0.00200    4.23130   51.94790   92.34090 3582.94970 1903.74790
 2298.50000   11.62330    0.02800    0.02530   -0.00420    4.24800   52.11620   92.28750 4075.58910 2021.05210
 2299.00000   11.26540    0.03090    0.02400   -0.00660    4.28880   51.97630   92.26880 6989.16750 2028.16770
 2299.50000   11.79520    0.02970    0.02560   -0.00540    4.32050   51.91080   92.18240 7288.55710 2023.73120
 2300.00000   11.01160    0.02280    0.02210   -0.00310    4.29750   51.86930   92.00280 6715.50000 1950.42790
 2300.50000   10.61570    0.02160    0.02100   -0.00080    4.18370   51.86940   91.90780 4206.24410 2003.10050
 2301.00000   11.01130    0.02050    0.02020    0.00180    4.13370   52.08820   91.87830 3923.91820 2013.75700
 2301.50000   11.23570    0.01980    0.01970    0.00470    4.15930   51.70970   91.76190 4617.78520 2014.48230
 2302.00000   11.46620    0.01990    0.01950    0.00770    4.21590   51.99850   91.58560 7714.73050 2015.20790
 2302.50000   11.10760    0.02010    0.01950    0.01150    4.15130   52.11800   91.81930 3816.01830 2015.93260
 2303.00000   11.37390    0.02060    0.01990    0.01160    3.99090   52.18720   91.90930 6255.59960 2013.67410
 2303.50000   11.09010    0.02090    0.01960    0.00860    3.89660   51.98800   91.71000 5482.11770 1971.20640
 2304.00000   10.76330    0.02190    0.01930    0.00540    3.87010   52.16240   91.52630 3765.77860 1934.55690
 2304.50000   11.16440    0.02350    0.02010    0.00320    3.88610   51.86530   91.40000 4037.66140 1831.45060
 2305.00000   11.27590    0.02550    0.02430    0.00340    3.95810   51.32690   91.12310 2640.31740 1554.83140
 2305.50000   11.45070    0.02650    0.02570    0.00340    4.04570   51.81950   91.04480 2539.19600 1439.63210
 2306.00000   12.17120    0.02500    0.02440    0.00340    4.21910   51.94220   91.01080 2795.84720 1390.28200
 2306.50000   15.59720    0.02380    0.02290    0.00330    4.22340   52.29100   90.97690 3357.52730 1659.47860
 2307.00000   18.71260    0.02360    0.02240    0.00260    4.06090   52.39810   91.12480 4164.47460 1617.62570
 2307.50000   20.14670    0.02650    0.02390    0.00200    3.83350   51.83160   91.20580 5974.48440 1890.61760
 2308.00000   18.46460    0.02770    0.02660    0.00060    3.68540   50.66770   90.72050 8838.62890 1952.58450
 2308.50000   15.06150    0.02660    0.02650   -0.00130    3.70230   49.69370   89.86570 2934.54640 1886.96460
 2309.00000   11.48140    0.02890    0.02830   -0.00290    3.89900   49.09940   88.60610 1689.68440 1032.10100
 2309.50000   11.12070    0.03280    0.03230   -0.00310    4.11940   48.92270   88.20780 1886.55440  989.63610
 2310.00000   16.80110    0.03260    0.03250   -0.00170    4.23050   49.12670   88.28530 3029.86570  528.95180
 2310.50000   26.58400    0.03190    0.03080    0.00420    4.30360   49.63550   88.65280 1164.24110  521.47750
 2311.00000   31.18860    0.02830    0.02770    0.01010    4.30330   50.28620   90.03580 1669.03160  470.59540
 2311.50000   29.76830    0.02580    0.02520    0.01120    4.22380   50.71640   91.42900 1960.50710  930.25130
 2312.00000   22.53320    0.02520    0.02420    0.01190    4.10730   50.63550   90.30640 3177.51490  876.93700
