~Version ---------------------------------------------------
VERS.   2.0 : CWLS log ASCII Standard -VERSION 2.0
WRAP.    NO : One line per depth step
DLM . SPACE : Column Data Section Delimiter
~Well ------------------------------------------------------
STRT .F                  15.0 : START DEPTH
STOP .F                3592.0 : STOP DEPTH
STEP .F                   0.5 : STEP
NULL .               -9999.25 : NULL VALUE
COMP .                        : COMPANY
WELL .                        : WELL
FLD  .                        : FIELD
LOC  .                        : LOCATION
PROV .                        : PROVINCE
CNTY .                        : COUNTY
STAT .                        : STATE
CTRY .                        : COUNTRY
SRVC .                        : SERVICE COMPANY
DATE .                        : DATE
UWI  .                        : UNIQUE WELL ID
API  .                        : API NUMBER
SLAT .WGS84 2.763907729221394 : SURFACE LATITUDE
SLON .WGS84  9.10495536851299 : SURFACE LONGITUDE
DATUM.F                   nan : DEPTH DATUM ELEV
~Curve Information -----------------------------------------
DEPT   .F     : 1 MEASURED DEPTH
SGRDD  .GAPI  : SPECTROSCOPY GAMMA RAY FROM DENSITY LOG
TNPH_LS.DEC   : THERMAL NEUTRON POROSITY [LIMESTONE]
PXND   .DEC   : CROSSPLOT POROSITY FOR NEUTRON DENSITY
HDRA   .G/C3  : HRDD SPINE AND RIBS DENSITY CORRECTION
PEFZ   .B/E   : HRDD STANDARD RESOLUTION FORMATION PHOTOELECTRIC FACTOR
DTCO   .US/F  : DELTA-T COMPRESSIONAL
DTSM   .US/F  : DELTA-T SHEAR
RLA3   .OHMM  : APPARENT RESISTIVITY FROM COMPUTED FOCUSING MODE 3
RXOZ   .OHMM  : INVADED FORMATION RESISTIVITY FILTERED AT 18 INCHES
~Params ----------------------------------------------------
~Other -----------------------------------------------------
~ASCII -----------------------------------------------------
# ...
  781.50000   15.16820    0.31820   -9999.25   -9999.25   -9999.25   -9999.25   -9999.25   -9999.25   -9999.25
  782.00000   15.20630    0.31030   -9999.25   -9999.25   -9999.25   -9999.25   -9999.25   -9999.25   -9999.25
  782.50000   14.48180    0.31980   -9999.25   -9999.25   -9999.25   -9999.25   -9999.25   -9999.25   -9999.25
  783.00000   12.75520    0.33250   -9999.25   -9999.25   -9999.25   -9999.25   -9999.25   -9999.25   -9999.25
  783.50000   12.46740    0.34670   -9999.25   -9999.25   -9999.25   -9999.25   -9999.25   -9999.25   -9999.25
  784.00000   13.79650    0.32180   -9999.25   -9999.25   -9999.25   -9999.25   -9999.25   -9999.25   -9999.25
  784.50000   15.51040    0.29270   -9999.25   -9999.25   -9999.25   -9999.25   -9999.25   -9999.25   -9999.25
  785.00000   17.02700    0.28420   -9999.25   -9999.25   -9999.25   -9999.25   -9999.25   -9999.25   -9999.25
  785.50000   17.56180    0.30830   -9999.25   -9999.25   -9999.25   -9999.25   -9999.25   -9999.25   -9999.25
  786.00000   17.59700    0.34670   -9999.25   -9999.25   -9999.25   -9999.25   -9999.25   -9999.25   -9999.25
  786.50000   17.78160    0.35780   -9999.25   -9999.25   -9999.25   -9999.25   -9999.25   -9999.25   -9999.25
  787.00000   17.85930    0.33280   -9999.25   -9999.25   -9999.25   -9999.25   -9999.25   -9999.25   -9999.25
  787.50000   20.11710    0.30780   -9999.25   -9999.25   -9999.25   -9999.25   -9999.25   -9999.25   -9999.25
  788.00000   19.39760    0.31390   -9999.25   -9999.25   -9999.25   -9999.25   -9999.25   -9999.25   -9999.25
  788.50000   17.57850    0.31190   -9999.25   -9999.25   -9999.25   -9999.25   -9999.25   -9999.25   -9999.25
  789.00000   13.80680    0.30640   -9999.25   -9999.25   -9999.25   -9999.25   -9999.25   -9999.25   -9999.25
  789.50000   12.17270    0.32480   -9999.25   -9999.25   -9999.25   -9999.25   -9999.25   -9999.25   -9999.25
  790.00000   11.85430    0.30560   -9999.25   -9999.25   -9999.25   -9999.25   -9999.25   -9999.25   -9999.25
  790.50000   11.59320    0.32610   -9999.25   -9999.25   -9999.25   -9999.25   -9999.25   -9999.25   -9999.25
  791.00000   11.22270    0.35160   -9999.25   -9999.25   -9999.25   -9999.25   -9999.25   -9999.25   -9999.25
  791.50000   10.54860    0.37750   -9999.25   -9999.25   -9999.25   -9999.25   -9999.25   -9999.25   -9999.25
  792.00000   10.56950    0.33640   -9999.25   -9999.25   -9999.25   -9999.25   -9999.25   -9999.25   -9999.25
  792.50000   10.83150    0.27600   -9999.25   -9999.25   -9999.25   -9999.25   -9999.25   -9999.25   -9999.25
  793.00000   11.11570    0.24770   -9999.25   -9999.25   -9999.25   -9999.25   -9999.25   -9999.25   -9999.25
  793.50000   10.76790    0.23410   -9999.25   -9999.25   -9999.25   -9999.25   -9999.25   -9999.25   -9999.25
  794.00000    9.52250    0.19870   -9999.25   -9999.25   -9999.25   -9999.25   -9999.25   -9999.25   -9999.25
  794.50000    8.24350    0.18740   -9999.25   -9999.25   -9999.25   -9999.25   -9999.25   -9999.25   -9999.25
  795.00000    7.25910    0.14930   -9999.25   -9999.25   -9999.25   -9999.25   -9999.25   -9999.25   -9999.25
  795.50000    7.90060    0.11100   -9999.25   -9999.25   -9999.25   -9999.25   -9999.25   -9999.25   -9999.25
  796.00000    9.53320    0.09330   -9999.25   -9999.25   -9999.25   -9999.25   -9999.25   -9999.25   -9999.25
  796.50000   11.01370    0.11920   -9999.25   -9999.25   -9999.25   -9999.25   -9999.25   -9999.25   -9999.25
  797.00000   11.35750    0.19170   -9999.25   -9999.25   -9999.25   -9999.25   -9999.25   -9999.25   -9999.25
  797.50000   11.41730    0.19980   -9999.25   -9999.25   -9999.25   -9999.25   -9999.25   -9999.25   -9999.25
  798.00000   15.75540    0.14160    0.12260    0.00850    2.99210   53.07140  119.65590  132.76190    8.44970
  798.50000   20.05250    0.10420    0.09120    0.01940    3.06320   53.63230  114.95790   99.00230   50.21130
  799.00000   30.19580    0.10850    0.09450    0.00850    3.06180   56.03160  108.55630  114.98550   49.56740
  799.50000   37.75420    0.11830    0.09890    0.00190    3.04030   56.99600  101.59720  166.98230   62.85070
  800.00000   48.55860    0.09490    0.08580    0.00010    3.01210   56.94110   98.24600  292.57990   92.95520
  800.50000   60.92360    0.07280    0.06600   -0.00020    3.01190   52.66000   97.67590  371.87920  150.13800
  801.00000   65.75520    0.06040    0.05720   -0.00040    3.04440   52.92570   97.67480  565.17500  219.38960
  801.50000   63.45870    0.06070    0.05830   -0.00070    3.09150   53.27090   97.37790  201.89900  112.56230
  802.00000   53.68490    0.07330    0.06720   -0.00090    3.08510   53.38040   96.17490   95.16890   64.88400
  802.50000   45.37840    0.08860    0.07880   -0.00060    3.07250   53.65840   95.46350   73.53280   43.44640
  803.00000   44.28010    0.09970    0.08560   -0.00030    3.06990   54.43320   96.49440   68.74850   39.92320
  803.50000   49.61000    0.10750    0.08910   -0.00000    3.07830   55.35920   97.17240   68.75880   42.62840
  804.00000   60.73320    0.10420    0.08320    0.00080    3.07770   56.34290   97.16900  102.97660   62.75710
  804.50000   68.39900    0.09700    0.07280    0.00180    3.06740   56.47160   96.10350  245.45640  126.71270
  805.00000   67.67680    0.08150    0.06060    0.00280    3.05700   55.40350   94.86050  996.76730  345.16850
  805.50000   60.95180    0.07310    0.06030    0.00270    3.02560   53.88700   93.30200  806.07400  466.15000
  806.00000   48.25120    0.07590    0.06820    0.00070    2.97230   52.22380   91.91650  342.63900  185.02800
  806.50000   35.35470    0.08390    0.07610   -0.00010    2.92510   51.17210   90.63300  204.60860  139.85930
  807.00000   25.27670    0.08540    0.07690   -0.00090    2.85460   50.60230   90.38040  242.53370  122.19500
  807.50000   20.75340    0.07880    0.07620   -0.00180    2.77630   50.80700   92.08440  169.43930  108.59160
  808.00000   22.06870    0.08150    0.07880   -0.00260    2.70500   52.71700   93.18130  123.11170   95.22690
  808.50000   25.63530    0.09840    0.09400   -0.00340    2.70660   54.06170   94.12890  200.14320  109.56270
  809.00000   28.54420    0.11920    0.11060   -0.00420    2.71290   55.31170   95.07650  360.48730  169.57880
  809.50000   33.12730    0.13010    0.12120   -0.00420    2.71310   56.16550   95.70660  367.28600  191.92840
  810.00000   37.69050    0.13680    0.12940   -0.00320    2.69930   56.99160   96.36300  218.81120  170.17720
  810.50000   42.15390    0.14900    0.13620   -0.00220    2.67490   57.81780   97.38870  256.24280  153.82970
  811.00000   46.62880    0.14970    0.13610   -0.00110    2.65450   58.31610   97.95920  246.12270  145.67380
  811.50000   47.24060    0.14670    0.12990   -0.00020    2.68020   58.62030   97.76990  214.00850  151.22860
  812.00000   46.17300    0.13160    0.11260   -0.00020    2.76740   58.30640   98.82940  234.31050  158.79210
  812.50000   43.89370    0.10280    0.09090   -0.00020    2.85410   57.56950   98.95090  248.45590  170.17000
  813.00000   41.59430    0.08100    0.07270   -0.00020    2.92750   56.58200   98.46370  258.35080  197.25250
  813.50000   38.20870    0.06510    0.06090   -0.00030    2.99220   55.61160   97.26120  237.47800  135.73890
  814.00000   33.40630    0.06120    0.05760   -0.00030    3.06490   54.63450   96.05530  192.06740  143.20460
  814.50000   29.57730    0.05940    0.05450   -0.00030    3.15390   54.00160   94.29220  296.41810  153.77810
  815.00000   30.32150    0.06310    0.05140   -0.00030    3.22710   53.33390   92.28170  558.10330  301.86180
  815.50000   32.30020    0.06340    0.04810   -0.00030    3.35050   52.61810   90.27100 1428.98250  653.96340
  816.00000   32.00370    0.05770    0.04310   -0.00020    3.49520   51.53280   88.35480 2268.16550  900.18470
  816.50000   28.18200    0.05060    0.03890   -0.00010    3.61090   50.06710   86.49850 2898.44530  994.03340
  817.00000   21.08270    0.05010    0.03820    0.00140    3.65460   48.56920   85.72150 3256.56270  857.58260
  817.50000   15.33900    0.05140    0.03750    0.00360    3.62660   47.63320   85.27460 3667.88090  785.06840
