~Version ---------------------------------------------------
VERS.   2.0 : CWLS log ASCII Standard -VERSION 2.0
WRAP.    NO : One line per depth step
DLM . SPACE : Column Data Section Delimiter
~Well ------------------------------------------------------
STRT .F                  15.0 : START DEPTH
STOP .F                3592.0 : STOP DEPTH
STEP .F                   0.5 : STEP
NULL .               -9999.25 : NULL VALUE
COMP .                        : COMPANY
WELL .                        : WELL
FLD  .                        : FIELD
LOC  .                        : LOCATION
PROV .                        : PROVINCE
CNTY .                        : COUNTY
STAT .                        : STATE
CTRY .                        : COUNTRY
SRVC .                        : SERVICE COMPANY
DATE .                        : DATE
UWI  .                        : UNIQUE WELL ID
API  .                        : API NUMBER
SLAT .WGS84 2.763907729221394 : SURFACE LATITUDE
SLON .WGS84  9.10495536851299 : SURFACE LONGITUDE
DATUM.F                   nan : DEPTH DATUM ELEV
~Curve Information -----------------------------------------
DEPT   .F     : 1 MEASURED DEPTH
SGRDD  .GAPI  : SPECTROSCOPY GAMMA RAY FROM DENSITY LOG
TNPH_LS.DEC   : THERMAL NEUTRON POROSITY [LIMESTONE]
PXND   .DEC   : CROSSPLOT POROSITY FOR NEUTRON DENSITY
HDRA   .G/C3  : HRDD SPINE AND RIBS DENSITY CORRECTION
PEFZ   .B/E   : HRDD STANDARD RESOLUTION FORMATION PHOTOELECTRIC FACTOR
DTCO   .US/F  : DELTA-T COMPRESSIONAL
DTSM   .US/F  : DELTA-T SHEAR
RLA3   .OHMM  : APPARENT RESISTIVITY FROM COMPUTED FOCUSING MODE 3
RXOZ   .OHMM  : INVADED FORMATION RESISTIVITY FILTERED AT 18 INCHES
~Params ----------------------------------------------------
~Other -----------------------------------------------------
~ASCII -----------------------------------------------------
# ...
 3004.50000   35.55340    0.08510    0.06760   -0.00220    3.30000   51.31290   90.72860  199.66820  127.70470
 3005.00000   34.85520    0.08600    0.06630   -0.00170    3.29950   52.14500   91.33250  235.74990  126.00490
 3005.50000   34.64940    0.08410    0.06490   -0.00170    3.34620   52.37020   91.94620  443.12190  228.47290
 3006.00000   32.83570    0.07850    0.05980   -0.00170    3.43220   52.24440   92.14440  974.79500  446.94520
 3006.50000   28.89400    0.07580    0.05630    0.00010    3.48910   51.51600   91.81170 1565.88500  948.77100
 3007.00000   23.63770    0.07770    0.05690    0.00260    3.50300   50.65120   90.62080 2156.97510 1677.18880
 3007.50000   20.90430    0.08610    0.06000    0.00310    3.45440   49.31370   89.28760 3206.55130 1284.78920
 3008.00000   20.97650    0.09320    0.06760    0.00350    3.39150   48.51930   88.52060 3104.26030  952.21540
 3008.50000   20.36140    0.09950    0.07290    0.00360    3.30610   47.81150   88.39230 3175.50780 1058.38610
 3009.00000   17.40540    0.10490    0.07900    0.00270    3.25180   47.52160   87.50590 5965.81880 1378.75170
 3009.50000   14.65560    0.11030    0.08250    0.00190    3.25910   47.42400   87.32720 7381.97610 1993.20390
 3010.00000   12.93180    0.11030    0.08360    0.00050    3.29570   47.41310   87.55810 6035.38480 1985.88710
 3010.50000   12.69180    0.10900    0.08310   -0.00100    3.35090   47.41410   87.69250 2400.88890 1915.70480
 3011.00000   13.21930    0.10580    0.08010   -0.00200    3.42330   47.37710   87.63420 1205.87930 1317.03030
 3011.50000   13.53230    0.09820    0.07430   -0.00300    3.48040   47.27360   87.66610 1100.99410 1012.45920
 3012.00000   14.71650    0.09300    0.07040   -0.00260    3.51850   47.09420   88.18610 2194.65160  965.09440
 3012.50000   16.34500    0.09060    0.06890   -0.00130    3.50230   47.06120   88.18680 2649.97120 1034.83620
 3013.00000   20.52080    0.09440    0.06790   -0.00000    3.46890   47.06530   87.83570 3732.27440 1496.34230
 3013.50000   24.39270    0.09360    0.06920   -0.00310    3.43520   47.12470   87.46690 6427.91600 1972.26170
 3014.00000   25.88980    0.09310    0.07050   -0.00340    3.40600   47.11640   87.19830 8948.34860 2019.20680
 3014.50000   23.37590    0.09390    0.07170   -0.00260    3.40920   47.07420   87.03640 8048.51860 2019.07700
 3015.00000   18.88800    0.09530    0.07250   -0.00190    3.38810   47.01380   86.79950 6192.12010 1703.44920
 3015.50000   14.37480    0.09690    0.07340   -0.00150    3.38800   46.82150   86.65810 4388.77490 1485.61330
 3016.00000   11.79270    0.09820    0.07420   -0.00020    3.39430   46.57270   86.37000 3298.15060 1416.36760
 3016.50000    9.57050    0.09880    0.07380   -0.00050    3.42910   46.33830   86.15150 3981.84670 2018.55830
 3017.00000    7.98140    0.09460    0.07240   -0.00240    3.45120   46.24070   86.14410 8048.98240 2018.42870
 3017.50000    6.90950    0.08790    0.06780   -0.00000    3.46390   46.21000   86.02750 4964.73580 2018.30020
 3018.00000    6.85240    0.08170    0.06450    0.00140    3.47220   46.18520   86.11030 3500.24630 1944.77290
 3018.50000    7.03660    0.08210    0.06160    0.00280    3.48040   46.15170   86.19320 2229.34940 1229.95790
 3019.00000    7.09480    0.07790    0.05840    0.00380    3.47370   46.04320   86.27600 2147.68310  830.22110
 3019.50000    7.09790    0.07580    0.05420    0.00370    3.45540   46.05950   86.39230 3393.66500  900.52180
 3020.00000    7.19690    0.07040    0.04670    0.00340    3.45670   46.13040   86.40960 4194.79000 1342.80850
 3020.50000    7.37430    0.05550    0.03740    0.00310    3.50440   46.18040   86.38370 3627.14040 2005.46180
 3021.00000    7.81070    0.04770    0.02990    0.00280    3.58310   46.22530   86.91740 2560.82150 1666.64180
 3021.50000    7.56530    0.04560    0.03030    0.00160    3.64180   46.23290   86.17170 2357.79300 1322.11130
 3022.00000    8.22530    0.04970    0.03430    0.00040    3.64110   46.26450   85.48600 1663.53310  821.84550
 3022.50000    9.09980    0.05740    0.04060   -0.00110    3.59390   46.40340   85.21390 1239.19970  870.05810
 3023.00000   10.74180    0.06580    0.04870   -0.00280    3.49380   46.61830   85.28130 1930.13120  953.48910
 3023.50000   11.08860    0.06700    0.05370   -0.00440    3.40200   46.67400   85.34870 1686.51420  936.11810
 3024.00000    9.88800    0.06680    0.05410   -0.00610    3.37260   46.68140   85.42270 1031.55660  807.86160
 3024.50000    7.73860    0.06560    0.05230   -0.00650    3.39250   46.65600   85.50110 1314.08950  967.82570
 3025.00000    5.15020    0.06560    0.05060   -0.00490    3.45230   46.64010   85.58210 2074.61940 1233.04750
 3025.50000    3.67120    0.06360    0.04650   -0.00320    3.50020   46.56370   85.66520 2835.14920 1543.71850
 3026.00000    3.18850    0.05550    0.04100   -0.00140    3.54670   46.50630   85.74820 2499.99120 1206.88390
 3026.50000    3.20280    0.05140    0.03660   -0.00060    3.57770   46.56740   85.83120 2074.87670 1205.72770
 3027.00000    3.88440    0.04950    0.03550   -0.00090    3.60060   46.78380   86.10400 2982.23850 1350.92710
 3027.50000    4.80390    0.04690    0.03440   -0.00120    3.62340   46.80860   86.41410 2050.97340 1787.99990
 3028.00000    5.84080    0.04330    0.03050   -0.00250    3.63550   46.85770   86.59590 1119.70840 1703.51100
 3028.50000    6.85980    0.03860    0.02630   -0.00310    3.63730   46.98440   86.47790 1099.74490 1380.69460
 3029.00000    7.74800    0.03580    0.02260   -0.00190    3.65030   47.13010   86.46040 1694.71680 1346.44470
 3029.50000    8.40410    0.03390    0.01960   -0.00070    3.70090   47.27870   86.46270 1665.31930 1267.83960
 3030.00000    8.57900    0.03400    0.02080   -0.00010    3.75630   47.27480   86.48620  679.40200  425.88910
 3030.50000    9.02690    0.03810    0.02230    0.00040    3.77230   47.35960   86.50970  401.33240  298.06410
 3031.00000    9.85740    0.04280    0.02650    0.00090    3.72180   47.41610   86.57110  279.86220  248.78040
 3031.50000   11.16430    0.04680    0.02960    0.00210    3.66670   47.41280   86.77920  323.30810  241.12880
 3032.00000   13.41750    0.05040    0.03130    0.00210    3.61590   47.39200   86.97140  278.78740  217.25610
 3032.50000   13.37140    0.05290    0.03300    0.00170    3.60080   47.39550   87.44680  237.46830  213.39490
 3033.00000   12.35940    0.05220    0.03430    0.00120    3.59460   47.61420   87.61910  278.20320  248.76140
 3033.50000   10.48470    0.05250    0.03600    0.00030    3.58010   47.75490   87.63680  424.92970  312.23240
 3034.00000   10.44850    0.05330    0.03770   -0.00030    3.53950   47.70910   87.56440  405.68250  298.20680
 3034.50000   11.04690    0.05690    0.03970   -0.00020    3.47920   47.67010   87.50500  271.56220  245.86450
 3035.00000   10.64350    0.05860    0.04120    0.00010    3.43060   47.63670   87.40660  232.22530  191.90500
 3035.50000   10.18240    0.06010    0.04270   -0.00020    3.42860   47.60850   87.26080  231.58880  193.23860
 3036.00000    9.80550    0.05750    0.04080    0.00080    3.44190   47.67960   87.34750  289.46580  202.26260
 3036.50000    9.36310    0.05280    0.03740    0.00160    3.43520   47.80770   87.43430  238.82240  218.53810
 3037.00000   10.22660    0.05070    0.03530    0.00290    3.42490   47.99100   87.60820  230.32380  211.40030
 3037.50000    9.64390    0.04950    0.03560    0.00380    3.41450   48.15030   87.77040  282.62060  202.06880
 3038.00000   10.07200    0.05090    0.03580    0.00290    3.40780   48.19920   87.85730  315.39900  217.05130
 3038.50000   10.76120    0.05470    0.03740    0.00210    3.40730   48.20060   87.94330  298.40240  187.18440
 3039.00000   11.94170    0.05730    0.03890    0.00330    3.41880   48.18070   88.04460  230.90180  170.96080
 3039.50000   11.32900    0.05960    0.03910    0.00480    3.43530   48.17690   88.63100  214.36000  187.45330
 3040.00000   10.17820    0.05750    0.03780    0.00600    3.44830   48.24400   88.06030  238.86070  226.21010
 3040.50000    9.72920    0.05770    0.03650    0.00630    3.45670   48.30140   87.60780  243.68060  259.43790
