~Version ---------------------------------------------------
VERS.   2.0 : CWLS log ASCII Standard -VERSION 2.0
WRAP.    NO : One line per depth step
DLM . SPACE : Column Data Section Delimiter
~Well ------------------------------------------------------
STRT .F                  15.0 : START DEPTH
STOP .F                3592.0 : STOP DEPTH
STEP .F                   0.5 : STEP
NULL .               -9999.25 : NULL VALUE
COMP .                        : COMPANY
WELL .                        : WELL
FLD  .                        : FIELD
LOC  .                        : LOCATION
PROV .                        : PROVINCE
CNTY .                        : COUNTY
STAT .                        : STATE
CTRY .                        : COUNTRY
SRVC .                        : SERVICE COMPANY
DATE .                        : DATE
UWI  .                        : UNIQUE WELL ID
API  .                        : API NUMBER
SLAT .WGS84 2.763907729221394 : SURFACE LATITUDE
SLON .WGS84  9.10495536851299 : SURFACE LONGITUDE
DATUM.F                   nan : DEPTH DATUM ELEV
~Curve Information -----------------------------------------
DEPT   .F     : 1 MEASURED DEPTH
SGRDD  .GAPI  : SPECTROSCOPY GAMMA RAY FROM DENSITY LOG
TNPH_LS.DEC   : THERMAL NEUTRON POROSITY [LIMESTONE]
PXND   .DEC   : CROSSPLOT POROSITY FOR NEUTRON DENSITY
HDRA   .G/C3  : HRDD SPINE AND RIBS DENSITY CORRECTION
PEFZ   .B/E   : HRDD STANDARD RESOLUTION FORMATION PHOTOELECTRIC FACTOR
DTCO   .US/F  : DELTA-T COMPRESSIONAL
DTSM   .US/F  : DELTA-T SHEAR
RLA3   .OHMM  : APPARENT RESISTIVITY FROM COMPUTED FOCUSING MODE 3
RXOZ   .OHMM  : INVADED FORMATION RESISTIVITY FILTERED AT 18 INCHES
~Params ----------------------------------------------------
~Other -----------------------------------------------------
~ASCII -----------------------------------------------------
# ...
 1511.00000   10.20750    0.08290    0.06060    0.01110    3.40940   47.22860   90.09880 1476.58870 1314.37880
 1511.50000   11.68650    0.08910    0.06610    0.00940    3.41170   47.38190   89.86030 1161.22240  929.30040
 1512.00000   12.08830    0.09620    0.07430    0.00800    3.37740   47.37450   89.58450 1014.84700  698.74220
 1512.50000   11.85040    0.10150    0.07730    0.00550    3.34840   47.34400   89.27750 1028.82730  571.79300
 1513.00000   11.65150    0.09910    0.07670    0.00270    3.36650   47.29820   88.97040 1292.93250  599.13800
 1513.50000   11.60660    0.08970    0.06870    0.00140    3.39870   47.15470   88.66880 1320.56260  713.35790
 1514.00000   12.29580    0.07650    0.05600    0.00080    3.47070   46.99680   88.37010 1513.77260  905.71230
 1514.50000   12.67660    0.06180    0.04390    0.00030    3.52110   46.97170   88.50360 2104.15380 1149.63060
 1515.00000   12.27640    0.05000    0.03590   -0.00080    3.57180   46.91260   88.84850 2694.53490 1526.08000
 1515.50000   10.85170    0.04200    0.03020   -0.00260    3.62290   46.77500   89.19340 2807.46700 1645.31570
 1516.00000   11.20200    0.03920    0.02860   -0.00430    3.71310   46.70480   88.39340 2852.05880 1522.89890
 1516.50000   11.72330    0.03880    0.02710   -0.00340    3.74540   46.69860   87.49610 3453.77340 1420.30360
 1517.00000   12.52850    0.04090    0.02760   -0.00070    3.71750   46.71330   87.29390 3198.23050 1424.12700
 1517.50000   11.37680    0.03740    0.02430    0.00040    3.67510   46.74680   87.25960 2922.78710 1365.35120
 1518.00000   10.61570    0.03140    0.01880    0.00100    3.64510   46.82570   87.35380 3902.72290 1122.35160
 1518.50000   10.93000    0.02290    0.01330    0.00290    3.62840   46.93990   87.60200 5609.00880 1093.71570
 1519.00000   11.96150    0.01980    0.01020    0.00560    3.63670   47.01990   87.90250 5024.03810 1120.51030
 1519.50000   12.26520    0.02110    0.01010    0.00920    3.69080   47.00320   88.04620 4454.80810 1048.11660
 1520.00000   12.84940    0.02620    0.01290    0.01610    3.73860   46.87560   88.13590 3781.44850 1015.41830
 1520.50000   13.42100    0.03060    0.01640    0.02290    3.74810   46.62790   88.22550 2506.06540  738.35210
 1521.00000   14.20770    0.03610    0.02160    0.02650    3.67740   46.42300   88.29610 1230.68260  268.42660
 1521.50000   15.80270    0.04530    0.02970    0.02010    3.50970   46.41450   88.24380  667.84110  207.94710
 1522.00000   16.75760    0.05410    0.03740    0.01210    3.35120   46.40490   88.19160  429.73850  186.10840
 1522.50000   16.98060    0.05930    0.04430    0.00670    3.24440   46.45430   88.15400  290.82710  156.16680
 1523.00000   14.68220    0.05710    0.04450    0.00370    3.23250   46.60480   88.15250  253.24680  129.38070
 1523.50000   14.71150    0.05560    0.04410    0.00080    3.29790   46.87960   88.14200  314.16670  138.58430
 1524.00000   15.61050    0.05600    0.04480    0.00020    3.37260   47.20230   87.70200  515.94040  216.41760
 1524.50000   17.16960    0.05590    0.04320    0.00270    3.39090   47.28880   87.26200  782.48160  382.14630
 1525.00000   16.80760    0.05390    0.03800    0.00630    3.41050   47.11550   86.73620 1302.79270  684.95210
 1525.50000   16.13920    0.05170    0.03640    0.01070    3.44980   47.05090   85.70890 2256.87620 1015.15070
 1526.00000   15.68070    0.05090    0.03530    0.01330    3.50260   46.87360   85.52580 2503.80270 1197.93180
 1526.50000   15.48700    0.05100    0.03430    0.01390    3.53540   46.76210   85.49050 2082.81620 1242.49480
 1527.00000   15.24190    0.05110    0.03450    0.01080    3.51770   46.73280   85.59700 1939.24190 1177.50280
 1527.50000   13.65880    0.05110    0.03580    0.00760    3.47390   46.72340   85.70350 1512.63530 1238.64690
 1528.00000   13.20060    0.05200    0.03710    0.00170    3.40460   46.87680   85.79010 1873.21670 1330.43050
 1528.50000   13.49590    0.05380    0.03960    0.00070    3.36370   46.96100   85.80230 1794.02220 1441.08950
 1529.00000   17.31190    0.05750    0.04240    0.00150    3.38950   46.94330   85.79200 1753.42400 1464.14750
 1529.50000   21.95520    0.05940    0.04180    0.00200    3.41530   46.87980   85.78950 2184.67680 1602.30000
 1530.00000   26.73890    0.05680    0.04050    0.00130    3.45870   46.83590   85.83460 3650.62890 1966.63950
 1530.50000   29.57730    0.05400    0.04000    0.00070    3.51460   46.78550   85.90220 1821.09690 1449.87150
 1531.00000   28.81880    0.05520    0.04040   -0.00060    3.55840   46.74340   85.95990 1407.72120 1257.13920
 1531.50000   25.19420    0.05710    0.04280   -0.00310    3.57750   46.71510   86.01750 2478.51660 1165.33330
 1532.00000   19.23290    0.05690    0.04350   -0.00480    3.58170   46.72680   86.07510 3549.31230 1571.08670
 1532.50000   16.02680    0.05790    0.04430   -0.00540    3.54430   46.74580   86.11330 3522.54760 1840.47030
 1533.00000   14.36460    0.05440    0.04130   -0.00230    3.52970   46.76450   86.14350 2569.02170 1313.30980
 1533.50000   13.24450    0.05120    0.03760    0.00070    3.57460   46.80190   85.83910 1615.49580 1119.57870
 1534.00000   11.25070    0.04510    0.03230    0.00080    3.62420   46.80220   85.35940 2223.50590 1155.57730
 1534.50000    9.67800    0.04130    0.02900   -0.00140    3.67100   46.76460   84.95150 3352.30980 1369.89650
 1535.00000    9.30620    0.04100    0.02750    0.00010    3.66820   46.68100   84.79450 2351.51200 1462.91740
 1535.50000    9.43560    0.04300    0.02870    0.00140    3.66320   46.59790   85.55840 2380.24930 1296.22230
 1536.00000   10.12450    0.04860    0.03250   -0.00000    3.61130   46.53400   86.03070 1906.39180  611.85060
 1536.50000   11.36560    0.05260    0.03640   -0.00160    3.55950   46.49140   86.54790 1339.85060  556.02560
 1537.00000   12.20190    0.05450    0.03940   -0.00230    3.51450   46.51130   87.06520 1356.03550  531.92900
 1537.50000   12.76110    0.05170    0.03750   -0.00080    3.50950   46.54590   87.58250 1439.52220  706.75510
 1538.00000   12.19220    0.04760    0.03430    0.00020    3.53270   46.57840   87.91830 1484.29990  765.41890
 1538.50000   11.22450    0.04340    0.03040   -0.00030    3.57830   46.63430   88.17040 1289.54630  727.80020
 1539.00000    9.75750    0.03670    0.02550   -0.00140    3.64860   46.83860   88.29920 1544.41360  761.98190
 1539.50000    8.70290    0.02960    0.02040   -0.00240    3.71120   46.85680   88.35250 2407.49730  862.89300
 1540.00000    8.36750    0.03010    0.01990   -0.00320    3.75900   46.86430   88.04510 3147.99490  925.66590
 1540.50000    8.38950    0.03070    0.02000   -0.00390    3.77570   46.85400   87.29060 1924.99580 1016.93510
 1541.00000    8.59150    0.02970    0.02010   -0.00470    3.83180   46.59910   86.44060 2425.18900 1025.06520
 1541.50000    8.94020    0.02980    0.02050   -0.00540    3.89390   46.46970   85.80320 1895.09310 1077.71530
 1542.00000   11.10920    0.03050    0.02180   -0.00610    3.89000   46.35750   85.74460 1543.14920  919.97020
 1542.50000   12.27270    0.03310    0.02320   -0.00560    3.82580   46.36000   85.80410 1818.29580  887.78980
 1543.00000   13.51790    0.03890    0.02750   -0.00480    3.77300   46.37660   85.88740 1451.39010  811.57550
 1543.50000   11.96520    0.04320    0.03130   -0.00380    3.72210   46.57380   86.47590 1076.85380  793.21110
 1544.00000   11.25230    0.04620    0.03080   -0.00260    3.68640   46.74570   87.06450 1093.17420  894.54210
 1544.50000   10.40480    0.04580    0.02970   -0.00130    3.69090   46.91740   87.46130 1277.94120  824.46550
 1545.00000    9.51360    0.03860    0.02520   -0.00010    3.76020   46.94910   87.44020 1453.76490  886.15760
 1545.50000    9.65540    0.03360    0.02180   -0.00260    3.88540   46.93580   87.33700 1961.31120  925.51350
 1546.00000    9.85680    0.02920    0.01960   -0.00530    3.92390   46.93440   87.16800 2164.98880 1106.76880
 1546.50000   10.15090    0.02560    0.01740   -0.00790    3.91110   46.92630   86.97680 2093.72190 1284.93660
 1547.00000    8.83110    0.02300    0.01450   -0.00620    3.88300   46.87840   86.86590 2022.45510 1438.26310
