~Version ---------------------------------------------------
VERS.   2.0 : CWLS log ASCII Standard -VERSION 2.0
WRAP.    NO : One line per depth step
DLM . SPACE : Column Data Section Delimiter
~Well ------------------------------------------------------
STRT .F                  15.0 : START DEPTH
STOP .F                3592.0 : STOP DEPTH
STEP .F                   0.5 : STEP
NULL .               -9999.25 : NULL VALUE
COMP .                        : COMPANY
WELL .                        : WELL
FLD  .                        : FIELD
LOC  .                        : LOCATION
PROV .                        : PROVINCE
CNTY .                        : COUNTY
STAT .                        : STATE
CTRY .                        : COUNTRY
SRVC .                        : SERVICE COMPANY
DATE .                        : DATE
UWI  .                        : UNIQUE WELL ID
API  .                        : API NUMBER
SLAT .WGS84 2.763907729221394 : SURFACE LATITUDE
SLON .WGS84  9.10495536851299 : SURFACE LONGITUDE
DATUM.F                   nan : DEPTH DATUM ELEV
~Curve Information -----------------------------------------
DEPT   .F     : 1 MEASURED DEPTH
SGRDD  .GAPI  : SPECTROSCOPY GAMMA RAY FROM DENSITY LOG
TNPH_LS.DEC   : THERMAL NEUTRON POROSITY [LIMESTONE]
PXND   .DEC   : CROSSPLOT POROSITY FOR NEUTRON DENSITY
HDRA   .G/C3  : HRDD SPINE AND RIBS DENSITY CORRECTION
PEFZ   .B/E   : HRDD STANDARD RESOLUTION FORMATION PHOTOELECTRIC FACTOR
DTCO   .US/F  : DELTA-T COMPRESSIONAL
DTSM   .US/F  : DELTA-T SHEAR
RLA3   .OHMM  : APPARENT RESISTIVITY FROM COMPUTED FOCUSING MODE 3
RXOZ   .OHMM  : INVADED FORMATION RESISTIVITY FILTERED AT 18 INCHES
~Params ----------------------------------------------------
~Other -----------------------------------------------------
~ASCII -----------------------------------------------------
# ...
 1693.50000    6.83760    0.05880    0.04360    0.00170    3.43480   46.89470   85.90040 1379.11510  767.19010
 1694.00000    5.26070    0.06030    0.04380    0.00380    3.41190   46.75740   85.32890 1704.50820  768.92510
 1694.50000    4.47240    0.06150    0.04410    0.00490    3.32670   46.62360   85.15890 1892.54600  861.52130
 1695.00000    3.49410    0.06330    0.04580    0.00380    3.26130   46.44210   85.31130 1442.15390  764.02730
 1695.50000    3.03410    0.06520    0.04750    0.00270    3.23790   46.24620   85.47800 1100.95480  706.20360
 1696.00000    3.16090    0.06610    0.04740    0.00340    3.25090   46.02960   85.64470 1143.97020  690.36290
 1696.50000    5.02400    0.06860    0.04700    0.00210    3.27640   45.92530   86.30070 1131.12150  759.33070
 1697.00000    6.32840    0.06580    0.04660   -0.00030    3.34640   45.89930   86.39060 1171.00350  725.71310
 1697.50000    5.70710    0.06130    0.04580   -0.00270    3.43570   45.91120   86.20620 1486.36950  650.01220
 1698.00000    4.27400    0.05920    0.04640   -0.00340    3.50320   46.05320   85.85110 1119.70100  692.34830
 1698.50000    3.31340    0.06210    0.04720   -0.00370    3.52860   46.21250   85.73560 1084.37410  555.24530
 1699.00000    2.14550    0.06520    0.04830   -0.00390    3.49720   46.44370   86.13710 1234.78500  619.94020
 1699.50000    1.51050    0.06530    0.04830   -0.00450    3.47450   46.55920   86.43880 1795.06250  649.31640
 1700.00000    1.18930    0.06490    0.04830   -0.00320    3.43320   46.59330   86.52120 1515.18260  684.33200
 1700.50000    1.16720    0.06420    0.04800   -0.00180    3.38150   46.60910   86.64270 1216.19410  505.64970
 1701.00000    1.45400    0.06290    0.04740   -0.00140    3.37250   46.60470   86.68300 1114.11510  518.72020
 1701.50000    1.62140    0.06180    0.04680   -0.00180    3.40560   46.55130   86.75420 1532.73730  641.02860
 1702.00000    1.78830    0.06000    0.04610   -0.00120    3.44340   46.59330   86.73170 1368.45700  589.32650
 1702.50000    2.06410    0.05890    0.04530   -0.00060    3.44440   46.67250   86.61170 1049.18910  493.53360
 1703.00000    1.81740    0.06110    0.04460    0.00130    3.43340   46.67950   86.94470  835.00260  522.08330
 1703.50000    1.16430    0.06210    0.04580    0.00150    3.43160   46.63470   87.71310  949.92650  633.65300
 1704.00000    0.96450    0.05970    0.04350    0.00130    3.41770   46.56940   87.05570  961.66780  607.91190
 1704.50000    0.97200    0.05600    0.04100    0.00110    3.40890   46.48370   86.12870  935.16530  663.71800
 1705.00000    1.93880    0.05430    0.03860    0.00120    3.41140   46.44030   85.91070 1438.88310  773.84970
 1705.50000    3.27180    0.05320    0.03650    0.00110    3.43130   46.41320   86.19650 1342.25570 1212.38570
 1706.00000    3.33290    0.05210    0.03530    0.00100    3.45430   46.51770   86.64280 1189.19030 1002.96120
 1706.50000    2.30210    0.04980    0.03400    0.00000    3.48300   46.59410   86.64830 1160.86680  837.80130
 1707.00000    1.24030    0.04800    0.03440    0.00040    3.48270   46.61360   86.76720 1071.70210  771.14110
 1707.50000    0.74680    0.04910    0.03620    0.00070    3.47430   46.62910   86.68210 1036.55040  806.02800
 1708.00000    1.44510    0.05270    0.03860    0.00280    3.46860   46.61950   87.05080 1155.63240  829.90480
 1708.50000    2.21530    0.05830    0.04210    0.00720    3.49370   46.63850   87.01660 1325.43320  848.91230
 1709.00000    3.58200    0.06400    0.04490    0.01220    3.50830   46.68460   86.92670 1102.07650  503.01230
 1709.50000    5.79120    0.07320    0.04870    0.01500    3.48610   46.66480   86.48040  937.84180  411.73710
 1710.00000    6.20620    0.07330    0.05150    0.01150    3.41490   46.60000   86.42590  994.68960  402.71260
 1710.50000    6.18800    0.06990    0.05160    0.00810    3.35850   46.59260   86.48880 1024.96730  565.48660
 1711.00000    5.56400    0.06400    0.04900    0.00680    3.34640   46.66570   86.87700  913.82970  632.87010
 1711.50000    5.99460    0.06170    0.04670    0.00500    3.35640   46.76620   87.43470  875.02250  582.70320
 1712.00000    6.69800    0.06070    0.04570    0.00280    3.38040   46.83680   87.68560  879.39470  533.36180
 1712.50000    7.42090    0.05920    0.04440    0.00080    3.39840   46.90680   87.67200  848.74820  521.96610
 1713.00000    8.51140    0.05580    0.04050    0.00020    3.41910   47.00280   87.78850  790.39310  483.80860
 1713.50000    8.45390    0.05190    0.03770    0.00000    3.44650   47.03740   87.91750  692.18910  487.34590
 1714.00000    8.07180    0.05150    0.03730   -0.00010    3.47860   47.05420   87.98210  841.41960  557.20420
 1714.50000    7.88910    0.05210    0.03730    0.00000    3.49010   47.06640   88.04680  848.19070  619.84900
 1715.00000    8.84400    0.05330    0.03550    0.00010    3.50260   47.09400   88.19020 1080.08750  736.88900
 1715.50000   10.00910    0.04820    0.03250    0.00070    3.50560   47.07860   88.19920 1280.07510  888.96810
 1716.00000   10.91970    0.04360    0.02840    0.00210    3.51750   47.05340   88.06230 1450.01790 1128.82190
 1716.50000   11.07130    0.04080    0.02800    0.00130    3.53290   47.00950   87.89810 1944.93200 1099.67540
 1717.00000   10.61970    0.03960    0.02830    0.00110    3.53050   46.88820   87.67240 1398.47640 1083.68490
 1717.50000    8.59110    0.04000    0.02850    0.00060    3.44070   46.78810   87.42250 1542.88230 1124.45650
 1718.00000    7.02900    0.04260    0.02960    0.00040    3.36390   46.70240   86.91400 1631.51620 1093.24740
 1718.50000    6.64550    0.04510    0.03180   -0.00050    3.35390   46.51650   86.52940 1085.52000  925.78430
 1719.00000    9.17340    0.04950    0.03590   -0.00230    3.39420   46.45720   86.14470 1253.56030  838.16830
 1719.50000   13.15740    0.05330    0.04100   -0.00370    3.38920   46.48230   86.19560 1186.80200  805.45870
 1720.00000   16.79930    0.05790    0.04390   -0.00200    3.32720   46.57490   86.34250 1161.24220  826.63820
 1720.50000   20.24820    0.06120    0.04670    0.00120    3.27120   46.71880   86.48940 1139.43800  736.80850
 1721.00000   21.99980    0.06220    0.04820    0.00390    3.27600   46.82000   86.75650 1111.98270  740.84180
 1721.50000   20.03710    0.06470    0.04820    0.00080    3.33610   46.91100   87.07040 1183.82890  842.64260
 1722.00000   17.17480    0.05910    0.04410   -0.00080    3.43380   47.08030   87.22730 1299.60030  936.92740
 1722.50000   13.03780    0.05140    0.03910   -0.00240    3.51570   47.15740   87.26260 1324.78140 1087.38700
 1723.00000   11.49880    0.04410    0.03350   -0.00240    3.58240   47.09120   87.21500 1498.90910 1225.42680
 1723.50000   11.12440    0.04490    0.03290    0.00150    3.60970   47.02500   87.00000 1507.52530 1502.05740
 1724.00000   11.38480    0.04710    0.03230    0.00620    3.60630   46.95300   86.78500 1208.04060 1100.03410
 1724.50000   11.11430    0.04910    0.03210    0.00780    3.58740   46.77890   86.57000 1231.46120 1006.00400
 1725.00000   10.84750    0.04810    0.03240    0.00400    3.57150   46.71470   86.14650 1307.22670  776.23320
 1725.50000   11.34950    0.04710    0.03260    0.00060    3.58780   46.68850   86.17620 1233.09690  960.65360
 1726.00000   13.54520    0.04490    0.03050   -0.00110    3.65310   46.68600   86.74960 1194.54110  873.49480
 1726.50000   15.82260    0.04070    0.02770   -0.00210    3.72470   46.66170   87.27200 1467.28710 1106.18690
 1727.00000   15.64110    0.03500    0.02480   -0.00310    3.76810   46.60450   87.31870 1902.06480 1152.95130
 1727.50000   14.41590    0.03150    0.02140   -0.00330    3.73740   46.52490   87.46310 2336.84250 1489.03200
 1728.00000   13.97190    0.03210    0.02200   -0.00240    3.66670   46.38120   87.13970 2611.33450 1572.43360
 1728.50000   14.36420    0.03530    0.02390    0.00160    3.60740   46.24230   86.92210 3502.59720 1570.19930
 1729.00000   13.72600    0.04080    0.02590    0.00550    3.56320   46.23510   86.56580 2386.56760  962.81360
 1729.50000   12.57940    0.04820    0.03240    0.00520    3.51250   46.29680   86.16380 1270.53810  625.13770
