~Version ---------------------------------------------------
VERS.   2.0 : CWLS log ASCII Standard -VERSION 2.0
WRAP.    NO : One line per depth step
DLM . SPACE : Column Data Section Delimiter
~Well ------------------------------------------------------
STRT .F                  15.0 : START DEPTH
STOP .F                3592.0 : STOP DEPTH
STEP .F                   0.5 : STEP
NULL .               -9999.25 : NULL VALUE
COMP .                        : COMPANY
WELL .                        : WELL
FLD  .                        : FIELD
LOC  .                        : LOCATION
PROV .                        : PROVINCE
CNTY .                        : COUNTY
STAT .                        : STATE
CTRY .                        : COUNTRY
SRVC .                        : SERVICE COMPANY
DATE .                        : DATE
UWI  .                        : UNIQUE WELL ID
API  .                        : API NUMBER
SLAT .WGS84 2.763907729221394 : SURFACE LATITUDE
SLON .WGS84  9.10495536851299 : SURFACE LONGITUDE
DATUM.F                   nan : DEPTH DATUM ELEV
~Curve Information -----------------------------------------
DEPT   .F     : 1 MEASURED DEPTH
SGRDD  .GAPI  : SPECTROSCOPY GAMMA RAY FROM DENSITY LOG
TNPH_LS.DEC   : THERMAL NEUTRON POROSITY [LIMESTONE]
PXND   .DEC   : CROSSPLOT POROSITY FOR NEUTRON DENSITY
HDRA   .G/C3  : HRDD SPINE AND RIBS DENSITY CORRECTION
PEFZ   .B/E   : HRDD STANDARD RESOLUTION FORMATION PHOTOELECTRIC FACTOR
DTCO   .US/F  : DELTA-T COMPRESSIONAL
DTSM   .US/F  : DELTA-T SHEAR
RLA3   .OHMM  : APPARENT RESISTIVITY FROM COMPUTED FOCUSING MODE 3
RXOZ   .OHMM  : INVADED FORMATION RESISTIVITY FILTERED AT 18 INCHES
~Params ----------------------------------------------------
~Other -----------------------------------------------------
~ASCII -----------------------------------------------------
# ...
 2057.00000   21.56130    0.02050    0.02020    0.00680    4.66690   49.78450   92.23140 2954.24710 1927.52000
 2057.50000   18.90540    0.02140    0.02080    0.00990    4.71530   49.71680   92.26550 2303.27560 1964.55050
 2058.00000   17.68870    0.02720    0.02510    0.00900    4.71650   49.50410   92.33340 1990.19260 1666.46440
 2058.50000   19.58590    0.02990    0.02700    0.00810    4.72360   49.65930   92.34470 1529.68010 1468.37410
 2059.00000   20.18410    0.03030    0.02920    0.00540    4.71220   49.97360   92.27530 1451.67310 1251.73460
 2059.50000   20.11300    0.03080    0.03010    0.00340    4.70180   50.03370   92.26510 1112.61770 1235.69300
 2060.00000   20.08910    0.03230    0.02990    0.00130    4.62930   50.11540   92.25490 1226.84770 1010.08750
 2060.50000   19.30000    0.03420    0.03120    0.00030    4.56390   50.29260   92.25640 1247.42380 1006.71730
 2061.00000   19.81050    0.03220    0.03080   -0.00010    4.51210   50.51720   92.24360 1220.14380 1099.11350
 2061.50000   20.05850    0.02680    0.02600   -0.00000    4.46380   50.58890   92.16820 1478.31560 1318.04220
 2062.00000   22.85230    0.02390    0.02330    0.00000    4.39670   50.59620   92.02880 2454.01250 1671.02010
 2062.50000   23.57790    0.02330    0.02270    0.00010    4.39660   50.49870   91.72160 3429.70950 1751.62290
 2063.00000   23.05540    0.02970    0.02950   -0.00030    4.57270   50.41130   91.36920 2322.30590 1266.25010
 2063.50000   20.98150    0.04460    0.04090    0.00100    4.75830   50.76150   91.08290 1214.90220  573.44400
 2064.00000   18.63360    0.07300    0.05680    0.00220    4.72870   51.73400   91.06070  476.74180  271.25270
 2064.50000   18.80820    0.08980    0.07080    0.00310    4.34380   52.60800   91.25740  310.34660  205.17740
 2065.00000   25.70010    0.09890    0.07470    0.00400    3.84660   53.63050   91.97440  294.22010  185.96170
 2065.50000   36.89530    0.09480    0.07370    0.00160    3.55040   54.16870   92.63480  289.22460  192.84800
 2066.00000   45.77240    0.08440    0.06700    0.00040    3.56630   54.17800   93.17330  283.35790  179.07100
 2066.50000   43.19170    0.06980    0.05920   -0.00070    3.74380   53.81940   93.48060  313.19000  235.20700
 2067.00000   36.83340    0.05170    0.04680   -0.00180    4.03900   53.69210   93.45320  674.46550  326.12520
 2067.50000   31.01810    0.03210    0.02940   -0.00300    4.36030   52.61630   93.14510 1610.85970  810.23020
 2068.00000   31.51930    0.02170    0.01970    0.00020    4.61670   51.93700   92.75740 2188.71140 1249.59790
 2068.50000   35.75280    0.01530    0.01470    0.00370    4.80140   51.18160   92.44680 3683.86720 1512.96170
 2069.00000   31.01290    0.01580    0.01520    0.00570    4.82840   50.67530   92.24020 2928.65110 1849.57600
 2069.50000   22.37630    0.01660    0.01590    0.00470    4.79690   50.06660   92.22670 3397.80180 1609.54170
 2070.00000   13.50040    0.01810    0.01730    0.00250    4.65580   49.56540   92.37590 3294.27830 1389.19930
 2070.50000   10.01070    0.02050    0.01980    0.00000    4.61510   49.32510   92.57380 2701.55570 1363.54300
 2071.00000   10.82870    0.02210    0.02250   -0.00140    4.60610   49.53760   92.91050 2616.90260 1559.56140
 2071.50000   12.66870    0.02250    0.02370   -0.00290    4.61460   49.82180   92.89210 2691.61650 1874.46750
 2072.00000   15.74260    0.02140    0.02090   -0.00130    4.60740   50.03000   92.87370 2741.61160 1948.53780
 2072.50000   17.79400    0.02020    0.01960    0.00230    4.58430   50.18720   92.85970 3286.15190 1924.69890
 2073.00000   17.89070    0.01910    0.01860    0.00580    4.59880   50.27830   92.84650 3540.29030 1886.92520
 2073.50000   17.16830    0.02110    0.02030    0.00670    4.62910   50.30930   92.73980 2580.95020 1874.25260
 2074.00000   15.97070    0.02340    0.02420    0.00460    4.65310   50.21350   92.66570 2964.18120 1969.07140
 2074.50000   15.57560    0.02150    0.02170    0.00240    4.68190   50.10000   92.54320 3474.23140 1998.17460
 2075.00000   16.42990    0.02070    0.02020    0.00070    4.76520   49.92290   92.47430 3639.26710 2006.32400
 2075.50000   17.21690    0.02060    0.01980    0.00230    4.85760   49.79870   92.50440 3399.15060 2014.50660
 2076.00000   16.41490    0.02000    0.01950    0.00400    4.92310   49.81490   92.67220 4113.01270 2022.72380
 2076.50000   14.40660    0.01930    0.01880    0.00560    4.96500   49.71090   92.91570 3572.67140 2030.97330
 2077.00000   12.76360    0.02070    0.01940    0.00650    4.93160   49.61990   93.07710 2698.59400 2028.21120
 2077.50000   12.20270    0.02230    0.02140    0.00400    4.81820   49.65340   93.30640 2704.64820 1971.78540
 2078.00000   11.24650    0.02160    0.01970    0.00140    4.78510   49.74290   93.53570 3221.14400 1998.20750
 2078.50000   13.25740    0.01860    0.01800   -0.00140    4.78870   49.84540   93.65290 3751.46680 1993.56180
 2079.00000   15.38310    0.01810    0.01750    0.00050    4.85040   50.03450   93.72480 3929.44340 2014.72450
 2079.50000   16.76880    0.01800    0.01750    0.00260    4.91610   50.06440   93.82260 4103.72070 2017.43730
 2080.00000   14.91970    0.01800    0.01750    0.00480    4.94210   50.06400   93.90450 4349.13770 2020.15370
 2080.50000   13.86100    0.01750    0.01700    0.00630    4.94090   50.04960   94.02440 4044.80050 2023.62120
 2081.00000   13.03230    0.01740    0.01690    0.00530    4.95930   49.96720   93.63620 4341.79050 2031.18070
 2081.50000   12.87870    0.01760    0.01710    0.00430    4.96960   49.97480   93.30600 3367.78960 2026.96230
 2082.00000   12.96770    0.01780    0.01730    0.00190    4.94850   49.94640   93.96660 2674.37180 1782.34520
 2082.50000   12.68060    0.01810    0.01760   -0.00000    4.93550   50.00260   93.61560 2598.13180 1599.15230
 2083.00000   10.93780    0.01750    0.01710   -0.00070    4.92400   50.09870   93.21840 2530.00270 1389.59900
 2083.50000   10.23790    0.01700    0.01650   -0.00140    4.88650   50.11890   93.68820 2196.52710 1352.52550
 2084.00000   10.19830    0.01710    0.01650   -0.00170    4.83150   50.15390   94.15640 2067.77200 1245.38130
 2084.50000   10.19150    0.01830    0.01770   -0.00150    4.80080   50.27150   94.27660 2056.09250 1221.27220
 2085.00000    9.47110    0.01940    0.01880   -0.00130    4.77000   50.40990   94.11330 2208.26830 1158.82540
 2085.50000    9.48200    0.02080    0.02000   -0.00100    4.75120   50.42460   94.24340 2159.30790 1136.62480
 2086.00000   11.02320    0.02110    0.02050   -0.00060    4.73650   50.45180   94.17590 2086.78420 1145.22310
 2086.50000   11.23300    0.02310    0.02240    0.00020    4.74330   50.52180   94.09090 1933.82100 1246.66110
 2087.00000   10.65750    0.02560    0.02520    0.00100    4.79470   50.51320   94.09550 1898.40440 1298.85000
 2087.50000   10.27460    0.02820    0.02790    0.00190    4.82560   50.62810   94.30000 1992.45010 1296.98110
 2088.00000   10.83080    0.03000    0.02970    0.00240    4.81280   50.77890   94.31850 1992.63940 1043.37680
 2088.50000   11.99240    0.03180    0.03150    0.00290    4.78210   50.88740   94.00680 1971.70000  818.00460
 2089.00000   12.30610    0.03410    0.03370    0.00340    4.75720   50.92520   93.78240 2108.85330  784.66770
 2089.50000   13.45960    0.03570    0.03560    0.00410    4.79030   50.96300   93.88960 2585.17460 1006.18740
 2090.00000   13.48430    0.03700    0.03660    0.00480    4.92690   51.04840   94.02170 3405.49930 1592.29050
 2090.50000   13.11560    0.03830    0.03810    0.00500    5.07000   51.31100   94.19150 2324.31930 1765.99120
 2091.00000   10.52780    0.03480    0.03430    0.00370    5.28470   51.56100   94.54680 1577.72380 1152.65640
 2091.50000    8.67290    0.03380    0.03350    0.00250    5.37230   51.95820   95.11370 1649.40610 1114.05330
 2092.00000    7.77740    0.03300    0.03250    0.00130    5.39340   52.16520   95.13760 2144.65040 1244.94590
 2092.50000    8.96400    0.03220    0.03180    0.00070    5.29400   52.51450   95.58180 2440.12500 1191.04970
 2093.00000   10.96600    0.03180    0.03130    0.00050    5.19860   52.80640   95.76060 2358.89720 1013.65440
