~Version ---------------------------------------------------
VERS.   2.0 : CWLS log ASCII Standard -VERSION 2.0
WRAP.    NO : One line per depth step
DLM . SPACE : Column Data Section Delimiter
~Well ------------------------------------------------------
STRT .F                  15.0 : START DEPTH
STOP .F                3592.0 : STOP DEPTH
STEP .F                   0.5 : STEP
NULL .               -9999.25 : NULL VALUE
COMP .                        : COMPANY
WELL .                        : WELL
FLD  .                        : FIELD
LOC  .                        : LOCATION
PROV .                        : PROVINCE
CNTY .                        : COUNTY
STAT .                        : STATE
CTRY .                        : COUNTRY
SRVC .                        : SERVICE COMPANY
DATE .                        : DATE
UWI  .                        : UNIQUE WELL ID
API  .                        : API NUMBER
SLAT .WGS84 2.763907729221394 : SURFACE LATITUDE
SLON .WGS84  9.10495536851299 : SURFACE LONGITUDE
DATUM.F                   nan : DEPTH DATUM ELEV
~Curve Information -----------------------------------------
DEPT   .F     : 1 MEASURED DEPTH
SGRDD  .GAPI  : SPECTROSCOPY GAMMA RAY FROM DENSITY LOG
TNPH_LS.DEC   : THERMAL NEUTRON POROSITY [LIMESTONE]
PXND   .DEC   : CROSSPLOT POROSITY FOR NEUTRON DENSITY
HDRA   .G/C3  : HRDD SPINE AND RIBS DENSITY CORRECTION
PEFZ   .B/E   : HRDD STANDARD RESOLUTION FORMATION PHOTOELECTRIC FACTOR
DTCO   .US/F  : DELTA-T COMPRESSIONAL
DTSM   .US/F  : DELTA-T SHEAR
RLA3   .OHMM  : APPARENT RESISTIVITY FROM COMPUTED FOCUSING MODE 3
RXOZ   .OHMM  : INVADED FORMATION RESISTIVITY FILTERED AT 18 INCHES
~Params ----------------------------------------------------
~Other -----------------------------------------------------
~ASCII -----------------------------------------------------
# ...
  964.00000   39.98170    0.11450    0.10470    0.00010    2.65110   57.06910   97.56540  371.69650  187.71390
  964.50000   34.97570    0.10200    0.09760    0.00010    2.67470   56.81120   96.75960  191.47940  112.88700
  965.00000   31.39160    0.09470    0.08980   -0.00000    2.71310   56.56600   95.91760  112.31760   69.34460
  965.50000   29.63820    0.08750    0.08430    0.00020    2.72250   56.47670   94.92660   78.45870   51.13430
  966.00000   30.82370    0.08230    0.08060    0.00040    2.71930   56.43660   94.15410   71.01050   41.28030
  966.50000   32.25170    0.08130    0.07790    0.00040    2.71340   56.54600   94.70450   68.81030   39.23170
  967.00000   34.13340    0.08600    0.07900    0.00010    2.75170   56.88310   95.56350   66.07610   38.55810
  967.50000   35.67920    0.09780    0.08560   -0.00010    2.82160   57.19060   95.90530   92.92440   46.97910
  968.00000   37.98100    0.10510    0.08790    0.00050    2.98480   56.53940   95.06620  151.69400   83.32740
  968.50000   39.29180    0.09900    0.07960    0.00160    3.16040   55.48220   93.41850  880.38390  382.15550
  969.00000   36.84120    0.09510    0.07560    0.00190    3.36650   53.94890   92.67890 1515.93070  611.06010
  969.50000   30.09740    0.11950    0.09140    0.00210    3.56450   51.79910   91.42470  916.59110  387.66800
  970.00000   19.50870    0.17170    0.11760    0.00590    3.75670   50.33120   90.07630  639.48800  312.29380
  970.50000    9.24560    0.18380    0.12890    0.01860    3.73730   49.38660   89.63660  457.09160  216.96060
  971.00000    7.26610    0.17200    0.12290    0.01790    3.61170   49.19030   90.00450  301.21750  237.13890
  971.50000    7.89950    0.15300    0.11280    0.00860    3.48770   49.36360   92.67500  299.75920  220.93180
  972.00000    9.52070    0.14060    0.10500    0.00250    3.39120   49.84280   92.96870  338.29790  248.28730
  972.50000    9.43580    0.12800    0.09760    0.00160    3.39840   50.03320   92.26420  451.62080  299.68220
  973.00000    9.57970    0.11880    0.08840    0.00060    3.40830   49.66970   91.80020 1659.11610  407.36970
  973.50000    9.71430    0.11950    0.08950    0.00080    3.39130   48.69160   92.43880 1994.58640  626.87770
  974.00000    9.47590    0.13100    0.09610    0.00150    3.35550   48.27230   93.08690  350.23430  229.23100
  974.50000    8.14060    0.15840    0.11170    0.00210    3.30740   48.21580   93.22870  300.50000  170.61000
  975.00000    7.41000    0.18500    0.12920    0.00180    3.26100   48.98920   93.28040  303.36900  168.80550
  975.50000    9.03230    0.16810    0.12300    0.00130    3.19850   49.41090   93.59710  549.07710  385.36980
  976.00000   11.50660    0.13420    0.10870    0.00100    3.07850   49.68130   96.25740  426.10610  282.35260
  976.50000   13.47650    0.09590    0.08660    0.00060    2.87530   49.91230   98.03510   96.81760   56.63690
  977.00000   14.29790    0.09470    0.09050    0.00030    2.68680   51.00890   97.47710   33.46810   32.45520
  977.50000   17.15600    0.09960    0.09490    0.00010    2.56840   52.99940   97.08300   41.53120   25.68030
  978.00000   26.74320    0.10680    0.10400   -0.00010    2.49950   55.07740   99.96660   67.03180   38.99240
  978.50000   37.11410    0.10180    0.10220   -0.00040    2.47390   57.01800  102.16400   89.18410   51.42060
  979.00000   43.29110    0.09550    0.09270   -0.00140    2.47380   58.69420  103.17520  110.79320   70.46190
  979.50000   44.44440    0.08750    0.08690   -0.00170    2.47380   60.06630  102.98010   91.27400   58.73850
  980.00000   42.37770    0.08530    0.08420   -0.00200    2.47780   60.38520  102.03670   64.53590   47.96130
  980.50000   41.08240    0.08940    0.08470   -0.00160    2.50750   59.65660  101.10030   75.29420   44.29030
  981.00000   41.70480    0.08950    0.08500    0.00110    2.56960   59.16450  100.21700   93.21560   59.36300
  981.50000   42.34610    0.09170    0.08450    0.00370    2.64690   58.73710   99.58810  107.36180   72.58890
  982.00000   42.99000    0.09360    0.08400    0.00560    2.75080   58.73750   99.40860   76.37120   64.39020
  982.50000   41.69980    0.09970    0.08350    0.00470    2.85430   58.71470   99.25960   68.97490   56.71390
  983.00000   39.32760    0.10190    0.08110    0.00230    2.97850   58.24720   99.41520   84.59630   58.53160
  983.50000   38.09510    0.09810    0.07820    0.00170    3.05010   57.21360   99.79070   68.26100   46.57700
  984.00000   38.24910    0.10000    0.07900    0.00190    3.09580   56.75680   99.48660   55.92590   40.90400
  984.50000   38.79150    0.09830    0.07500    0.00210    3.09100   56.56220   98.70980   85.78870   52.36950
  985.00000   38.88840    0.08600    0.06830    0.00220    3.04230   55.58670   98.32460  193.06660   87.29570
  985.50000   39.63430    0.07300    0.06170    0.00220    2.97400   54.42850   98.36840   71.80800   59.56740
  986.00000   36.61520    0.07630    0.06100    0.00150    2.87090   54.17400   97.93870   43.03300   32.03730
  986.50000   31.57080    0.08830    0.07850    0.00080    2.80320   55.09390   97.47910   35.65100   25.11710
  987.00000   29.91660    0.10400    0.09240    0.00010    2.77390   56.20280   97.05570   45.36670   27.22090
  987.50000   33.71850    0.10160    0.08680   -0.00040    2.83040   57.06240   96.78880  101.97010   49.41300
  988.00000   43.98610    0.08230    0.06730   -0.00090    2.95280   57.15110   96.61940  546.61660  186.29290
  988.50000   52.03460    0.06420    0.05040   -0.00130    3.09120   56.76960   95.95900 1812.97250 1202.08530
  989.00000   46.73880    0.05790    0.04450   -0.00090    3.19330   54.09800   93.90690 3079.32840 1142.04880
  989.50000   32.64900    0.06100    0.04660   -0.00020    3.23770   51.30560   90.69110 3487.50270 1107.18810
  990.00000   18.11690    0.06560    0.04970    0.00000    3.23470   48.25490   87.44510 3181.79660 1232.58390
  990.50000    4.94710    0.06940    0.05280    0.00030    3.22090   45.88050   84.19900 1922.79390  985.95510
  991.00000    2.14400    0.07060    0.05510    0.00100    3.23440   44.94750   83.35460  663.79120  655.31100
  991.50000    1.89670    0.07560    0.05550    0.00050    3.25150   45.25670   83.26340  573.34010  499.74600
  992.00000    1.90720    0.07190    0.05410    0.00050    3.27390   45.16350   82.97310  822.94300  572.05800
  992.50000    2.37140    0.07220    0.05550    0.00040    3.27720   45.11470   83.47950 2352.92140  875.24690
  993.00000    2.58870    0.07750    0.05790    0.00040    3.28320   45.24310   83.96380 3882.89940 1363.25780
  993.50000    2.83550    0.09430    0.07140    0.00180    3.36860   45.51660   83.75800 4601.83400 1155.29490
  994.00000    2.47470    0.10170    0.07510    0.00260    3.43380   46.01460   83.08640 4267.83640 1097.68750
  994.50000    1.92770    0.09450    0.07070    0.00350    3.39970   46.07730   82.83210 4193.99800 1172.69030
  995.00000    1.72820    0.07850    0.05760    0.00790    3.29170   46.36710   83.91650 4886.44190 1327.79500
  995.50000    1.95760    0.06800    0.04990    0.00770    3.20570   46.54940   84.76390 2719.93460 1004.12700
  996.00000    2.19960    0.06870    0.04850    0.00750    3.18140   46.52210   85.61130  553.42730  400.63210
  996.50000    2.10370    0.07330    0.05440    0.00650    3.18160   46.33110   86.61150  287.08810  329.83370
  997.00000    2.03720    0.07410    0.05620    0.00300    3.19010   45.79680   86.39270  517.08140  358.32390
  997.50000    2.72230    0.06710    0.05270   -0.00040    3.22180   45.48310   85.66990 1866.19800  933.21800
  998.00000    4.32200    0.06630    0.05200    0.00030    3.29190   45.37470   85.02380 2085.05300 1115.10160
  998.50000    5.80270    0.07550    0.05690    0.00050    3.35580   45.21200   84.55380 2965.72580 1073.96500
  999.00000    5.83060    0.09500    0.06990    0.00020    3.36440   45.70250   84.41770 3447.42750 1114.32070
  999.50000    4.85110    0.11380    0.08300    0.00060    3.31030   46.18950   84.28550 1394.94020  781.81090
 1000.00000    4.25550    0.12920    0.09640    0.00120    3.26610   46.46700   84.72400 1372.72560  378.79910
