~Version ---------------------------------------------------
VERS.   2.0 : CWLS log ASCII Standard -VERSION 2.0
WRAP.    NO : One line per depth step
DLM . SPACE : Column Data Section Delimiter
~Well ------------------------------------------------------
STRT .F                  15.0 : START DEPTH
STOP .F                3592.0 : STOP DEPTH
STEP .F                   0.5 : STEP
NULL .               -9999.25 : NULL VALUE
COMP .                        : COMPANY
WELL .                        : WELL
FLD  .                        : FIELD
LOC  .                        : LOCATION
PROV .                        : PROVINCE
CNTY .                        : COUNTY
STAT .                        : STATE
CTRY .                        : COUNTRY
SRVC .                        : SERVICE COMPANY
DATE .                        : DATE
UWI  .                        : UNIQUE WELL ID
API  .                        : API NUMBER
SLAT .WGS84 2.763907729221394 : SURFACE LATITUDE
SLON .WGS84  9.10495536851299 : SURFACE LONGITUDE
DATUM.F                   nan : DEPTH DATUM ELEV
~Curve Information -----------------------------------------
DEPT   .F     : 1 MEASURED DEPTH
SGRDD  .GAPI  : SPECTROSCOPY GAMMA RAY FROM DENSITY LOG
TNPH_LS.DEC   : THERMAL NEUTRON POROSITY [LIMESTONE]
PXND   .DEC   : CROSSPLOT POROSITY FOR NEUTRON DENSITY
HDRA   .G/C3  : HRDD SPINE AND RIBS DENSITY CORRECTION
PEFZ   .B/E   : HRDD STANDARD RESOLUTION FORMATION PHOTOELECTRIC FACTOR
DTCO   .US/F  : DELTA-T COMPRESSIONAL
DTSM   .US/F  : DELTA-T SHEAR
RLA3   .OHMM  : APPARENT RESISTIVITY FROM COMPUTED FOCUSING MODE 3
RXOZ   .OHMM  : INVADED FORMATION RESISTIVITY FILTERED AT 18 INCHES
~Params ----------------------------------------------------
~Other -----------------------------------------------------
~ASCII -----------------------------------------------------
# ...
 2458.50000   23.62020    0.06090    0.04990    0.00150    3.34150   50.38750   89.36430  481.27260  428.68660
 2459.00000   18.08080    0.06060    0.05270    0.00100    3.26740   49.87470   88.89480  476.93470  391.04200
 2459.50000   14.33830    0.05970    0.05410    0.00010    3.28250   49.25410   88.34100  196.67830  256.93140
 2460.00000   12.37050    0.05640    0.05350   -0.00100    3.43070   49.34710   87.82910  266.35070  238.80780
 2460.50000   11.80890    0.05140    0.05010   -0.00200    3.63530   49.47820   88.00920  679.76280  318.42730
 2461.00000   13.08030    0.04770    0.04740   -0.00500    4.01570   49.84570   88.44980 2893.12130  907.07070
 2461.50000   16.33540    0.04980    0.04890   -0.00660    4.26970   50.17280   89.32950 2263.44410 1619.56990
 2462.00000   17.29630    0.05070    0.05000   -0.00830    4.40400   50.19700   90.23020 1633.76680 1206.24610
 2462.50000   18.74400    0.04740    0.04600   -0.00840    4.47310   50.33090   91.20070 2228.96750 1180.68240
 2463.00000   20.89250    0.04240    0.04090   -0.00630    4.50270   50.22190   91.73100 3920.73580  862.03270
 2463.50000   25.70530    0.03320    0.03130   -0.00480    4.58020   50.28210   92.09680 4333.21830 1163.84030
 2464.00000   27.55010    0.02820    0.02700   -0.00330    4.66420   50.16350   92.38150 5055.64790 1761.33120
 2464.50000   27.13930    0.02520    0.02470   -0.00350    4.75180   49.80030   91.99970 8382.41020 1972.06470
 2465.00000   32.21500    0.02580    0.02490   -0.00410    4.84290   49.49320   92.07410 3256.90970 1972.94730
 2465.50000   37.59070    0.02570    0.02520   -0.00470    4.89510   49.15890   92.22710 2420.75390 1912.84960
 2466.00000   39.96700    0.02680    0.02630   -0.00410    4.92700   48.92180   92.38020 1584.59840 1237.17690
 2466.50000   41.38120    0.02890    0.02820   -0.00230    4.93200   48.70660   92.57190 1025.34660  855.68360
 2467.00000   43.77830    0.03060    0.02960   -0.00190    4.91540   48.80780   92.86720 1041.91960  766.85360
 2467.50000   47.10360    0.03190    0.03080   -0.00140    4.87280   49.18690   93.06330 1165.81120  842.07250
 2468.00000   37.51910    0.03040    0.02960   -0.00060    4.82950   49.49290   93.30730 1669.48520 1102.71390
 2468.50000   24.34170    0.02740    0.02600   -0.00040    4.83210   49.60700   93.56210 2386.75510 1396.16440
 2469.00000   13.55080    0.02450    0.02330   -0.00120    4.86860   49.63120   93.58610 2130.30540 1322.79680
 2469.50000   11.94160    0.02180    0.02120   -0.00190    4.93790   49.60040   93.74990 2097.64530 1259.12000
 2470.00000   13.66730    0.02020    0.01940   -0.00190    4.96000   49.38910   93.91020 4327.46730 1417.83170
 2470.50000   21.37390    0.01940    0.01880   -0.00160    4.81410   49.11170   93.46800 4015.28050 1641.96890
 2471.00000   28.62630    0.02090    0.02080   -0.00130    4.65200   48.83220   93.02580 1769.97550 1375.30380
 2471.50000   31.01950    0.02340    0.02280   -0.00170    4.53850   48.92670   92.58370 1594.58680 1174.94310
 2472.00000   31.20180    0.02330    0.02280   -0.00190    4.48460   49.03220   92.17650 1711.55860 1251.90430
 2472.50000   35.92220    0.02190    0.02130   -0.00080    4.52340   49.21300   91.89970 3484.15970 1661.27980
 2473.00000   42.11180    0.02040    0.01970    0.00030    4.58150   49.44190   91.48460 2154.10420 1801.44870
 2473.50000   44.02710    0.01920    0.01860   -0.00080    4.64150   49.55270   91.44120 2449.90060 1829.53720
 2474.00000   37.27960    0.01880    0.01830   -0.00200    4.64670   49.63960   91.16520 10825.90820 2008.85560
 2474.50000   31.48720    0.01880    0.01830   -0.00320    4.66850   49.57900   91.24930 5402.35110 2041.55620
 2475.00000   29.49360    0.02050    0.01970   -0.00320    4.66900   49.04300   91.44960 2479.43070 2048.89010
 2475.50000   29.24050    0.02280    0.02150   -0.00060    4.68480   48.83860   91.48980 2481.98950 2050.74580
 2476.00000   29.88200    0.02460    0.02310    0.00170    4.66910   48.83070   91.51620 3562.88790 2052.60210
 2476.50000   35.59110    0.02660    0.02450    0.00370    4.53170   48.71550   91.46000 1402.88400 1638.43740
 2477.00000   41.24890    0.03140    0.02750    0.00360    4.28980   48.62550   91.45460  878.53050 1052.19710
 2477.50000   42.70540    0.03250    0.02840    0.00270    4.04720   48.70960   91.44930  813.92290  679.10040
 2478.00000   37.33820    0.03280    0.02920    0.00170    3.93720   48.85820   91.30100  899.88180  625.77560
 2478.50000   32.87070    0.03360    0.03080    0.00130    3.90850   49.06760   91.18620 1435.66770  605.58330
 2479.00000   32.43580    0.03440    0.03240    0.00080    3.96880   49.23980   90.83650 1437.88340  727.92360
 2479.50000   35.12430    0.03700    0.03410    0.00000    3.98680   49.59110   90.68860 1435.65440  795.98810
 2480.00000   33.28760    0.03870    0.03490   -0.00070    3.96710   49.80160   90.34950 1590.16260  736.77450
 2480.50000   31.36700    0.03820    0.03440   -0.00110    3.94910   49.95850   90.00230  980.77910  641.75490
 2481.00000   30.04790    0.03530    0.03290    0.00030    4.01120   50.10490   90.00870  763.17040  659.90090
 2481.50000   30.04960    0.03250    0.02940    0.00210    4.15600   50.12800   90.01520 2564.80740  894.23820
 2482.00000   29.31380    0.02970    0.02610    0.00390    4.29400   49.95240   90.02170 2694.34110 1748.33830
 2482.50000   26.51410    0.02760    0.02570    0.00430    4.31370   49.58350   90.00770 2266.50760 1774.03980
 2483.00000   23.11230    0.02680    0.02610    0.00210    4.29920   49.39160   90.01050 3921.31910 1716.49670
 2483.50000   22.11720    0.02700    0.02650   -0.00000    4.29300   49.28610   90.04030 6283.43360 2024.98140
 2484.00000   23.05070    0.02690    0.02640   -0.00000    4.37490   49.27090   90.17040 4557.41020   -9999.25
 2484.50000   26.01170    0.02650    0.02600    0.00140    4.47500   49.24940   90.26240 2524.55710   -9999.25
 2485.00000   24.99620    0.02580    0.02520    0.00290    4.50790   49.38880   90.39400 2930.88840   -9999.25
 2485.50000   24.15480    0.02320    0.02280    0.00310    4.55100   49.55060   90.50550 9337.35060   -9999.25
 2486.00000   24.95320    0.02190    0.02140    0.00190    4.59410   49.49290   91.11280 5912.11080   -9999.25
 2486.50000   28.53270    0.02070    0.02020    0.00170    4.64870   49.39770   91.51270 5033.34670   -9999.25
 2487.00000   28.95930    0.02060    0.01950    0.00160    4.68490   49.27070   91.18250 5710.29490   -9999.25
 2487.50000   28.84080    0.02240    0.02160    0.00630    4.69290   49.18300   91.70150 6684.25830   -9999.25
 2488.00000   31.18010    0.02470    0.02380    0.00780    4.67000   49.12050   91.98460 10237.86910 2010.91000
 2488.50000   34.63510    0.02790    0.02660    0.00940    4.61990   49.05400   92.09260 7113.21680 1522.59130
 2489.00000   35.87240    0.03240    0.03120    0.00600    4.58460   49.08610   92.20070 5647.46390 1375.24270
 2489.50000   33.86050    0.03720    0.03600    0.00310    4.60570   49.12780   92.26310 5517.20650 1699.80520
 2490.00000   36.09220    0.04190    0.04050    0.00010    4.60100   49.09890   92.08290 5849.54740 1997.79610
 2490.50000   41.18170    0.04680    0.04400   -0.00160    4.57530   49.05610   92.06640 3723.38960 1732.79380
 2491.00000   43.56250    0.04860    0.04540   -0.00010    4.54960   49.10100   92.22570 1597.23180 1390.21400
 2491.50000   39.03870    0.05060    0.04620    0.00130    4.52550   49.21400   92.30070 1680.99850 1422.77510
 2492.00000   32.58280    0.05100    0.04680    0.00090    4.48620   49.24540   92.26670 2199.97730 1846.62480
 2492.50000   30.22690    0.05140    0.04700   -0.00120    4.46590   49.16350   92.31790 10258.34770 2019.16130
 2493.00000   31.26250    0.04990    0.04670   -0.00320    4.40140   49.01780   92.52810 15871.33690 2028.42600
 2493.50000   29.20440    0.04790    0.04390   -0.00530    4.35760   48.81550   92.24120 17355.86130 2028.77800
 2494.00000   22.83540    0.04280    0.03990   -0.00590    4.34400   48.52950   91.46050 19057.81840 2029.13000
 2494.50000   16.05830    0.03800    0.03620   -0.00600    4.32680   48.18810   90.68050 5937.78120 2017.55360
