~Version ---------------------------------------------------
VERS.   2.0 : CWLS log ASCII Standard -VERSION 2.0
WRAP.    NO : One line per depth step
DLM . SPACE : Column Data Section Delimiter
~Well ------------------------------------------------------
STRT .F                  15.0 : START DEPTH
STOP .F                3592.0 : STOP DEPTH
STEP .F                   0.5 : STEP
NULL .               -9999.25 : NULL VALUE
COMP .                        : COMPANY
WELL .                        : WELL
FLD  .                        : FIELD
LOC  .                        : LOCATION
PROV .                        : PROVINCE
CNTY .                        : COUNTY
STAT .                        : STATE
CTRY .                        : COUNTRY
SRVC .                        : SERVICE COMPANY
DATE .                        : DATE
UWI  .                        : UNIQUE WELL ID
API  .                        : API NUMBER
SLAT .WGS84 2.763907729221394 : SURFACE LATITUDE
SLON .WGS84  9.10495536851299 : SURFACE LONGITUDE
DATUM.F                   nan : DEPTH DATUM ELEV
~Curve Information -----------------------------------------
DEPT   .F     : 1 MEASURED DEPTH
SGRDD  .GAPI  : SPECTROSCOPY GAMMA RAY FROM DENSITY LOG
TNPH_LS.DEC   : THERMAL NEUTRON POROSITY [LIMESTONE]
PXND   .DEC   : CROSSPLOT POROSITY FOR NEUTRON DENSITY
HDRA   .G/C3  : HRDD SPINE AND RIBS DENSITY CORRECTION
PEFZ   .B/E   : HRDD STANDARD RESOLUTION FORMATION PHOTOELECTRIC FACTOR
DTCO   .US/F  : DELTA-T COMPRESSIONAL
DTSM   .US/F  : DELTA-T SHEAR
RLA3   .OHMM  : APPARENT RESISTIVITY FROM COMPUTED FOCUSING MODE 3
RXOZ   .OHMM  : INVADED FORMATION RESISTIVITY FILTERED AT 18 INCHES
~Params ----------------------------------------------------
~Other -----------------------------------------------------
~ASCII -----------------------------------------------------
# ...
 1875.50000   13.77000    0.04190    0.03590   -0.00180    2.99510   46.48440   83.80950 10380.09860   -9999.25
 1876.00000   13.24410    0.05130    0.04100   -0.00270    3.10220   46.94520   83.93530 8917.86910   -9999.25
 1876.50000   12.65510    0.05740    0.04430   -0.00010    3.19360   47.01210   84.34020 7923.34570   -9999.25
 1877.00000   14.68010    0.06050    0.04490    0.00050    3.25840   47.38760   84.84870 8225.14840   -9999.25
 1877.50000   16.82060    0.05220    0.03630    0.00080    3.26430   47.75620   85.23780 6890.26030   -9999.25
 1878.00000   20.49860    0.04520    0.02950    0.00060    3.22840   47.98200   85.74710 7545.73050   -9999.25
 1878.50000   24.30590    0.03960    0.02610   -0.00040    3.22740   47.77040   85.76270 9856.02830   -9999.25
 1879.00000   24.36530    0.03430    0.02430   -0.00140    3.21730   47.25270   84.77860 9375.90040   -9999.25
 1879.50000   19.35890    0.03260    0.02340   -0.00230    3.22240   47.04680   84.62480 11472.56250   -9999.25
 1880.00000   13.52630    0.03410    0.02710   -0.00320    3.24240   46.91070   83.64310 7660.40280   -9999.25
 1880.50000   10.13250    0.03880    0.02990   -0.00410    3.26460   46.77330   82.90750 5947.38530   -9999.25
 1881.00000    9.69180    0.04100    0.03240   -0.00510    3.28520   46.74520   82.79980 5273.11040   -9999.25
 1881.50000   10.37930    0.04350    0.03470   -0.00630    3.32450   46.76950   83.22610 6484.96000   -9999.25
 1882.00000   10.78550    0.04420    0.03350   -0.00540    3.36380   47.05120   83.88540 6334.94780   -9999.25
 1882.50000   11.05890    0.04440    0.03110   -0.00380    3.39280   47.48640   84.14830 5881.36770   -9999.25
 1883.00000   13.29770    0.04080    0.02840   -0.00230    3.38000   47.29980   85.63270 9531.77730   -9999.25
 1883.50000   15.18570    0.04210    0.02890   -0.00150    3.35490   47.37580   86.78320 6451.74020   -9999.25
 1884.00000   15.89440    0.04360    0.03010    0.00010    3.28410   47.44380   86.42580 8097.13960   -9999.25
 1884.50000   13.26180    0.04500    0.03020    0.00160    3.21150   47.47400   84.99010 8284.07230   -9999.25
 1885.00000   11.26040    0.04480    0.03050    0.00190    3.17610   47.33120   85.14980 7149.87350   -9999.25
 1885.50000   12.22060    0.04470    0.03050    0.00490    3.19720   47.01590   85.14420 6984.30370   -9999.25
 1886.00000   13.93620    0.04620    0.03060    0.00870    3.24080   47.03930   84.41740 6728.30130   -9999.25
 1886.50000   14.92600    0.04680    0.03040    0.00940    3.28500   47.19600   84.71480 6087.37450   -9999.25
 1887.00000   15.69860    0.04730    0.02990    0.00720    3.32640   47.26770   85.74730 5529.41410   -9999.25
 1887.50000   16.96520    0.04560    0.02950    0.00210    3.33300   47.48090   85.73070 6030.70170   -9999.25
 1888.00000   16.76110    0.04080    0.02740   -0.00120    3.36040   47.51540   84.93360 7686.67240   -9999.25
 1888.50000   16.06650    0.03610    0.02420   -0.00210    3.40780   47.55530   84.77720 10357.28520   -9999.25
 1889.00000   14.96600    0.03410    0.02250   -0.00270    3.43180   47.29010   85.02730 9826.31930   -9999.25
 1889.50000   14.15260    0.03520    0.02150   -0.00130    3.36970   47.24380   85.33200 9549.47560   -9999.25
 1890.00000   13.14010    0.03480    0.02400    0.00130    3.28920   47.12490   84.87230 9559.45700   -9999.25
 1890.50000   12.83840    0.03440    0.02640    0.00150    3.27610   46.86620   84.14390 8404.19630   -9999.25
 1891.00000   12.69390    0.03560    0.02850   -0.00310    3.33600   46.39840   83.60950 8722.18750 1803.42180
 1891.50000   12.72310    0.03850    0.03010   -0.00430    3.41350   46.49100   83.25480 10025.87890 1480.00450
 1892.00000   12.94890    0.04160    0.03150   -0.00290    3.40740   46.32300   83.24860 10893.56250 1280.28030
 1892.50000   14.15270    0.04500    0.03270   -0.00200    3.33910   46.22020   83.32070 13986.82230 1316.16000
 1893.00000   15.76730    0.04630    0.03390   -0.00070    3.24510   46.16500   83.40460 11193.12010 1497.83070
 1893.50000   15.74210    0.04730    0.03540   -0.00170    3.22220   46.05150   83.84770 7955.69580 1557.68410
 1894.00000   14.48680    0.04730    0.03630   -0.00270    3.28200   46.20230   84.31010 7547.79790 1807.05690
 1894.50000   13.49240    0.04610    0.03710   -0.00380    3.33490   46.45110   84.00180 7440.20070 1962.30100
 1895.00000   13.25960    0.04610    0.03590   -0.00420    3.35390   46.45320   82.97560 7266.60350   -9999.25
 1895.50000   12.95620    0.04500    0.03450   -0.00460    3.36250   46.62560   83.92560 7186.84910   -9999.25
 1896.00000   12.70140    0.04320    0.03260   -0.00540    3.36870   46.59080   84.05910 7592.67720   -9999.25
 1896.50000   13.24080    0.04130    0.03070   -0.00580    3.34740   46.53860   83.35330 8837.71680   -9999.25
 1897.00000   14.19150    0.04040    0.02980   -0.00590    3.31710   46.45720   83.00590 7523.37350   -9999.25
 1897.50000   14.32960    0.04020    0.03120   -0.00560    3.28920   46.40310   82.93890 7377.84380   -9999.25
 1898.00000   13.61720    0.04040    0.03300   -0.00380    3.24890   46.43320   82.82840 7844.51420   -9999.25
 1898.50000   13.12820    0.04070    0.03270   -0.00220    3.19990   46.69110   82.77670 9065.14160   -9999.25
 1899.00000   13.72740    0.04100    0.03160   -0.00060    3.13660   46.73440   82.96700 8541.68550   -9999.25
 1899.50000   14.68460    0.04150    0.03080    0.00070    3.11400   46.53290   83.17320 5194.13770 1832.12940
 1900.00000   15.05480    0.04240    0.03040    0.00390    3.16360   46.70290   83.61690 4998.49950 1492.56750
 1900.50000   14.94120    0.04290    0.03030    0.00810    3.21520   46.88260   83.87340 8600.28030 1291.77320
 1901.00000   14.60790    0.04510    0.03110    0.01010    3.19900   47.05260   84.06540 6280.00590 1166.85800
 1901.50000   15.87440    0.04910    0.03440    0.00800    3.10670   47.31940   84.28640 5230.52690 1405.58140
 1902.00000   15.90560    0.05380    0.04000    0.00370    2.98960   47.33910   84.50740 5463.57710 1624.42550
 1902.50000   16.36120    0.05510    0.04350    0.00140    2.96770   48.23260   84.72830 5852.68260 2003.52830
 1903.00000   16.61850    0.05400    0.04130    0.00360    2.97810   48.41970   84.94320 12289.47460 2014.85060
 1903.50000   16.67330    0.05240    0.03850    0.00380    2.99990   48.38660   85.22420 7316.81690 2017.73070
 1904.00000   15.43120    0.05030    0.03770    0.00380    3.06240   48.56380   85.50290 6087.26760 2017.73070
 1904.50000   13.48170    0.05020    0.03670    0.00380    3.11870   48.63030   85.43040 5777.91260 2004.38750
 1905.00000   11.26170    0.04890    0.03550    0.00260    3.18630   48.35060   86.19690 9362.52250 1964.33690
 1905.50000   10.60110    0.04880    0.03510    0.00150    3.21860   47.76330   87.38300 9433.96480 2047.08340
 1906.00000   11.03270    0.04830    0.03580    0.00030    3.20100   47.46110   86.79050 14264.30570   -9999.25
 1906.50000   11.37800    0.04860    0.03710   -0.00020    3.14980   47.31020   85.45750 9208.68070   -9999.25
 1907.00000   10.98850    0.05050    0.03860    0.00020    3.08830   47.14180   84.43300 5961.74900   -9999.25
 1907.50000   10.58470    0.05320    0.04080    0.00060    3.03630   47.04530   84.41020 5778.06790   -9999.25
 1908.00000    9.19560    0.05450    0.04140    0.00050    3.02580   47.09400   84.46620 6063.88670   -9999.25
 1908.50000    8.35600    0.05400    0.04100    0.00040    3.02830   47.34930   86.43740 7636.51950   -9999.25
 1909.00000    8.51530    0.04930    0.03900    0.00030    3.03070   47.39410   87.98130 10560.62790   -9999.25
 1909.50000    9.77630    0.04930    0.03560    0.00020    3.03320   47.40890   86.30150 5423.33300 1988.79360
 1910.00000    9.88710    0.04850    0.03420    0.00030    3.05770   47.44530   84.82410 5331.91460 1909.73650
 1910.50000    9.60700    0.04780    0.03600    0.00040    3.08600   47.42630   83.93420 6660.96090 1690.02950
 1911.00000    8.30620    0.04780    0.03780    0.00050    3.11020   47.35060   83.50930 6289.45210 1717.10000
