~Version ---------------------------------------------------
VERS.   2.0 : CWLS log ASCII Standard -VERSION 2.0
WRAP.    NO : One line per depth step
DLM . SPACE : Column Data Section Delimiter
~Well ------------------------------------------------------
STRT .F                  15.0 : START DEPTH
STOP .F                3592.0 : STOP DEPTH
STEP .F                   0.5 : STEP
NULL .               -9999.25 : NULL VALUE
COMP .                        : COMPANY
WELL .                        : WELL
FLD  .                        : FIELD
LOC  .                        : LOCATION
PROV .                        : PROVINCE
CNTY .                        : COUNTY
STAT .                        : STATE
CTRY .                        : COUNTRY
SRVC .                        : SERVICE COMPANY
DATE .                        : DATE
UWI  .                        : UNIQUE WELL ID
API  .                        : API NUMBER
SLAT .WGS84 2.763907729221394 : SURFACE LATITUDE
SLON .WGS84  9.10495536851299 : SURFACE LONGITUDE
DATUM.F                   nan : DEPTH DATUM ELEV
~Curve Information -----------------------------------------
DEPT   .F     : 1 MEASURED DEPTH
SGRDD  .GAPI  : SPECTROSCOPY GAMMA RAY FROM DENSITY LOG
TNPH_LS.DEC   : THERMAL NEUTRON POROSITY [LIMESTONE]
PXND   .DEC   : CROSSPLOT POROSITY FOR NEUTRON DENSITY
HDRA   .G/C3  : HRDD SPINE AND RIBS DENSITY CORRECTION
PEFZ   .B/E   : HRDD STANDARD RESOLUTION FORMATION PHOTOELECTRIC FACTOR
DTCO   .US/F  : DELTA-T COMPRESSIONAL
DTSM   .US/F  : DELTA-T SHEAR
RLA3   .OHMM  : APPARENT RESISTIVITY FROM COMPUTED FOCUSING MODE 3
RXOZ   .OHMM  : INVADED FORMATION RESISTIVITY FILTERED AT 18 INCHES
~Params ----------------------------------------------------
~Other -----------------------------------------------------
~ASCII -----------------------------------------------------
# ...
 3368.00000   22.43120    0.20280    0.18050   -0.00210    2.87020   57.92120  102.14690   11.97890    7.96330
 3368.50000   20.75650    0.19410    0.17190   -0.00210    2.83460   57.89810  102.30940   11.95680    8.25090
 3369.00000   20.64340    0.18600    0.16250   -0.00210    2.84890   57.89360  102.41580   12.12800    9.52700
 3369.50000   20.36500    0.17460    0.15210   -0.00240    2.97290   57.91730  102.38620   18.39920   11.92930
 3370.00000   21.07150    0.16670    0.14730   -0.00370    3.10460   58.09820  102.29910   19.44740   14.42840
 3370.50000   21.50880    0.16320    0.14380   -0.00500    3.21450   58.25040  102.15320   19.30510   15.35860
 3371.00000   22.70760    0.16520    0.14140   -0.00600    3.21910   58.13510  102.00730   18.67410   18.47700
 3371.50000   24.71830    0.14980    0.13300   -0.00540    3.14470   57.99750  101.70420   21.28030   25.69550
 3372.00000   26.72340    0.13810    0.12280   -0.00390    3.02070   57.57000  101.14960   27.43140   39.19690
 3372.50000   27.36140    0.12570    0.11200   -0.00230    2.94480   56.95380  100.48530   37.70830  103.08260
 3373.00000   24.79160    0.11770    0.10150   -0.00180    2.96680   56.10770   99.10080   66.56090  192.54580
 3373.50000   22.42730    0.10580    0.09250   -0.00160    3.03420   55.52110   97.40090   76.27230  166.95560
 3374.00000   22.00600    0.09770    0.08340   -0.00140    3.07270   54.55700   96.44960   83.57460  150.98190
 3374.50000   22.55310    0.08960    0.07560   -0.00070    3.09740   53.64780   95.31830  120.70040  182.82680
 3375.00000   23.42890    0.08350    0.07070    0.00010    3.08450   52.46530   93.61750  158.79240  205.21520
 3375.50000   23.63120    0.08000    0.06970    0.00030    3.07740   51.57690   92.00000  221.13300  235.71030
 3376.00000   24.01190    0.08280    0.07090    0.00040    3.06140   50.96670   90.66480  215.07830  244.04180
 3376.50000   23.37100    0.08860    0.07230    0.00010    3.05820   50.46610   89.76710  233.32740  370.50090
 3377.00000   24.36970    0.08470    0.06880   -0.00100    3.12380   50.02690   89.07220  571.11190  622.37500
 3377.50000   25.75910    0.06800    0.05680   -0.00220    3.28980   49.65260   88.43430 1207.53080 1358.95010
 3378.00000   28.10590    0.05440    0.04610   -0.00340    3.61390   49.20130   89.12250 1420.56320 1426.60440
 3378.50000   32.67820    0.03960    0.03550   -0.00320    3.99160   48.81550   89.68090 1546.47440 1469.95830
 3379.00000   33.39900    0.02680    0.02610   -0.00180    4.39950   48.37530   89.37570 1794.75110 1466.07690
 3379.50000   32.85030    0.01920    0.01920   -0.00030    4.61410   48.09270   88.91100 1977.61990 1485.88980
 3380.00000   28.78770    0.01930    0.01830    0.00120    4.67560   47.90380   88.44630 1402.71390 1359.04480
 3380.50000   28.48560    0.02260    0.02040    0.00290    4.67160   47.94210   87.98160 1174.28220 1179.27210
 3381.00000   29.56090    0.02740    0.02350    0.00450    4.54130   48.12670   87.91470  993.87410  942.54180
 3381.50000   30.02430    0.03220    0.02810    0.00600    4.33480   48.43620   87.98730  816.64460  759.82150
 3382.00000   29.65310    0.03940    0.03450    0.00170    4.16270   48.57900   88.74520  650.83920  622.05220
 3382.50000   27.63860    0.04680    0.04110    0.00070    4.02520   48.79700   89.95430  571.61160  642.53510
 3383.00000   26.82240    0.05620    0.04740   -0.00000    3.88250   48.86440   90.57670  666.45120  740.09990
 3383.50000   27.55750    0.06940    0.05470    0.00190    3.68810   49.04190   90.54770  843.73230  915.37510
 3384.00000   27.59360    0.08080    0.06240    0.00020    3.48530   48.76310   90.29390  942.22160  944.26330
 3384.50000   26.39720    0.09230    0.07280   -0.00150    3.35750   48.45630   90.04010  562.11380  664.89740
 3385.00000   20.53370    0.09890    0.08140   -0.00350    3.32480   48.10430   89.90480  409.89830  411.88940
 3385.50000   18.94460    0.10960    0.09210   -0.00410    3.27600   48.04910   89.98770  269.73960  228.73300
 3386.00000   20.56260    0.11760    0.09840   -0.00470    3.22140   48.31470   89.60370  180.88790  185.13690
 3386.50000   28.18460    0.12010    0.09940   -0.00520    3.16800   48.61250   89.06890  137.79750  133.48090
 3387.00000   33.96100    0.12220    0.10040   -0.00350    3.11600   49.48370   88.82600  113.26420  119.68920
 3387.50000   38.93400    0.12160    0.10070   -0.00150    3.11610   50.08270   89.33790  128.80760  125.62250
 3388.00000   43.99760    0.12250    0.09740    0.00050    3.13500   50.75320   90.27200  120.55920  126.06030
 3388.50000   49.56750    0.10730    0.09100   -0.00050    3.17850   51.00490   91.01930  114.75400  122.82910
 3389.00000   48.18210    0.09630    0.08380    0.00330    3.24650   51.19530   91.66330  175.17250  124.40250
 3389.50000   44.03110    0.07550    0.06430    0.01070    3.40190   51.03510   92.11690  304.53230  179.58770
 3390.00000   39.23280    0.05140    0.04720    0.01550    3.71730   50.64050   91.67200  516.50970  307.74440
 3390.50000   37.61570    0.03630    0.03450    0.01800    4.10170   50.16230   91.46710  650.13320  486.75850
 3391.00000   37.32870    0.02910    0.02820    0.00520    4.44100   49.46180   90.64130  631.68300  623.53570
 3391.50000   37.59060    0.02900    0.02840    0.00070    4.56750   49.01630   89.95610  523.38990  515.35380
 3392.00000   36.89250    0.03170    0.03050    0.00250    4.63590   48.66080   90.05960  296.97920  352.99330
 3392.50000   36.13680    0.03570    0.03600    0.00430    4.70310   48.71980   90.22660  226.62570  235.68750
 3393.00000   33.06600    0.04230    0.04140    0.00500    4.75750   49.42050   90.25010  199.94900  213.81210
 3393.50000   28.51200    0.04460    0.04290    0.00210    4.75280   50.07520   91.09980  195.28130  220.41120
 3394.00000   23.90710    0.04290    0.04130   -0.00020    4.67500   50.65330   92.96910  196.99960  243.58140
 3394.50000   21.51390    0.04300    0.04090    0.01000    4.49880   51.06980   94.65590  204.82090  243.65010
 3395.00000   20.95760    0.04780    0.04100    0.01470    4.15590   51.40120   96.55110  274.32500  315.23510
 3395.50000   20.25820    0.05530    0.04100    0.01520    3.72100   51.52510   96.75740  651.64000  568.42690
 3396.00000   19.96570    0.06010    0.04100   -0.00020    3.38290   50.68040   95.05080 3394.63400 1199.53810
 3396.50000   19.67810    0.06050    0.04610   -0.00050    3.29530   49.98690   93.47260 1919.07680 1526.79140
 3397.00000   18.81280    0.05980    0.05000    0.00020    3.47730   48.57670   91.70320  443.51960  251.11810
 3397.50000   16.25790    0.06080    0.05380    0.00080    3.72140   47.50430   89.93380  129.73780  156.08480
 3398.00000   13.26170    0.06250    0.05620    0.00140    3.91810   47.06380   88.17800   98.97990  106.12410
 3398.50000   11.13450    0.06540    0.05860    0.00220    3.96190   47.13090   87.46960   91.93440   97.71940
 3399.00000   10.55120    0.06830    0.06100    0.00090    3.92390   48.15700   88.21210  100.60940  101.00510
 3399.50000    9.12550    0.07120    0.06310    0.00060    3.88110   49.14650   90.01510  148.11770  115.28780
 3400.00000    6.87020    0.07340    0.06620    0.00030    3.87840   50.01410   91.44390  177.66140  116.16390
 3400.50000    5.54760    0.07580    0.06970    0.00000    3.91030   50.70960   92.96370  120.12700   85.91980
 3401.00000    5.97340    0.08350    0.07330    0.00100    4.00260   50.92500   94.17160   82.06490   70.14120
 3401.50000    6.44150    0.08230    0.07570    0.00130    4.12040   50.99430   94.84100   82.21290   62.17590
 3402.00000    6.19740    0.08290    0.07620    0.00160    4.18540   51.12300   94.99700   93.27640   66.09870
 3402.50000    5.61680    0.08350    0.07660    0.00170    4.22380   51.45560   95.02570  100.21330   73.56970
 3403.00000    5.46500    0.08220    0.07670    0.00030    4.25930   51.78210   95.27340  103.97270   87.86320
 3403.50000    5.42490    0.07710    0.07340   -0.00110    4.28300   52.05540   95.95840  134.59060  105.45880
 3404.00000    6.02210    0.07590    0.07050   -0.00130    4.28080   52.13210   97.49950  152.99710  106.77970
