~Version ---------------------------------------------------
VERS.   2.0 : CWLS log ASCII Standard -VERSION 2.0
WRAP.    NO : One line per depth step
DLM . SPACE : Column Data Section Delimiter
~Well ------------------------------------------------------
STRT .F                  15.0 : START DEPTH
STOP .F                3592.0 : STOP DEPTH
STEP .F                   0.5 : STEP
NULL .               -9999.25 : NULL VALUE
COMP .                        : COMPANY
WELL .                        : WELL
FLD  .                        : FIELD
LOC  .                        : LOCATION
PROV .                        : PROVINCE
CNTY .                        : COUNTY
STAT .                        : STATE
CTRY .                        : COUNTRY
SRVC .                        : SERVICE COMPANY
DATE .                        : DATE
UWI  .                        : UNIQUE WELL ID
API  .                        : API NUMBER
SLAT .WGS84 2.763907729221394 : SURFACE LATITUDE
SLON .WGS84  9.10495536851299 : SURFACE LONGITUDE
DATUM.F                   nan : DEPTH DATUM ELEV
~Curve Information -----------------------------------------
DEPT   .F     : 1 MEASURED DEPTH
SGRDD  .GAPI  : SPECTROSCOPY GAMMA RAY FROM DENSITY LOG
TNPH_LS.DEC   : THERMAL NEUTRON POROSITY [LIMESTONE]
PXND   .DEC   : CROSSPLOT POROSITY FOR NEUTRON DENSITY
HDRA   .G/C3  : HRDD SPINE AND RIBS DENSITY CORRECTION
PEFZ   .B/E   : HRDD STANDARD RESOLUTION FORMATION PHOTOELECTRIC FACTOR
DTCO   .US/F  : DELTA-T COMPRESSIONAL
DTSM   .US/F  : DELTA-T SHEAR
RLA3   .OHMM  : APPARENT RESISTIVITY FROM COMPUTED FOCUSING MODE 3
RXOZ   .OHMM  : INVADED FORMATION RESISTIVITY FILTERED AT 18 INCHES
~Params ----------------------------------------------------
~Other -----------------------------------------------------
~ASCII -----------------------------------------------------
# ...
 3550.50000   -9999.25    0.02050    0.01990    0.00550    4.65290   50.98250   93.01860 7147.69140 1323.11050
 3551.00000   -9999.25    0.01850    0.01800    0.00270    4.67680   50.86760   92.91200 7640.20120 1623.21750
 3551.50000   -9999.25    0.01990    0.01640    0.00230    4.67000   50.88790   92.80530 7663.83940 1847.95120
 3552.00000   -9999.25    0.02040    0.01770    0.00200    4.64230   50.75770   92.74890 6203.60690 1610.36100
 3552.50000   -9999.25    0.01780    0.01760    0.00380    4.56340   50.85980   92.66570 6318.07520 1480.10780
 3553.00000   -9999.25    0.01780    0.01730    0.00500    4.49460   50.59470   92.38420 6574.89360 1340.40530
 3553.50000   -9999.25    0.01800    0.01750    0.00630    4.47180   50.89180   92.89110 5308.40920 1115.20070
 3554.00000   -9999.25    0.01820    0.01770    0.00730    4.47950   50.85830   93.01800 5105.67430 1083.56130
 3554.50000   -9999.25    0.01790    0.01730    0.00950    4.53000   50.88630   92.58580 5105.67430 1084.93030
 3555.00000   -9999.25    0.01800    0.01740    0.01450    4.55060   50.84730   92.81520 5209.31250 1193.21130
 3555.50000   -9999.25    0.01860    0.01800    0.01530    4.52040   50.91490   92.28120 5858.98970 1108.64360
 3556.00000   -9999.25    0.01920    0.01870    0.01610    4.48420   50.98060   92.42040 6138.61910 1154.41880
 3556.50000   -9999.25    0.02130    0.02020    0.01720    4.52250   50.92120   92.69190 6438.66990 1202.59960
 3557.00000   -9999.25    0.02420    0.02280    0.02290    4.59490   50.85680   92.96340 6718.94040  898.89340
 3557.50000   -9999.25    0.02390    0.02310    0.02810    4.66580   51.06120   93.11510 6773.45950  699.20610
 3558.00000   -9999.25    0.02250    0.02200    0.03060    4.69800   51.18480   92.57270 6773.45950  586.54130
 3558.50000   -9999.25    0.02220    0.02170    0.02770    4.69060   51.27590   92.39490 6751.11520  653.82620
 3559.00000   -9999.25    0.02320    0.02210    0.02480    4.63830   50.97880   92.08420 6686.62160  765.20840
 3559.50000   -9999.25    0.02260    0.02230    0.01670    4.60390   50.95480   92.67360 6622.74120  978.48380
 3560.00000   -9999.25    0.02330    0.02250    0.01060    4.61550   50.99980   93.02650 6549.91310 1086.45730
 3560.50000   -9999.25    0.02380    0.02290    0.01900    4.66560   50.89680   93.27760 6448.76950  907.77610
 3561.00000   -9999.25    0.02280    0.02240    0.02930    4.68130   50.78210   94.27070 6349.19090  413.42400
 3561.50000   -9999.25    0.02260    0.02200    0.03420    4.68340   50.87880   94.21990   -9999.25  364.01520
 3562.00000   -9999.25    0.02330    0.02280    0.03020    4.68550   51.02920   93.07000   -9999.25  482.03890
 3562.50000   -9999.25    0.02320    0.02210    0.02440    4.70030   51.03970   92.25150   -9999.25  841.49760
 3563.00000   -9999.25    0.01930    0.01950    0.02100    4.72690   50.86730   92.04080   -9999.25  981.76320
 3563.50000   -9999.25    0.01730    0.01690    0.01670    4.72640   50.69640   92.26130   -9999.25  957.48990
 3564.00000   -9999.25    0.01670    0.01660    0.00730    4.68770   50.49750   92.65460   -9999.25 1034.91460
 3564.50000   -9999.25    0.01790    0.01770    0.00310    4.68070   50.20250   92.79490   -9999.25 1355.73930
 3565.00000   -9999.25    0.01800    0.01710    0.00150    4.67680   50.05740   92.98140   -9999.25 1539.11440
 3565.50000   -9999.25    0.01660    0.01620    0.00120    4.64340   -9999.25   -9999.25   -9999.25 1702.75930
 3566.00000   -9999.25    0.01650    0.01650    0.00090    4.61280   -9999.25   -9999.25   -9999.25 1763.14220
 3566.50000   -9999.25    0.01750    0.01700    0.00050    4.60820   -9999.25   -9999.25   -9999.25 1867.14590
 3567.00000   -9999.25    0.01830    0.01790    0.00010    4.60360   -9999.25   -9999.25   -9999.25 1999.55070
 3567.50000   -9999.25    0.01780    0.01730    0.00050    4.59460   -9999.25   -9999.25   -9999.25 2003.57560
 3568.00000   -9999.25    0.01800    0.01730    0.00110    4.56720   -9999.25   -9999.25   -9999.25 2003.57560
 3568.50000   -9999.25    0.01880    0.01770    0.00050    4.51400   -9999.25   -9999.25   -9999.25 1889.72620
 3569.00000   -9999.25    0.01860    0.01780   -0.00020    4.45040   -9999.25   -9999.25   -9999.25 1527.98960
 3569.50000   -9999.25    0.01790    0.01720   -0.00070    4.41010   -9999.25   -9999.25   -9999.25 1446.14330
 3570.00000   -9999.25    0.01620    0.01600   -0.00050    4.42550   -9999.25   -9999.25   -9999.25 1275.26400
 3570.50000   -9999.25    0.01540    0.01470   -0.00030    4.54830   -9999.25   -9999.25   -9999.25 1279.57690
 3571.00000   -9999.25    0.01430    0.01430   -0.00010    4.66690   -9999.25   -9999.25   -9999.25 1570.51150
 3571.50000   -9999.25    0.01530    0.01510    0.00280    4.73620   -9999.25   -9999.25   -9999.25 2013.31150
 3572.00000   -9999.25    0.01580    0.01580    0.00320    4.77840   -9999.25   -9999.25   -9999.25 1999.02050
 3572.50000   -9999.25    0.01620    0.01510    0.00340    4.74990   -9999.25   -9999.25   -9999.25 1795.66670
 3573.00000   -9999.25    0.01440    0.01430    0.00370    4.64850   -9999.25   -9999.25   -9999.25 1309.84940
 3573.50000   -9999.25    0.01440    0.01400    0.00340    4.53310   -9999.25   -9999.25   -9999.25 1303.57970
 3574.00000   -9999.25    0.01430    0.01400    0.00260    4.44840   -9999.25   -9999.25   -9999.25 1808.77990
 3574.50000   -9999.25    0.01390    0.01340    0.00190    4.38990   -9999.25   -9999.25   -9999.25 2003.57560
 3575.00000   -9999.25    0.01370    0.01340    0.00120    4.38480   -9999.25   -9999.25   -9999.25 2003.57560
 3575.50000   -9999.25    0.01420    0.01410    0.00530    4.41270   -9999.25   -9999.25   -9999.25 2003.57560
 3576.00000   -9999.25    0.01520    0.01490    0.00990    4.47470   -9999.25   -9999.25   -9999.25 1390.80030
 3576.50000   -9999.25    0.01650    0.01570    0.01470    4.53950   -9999.25   -9999.25   -9999.25 1021.79470
 3577.00000   -9999.25    0.01700    0.01640    0.01250    4.58920   -9999.25   -9999.25   -9999.25 1012.58980
 3577.50000   -9999.25    0.01640    0.01600    0.00980    4.62860   -9999.25   -9999.25   -9999.25 1178.96530
 3578.00000   -9999.25    0.01470    0.01440    0.00360    4.67620   -9999.25   -9999.25   -9999.25 1674.09890
 3578.50000   -9999.25   -9999.25   -9999.25    0.00080    4.71550   -9999.25   -9999.25   -9999.25   -9999.25
 3579.00000   -9999.25   -9999.25   -9999.25   -0.00050    4.71630   -9999.25   -9999.25   -9999.25   -9999.25
 3579.50000   -9999.25   -9999.25   -9999.25    0.00080    4.65430   -9999.25   -9999.25   -9999.25   -9999.25
 3580.00000   -9999.25   -9999.25   -9999.25    0.00230    4.65650   -9999.25   -9999.25   -9999.25   -9999.25
 3580.50000   -9999.25   -9999.25   -9999.25    0.00380    4.67330   -9999.25   -9999.25   -9999.25   -9999.25
 3581.00000   -9999.25   -9999.25   -9999.25    0.00350    4.68850   -9999.25   -9999.25   -9999.25   -9999.25
 3581.50000   -9999.25   -9999.25   -9999.25    0.00350    4.65630   -9999.25   -9999.25   -9999.25   -9999.25
 3582.00000   -9999.25   -9999.25   -9999.25    0.00360    4.62760   -9999.25   -9999.25   -9999.25   -9999.25
 3582.50000   -9999.25   -9999.25   -9999.25    0.00580    4.65450   -9999.25   -9999.25   -9999.25   -9999.25
 3583.00000   -9999.25   -9999.25   -9999.25    0.01770    4.68780   -9999.25   -9999.25   -9999.25   -9999.25
 3583.50000   -9999.25   -9999.25   -9999.25    0.01760    4.69010   -9999.25   -9999.25   -9999.25   -9999.25
 3584.00000   -9999.25   -9999.25   -9999.25    0.01360    4.47910   -9999.25   -9999.25   -9999.25   -9999.25
 3584.50000   -9999.25   -9999.25   -9999.25    0.00910    4.17340   -9999.25   -9999.25   -9999.25   -9999.25
 3585.00000   -9999.25   -9999.25   -9999.25    0.00840    3.87290   -9999.25   -9999.25   -9999.25   -9999.25
 3585.50000   -9999.25   -9999.25   -9999.25    0.00760    3.64310   -9999.25   -9999.25   -9999.25   -9999.25
 3586.00000   -9999.25   -9999.25   -9999.25    0.00590    3.59110   -9999.25   -9999.25   -9999.25   -9999.25
 3586.50000   -9999.25   -9999.25   -9999.25    0.00410    3.54240   -9999.25   -9999.25   -9999.25   -9999.25
