~Version ---------------------------------------------------
VERS.   2.0 : CWLS log ASCII Standard -VERSION 2.0
WRAP.    NO : One line per depth step
DLM . SPACE : Column Data Section Delimiter
~Well ------------------------------------------------------
STRT .F                  15.0 : START DEPTH
STOP .F                3592.0 : STOP DEPTH
STEP .F                   0.5 : STEP
NULL .               -9999.25 : NULL VALUE
COMP .                        : COMPANY
WELL .                        : WELL
FLD  .                        : FIELD
LOC  .                        : LOCATION
PROV .                        : PROVINCE
CNTY .                        : COUNTY
STAT .                        : STATE
CTRY .                        : COUNTRY
SRVC .                        : SERVICE COMPANY
DATE .                        : DATE
UWI  .                        : UNIQUE WELL ID
API  .                        : API NUMBER
SLAT .WGS84 2.763907729221394 : SURFACE LATITUDE
SLON .WGS84  9.10495536851299 : SURFACE LONGITUDE
DATUM.F                   nan : DEPTH DATUM ELEV
~Curve Information -----------------------------------------
DEPT   .F     : 1 MEASURED DEPTH
SGRDD  .GAPI  : SPECTROSCOPY GAMMA RAY FROM DENSITY LOG
TNPH_LS.DEC   : THERMAL NEUTRON POROSITY [LIMESTONE]
PXND   .DEC   : CROSSPLOT POROSITY FOR NEUTRON DENSITY
HDRA   .G/C3  : HRDD SPINE AND RIBS DENSITY CORRECTION
PEFZ   .B/E   : HRDD STANDARD RESOLUTION FORMATION PHOTOELECTRIC FACTOR
DTCO   .US/F  : DELTA-T COMPRESSIONAL
DTSM   .US/F  : DELTA-T SHEAR
RLA3   .OHMM  : APPARENT RESISTIVITY FROM COMPUTED FOCUSING MODE 3
RXOZ   .OHMM  : INVADED FORMATION RESISTIVITY FILTERED AT 18 INCHES
~Params ----------------------------------------------------
~Other -----------------------------------------------------
~ASCII -----------------------------------------------------
# ...
 2640.00000   55.29360    0.04840    0.03400   -0.00110    3.20530   45.65570   85.18860 8510.00290   -9999.25
 2640.50000   44.44760    0.04730    0.03410   -0.00110    3.22550   45.57390   84.85680 5498.27880   -9999.25
 2641.00000   28.89990    0.04960    0.03530   -0.00110    3.24410   45.51580   84.52490 5359.06790   -9999.25
 2641.50000   20.52970    0.05180    0.03640   -0.00120    3.25500   45.55790   84.41480 5645.74370   -9999.25
 2642.00000   17.17560    0.05290    0.03850   -0.00190    3.25400   45.53740   84.48220 4581.45410   -9999.25
 2642.50000   17.18280    0.05600    0.04090   -0.00280    3.24500   45.40170   84.46590 4673.79740   -9999.25
 2643.00000   18.32040    0.06160    0.04540   -0.00360    3.21650   45.29880   84.24470 3627.05270 1994.47140
 2643.50000   18.95210    0.06690    0.04930   -0.00130    3.20430   45.34700   84.02350 1926.35740 1994.34220
 2644.00000   19.98090    0.07240    0.05420    0.00140    3.19490   45.41620   83.89450 1398.98470 1220.55580
 2644.50000   20.10220    0.07580    0.05690    0.00030    3.20160   45.46150   83.98950  957.77640  852.04230
 2645.00000   19.97420    0.07370    0.05570   -0.00180    3.17400   45.71890   84.07860 1315.97580  863.49010
 2645.50000   19.73910    0.07280    0.05440    0.00000    3.13330   45.99100   84.18870 2387.32520 1753.21800
 2646.00000   21.18920    0.07280    0.05330    0.00200    3.10950   46.15530   84.85900 2446.93020 1700.84310
 2646.50000   23.58530    0.07210    0.05190    0.00380    3.11810   46.27090   85.25790 2333.61840 1181.28860
 2647.00000   26.95710    0.06750    0.04900    0.00440    3.14580   46.28650   85.26620 2863.03830 1180.68300
 2647.50000   30.36230    0.06400    0.04600    0.00500    3.16900   46.25620   85.00800 3551.75440 1467.81810
 2648.00000   34.62380    0.06490    0.04640    0.00570    3.16590   46.21670   85.14290 3574.72530 1345.18800
 2648.50000   36.88100    0.06560    0.04880    0.00360    3.17570   46.14690   84.91950 3286.52540 1459.17800
 2649.00000   35.79180    0.06810    0.05000    0.00270    3.22280   46.05700   84.55430 3554.37790 1794.97080
 2649.50000   32.50420    0.06750    0.04900    0.00240    3.27330   46.14260   84.24310 3950.98560 1992.79910
 2650.00000   33.22120    0.06610    0.04800    0.00220    3.33180   46.07400   84.24940 4789.50590 1748.97860
 2650.50000   37.50180    0.05930    0.04560    0.00280    3.40840   45.94590   84.26880 7324.13920 1695.49290
 2651.00000   45.35060    0.05900    0.04140    0.00560    3.49280   45.91480   84.24580 8221.10740 1704.75710
 2651.50000   49.90220    0.05580    0.03950    0.00840    3.60020   45.84170   83.97520 7487.09520 1639.23180
 2652.00000   49.20660    0.05540    0.03830    0.01390    3.60920   45.81590   84.06370 6340.79640 1202.21200
 2652.50000   44.88980    0.05520    0.03910    0.02020    3.53090   45.81970   84.20710 3268.77830  828.03260
 2653.00000   41.54820    0.06330    0.04780    0.02390    3.32720   45.85850   84.59650  681.14390  589.38150
 2653.50000   39.51860    0.07550    0.06100    0.01830    3.04440   46.39930   85.54620  268.67330  284.26020
 2654.00000   36.40730    0.08880    0.07450    0.01120    2.85710   47.29410   86.41690  250.79630  251.21770
 2654.50000   36.85640    0.09210    0.07600    0.00730    2.76710   48.47390   87.28770  333.17390  234.21040
 2655.00000   46.37480    0.08790    0.07190    0.00580    2.76860   49.93030   88.16990  445.11460  321.82060
 2655.50000   61.45320    0.08150    0.06600    0.00440    2.81610   51.07640   89.62790  682.33250  402.31880
 2656.00000   71.76770    0.07500    0.06300    0.00320    2.90150   51.81580   89.76430  799.39030  464.36110
 2656.50000   71.73720    0.07510    0.06060    0.00190    3.00910   51.81900   89.80450  665.21060  519.54580
 2657.00000   64.24440    0.07860    0.06240    0.00070    3.11340   51.31500   89.79340 1059.14930  660.98030
 2657.50000   57.91920    0.08000    0.06450   -0.00010    3.15820   50.70390   89.83380  628.27640  715.11060
 2658.00000   55.09650    0.08200    0.06870   -0.00090    3.08870   50.24270   89.82680  199.16130  267.14470
 2658.50000   54.54580    0.08900    0.07720   -0.00160    2.96750   50.15070   89.80820   76.60550  101.55330
 2659.00000   51.72690    0.10110    0.09060   -0.00250    2.81640   50.62770   90.65720   54.31930   68.64310
 2659.50000   50.93930    0.11240    0.10020   -0.00580    2.72100   52.03780   91.64250   44.07580   48.08110
 2660.00000   55.15050    0.12090    0.10710   -0.00670    2.63580   54.41650   93.87860   40.57650   37.50680
 2660.50000   63.71820    0.12620    0.11110   -0.00750    2.63800   56.11910   96.52800   46.56680   35.51390
 2661.00000   67.68800    0.12910    0.11060   -0.00590    2.68060   57.72730   99.20060   59.50790   44.07040
 2661.50000   65.21050    0.12470    0.10640   -0.00370    2.70320   59.32410  100.15430   69.43990   50.96650
 2662.00000   61.58180    0.11800    0.10190   -0.00160    2.68690   59.88420  100.42370   56.13560   51.94530
 2662.50000   57.95660    0.11430    0.10080   -0.00150    2.68360   59.91770  100.40270   52.79200   49.25230
 2663.00000   55.52530    0.12090    0.10220   -0.00340    2.73220   59.56310   99.95360   56.05070   60.26030
 2663.50000   53.00880    0.12690    0.10580   -0.00330    2.82030   58.77660   99.30330   99.33820   87.76780
 2664.00000   49.59410    0.13330    0.10600   -0.00320    2.88410   57.93100   98.65930  113.57030  107.75350
 2664.50000   48.74230    0.12590    0.10130   -0.00280    2.93010   57.19350   98.01540   86.04170   99.37330
 2665.00000   48.00460    0.12040    0.09760   -0.00260    2.92740   56.68510   97.60240   76.28810   80.67440
 2665.50000   46.16170    0.11230    0.09440   -0.00240    2.87370   56.33890   97.41060   64.74340   70.36200
 2666.00000   41.40270    0.11130    0.09600   -0.00230    2.79860   55.98640   97.31040   53.26560   49.95730
 2666.50000   37.31710    0.11170    0.10060   -0.00210    2.70660   55.96740   97.35110   45.74710   42.01970
 2667.00000   36.44080    0.11230    0.10000   -0.00180    2.60500   56.53080   97.39640   43.37580   42.82230
 2667.50000   38.12430    0.10840    0.09710   -0.00150    2.52260   57.24440   97.77070   44.75450   40.83070
 2668.00000   38.40460    0.10760    0.09690   -0.00210    2.51150   57.95800   98.72090   46.34770   42.21080
 2668.50000   38.75320    0.10960    0.10370   -0.00390    2.53380   58.67930   99.53660   47.29180   39.98100
 2669.00000   39.39810    0.12080    0.11110   -0.00400    2.52180   59.41370  100.35230   35.84780   30.46380
 2669.50000   40.86910    0.13350    0.11930   -0.00420    2.45080   60.29140  101.16800   26.21070   24.56610
 2670.00000   45.42040    0.14130    0.12450   -0.00260    2.39050   61.13240  101.96930   27.28160   23.15640
 2670.50000   50.93830    0.13860    0.12330   -0.00010    2.36690   61.79750  102.81950   33.16950   25.67440
 2671.00000   49.65200    0.13260    0.12050   -0.00110    2.40190   62.63090  103.89210   40.32820   31.67640
 2671.50000   46.47420    0.12970    0.11920   -0.00310    2.42560   62.82730  105.32380   48.77120   38.21550
 2672.00000   40.63520    0.12800    0.11790   -0.00170    2.41430   63.10230  105.63200   52.08030   46.18390
 2672.50000   39.72490    0.12780    0.11650   -0.00070    2.40080   63.20590  105.30450   46.81250   38.76740
 2673.00000   39.20860    0.12630    0.11600    0.00040    2.38760   62.93400  104.97860   34.35920   32.63000
 2673.50000   38.92520    0.12890    0.11550   -0.00010    2.41800   62.64580  104.81320   33.14400   27.73400
 2674.00000   37.33450    0.13070    0.11420    0.00010    2.46600   62.54920  104.36020   34.21610   27.18290
 2674.50000   35.73300    0.13050    0.11230    0.00000    2.51360   62.24240  103.55780   34.71050   30.60250
 2675.00000   34.23200    0.12180    0.10870   -0.00010    2.56110   61.93370  102.93980   40.49700   33.48620
 2675.50000   32.97430    0.11960    0.10540   -0.00110    2.61890   61.26600  102.72290   47.92460   39.53740
 2676.00000   32.45690    0.11440    0.10220   -0.00060    2.66900   60.64250  102.19220   51.78560   48.21450
