~Version ---------------------------------------------------
VERS.   2.0 : CWLS log ASCII Standard -VERSION 2.0
WRAP.    NO : One line per depth step
DLM . SPACE : Column Data Section Delimiter
~Well ------------------------------------------------------
STRT .F                  15.0 : START DEPTH
STOP .F                3592.0 : STOP DEPTH
STEP .F                   0.5 : STEP
NULL .               -9999.25 : NULL VALUE
COMP .                        : COMPANY
WELL .                        : WELL
FLD  .                        : FIELD
LOC  .                        : LOCATION
PROV .                        : PROVINCE
CNTY .                        : COUNTY
STAT .                        : STATE
CTRY .                        : COUNTRY
SRVC .                        : SERVICE COMPANY
DATE .                        : DATE
UWI  .                        : UNIQUE WELL ID
API  .                        : API NUMBER
SLAT .WGS84 2.763907729221394 : SURFACE LATITUDE
SLON .WGS84  9.10495536851299 : SURFACE LONGITUDE
DATUM.F                   nan : DEPTH DATUM ELEV
~Curve Information -----------------------------------------
DEPT   .F     : 1 MEASURED DEPTH
SGRDD  .GAPI  : SPECTROSCOPY GAMMA RAY FROM DENSITY LOG
TNPH_LS.DEC   : THERMAL NEUTRON POROSITY [LIMESTONE]
PXND   .DEC   : CROSSPLOT POROSITY FOR NEUTRON DENSITY
HDRA   .G/C3  : HRDD SPINE AND RIBS DENSITY CORRECTION
PEFZ   .B/E   : HRDD STANDARD RESOLUTION FORMATION PHOTOELECTRIC FACTOR
DTCO   .US/F  : DELTA-T COMPRESSIONAL
DTSM   .US/F  : DELTA-T SHEAR
RLA3   .OHMM  : APPARENT RESISTIVITY FROM COMPUTED FOCUSING MODE 3
RXOZ   .OHMM  : INVADED FORMATION RESISTIVITY FILTERED AT 18 INCHES
~Params ----------------------------------------------------
~Other -----------------------------------------------------
~ASCII -----------------------------------------------------
# ...
 1146.00000   37.08110    0.06830    0.05530    0.00170    3.07230   53.55750   96.08370  330.66500  312.46530
 1146.50000   28.83310    0.07190    0.05820    0.00120    3.02800   52.54070   94.62710  308.17100  283.34980
 1147.00000   23.47450    0.06840    0.05550    0.00080    3.02370   51.72410   93.56200  398.30780  326.10730
 1147.50000   24.11610    0.06160    0.05100    0.00070    3.08680   51.10250   92.97740  544.76700  482.25330
 1148.00000   26.37080    0.05440    0.04560    0.00090    3.14110   50.92430   92.14040  774.93160  617.06330
 1148.50000   27.39250    0.05380    0.04260    0.00100    3.17800   50.21690   91.05510 1196.80110  825.04460
 1149.00000   25.81550    0.06030    0.04610    0.00110    3.21500   48.98490   89.76820 1259.21680  770.32150
 1149.50000   22.23770    0.07060    0.05330    0.00090    3.22610   48.02780   88.64300 1145.56260 1107.77420
 1150.00000   20.23580    0.07820    0.05840    0.00090    3.21950   47.35970   87.86920 1502.56130  859.70090
 1150.50000   19.99150    0.08630    0.06220    0.00110    3.20500   47.50560   87.29950  722.42780  578.66800
 1151.00000   20.99830    0.08390    0.06220    0.00120    3.16650   47.99410   87.09470  883.44180  518.73730
 1151.50000   23.13250    0.07390    0.05520   -0.00070    3.15020   48.40680   86.92460 1711.50120  828.60280
 1152.00000   27.07660    0.06220    0.04730    0.00120    3.14600   48.69900   87.90770 3526.23170 1265.41280
 1152.50000   31.35060    0.05470    0.03980    0.00330    3.15210   48.55500   88.18790 1289.77700  939.79150
 1153.00000   32.09800    0.05570    0.04100    0.00530    3.14070   47.86100   87.89980  741.80430  596.22110
 1153.50000   28.35620    0.05860    0.04220    0.00640    3.13840   47.86660   87.37630  608.64260  404.47980
 1154.00000   22.34010    0.06050    0.04340    0.00720    3.12680   47.33680   86.71070  809.56990  470.20890
 1154.50000   18.70360    0.05950    0.04130    0.00710    3.11470   46.98530   86.32810 1948.79040  601.32500
 1155.00000   18.62110    0.05630    0.03980    0.00690    3.10250   46.90780   86.26180 1939.05770  738.81990
 1155.50000   20.19350    0.05520    0.03990    0.00660    3.09440   46.80350   85.90630 1219.12000  474.39440
 1156.00000   21.70020    0.05440    0.03970    0.00770    3.10140   46.65920   86.05700 1246.80630  481.37830
 1156.50000   23.01240    0.05370    0.04060    0.00640    3.10070   46.52370   86.20770 1617.43400  463.75780
 1157.00000   23.80080    0.05460    0.04330    0.01930    3.12110   46.67070   86.35830 1297.64340  314.07120
 1157.50000   25.53130    0.06420    0.04680    0.03410    3.18100   46.60820   86.65620  617.72550  186.57460
 1158.00000   28.34930    0.07800    0.05410    0.03980    3.19070   47.02310   86.99840  279.74640  154.44200
 1158.50000   33.15960    0.08060    0.05660    0.03840    3.19050   48.07540   87.39990  534.18120  223.92660
 1159.00000   37.53740    0.06450    0.04600    0.02650    3.17800   48.26000   87.84180 1413.27320  388.58510
 1159.50000   41.32770    0.05470    0.03940    0.01500    3.18650   48.27070   88.12560 2805.36250  879.35310
 1160.00000   41.08150    0.05550    0.04230    0.00750    3.19700   48.09350   86.86480 3787.75000 1192.61150
 1160.50000   37.11480    0.06230    0.04840    0.00510    3.20740   47.56410   86.07650 4027.50000 1435.56370
 1161.00000   32.67590    0.06900    0.05410    0.00180    3.19250   47.08620   85.25800 3851.47710 1509.43750
 1161.50000   32.23070    0.07040    0.05560    0.00080    3.17930   46.46970   84.59180 2823.71850 1387.78000
 1162.00000   34.20430    0.07180    0.05600    0.00120    3.17460   45.65720   84.43130 3405.27290 1208.23960
 1162.50000   34.72370    0.07270    0.05630    0.00160    3.19820   45.93620   84.55320 2383.28420 1154.34340
 1163.00000   31.03050    0.07200    0.05490    0.00210    3.20460   46.27120   84.98230 4366.00050 1114.12850
 1163.50000   27.49870    0.06640    0.04920    0.00240    3.18330   46.36000   85.59970 7402.11230 1289.90230
 1164.00000   26.07730    0.05800    0.04500    0.00270    3.15930   46.30770   86.92520 8425.38090 1551.68410
 1164.50000   25.05980    0.05630    0.04270    0.00170    3.14490   46.02010   94.09450 5029.35550 1673.19380
 1165.00000   20.29380    0.05540    0.04260    0.00270    3.14540   45.56660   98.12110 2143.58980  982.64590
 1165.50000   16.38730    0.05500    0.04280    0.00390    3.14930   45.44380   87.57850 1609.34200  458.31980
 1166.00000   12.44080    0.05410    0.04170    0.00510    3.15330   45.06230   86.21650 1565.29700  395.96450
 1166.50000   10.97860    0.05130    0.04030    0.00620    3.16690   45.15340   85.71160 1949.39810  420.53590
 1167.00000    9.35400    0.05050    0.03850    0.00700    3.17770   45.38290   85.33690 1063.30030  540.90840
 1167.50000    9.12560    0.05380    0.03770    0.00790    3.13010   45.75320   85.18030  819.50940  652.56690
 1168.00000    9.26330    0.05500    0.03740    0.00710    3.10590   45.98250   85.35040 1361.42700  782.25600
 1168.50000    9.66790    0.05450    0.03710    0.00500    3.13790   46.09240   85.72800 2277.66750 1323.26590
 1169.00000   10.25700    0.05250    0.03680    0.00340    3.26540   45.97020   85.85460 3002.28420 1185.78270
 1169.50000   11.55620    0.05340    0.03860    0.00170    3.26490   45.87500   85.00460 4025.85740 1304.85490
 1170.00000   13.89930    0.05510    0.04060    0.00150    3.20600   45.78470   84.19260 5819.22220 1960.50060
 1170.50000   19.36580    0.05680    0.04160    0.00160    3.12970   45.68340   83.70620 6256.22460 1975.43020
 1171.00000   24.92540    0.05590    0.04020    0.00160    3.08390   45.28040   84.78250 3005.49490 1595.99770
 1171.50000   27.12890    0.05570    0.03840    0.00490    3.07300   45.23750   85.71400 1006.42160  530.01100
 1172.00000   22.66530    0.05270    0.03500    0.01170    3.10080   45.83930   85.92990  524.69370  521.24110
 1172.50000   16.67320    0.04580    0.02900    0.01890    3.15230   46.09530   85.91800 1516.95630  475.84340
 1173.00000   14.24120    0.03730    0.02470    0.02000    3.17980   46.11210   86.06480 1493.49050  741.47940
 1173.50000   13.06590    0.03290    0.02160    0.01570    3.18950   46.08830   87.12300 1422.99460  662.78000
 1174.00000   11.37370    0.03170    0.02010    0.00790    3.17850   45.92500   86.41360 1487.56770  795.99810
 1174.50000    9.83110    0.03070    0.01850   -0.00060    3.15790   45.61090   85.87910 2513.09110 1170.39880
 1175.00000    8.67610    0.03080    0.01760    0.00000    3.13840   45.28180   84.88860 5852.71780 1649.15620
 1175.50000    9.69410    0.03190    0.01850    0.00090    3.11940   44.88450   84.72700 5730.22360 1776.60690
 1176.00000   12.28190    0.03310    0.02030    0.00170    3.09190   44.71550   85.64240 3477.71780 1361.16690
 1176.50000   13.49480    0.03760    0.02420    0.00640    3.06110   44.53700   86.42960 2441.33370  967.65940
 1177.00000   13.53990    0.04870    0.03780    0.00570    3.01780   44.69300   86.23840 1404.94960  553.67710
 1177.50000   11.01960    0.06550    0.05790    0.00440    2.97690   45.30710   86.99800  400.88420  146.90490
 1178.00000   11.30770    0.10090    0.08360    0.00320    2.95350   47.75150   90.43910  101.13690   72.05290
 1178.50000   13.20500    0.11570    0.09550    0.00670    2.99070   51.90780   93.41890  105.05580   65.55970
 1179.00000   24.58010    0.09710    0.07430    0.01370    3.06650   54.80300   96.65350  432.38290  107.76950
 1179.50000   36.00450    0.06550    0.04910    0.01140    3.12140   55.76540   98.70320 1458.74870  718.09840
 1180.00000   44.30770    0.04410    0.02930    0.00710    3.13790   55.01960   98.61220 1775.69810 1233.42740
 1180.50000   40.68170    0.03820    0.02590    0.00270    3.14090   53.79390   95.48190 2784.16260 1141.00480
 1181.00000   28.18580    0.03440    0.02240    0.00190    3.14390   50.42290   92.90720 3792.62720 1231.91080
 1181.50000   20.44850    0.03260    0.02160    0.00110    3.14650   47.56390   89.28370 4224.56490 1167.26110
 1182.00000   20.29980    0.03470    0.02270    0.00030    3.13760   45.24920   86.71600 2734.17460 1291.21670
