~Version ---------------------------------------------------
VERS.   2.0 : CWLS log ASCII Standard -VERSION 2.0
WRAP.    NO : One line per depth step
DLM . SPACE : Column Data Section Delimiter
~Well ------------------------------------------------------
STRT .F                   13.0 : START DEPTH
STOP .F                 9216.0 : STOP DEPTH
STEP .F                    0.5 : STEP
NULL .                -9999.25 : NULL VALUE
COMP .                         : COMPANY
WELL .                         : WELL
FLD  .                         : FIELD
LOC  .                         : LOCATION
PROV .                         : PROVINCE
CNTY .                         : COUNTY
STAT .                         : STATE
CTRY .                         : COUNTRY
SRVC .                         : SERVICE COMPANY
DATE .                         : DATE
UWI  .                         : UNIQUE WELL ID
API  .                         : API NUMBER
SLAT .WGS84 2.2998730455597993 : SURFACE LATITUDE
SLON .WGS84     5.807630427682 : SURFACE LONGITUDE
DATUM.F                    nan : DEPTH DATUM ELEV
~Curve Information -----------------------------------------
DEPT   .F     : 1 MEASURED DEPTH
GRD    .GAPI  : GAMMA RAY FROM DENSITY LOG
TNPH_LS.DEC   : THERMAL NEUTRON POROSITY [LIMESTONE]
PEFZ   .B/E   : HRDD STANDARD RESOLUTION FORMATION PHOTOELECTRIC FACTOR
HDRA   .G/C3  : HRDD SPINE AND RIBS DENSITY CORRECTION
CALD   .IN    : CALIPER FROM DENSITY LOG
DPHZ_LS.DEC   : HGRD STANDARD RESOLUTION DENSITY POROSITY
AO30   .OHMM  : ARRAY INDUCTION ONE FOOT RESISTIVITY A30
GRR    .GAPI  : GAMMA RAY FROM RESISTIVITY LOG
CALR   .IN    : CALIPER FROM RESISTIVITY LOG
SPR    .MV    : SPONTANEOUS POTENTIAL FROM RESISTIVITY LOG
AT30   .OHMM  : ARRAY INDUCTION TWO FOOT RESISTIVITY A30
AT90   .OHMM  : ARRAY INDUCTION TWO FOOT RESISTIVITY A90
AT10   .OHMM  : ARRAY INDUCTION TWO FOOT RESISTIVITY A10
DTCO   .US/F  : DELTA-T COMPRESSIONAL
DTSM   .US/F  : DELTA-T SHEAR
~Params ----------------------------------------------------
~Other -----------------------------------------------------
~ASCII -----------------------------------------------------
# ...
 4889.00000   32.46520    0.14930    4.76460    0.00320    8.66110    0.17150   -9999.25   -9999.25   -9999.25  -77.55340   23.09520   17.09550   38.33470   -9999.25   -9999.25
 4889.50000   32.27660    0.13990    4.73630    0.00290    8.66490    0.15650   -9999.25   -9999.25   -9999.25  -76.66470   23.55520   18.66490   38.40730   -9999.25   -9999.25
 4890.00000   30.93840    0.13050    4.70810    0.00270    8.64880    0.14070   -9999.25   -9999.25   -9999.25  -75.77590   23.89980   20.42150   38.61950   -9999.25   -9999.25
 4890.50000   31.31030    0.12140    4.70080    0.00220    8.63220    0.12440   -9999.25   -9999.25   -9999.25  -74.88720   24.24950   22.06470   39.58560   -9999.25   -9999.25
 4891.00000   32.77020    0.11890    4.70870    0.00170    8.61560    0.11100   -9999.25   -9999.25   -9999.25  -73.74610   25.38470   23.35180   41.11500   -9999.25   -9999.25
 4891.50000   30.22780    0.12270    4.70260    0.00120    8.59900    0.11670   -9999.25   -9999.25   -9999.25  -72.47060   27.52230   25.12840   43.04240   -9999.25   -9999.25
 4892.00000   26.66000    0.13470    4.72050    0.00070    8.57400    0.12790   -9999.25   -9999.25   -9999.25  -71.19510   31.65560   28.20560   48.29440   -9999.25   -9999.25
 4892.50000   23.18430    0.13680    4.75140    0.00040    8.54530    0.12820   -9999.25   -9999.25   -9999.25  -69.24770   36.40950   32.22930   56.20230   -9999.25   -9999.25
 4893.00000   25.25730    0.11450    4.80540    0.00060    8.51660    0.09660   -9999.25   -9999.25   -9999.25  -66.75880   41.87740   37.52510   72.51320   -9999.25   -9999.25
 4893.50000   26.01990    0.08180    4.83430    0.00130    8.48790    0.05980   -9999.25   -9999.25   -9999.25  -63.63260   51.54770   43.85500   95.75390   -9999.25   -9999.25
 4894.00000   29.95970    0.05010    4.90790    0.00330    8.45920    0.02310   -9999.25   -9999.25   -9999.25  -60.81630   64.09700   51.78670  147.67410   -9999.25   -9999.25
 4894.50000   30.54390    0.02700    4.99810    0.00490    8.43040    0.00900   -9999.25   -9999.25   -9999.25  -57.52710   90.04730   75.13860  225.36450   -9999.25   -9999.25
 4895.00000   29.80160    0.01080    5.06810    0.00520    8.42460   -0.00100   -9999.25   -9999.25   -9999.25  -54.71030  130.09400  109.02040  373.12500   -9999.25   -9999.25
 4895.50000   29.33840    0.00940    5.01960    0.00180    8.42050   -0.00260   -9999.25   -9999.25   -9999.25  -52.44400  184.75270  157.86600  524.05810   -9999.25   -9999.25
 4896.00000   32.07250    0.01360    4.92780    0.00090    8.41650   -0.00080   -9999.25   -9999.25   -9999.25  -49.54160  210.42140  205.89490  602.06980   -9999.25   -9999.25
 4896.50000   35.89730    0.01980    4.84940    0.00160    8.41240    0.00360   -9999.25   -9999.25   -9999.25  -46.12590  208.68690  202.14700  550.39720   -9999.25   -9999.25
 4897.00000   39.72210    0.02540    4.78920    0.00130    8.40840    0.01110   -9999.25   -9999.25   -9999.25  -41.99020  175.03000  156.63890  367.71250   -9999.25   -9999.25
 4897.50000   41.75880    0.02980    4.81090    0.00020    8.40340    0.01760   -9999.25   -9999.25   -9999.25  -40.00710  146.52060  135.52610  302.51800   -9999.25   -9999.25
 4898.00000   44.12710    0.03010    4.84800   -0.00080    8.38880    0.02310   -9999.25   -9999.25   -9999.25  -38.15730  125.82790  117.25900  238.87820   -9999.25   -9999.25
 4898.50000   45.45760    0.02980    4.83550   -0.00180    8.37430    0.02130   -9999.25   -9999.25   -9999.25  -36.17550  108.05760  103.83360  191.91790   -9999.25   -9999.25
 4899.00000   44.18430    0.02960    4.76950   -0.00170    8.35970    0.01710   -9999.25   -9999.25   -9999.25  -34.31410   95.68940   92.56500  152.25030   -9999.25   -9999.25
 4899.50000   45.22960    0.03070    4.69440   -0.00040    8.34510    0.01120   -9999.25   -9999.25   -9999.25  -32.91750   85.34320   81.77740  129.36200   -9999.25   -9999.25
 4900.00000   46.49560    0.03300    4.70080    0.00580    8.33220   -0.00020   -9999.25   -9999.25   -9999.25  -31.05950   76.11560   71.95370  109.88590   -9999.25   -9999.25
 4900.50000   47.01360    0.03450    4.72800    0.01420    8.32590   -0.01080   -9999.25   -9999.25   -9999.25  -29.15200   70.43460   64.44740   95.71840   -9999.25   -9999.25
 4901.00000   43.32190    0.03400    4.75390    0.01760    8.31950   -0.01330   -9999.25   -9999.25   -9999.25  -27.85250   68.65410   60.15200   78.78490   -9999.25   -9999.25
 4901.50000   43.38760    0.03230    4.77550    0.01910    8.31320   -0.00440   -9999.25   -9999.25   -9999.25  -27.00860   66.32460   59.93170   68.46710   -9999.25   -9999.25
 4902.00000   48.43360    0.03420    4.76370    0.02080    8.30680    0.00820   -9999.25   -9999.25   -9999.25  -26.22860   55.33160   52.97710   62.60050   -9999.25   -9999.25
 4902.50000   51.43450    0.04060    4.74210    0.02120    8.30050    0.01120   -9999.25   -9999.25   -9999.25  -25.44870   42.44090   40.83570   49.96440   -9999.25   -9999.25
 4903.00000   48.89760    0.04510    4.73640    0.01660    8.29420    0.00890   -9999.25   -9999.25   -9999.25  -24.66870   39.46030   45.46490   38.80560   -9999.25   -9999.25
 4903.50000   46.18360    0.04810    4.72090    0.01210    8.28780    0.01100   -9999.25   -9999.25   -9999.25  -24.17400   42.57580   53.69380   35.45320   -9999.25   -9999.25
 4904.00000   45.70220    0.05130    4.64630    0.01510    8.28250    0.01700   -9999.25   -9999.25   -9999.25  -23.97810   44.12180   57.03400   36.61850   -9999.25   -9999.25
 4904.50000   52.11310    0.05850    4.55210    0.02490    8.27760    0.02640   -9999.25   -9999.25   -9999.25  -24.07250   32.46560   39.70120   25.74390   -9999.25   -9999.25
 4905.00000   56.84370    0.06900    4.43160    0.03310    8.30840    0.04700   -9999.25   -9999.25   -9999.25  -24.42910   26.04050   31.61350   20.22360   -9999.25   -9999.25
 4905.50000   55.75130    0.07690    4.36450    0.06720    8.31410    0.07520   -9999.25   -9999.25   -9999.25  -25.23650   21.36640   32.88130   18.16820   -9999.25   -9999.25
 4906.00000   52.16340    0.09110    4.30670    0.08420    8.28120    0.12740   -9999.25   -9999.25   -9999.25  -26.76920   25.50970   31.35350   20.54080   -9999.25   -9999.25
 4906.50000   50.96050    0.10530    4.19390    0.10110    8.26900    0.13590   -9999.25   -9999.25   -9999.25  -27.77730   28.64580   36.00250   17.78480   -9999.25   -9999.25
 4907.00000   51.38290    0.11360    4.16570    0.11180    8.25680    0.10380   -9999.25   -9999.25   -9999.25  -28.40560   20.43560   29.79630   12.94700   -9999.25   -9999.25
 4907.50000   53.27560    0.08550    4.28720    0.07760    8.22300    0.04230   -9999.25   -9999.25   -9999.25  -28.53970   21.82710   32.75320   17.04410   -9999.25   -9999.25
 4908.00000   55.16840    0.04750    4.56210    0.04340    8.16550   -0.00730   -9999.25   -9999.25   -9999.25  -29.47440   48.33720   67.56940   38.60940   -9999.25   -9999.25
 4908.50000   56.10740    0.02750    4.80520    0.00820    8.16270    0.00840   -9999.25   -9999.25   -9999.25  -31.11310  124.75400   97.97830   73.68050   -9999.25   -9999.25
 4909.00000   51.19570    0.02900    4.85850   -0.00100    8.17140    0.01540   -9999.25   -9999.25   -9999.25  -32.75650  245.78190  182.90000   91.42490   -9999.25   -9999.25
 4909.50000   42.30720    0.03120    4.91180   -0.00060    8.18000    0.01760   -9999.25   -9999.25   -9999.25  -35.11390  235.81660  159.91180  101.84230   -9999.25   -9999.25
 4910.00000   34.41140    0.03310    4.93660   -0.00040    8.18870    0.01950   -9999.25   -9999.25   -9999.25  -36.06240  175.16860  107.64680  133.66910   -9999.25   -9999.25
 4910.50000   31.54460    0.03080    4.93580   -0.00060    8.19730    0.02130   -9999.25   -9999.25   -9999.25  -36.27980  153.09400   98.08640  182.13090   -9999.25   -9999.25
 4911.00000   38.44430    0.02400    4.91180   -0.00080    8.18830    0.02010   -9999.25   -9999.25   -9999.25  -36.53610  174.27640   95.06520  268.38460   -9999.25   -9999.25
 4911.50000   45.82030    0.01720    4.88510   -0.00120    8.14970    0.01410   -9999.25   -9999.25   -9999.25  -36.58180  210.01560  113.96220  420.42840   -9999.25   -9999.25
