~Version ---------------------------------------------------
VERS.   2.0 : CWLS log ASCII Standard -VERSION 2.0
WRAP.    NO : One line per depth step
DLM . SPACE : Column Data Section Delimiter
~Well ------------------------------------------------------
STRT .F                   13.0 : START DEPTH
STOP .F                 9216.0 : STOP DEPTH
STEP .F                    0.5 : STEP
NULL .                -9999.25 : NULL VALUE
COMP .                         : COMPANY
WELL .                         : WELL
FLD  .                         : FIELD
LOC  .                         : LOCATION
PROV .                         : PROVINCE
CNTY .                         : COUNTY
STAT .                         : STATE
CTRY .                         : COUNTRY
SRVC .                         : SERVICE COMPANY
DATE .                         : DATE
UWI  .                         : UNIQUE WELL ID
API  .                         : API NUMBER
SLAT .WGS84 2.2998730455597993 : SURFACE LATITUDE
SLON .WGS84     5.807630427682 : SURFACE LONGITUDE
DATUM.F                    nan : DEPTH DATUM ELEV
~Curve Information -----------------------------------------
DEPT   .F     : 1 MEASURED DEPTH
GRD    .GAPI  : GAMMA RAY FROM DENSITY LOG
TNPH_LS.DEC   : THERMAL NEUTRON POROSITY [LIMESTONE]
PEFZ   .B/E   : HRDD STANDARD RESOLUTION FORMATION PHOTOELECTRIC FACTOR
HDRA   .G/C3  : HRDD SPINE AND RIBS DENSITY CORRECTION
CALD   .IN    : CALIPER FROM DENSITY LOG
DPHZ_LS.DEC   : HGRD STANDARD RESOLUTION DENSITY POROSITY
AO30   .OHMM  : ARRAY INDUCTION ONE FOOT RESISTIVITY A30
GRR    .GAPI  : GAMMA RAY FROM RESISTIVITY LOG
CALR   .IN    : CALIPER FROM RESISTIVITY LOG
SPR    .MV    : SPONTANEOUS POTENTIAL FROM RESISTIVITY LOG
AT30   .OHMM  : ARRAY INDUCTION TWO FOOT RESISTIVITY A30
AT90   .OHMM  : ARRAY INDUCTION TWO FOOT RESISTIVITY A90
AT10   .OHMM  : ARRAY INDUCTION TWO FOOT RESISTIVITY A10
DTCO   .US/F  : DELTA-T COMPRESSIONAL
DTSM   .US/F  : DELTA-T SHEAR
~Params ----------------------------------------------------
~Other -----------------------------------------------------
~ASCII -----------------------------------------------------
# ...
 6108.00000   36.66860    0.07610    4.19180   -0.00320    8.02540    0.02960   -9999.25   -9999.25   -9999.25  -17.01760   77.33200   74.47170  103.44950   58.09620   99.87710
 6108.50000   37.61970    0.07640    4.26180   -0.00340    8.02500    0.03380   -9999.25   -9999.25   -9999.25  -16.83150   74.20840   69.93690   96.60740   58.72930  101.42520
 6109.00000   37.28070    0.07680    4.28990   -0.00430    8.02480    0.03770   -9999.25   -9999.25   -9999.25  -16.83540   70.95500   65.67820   89.74130   59.13590  102.79370
 6109.50000   36.33200    0.07720    4.30270   -0.00340    8.02650    0.03760   -9999.25   -9999.25   -9999.25  -16.57720   68.41880   63.10920   85.48870   59.53950  104.42080
 6110.00000   35.05200    0.07820    4.28700   -0.00260    8.02820    0.03780   -9999.25   -9999.25   -9999.25  -16.52490   66.63730   62.96570   83.50270   59.93120  105.94490
 6110.50000   34.13750    0.07920    4.24730   -0.00190    8.02990    0.03890   -9999.25   -9999.25   -9999.25  -16.39490   65.52560   62.81660   80.81080   60.20790  107.52630
 6111.00000   35.61190    0.08480    4.17900   -0.00040    8.03160    0.04080   -9999.25   -9999.25   -9999.25  -16.05130   64.58980   62.65720   77.77230   60.47180  107.72810
 6111.50000   36.71910    0.08760    4.12240   -0.00030    8.01650    0.04220   -9999.25   -9999.25   -9999.25  -15.70770   63.30900   60.44690   74.94530   60.43120  107.74810
 6112.00000   37.96650    0.08800    4.08520   -0.00030    7.99950    0.03780   -9999.25   -9999.25   -9999.25  -15.36410   61.57460   58.50770   72.50020   60.32700  107.51470
 6112.50000   39.41420    0.08760    4.13410   -0.00030    7.98260    0.03150   -9999.25   -9999.25   -9999.25  -15.18280   59.25000   56.68030   70.13480   60.34990  107.20490
 6113.00000   40.89290    0.08570    4.15380   -0.00070    7.97350    0.02490   -9999.25   -9999.25   -9999.25  -14.91840   57.30820   54.81830   67.51160   60.32100  104.74050
 6113.50000   42.20000    0.08480    4.11900   -0.00100    8.00460    0.01970   -9999.25   -9999.25   -9999.25  -14.96870   55.48860   52.68300   64.72520   60.28590  104.67610
 6114.00000   42.20000    0.08540    4.08410    0.00020    8.00460    0.01470   -9999.25   -9999.25   -9999.25  -14.58350   53.43910   50.63090   61.72360   60.22700  103.77610
 6114.50000   44.28930    0.08770    4.04970    0.00250    8.00460    0.01340   -9999.25   -9999.25   -9999.25  -14.18760   51.30160   48.65870   59.03970   60.16810  103.44290
 6115.00000   44.26200    0.08930    4.05950    0.00480    8.00460    0.01540   -9999.25   -9999.25   -9999.25  -13.95380   49.08020   46.77220   56.41220   60.08850  103.09780
 6115.50000   43.11630    0.09260    4.08430    0.00480    7.99670    0.02000   -9999.25   -9999.25   -9999.25  -13.71790   47.79340   46.21960   55.16280   59.99230  103.36600
 6116.00000   42.03190    0.09590    4.11570    0.00110    7.98690    0.02550   -9999.25   -9999.25   -9999.25  -13.46090   47.53230   46.11800   55.36890   59.94310  103.70630
 6116.50000   41.30750    0.09440    4.17200   -0.00270    7.99760    0.02880   -9999.25   -9999.25   -9999.25  -13.27360   48.24380   47.42750   55.59000   60.00340  103.96400
 6117.00000   41.80430    0.09180    4.18710   -0.00350    8.00460    0.02550   -9999.25   -9999.25   -9999.25  -13.21830   50.35670   49.53760   55.17560   60.32610  104.33530
 6117.50000   42.12130    0.08900    4.14200   -0.00290    7.99000    0.01850   -9999.25   -9999.25   -9999.25  -13.16290   53.34300   52.43120   56.48480   60.36680  105.13210
 6118.00000   42.43840    0.08610    4.10860    0.00100    7.96000    0.01180   -9999.25   -9999.25   -9999.25  -13.10760   54.54450   53.16270   58.49060   60.30990  105.31140
 6118.50000   41.53160    0.08280    4.11360    0.00290    7.93260    0.01450   -9999.25   -9999.25   -9999.25  -13.09880   53.08250   50.41680   57.25750   60.18720  105.57750
 6119.00000   40.45110    0.08600    4.14400    0.00390    7.95920    0.01970   -9999.25   -9999.25   -9999.25  -12.77330   51.70240   49.40990   55.89450   60.18670  105.32620
 6119.50000   39.73210    0.08800    4.17680    0.00490    7.99160    0.02470   -9999.25   -9999.25   -9999.25  -12.74320   53.77030   52.03800   55.52440   60.27320  105.23860
 6120.00000   39.81670    0.08940    4.18550    0.00520    8.02280    0.02970   -9999.25   -9999.25   -9999.25  -13.11670   54.61240   53.33790   55.53500   60.53370  105.38660
 6120.50000   40.51950    0.09010    4.14050    0.00530    8.02250    0.02850   -9999.25   -9999.25   -9999.25  -13.35840   54.64910   52.83070   55.85140   60.67230  105.51880
 6121.00000   40.72620    0.08990    4.12630    0.00310    8.02210    0.02730   -9999.25   -9999.25   -9999.25  -13.33710   55.60400   52.61720   58.83010   60.54280  105.21130
 6121.50000   41.16510    0.08920    4.15660   -0.00110    8.02170    0.02910   -9999.25   -9999.25   -9999.25  -13.37840   54.60150   52.82310   60.32650   60.25150  104.28930
 6122.00000   41.72120    0.08820    4.15410   -0.00300    8.02160    0.02900   -9999.25   -9999.25   -9999.25  -13.11290   51.36460   49.52430   59.83620   59.46140  103.36730
 6122.50000   42.02190    0.08810    4.13080   -0.00300    8.02040    0.02850   -9999.25   -9999.25   -9999.25  -13.09220   49.23970   46.76250   59.38820   58.95870  102.45390
 6123.00000   41.36030    0.09020    4.09550   -0.00190    8.01900    0.02330   -9999.25   -9999.25   -9999.25  -13.15370   48.93930   47.06460   60.94540   58.44580  101.27370
 6123.50000   37.07210    0.08950    4.11550   -0.00130    8.01770    0.01970   -9999.25   -9999.25   -9999.25  -13.21520   52.29040   50.87600   72.88930   58.11570  100.52090
 6124.00000   31.54600    0.08600    4.09600   -0.00080    8.01630    0.00200   -9999.25   -9999.25   -9999.25  -13.27660   61.83860   58.59740   91.53100   58.04690  100.81480
 6124.50000   27.25040    0.07570    4.07020   -0.00020    8.01500   -0.01820   -9999.25   -9999.25   -9999.25  -13.35650   73.20630   67.54620  107.12290   57.94570  100.89700
 6125.00000   24.75980    0.06550    4.05700    0.00040    8.01360   -0.02900   -9999.25   -9999.25   -9999.25  -13.55350   80.02500   76.88320  116.97040   57.82810  100.92270
 6125.50000   28.97030    0.06050    4.05170    0.00080    8.01230   -0.01390   -9999.25   -9999.25   -9999.25  -13.63880   69.92110   68.00110   97.99890   57.76620  100.56070
 6126.00000   35.01300    0.06730    4.05290    0.00080    8.01090    0.00570   -9999.25   -9999.25   -9999.25  -13.28590   61.09290   56.04210   78.02740   58.30430  101.65020
 6126.50000   40.11500    0.07870    4.05520    0.00080    8.00990    0.01640   -9999.25   -9999.25   -9999.25  -12.96650   53.41460   51.07260   68.77910   58.98600  102.80300
 6127.00000   43.54020    0.08470    4.05850    0.00080    8.01570    0.01800   -9999.25   -9999.25   -9999.25  -12.56740   52.45420   50.22640   66.40670   59.58680  103.95580
 6127.50000   43.23300    0.08310    4.09000   -0.00060    8.02150    0.02150   -9999.25   -9999.25   -9999.25  -12.46150   52.17310   50.21480   66.38230   60.06030  104.78760
 6128.00000   43.50800    0.08290    4.11890   -0.00060    8.02740    0.02170   -9999.25   -9999.25   -9999.25  -12.19950   50.85870   48.88180   65.48340   60.56310  105.49230
 6128.50000   44.89530    0.08680    4.11750   -0.00060    8.03320    0.02180   -9999.25   -9999.25   -9999.25  -12.10350   48.30590   45.37970   59.43010   60.85530  105.74320
 6129.00000   48.52700    0.09130    4.10530   -0.00080    8.03900    0.02250   -9999.25   -9999.25   -9999.25  -11.97250   45.16320   44.38120   55.15860   60.97790  107.07970
 6129.50000   53.21700    0.09670    4.11310   -0.00210    8.04480    0.02260   -9999.25   -9999.25   -9999.25  -12.01200   44.27980   43.68180   53.38820   61.25610  107.71050
 6130.00000   54.19400    0.09980    4.12100   -0.00380    8.05060    0.03150   -9999.25   -9999.25   -9999.25  -12.05160   43.31750   42.99340   53.27840   61.51840  107.46880
 6130.50000   53.24550    0.09930    4.14270   -0.00560    8.05640    0.03540   -9999.25   -9999.25   -9999.25  -12.01600   42.60220   41.73020   53.01380   61.64780  107.24300
