~Version ---------------------------------------------------
VERS.   2.0 : CWLS log ASCII Standard -VERSION 2.0
WRAP.    NO : One line per depth step
DLM . SPACE : Column Data Section Delimiter
~Well ------------------------------------------------------
STRT .F                   13.0 : START DEPTH
STOP .F                 9216.0 : STOP DEPTH
STEP .F                    0.5 : STEP
NULL .                -9999.25 : NULL VALUE
COMP .                         : COMPANY
WELL .                         : WELL
FLD  .                         : FIELD
LOC  .                         : LOCATION
PROV .                         : PROVINCE
CNTY .                         : COUNTY
STAT .                         : STATE
CTRY .                         : COUNTRY
SRVC .                         : SERVICE COMPANY
DATE .                         : DATE
UWI  .                         : UNIQUE WELL ID
API  .                         : API NUMBER
SLAT .WGS84 2.2998730455597993 : SURFACE LATITUDE
SLON .WGS84     5.807630427682 : SURFACE LONGITUDE
DATUM.F                    nan : DEPTH DATUM ELEV
~Curve Information -----------------------------------------
DEPT   .F     : 1 MEASURED DEPTH
GRD    .GAPI  : GAMMA RAY FROM DENSITY LOG
TNPH_LS.DEC   : THERMAL NEUTRON POROSITY [LIMESTONE]
PEFZ   .B/E   : HRDD STANDARD RESOLUTION FORMATION PHOTOELECTRIC FACTOR
HDRA   .G/C3  : HRDD SPINE AND RIBS DENSITY CORRECTION
CALD   .IN    : CALIPER FROM DENSITY LOG
DPHZ_LS.DEC   : HGRD STANDARD RESOLUTION DENSITY POROSITY
AO30   .OHMM  : ARRAY INDUCTION ONE FOOT RESISTIVITY A30
GRR    .GAPI  : GAMMA RAY FROM RESISTIVITY LOG
CALR   .IN    : CALIPER FROM RESISTIVITY LOG
SPR    .MV    : SPONTANEOUS POTENTIAL FROM RESISTIVITY LOG
AT30   .OHMM  : ARRAY INDUCTION TWO FOOT RESISTIVITY A30
AT90   .OHMM  : ARRAY INDUCTION TWO FOOT RESISTIVITY A90
AT10   .OHMM  : ARRAY INDUCTION TWO FOOT RESISTIVITY A10
DTCO   .US/F  : DELTA-T COMPRESSIONAL
DTSM   .US/F  : DELTA-T SHEAR
~Params ----------------------------------------------------
~Other -----------------------------------------------------
~ASCII -----------------------------------------------------
# ...
  657.00000  144.17600    0.41100    3.29400    0.09670   12.31170    0.13400   -9999.25   -9999.25   -9999.25  -29.79200    6.34940    6.80520    6.00190   -9999.25   -9999.25
  657.50000  146.81450    0.42940    3.32130    0.07910   12.46050    0.13820   -9999.25   -9999.25   -9999.25  -29.98050    7.16930    8.28520    6.45050   -9999.25   -9999.25
  658.00000  142.15060    0.42580    3.35240    0.08350   12.30200    0.14160   -9999.25   -9999.25   -9999.25  -30.16900    9.42540   10.88460    7.92680   -9999.25   -9999.25
  658.50000  146.44060    0.41940    3.38340    0.11850   12.39790    0.13270   -9999.25   -9999.25   -9999.25  -30.35740    9.35060   11.08990    7.88260   -9999.25   -9999.25
  659.00000  143.11980    0.42480    3.41450    0.14510   12.61310    0.12630   -9999.25   -9999.25   -9999.25  -30.38950    8.21210    9.63640    6.77170   -9999.25   -9999.25
  659.50000  142.65860    0.42190    3.38000    0.12960   12.20990    0.12030   -9999.25   -9999.25   -9999.25  -30.26830    8.15330   10.01490    6.75860   -9999.25   -9999.25
  660.00000  137.45360    0.41460    3.32050    0.11010   12.29320    0.12960   -9999.25   -9999.25   -9999.25  -30.14700    7.99250   10.13740    6.42650   -9999.25   -9999.25
  660.50000  132.75040    0.39270    3.25200    0.08090   12.29790    0.13360   -9999.25   -9999.25   -9999.25  -30.02570    6.70900    9.38280    5.68670   -9999.25   -9999.25
  661.00000  142.50150    0.37550    3.19860    0.05160   12.30160    0.13410   -9999.25   -9999.25   -9999.25  -29.88170    5.70520    7.35470    4.73490   -9999.25   -9999.25
  661.50000  139.96190    0.36400    3.13520    0.04460   12.30290    0.13590   -9999.25   -9999.25   -9999.25  -29.70330    6.03520    7.68560    4.64160   -9999.25   -9999.25
  662.00000  147.72090    0.39770    3.20670    0.05390   12.30610    0.13810   -9999.25   -9999.25   -9999.25  -29.29740    9.74080   12.28560    8.83560   -9999.25   -9999.25
  662.50000  146.35390    0.42500    3.28250    0.08970   12.36080    0.15550   -9999.25   -9999.25   -9999.25  -28.77650   13.38710   14.74710    9.32900   -9999.25   -9999.25
  663.00000  145.23210    0.42740    3.27390    0.14770   12.23970    0.17210   -9999.25   -9999.25   -9999.25  -28.23640    6.23930   10.64130    7.58050   -9999.25   -9999.25
  663.50000  147.49760    0.40430    3.23150    0.17620   12.77070    0.19480   -9999.25   -9999.25   -9999.25  -27.38660    4.28150    5.09800    4.06920   -9999.25   -9999.25
  664.00000  139.61350    0.36910    3.17710    0.16760   12.39810    0.19920   -9999.25   -9999.25   -9999.25  -24.94750    4.17820    4.62660    3.49210   -9999.25   -9999.25
  664.50000  145.00090    0.33530    3.12900    0.15990   13.77790    0.20170   -9999.25   -9999.25   -9999.25  -24.51490    4.67450    4.87070    4.30470   -9999.25   -9999.25
  665.00000  140.68410    0.36510    3.10410    0.15720   12.89990    0.19340   -9999.25   -9999.25   -9999.25  -24.08220    5.40430    6.35500    5.00970   -9999.25   -9999.25
  665.50000  137.23800    0.38610    3.07990    0.16420   12.61400    0.18970   -9999.25   -9999.25   -9999.25  -23.64960    6.63850    9.15010    5.65590   -9999.25   -9999.25
  666.00000  142.03020    0.43040    3.06830    0.19560   13.01480    0.16650   -9999.25   -9999.25   -9999.25  -23.21700    6.81120   10.00800    5.77490   -9999.25   -9999.25
  666.50000  136.86130    0.42090    3.05250    0.21490   12.56470    0.15580   -9999.25   -9999.25   -9999.25  -23.34200    5.72330    6.35070    5.43490   -9999.25   -9999.25
  667.00000  142.92910    0.39800    3.09310    0.23420   12.28370    0.16820   -9999.25   -9999.25   -9999.25  -23.51240    4.72550    5.01610    3.92870   -9999.25   -9999.25
  667.50000  136.81710    0.42360    3.09710    0.24520   12.50030    0.16790   -9999.25   -9999.25   -9999.25  -23.68270    4.44230    5.20520    3.82530   -9999.25   -9999.25
  668.00000  140.72300    0.43780    3.10640    0.24900   13.51890    0.15010   -9999.25   -9999.25   -9999.25  -23.85310    5.88000    6.93750    5.29240   -9999.25   -9999.25
  668.50000  132.86430    0.45160    3.14380    0.20140   12.80990    0.13490   -9999.25   -9999.25   -9999.25  -23.97390    7.10310   11.70450    6.59730   -9999.25   -9999.25
  669.00000  135.02470    0.41900    3.18490    0.15380   12.23430    0.14340   -9999.25   -9999.25   -9999.25  -24.08620    6.26270    7.19900    5.81900   -9999.25   -9999.25
  669.50000  141.60440    0.39690    3.24390    0.10910   12.53640    0.15270   -9999.25   -9999.25   -9999.25  -24.19840    6.34140    6.92020    4.99780   -9999.25   -9999.25
  670.00000  148.68840    0.39320    3.25780    0.10360   12.86240    0.15070   -9999.25   -9999.25   -9999.25  -23.96580    9.66450   14.54770    6.62070   -9999.25   -9999.25
  670.50000  148.07070    0.34070    3.25080    0.09250   12.28870    0.12510   -9999.25   -9999.25   -9999.25  -23.39220   10.70510   18.92490    9.76500   -9999.25   -9999.25
  671.00000  137.15540    0.28810    3.16920    0.06550   12.17480    0.11650   -9999.25   -9999.25   -9999.25  -23.03470    8.83960   10.70820    7.46740   -9999.25   -9999.25
  671.50000  131.27760    0.26750    3.06360    0.02910   12.46020    0.11270   -9999.25   -9999.25   -9999.25  -23.18880    8.09190    8.76350    7.10750   -9999.25   -9999.25
  672.00000  124.19910    0.26820    2.96970    0.01280   12.12970    0.11370   -9999.25   -9999.25   -9999.25  -23.11550   10.10620   14.60100    8.92520   -9999.25   -9999.25
  672.50000  124.31530    0.28810    2.89710    0.00030   12.12980    0.11340   -9999.25   -9999.25   -9999.25  -22.84690   11.36790   18.60860   10.50250   -9999.25   -9999.25
  673.00000  126.25220    0.30170    2.92740   -0.00120   12.12990    0.11340   -9999.25   -9999.25   -9999.25  -22.45950   10.05170   12.56820    9.37280   -9999.25   -9999.25
  673.50000  132.30680    0.30450    3.02370    0.00950   12.30350    0.11110   -9999.25   -9999.25   -9999.25  -22.77180    7.11600    8.04590    5.07760   -9999.25   -9999.25
  674.00000  126.33810    0.30100    3.11630    0.01290   12.18920    0.11090   -9999.25   -9999.25   -9999.25  -22.98420    5.46340    7.73590    4.14200   -9999.25   -9999.25
  674.50000  125.04510    0.32250    3.17480    0.01070   12.18500    0.10600   -9999.25   -9999.25   -9999.25  -23.03240    7.34830    9.72340    6.11910   -9999.25   -9999.25
  675.00000  121.90880    0.32700    3.14600    0.00790   12.21560    0.10460   -9999.25   -9999.25   -9999.25  -22.78130   10.02070   16.80730    9.14490   -9999.25   -9999.25
  675.50000  126.76450    0.30990    3.11460    0.00520   12.19000    0.10340   -9999.25   -9999.25   -9999.25  -22.85860   13.03300   20.23320   10.64100   -9999.25   -9999.25
  676.00000  129.74520    0.29160    3.08940    0.00240   12.15630    0.10610   -9999.25   -9999.25   -9999.25  -22.79260   11.11320   13.61410    8.50830   -9999.25   -9999.25
  676.50000  134.23210    0.29460    3.07700   -0.00030   12.15340    0.11370   -9999.25   -9999.25   -9999.25  -22.70910    7.38070    8.59300    5.68040   -9999.25   -9999.25
  677.00000  135.06010    0.31520    3.11500   -0.00210   12.14850    0.12640   -9999.25   -9999.25   -9999.25  -22.37010    6.15000    7.52990    5.05470   -9999.25   -9999.25
  677.50000  133.74460    0.33160    3.13420   -0.00320   12.13750    0.13950   -9999.25   -9999.25   -9999.25  -22.02210    6.77700    7.85940    6.43680   -9999.25   -9999.25
  678.00000  127.00440    0.36140    3.12280   -0.00430   12.12650    0.14270   -9999.25   -9999.25   -9999.25  -21.90640    7.02800    8.15500    7.54570   -9999.25   -9999.25
  678.50000  125.60980    0.35680    3.09600   -0.00540   12.11540    0.14360   -9999.25   -9999.25   -9999.25  -22.00970    7.00990    9.14840    7.72950   -9999.25   -9999.25
  679.00000  125.68080    0.34860    3.06900   -0.00570   12.11270    0.14450   -9999.25   -9999.25   -9999.25  -22.25510    6.96990    8.99280    7.30880   -9999.25   -9999.25
  679.50000  128.55720    0.34370    3.06130   -0.00320   12.11900    0.14240   -9999.25   -9999.25   -9999.25  -22.14710    6.61910    8.74270    7.28740   -9999.25   -9999.25
