~Version ---------------------------------------------------
VERS.   2.0 : CWLS log ASCII Standard -VERSION 2.0
WRAP.    NO : One line per depth step
DLM . SPACE : Column Data Section Delimiter
~Well ------------------------------------------------------
STRT .F                   13.0 : START DEPTH
STOP .F                 9216.0 : STOP DEPTH
STEP .F                    0.5 : STEP
NULL .                -9999.25 : NULL VALUE
COMP .                         : COMPANY
WELL .                         : WELL
FLD  .                         : FIELD
LOC  .                         : LOCATION
PROV .                         : PROVINCE
CNTY .                         : COUNTY
STAT .                         : STATE
CTRY .                         : COUNTRY
SRVC .                         : SERVICE COMPANY
DATE .                         : DATE
UWI  .                         : UNIQUE WELL ID
API  .                         : API NUMBER
SLAT .WGS84 2.2998730455597993 : SURFACE LATITUDE
SLON .WGS84     5.807630427682 : SURFACE LONGITUDE
DATUM.F                    nan : DEPTH DATUM ELEV
~Curve Information -----------------------------------------
DEPT   .F     : 1 MEASURED DEPTH
GRD    .GAPI  : GAMMA RAY FROM DENSITY LOG
TNPH_LS.DEC   : THERMAL NEUTRON POROSITY [LIMESTONE]
PEFZ   .B/E   : HRDD STANDARD RESOLUTION FORMATION PHOTOELECTRIC FACTOR
HDRA   .G/C3  : HRDD SPINE AND RIBS DENSITY CORRECTION
CALD   .IN    : CALIPER FROM DENSITY LOG
DPHZ_LS.DEC   : HGRD STANDARD RESOLUTION DENSITY POROSITY
AO30   .OHMM  : ARRAY INDUCTION ONE FOOT RESISTIVITY A30
GRR    .GAPI  : GAMMA RAY FROM RESISTIVITY LOG
CALR   .IN    : CALIPER FROM RESISTIVITY LOG
SPR    .MV    : SPONTANEOUS POTENTIAL FROM RESISTIVITY LOG
AT30   .OHMM  : ARRAY INDUCTION TWO FOOT RESISTIVITY A30
AT90   .OHMM  : ARRAY INDUCTION TWO FOOT RESISTIVITY A90
AT10   .OHMM  : ARRAY INDUCTION TWO FOOT RESISTIVITY A10
DTCO   .US/F  : DELTA-T COMPRESSIONAL
DTSM   .US/F  : DELTA-T SHEAR
~Params ----------------------------------------------------
~Other -----------------------------------------------------
~ASCII -----------------------------------------------------
# ...
 8523.00000  128.32080    0.23960    3.16580    0.00020    7.92790    0.08270   -9999.25   -9999.25   -9999.25   -2.93440   18.63940   15.03340   25.88520   84.69790  148.41230
 8523.50000  126.12200    0.22720    3.20800   -0.00190    7.92990    0.07850   -9999.25   -9999.25   -9999.25   -2.61120   18.55360   15.10780   24.16020   83.68260  146.61880
 8524.00000  121.50280    0.22500    3.25010   -0.00010    7.93180    0.06460   -9999.25   -9999.25   -9999.25   -2.22760   17.53550   14.72480   21.87190   82.90530  144.50430
 8524.50000  121.57540    0.23160    3.28440    0.00250    7.93370    0.05590   -9999.25   -9999.25   -9999.25   -2.04750   16.41740   14.08360   20.61520   82.31870  143.78050
 8525.00000  113.87070    0.21560    3.29520    0.00450    7.93560    0.05240   -9999.25   -9999.25   -9999.25   -1.86750   15.65010   13.96220   20.06530   81.54810  143.27820
 8525.50000  104.44530    0.18500    3.28070    0.00490    7.93030    0.04870   -9999.25   -9999.25   -9999.25   -1.68750   15.41280   13.96120   19.60280   80.63900  142.15880
 8526.00000   92.42600    0.15460    3.26580    0.00450    7.90520    0.04910   -9999.25   -9999.25   -9999.25   -1.54280   14.54790   13.37930   18.84650   79.32570  139.75030
 8526.50000   98.51150    0.16410    3.27080    0.00340    7.90250    0.04960   -9999.25   -9999.25   -9999.25   -1.46970   12.79410   12.63910   14.52390   79.15200  139.60900
 8527.00000  106.73540    0.17730    3.27580    0.00240    7.93680    0.04150   -9999.25   -9999.25   -9999.25   -1.26100   10.10930    9.46460   13.00250   79.21680  139.48720
 8527.50000  116.70960    0.18240    3.27990    0.00040    7.92760    0.03500   -9999.25   -9999.25   -9999.25   -1.05170   10.57920    9.64640   14.37570   79.34980  139.73840
 8528.00000  119.98740    0.18100    3.29700   -0.00200    7.91830    0.03500   -9999.25   -9999.25   -9999.25   -0.84250   12.29320   11.04450   14.55100   79.61130  139.98970
 8528.50000  121.96190    0.18520    3.33200   -0.00440    7.91320    0.04320   -9999.25   -9999.25   -9999.25   -0.63320   14.28490   12.75050   16.03210   80.04810  140.90000
 8529.00000  123.13720    0.19850    3.37330   -0.00580    7.92840    0.05140   -9999.25   -9999.25   -9999.25   -0.42400   14.09210   13.73310   15.14190   79.60590  140.80460
 8529.50000  121.91820    0.20980    3.39580   -0.00670    7.95240    0.05960   -9999.25   -9999.25   -9999.25   -0.35540   10.91970   10.37340   12.58700   78.92770  141.03980
 8530.00000  119.62640    0.21380    3.42010   -0.00740    7.97630    0.06540   -9999.25   -9999.25   -9999.25   -0.59620    9.70120    8.39610   10.72790   78.22580  141.60890
 8530.50000  112.52870    0.20620    3.43840   -0.00720    7.97820    0.05860   -9999.25   -9999.25   -9999.25   -0.83700    9.10580    8.56490   10.24440   78.16510  141.81000
 8531.00000   99.01840    0.19720    3.43970   -0.00470    7.95340    0.03930   -9999.25   -9999.25   -9999.25   -1.07780   10.01760    9.34810   10.88060   78.30740  142.05310
 8531.50000   83.25110    0.18820    3.45260   -0.00290    7.92860    0.01560   -9999.25   -9999.25   -9999.25   -1.31860   11.02070   10.20300   12.33030   79.15830  143.83460
 8532.00000   87.49740    0.18800    3.45470   -0.00100    7.90380    0.01350   -9999.25   -9999.25   -9999.25   -1.55940   11.71160   10.62540   13.22410   79.87980  145.51030
 8532.50000  101.66760    0.18880    3.41420   -0.00020    7.90910    0.02620   -9999.25   -9999.25   -9999.25   -1.80020   10.20990    9.58200   10.55480   80.22760  146.34650
 8533.00000  122.22360    0.20310    3.36210   -0.00100    7.93110    0.03990   -9999.25   -9999.25   -9999.25   -2.04100    7.70610    6.89250    8.71180   80.82300  147.28520
 8533.50000  130.92950    0.23470    3.30950   -0.00100    7.94810    0.05010   -9999.25   -9999.25   -9999.25   -2.29870    6.85270    6.74080    8.24290   81.19010  148.35020
 8534.00000  127.64250    0.25260    3.26050   -0.00100    7.94490    0.05370   -9999.25   -9999.25   -9999.25   -2.77350    7.04620    7.03230    7.79920   82.01980  150.64850
 8534.50000  126.16600    0.24020    3.23680   -0.00100    7.94180    0.05440   -9999.25   -9999.25   -9999.25   -3.10700    6.89950    6.83800    7.37490   83.81400  152.83670
 8535.00000  121.20360    0.22890    3.23370   -0.00090    7.93870    0.05240   -9999.25   -9999.25   -9999.25   -2.73200    6.58090    6.46850    6.87540   84.88700  154.90390
 8535.50000  118.84240    0.22920    3.24290   -0.00090    7.94060    0.04940   -9999.25   -9999.25   -9999.25   -2.50140    6.35420    6.20440    6.55510   85.59540  157.44970
 8536.00000  119.15570    0.23740    3.26160   -0.00110    7.94940    0.04660   -9999.25   -9999.25   -9999.25   -2.37360    6.68050    6.37650    7.07390   86.17990  158.36100
 8536.50000  123.92630    0.24920    3.28030   -0.00060    7.95820    0.05150   -9999.25   -9999.25   -9999.25   -2.44790    7.17990    6.75420    7.80320   86.43420  159.36730
 8537.00000  128.31440    0.26290    3.29900   -0.00010    7.96060    0.05880   -9999.25   -9999.25   -9999.25   -2.30210    7.38060    7.11650    8.44600   87.15990  159.28350
 8537.50000  133.67990    0.26140    3.31560   -0.00040    7.96060    0.06320   -9999.25   -9999.25   -9999.25   -1.77230    7.42470    7.11150    8.39310   87.38570  159.93100
 8538.00000  132.73970    0.26450    3.32050   -0.00030    7.96060    0.06460   -9999.25   -9999.25   -9999.25   -1.24250    7.44380    7.08210    8.35850   87.25110  158.83930
 8538.50000  135.29820    0.27430    3.31140   -0.00010    7.96120    0.06580   -9999.25   -9999.25   -9999.25   -0.85310    7.83840    7.21930    9.15510   86.56560  157.67130
 8539.00000  135.72480    0.27350    3.30230    0.00000    7.96250    0.07270   -9999.25   -9999.25   -9999.25   -0.72160    8.27970    7.95430    9.97090   85.94270  156.49300
 8539.50000  135.91150    0.25830    3.32030   -0.00060    7.96370    0.07290   -9999.25   -9999.25   -9999.25   -0.72760    7.98300    7.61120    9.60810   85.65380  155.48960
 8540.00000  132.31170    0.23910    3.34730    0.00090    7.96500    0.05870   -9999.25   -9999.25   -9999.25   -1.14310    6.91740    6.66800    8.09250   84.38590  153.57480
 8540.50000  125.45990    0.22300    3.38860    0.00370    7.96620    0.04350   -9999.25   -9999.25   -9999.25   -1.50890    6.08630    5.84160    6.85470   83.81140  152.76620
 8541.00000  123.64360    0.22900    3.43080    0.00590    7.96750    0.03120   -9999.25   -9999.25   -9999.25   -0.85000    5.68570    5.44490    6.03860   83.32390  151.81870
 8541.50000  119.00910    0.23500    3.47290    0.00700    7.96870    0.02470   -9999.25   -9999.25   -9999.25   -0.94220    5.31140    5.21230    6.21000   82.77410  150.31020
 8542.00000  125.57590    0.25260    3.51500    0.00770    7.97000    0.02240   -9999.25   -9999.25   -9999.25   -1.25470    5.27330    5.17020    6.00470   82.14170  150.40240
 8542.50000  127.61300    0.25170    3.55820    0.00840    7.97120    0.02050   -9999.25   -9999.25   -9999.25   -1.45300    5.20930    5.08170    5.80720   81.90150  150.73810
 8543.00000  129.23380    0.25020    3.59140    0.00940    7.97250    0.01780   -9999.25   -9999.25   -9999.25   -1.44940    5.03960    4.97380    5.46590   81.83270  152.14970
 8543.50000  129.71990    0.25850    3.57910    0.00640    7.97370    0.01970   -9999.25   -9999.25   -9999.25   -1.42750    4.90380    4.72450    5.16560   81.90700  152.90000
 8544.00000  130.86540    0.25870    3.51210    0.00320    7.97470    0.02540   -9999.25   -9999.25   -9999.25   -1.40570    4.80070    4.47250    5.08160   81.77580  153.36850
 8544.50000  131.97530    0.25500    3.42840    0.00070    7.97520    0.03440   -9999.25   -9999.25   -9999.25   -1.62130    4.74870    4.44100    5.07050   81.60080  153.51410
 8545.00000  132.15780    0.25170    3.36780    0.00450    7.97570    0.04420   -9999.25   -9999.25   -9999.25   -1.88230    4.79920    4.54940    5.19470   81.79990  155.10060
 8545.50000  133.16570    0.25600    3.31990    0.03600    7.97620    0.06070   -9999.25   -9999.25   -9999.25   -2.24500    4.87340    4.67700    5.32200   82.57660  156.96950
