~Version ---------------------------------------------------
VERS.   2.0 : CWLS log ASCII Standard -VERSION 2.0
WRAP.    NO : One line per depth step
DLM . SPACE : Column Data Section Delimiter
~Well ------------------------------------------------------
STRT .F                   13.0 : START DEPTH
STOP .F                 9216.0 : STOP DEPTH
STEP .F                    0.5 : STEP
NULL .                -9999.25 : NULL VALUE
COMP .                         : COMPANY
WELL .                         : WELL
FLD  .                         : FIELD
LOC  .                         : LOCATION
PROV .                         : PROVINCE
CNTY .                         : COUNTY
STAT .                         : STATE
CTRY .                         : COUNTRY
SRVC .                         : SERVICE COMPANY
DATE .                         : DATE
UWI  .                         : UNIQUE WELL ID
API  .                         : API NUMBER
SLAT .WGS84 2.2998730455597993 : SURFACE LATITUDE
SLON .WGS84     5.807630427682 : SURFACE LONGITUDE
DATUM.F                    nan : DEPTH DATUM ELEV
~Curve Information -----------------------------------------
DEPT   .F     : 1 MEASURED DEPTH
GRD    .GAPI  : GAMMA RAY FROM DENSITY LOG
TNPH_LS.DEC   : THERMAL NEUTRON POROSITY [LIMESTONE]
PEFZ   .B/E   : HRDD STANDARD RESOLUTION FORMATION PHOTOELECTRIC FACTOR
HDRA   .G/C3  : HRDD SPINE AND RIBS DENSITY CORRECTION
CALD   .IN    : CALIPER FROM DENSITY LOG
DPHZ_LS.DEC   : HGRD STANDARD RESOLUTION DENSITY POROSITY
AO30   .OHMM  : ARRAY INDUCTION ONE FOOT RESISTIVITY A30
GRR    .GAPI  : GAMMA RAY FROM RESISTIVITY LOG
CALR   .IN    : CALIPER FROM RESISTIVITY LOG
SPR    .MV    : SPONTANEOUS POTENTIAL FROM RESISTIVITY LOG
AT30   .OHMM  : ARRAY INDUCTION TWO FOOT RESISTIVITY A30
AT90   .OHMM  : ARRAY INDUCTION TWO FOOT RESISTIVITY A90
AT10   .OHMM  : ARRAY INDUCTION TWO FOOT RESISTIVITY A10
DTCO   .US/F  : DELTA-T COMPRESSIONAL
DTSM   .US/F  : DELTA-T SHEAR
~Params ----------------------------------------------------
~Other -----------------------------------------------------
~ASCII -----------------------------------------------------
# ...
 7902.00000  119.91760    0.25950    3.15980    0.17500    8.38600    0.04560   -9999.25   -9999.25   -9999.25    4.39190    4.22760    4.07980    4.37410   85.94160  165.64080
 7902.50000  123.01610    0.25760    3.21010    0.14510    8.44560    0.04620   -9999.25   -9999.25   -9999.25    4.58170    4.31650    4.10820    4.68260   87.53630  163.95640
 7903.00000  126.54460    0.25130    3.24200    0.13650    8.26940    0.03920   -9999.25   -9999.25   -9999.25    4.77150    4.92470    4.61850    5.01140   87.36210  163.67510
 7903.50000  128.51430    0.25340    3.28620    0.12690    8.24940    0.03740   -9999.25   -9999.25   -9999.25    4.96130    4.93710    4.68910    5.19920   86.53070  163.09990
 7904.00000  128.33060    0.24280    3.33220    0.11010    8.28410    0.05470   -9999.25   -9999.25   -9999.25    5.15100    4.89610    4.66750    5.37170   86.06330  160.21760
 7904.50000  127.23050    0.23930    3.34800    0.09330    8.33800    0.05790   -9999.25   -9999.25   -9999.25    5.34080    4.94380    4.79930    5.50870   85.83400  161.32460
 7905.00000  122.84280    0.23260    3.33370    0.08180    8.27160    0.06160   -9999.25   -9999.25   -9999.25    5.46090    5.01210    4.88720    5.62390   85.82730  161.39400
 7905.50000  121.96260    0.23220    3.25010    0.07880    8.20740    0.05730   -9999.25   -9999.25   -9999.25    5.44030    5.08670    5.00750    5.66120   85.83080  161.36430
 7906.00000  123.07790    0.24370    3.16650    0.07050    8.29580    0.07730   -9999.25   -9999.25   -9999.25    5.41970    5.16350    5.05170    5.61220   85.79510  161.86800
 7906.50000  127.49230    0.24520    3.13740    0.06040    8.35390    0.09290   -9999.25   -9999.25   -9999.25    5.39910    5.20180    5.06790    5.53960   86.13760  162.37170
 7907.00000  135.21930    0.24380    3.13750    0.05520    8.23020    0.09560   -9999.25   -9999.25   -9999.25    5.37850    5.19850    5.04760    5.52820   85.84360  161.60130
 7907.50000  136.00500    0.23590    3.14690    0.07100    8.21200    0.08440   -9999.25   -9999.25   -9999.25    5.35790    5.12130    4.99260    5.36760   85.42980  161.38200
 7908.00000  129.19830    0.23250    3.17750    0.07930    8.21560    0.07130   -9999.25   -9999.25   -9999.25    5.33730    4.94810    4.65180    5.04110   85.45220  162.44720
 7908.50000  123.16970    0.25400    3.28380    0.06930    8.23450    0.06380   -9999.25   -9999.25   -9999.25    5.46800    4.63060    4.46130    4.81250   85.54120  162.93490
 7909.00000  116.03940    0.27550    3.44450    0.05020    8.19650    0.06600   -9999.25   -9999.25   -9999.25    5.60700    4.61430    4.51530    4.79010   85.69640  163.09510
 7909.50000  108.99820    0.27580    3.70740    0.02780    8.24920    0.07350   -9999.25   -9999.25   -9999.25    5.54240    4.69260    4.60810    4.96210   85.68050  163.22640
 7910.00000  103.86970    0.27060    3.83560    0.03600    8.16110    0.07190   -9999.25   -9999.25   -9999.25    5.13130    4.77410    4.67140    5.16660   85.64820  163.45400
 7910.50000  100.30090    0.26050    3.86170    0.06430    8.13490    0.07090   -9999.25   -9999.25   -9999.25    4.95580    4.80780    4.67070    5.10630   85.46540  163.37510
 7911.00000  107.28120    0.25130    3.62230    0.09240    8.18900    0.07370   -9999.25   -9999.25   -9999.25    5.11330    4.83170    4.66990    5.06000   85.16990  164.56070
 7911.50000  107.43770    0.24670    3.33950    0.10590    8.23780    0.07850   -9999.25   -9999.25   -9999.25    5.55170    4.90850    4.72680    5.08240   85.11300  164.77720
 7912.00000  108.31900    0.24450    3.30230    0.09790    8.21860    0.07450   -9999.25   -9999.25   -9999.25    5.64110    5.02390    4.96170    5.26220   85.19000  164.91970
 7912.50000  105.80140    0.24700    3.31600    0.08760    8.18240    0.06740   -9999.25   -9999.25   -9999.25    5.62930    5.19670    5.15160    5.47340   85.22910  162.07720
 7913.00000  107.19410    0.25300    3.34040    0.07730    8.15900    0.06770   -9999.25   -9999.25   -9999.25    5.57700    5.31960    5.26190    5.64790   85.19380  162.69190
 7913.50000  109.11460    0.25910    3.29460    0.07900    8.16670    0.06490   -9999.25   -9999.25   -9999.25    5.38940    5.38710    5.29820    5.81230   85.24500  162.37340
 7914.00000  111.81140    0.26190    3.23380    0.08780    8.21360    0.06690   -9999.25   -9999.25   -9999.25    5.54800    5.42040    5.18950    5.72230   85.24500  162.14760
 7914.50000  115.94960    0.25860    3.18200    0.09180    8.26040    0.06850   -9999.25   -9999.25   -9999.25    5.91240    5.40300    5.05150    5.61520   85.20440  161.82900
 7915.00000  121.58100    0.24930    3.15870    0.08880    8.20180    0.06790   -9999.25   -9999.25   -9999.25    6.13590    5.31390    5.05030    5.69980   84.68260  161.43830
 7915.50000  120.47920    0.24280    3.14490    0.08670    8.35730    0.07190   -9999.25   -9999.25   -9999.25    5.68400    5.18990    4.88170    5.76350   85.00660  161.05840
 7916.00000  117.59010    0.24800    3.12860    0.09250    8.15080    0.06860   -9999.25   -9999.25   -9999.25    5.64850    4.75460    4.46730    5.63130   85.09260  160.91880
 7916.50000  111.11330    0.25400    3.10320    0.10980    8.28400    0.06230   -9999.25   -9999.25   -9999.25    5.58490    4.85860    4.58950    5.36310   85.09110  160.40210
 7917.00000  109.92790    0.24690    3.07200    0.12700    8.27790    0.05920   -9999.25   -9999.25   -9999.25    5.44100    5.12270    4.95890    5.93780   85.08930  160.06580
 7917.50000  110.16110    0.25020    3.04440    0.14430    8.26980    0.06030   -9999.25   -9999.25   -9999.25    5.29820    5.33290    4.97340    6.11520   84.75390  159.29940
 7918.00000  115.56440    0.25850    3.01600    0.13750    8.32130    0.08500   -9999.25   -9999.25   -9999.25    5.14050    5.35580    4.82340    6.17430   83.53520  156.18460
 7918.50000  115.27850    0.23670    2.98770    0.08310    8.28000    0.09280   -9999.25   -9999.25   -9999.25    5.18830    5.47760    4.75340    7.00900   83.24980  154.16790
 7919.00000  112.19140    0.21340    3.01230    0.02200    8.13580    0.08680   -9999.25   -9999.25   -9999.25    5.70650    6.29730    5.23320    7.46820   83.27530  153.82890
 7919.50000  112.39090    0.19960    3.04970    0.01170    8.11950    0.06670   -9999.25   -9999.25   -9999.25    5.78130    7.40250    5.76900    8.14140   83.27310  153.73490
 7920.00000  111.84730    0.21430    3.08700    0.00700    8.11510    0.05060   -9999.25   -9999.25   -9999.25    5.84130    7.17340    6.20570    8.30010   83.15400  154.28790
 7920.50000  110.26840    0.21720    3.12440    0.01530    8.11480    0.05040   -9999.25   -9999.25   -9999.25    5.84560    6.47090    5.89220    7.40060   83.05990  154.72130
 7921.00000  111.37360    0.22550    3.14380    0.03050    8.11440    0.06010   -9999.25   -9999.25   -9999.25    5.64840    5.83720    5.58490    6.59420   83.63900  156.76260
 7921.50000  115.58180    0.23770    3.18500    0.05400    8.11410    0.06610   -9999.25   -9999.25   -9999.25    5.40870    5.47620    5.34270    5.85150   84.21110  158.48210
 7922.00000  118.35210    0.26210    3.21400    0.08000    8.14650    0.06620   -9999.25   -9999.25   -9999.25    5.64120    5.15480    4.81800    5.31260   84.71830  160.03150
 7922.50000  116.29460    0.26310    3.23190    0.10600    8.22020    0.06010   -9999.25   -9999.25   -9999.25    5.75240    4.87730    4.55520    5.07790   84.89310  161.06890
 7923.00000  114.87950    0.26450    3.18730    0.13440    8.23340    0.06190   -9999.25   -9999.25   -9999.25    5.61580    4.72010    4.43070    5.02950   85.08830  161.72180
 7923.50000  117.60310    0.27120    3.11600    0.14860    8.18560    0.06990   -9999.25   -9999.25   -9999.25    5.04430    4.73830    4.50410    5.16040   85.36880  160.53040
 7924.00000  118.81830    0.27880    3.06500    0.13670    8.23310    0.07230   -9999.25   -9999.25   -9999.25    4.49990    4.92670    4.68420    5.27090   83.84630  156.84350
 7924.50000  119.58020    0.27190    3.02430    0.10890    8.16570    0.06000   -9999.25   -9999.25   -9999.25    4.13720    5.15480    4.83460    5.45210   83.30180  156.17860
