~Version ---------------------------------------------------
VERS.   2.0 : CWLS log ASCII Standard -VERSION 2.0
WRAP.    NO : One line per depth step
DLM . SPACE : Column Data Section Delimiter
~Well ------------------------------------------------------
STRT .F                   13.0 : START DEPTH
STOP .F                 9216.0 : STOP DEPTH
STEP .F                    0.5 : STEP
NULL .                -9999.25 : NULL VALUE
COMP .                         : COMPANY
WELL .                         : WELL
FLD  .                         : FIELD
LOC  .                         : LOCATION
PROV .                         : PROVINCE
CNTY .                         : COUNTY
STAT .                         : STATE
CTRY .                         : COUNTRY
SRVC .                         : SERVICE COMPANY
DATE .                         : DATE
UWI  .                         : UNIQUE WELL ID
API  .                         : API NUMBER
SLAT .WGS84 2.2998730455597993 : SURFACE LATITUDE
SLON .WGS84     5.807630427682 : SURFACE LONGITUDE
DATUM.F                    nan : DEPTH DATUM ELEV
~Curve Information -----------------------------------------
DEPT   .F     : 1 MEASURED DEPTH
GRD    .GAPI  : GAMMA RAY FROM DENSITY LOG
TNPH_LS.DEC   : THERMAL NEUTRON POROSITY [LIMESTONE]
PEFZ   .B/E   : HRDD STANDARD RESOLUTION FORMATION PHOTOELECTRIC FACTOR
HDRA   .G/C3  : HRDD SPINE AND RIBS DENSITY CORRECTION
CALD   .IN    : CALIPER FROM DENSITY LOG
DPHZ_LS.DEC   : HGRD STANDARD RESOLUTION DENSITY POROSITY
AO30   .OHMM  : ARRAY INDUCTION ONE FOOT RESISTIVITY A30
GRR    .GAPI  : GAMMA RAY FROM RESISTIVITY LOG
CALR   .IN    : CALIPER FROM RESISTIVITY LOG
SPR    .MV    : SPONTANEOUS POTENTIAL FROM RESISTIVITY LOG
AT30   .OHMM  : ARRAY INDUCTION TWO FOOT RESISTIVITY A30
AT90   .OHMM  : ARRAY INDUCTION TWO FOOT RESISTIVITY A90
AT10   .OHMM  : ARRAY INDUCTION TWO FOOT RESISTIVITY A10
DTCO   .US/F  : DELTA-T COMPRESSIONAL
DTSM   .US/F  : DELTA-T SHEAR
~Params ----------------------------------------------------
~Other -----------------------------------------------------
~ASCII -----------------------------------------------------
# ...
 1876.00000   93.76930    0.28030    2.48950    0.04650   11.88860    0.20850    1.06790   -9999.25   -9999.25  -13.81730    1.14210    1.10670    1.25800   -9999.25   -9999.25
 1876.50000   92.29640    0.27440    2.63220    0.04010   11.85910    0.18510    1.15650   -9999.25   -9999.25  -14.12110    1.30540    1.19070    1.32400   -9999.25   -9999.25
 1877.00000   84.94180    0.22480    2.80780    0.03180   11.91390    0.13250    1.35540   -9999.25   -9999.25  -14.47890    1.49520    1.30030    1.60740   -9999.25   -9999.25
 1877.50000   80.05480    0.16940    2.94460    0.02380   11.95950    0.08430    1.59070   -9999.25   -9999.25  -14.60800    1.71270    1.51620    1.95150   -9999.25   -9999.25
 1878.00000   77.85670    0.13910    2.95970    0.01700   11.99160    0.08420    1.82000   -9999.25   -9999.25  -14.57050    1.82850    1.75870    2.11020   -9999.25   -9999.25
 1878.50000   81.52710    0.15230    2.91050    0.01010   12.01260    0.10600    1.56260   -9999.25   -9999.25  -14.56760    1.81120    1.70650    2.14820   -9999.25   -9999.25
 1879.00000   84.80860    0.17850    2.86860    0.00350   12.03150    0.11540    1.99070   -9999.25   -9999.25  -14.75080    1.93840    1.73910    2.27490   -9999.25   -9999.25
 1879.50000   92.20480    0.19840    2.91580   -0.00260   12.05440    0.11110    2.22560   -9999.25   -9999.25  -15.00780    2.18480    2.01350    2.43180   -9999.25   -9999.25
 1880.00000   93.99420    0.20160    2.96300   -0.00150   12.06410    0.09840    1.94380   -9999.25   -9999.25  -15.20280    2.38260    2.16570    2.89430   -9999.25   -9999.25
 1880.50000   88.24970    0.18880    2.97780    0.00070   12.06090    0.08590    2.39210   -9999.25   -9999.25  -15.39790    2.70930    2.37240    3.59490   -9999.25   -9999.25
 1881.00000   81.95760    0.16410    2.88230    0.00280   12.05770    0.07960    3.07270   -9999.25   -9999.25  -15.59290    3.08080    2.69890    4.82550   -9999.25   -9999.25
 1881.50000   73.27550    0.15060    2.79620    0.00270   12.05070    0.09120    2.96640   -9999.25   -9999.25  -15.78790    2.77120    2.46790    5.62880   -9999.25   -9999.25
 1882.00000   69.68990    0.16410    2.73680   -0.00010   12.04980    0.11750    2.32830   -9999.25   -9999.25  -15.99080    2.33060    2.01350    3.47780   -9999.25   -9999.25
 1882.50000   63.78930    0.18610    2.66220   -0.00300   12.05020    0.14750    1.79470   -9999.25   -9999.25  -16.30290    1.84010    1.49300    2.17750   -9999.25   -9999.25
 1883.00000   60.12270    0.20980    2.61530   -0.00510   12.04360    0.18550    1.11070   -9999.25   -9999.25  -17.00950    1.44560    1.16010    1.71200   -9999.25   -9999.25
 1883.50000   56.78630    0.23240    2.57500   -0.00640   12.02100    0.20370    1.11800   -9999.25   -9999.25  -17.60340    1.13560    0.99120    1.43250   -9999.25   -9999.25
 1884.00000   56.99230    0.22990    2.55440   -0.00650   12.02110    0.21130    1.01170   -9999.25   -9999.25  -17.97970    0.97490    0.89580    1.28180   -9999.25   -9999.25
 1884.50000   56.92470    0.22510    2.51820   -0.00660   12.02130    0.21420    0.92360   -9999.25   -9999.25  -18.07280    0.92380    0.85480    1.19030   -9999.25   -9999.25
 1885.00000   56.22330    0.22040    2.48200   -0.00690   12.02630    0.21630    0.96310   -9999.25   -9999.25  -17.87970    0.90920    0.85160    1.15890   -9999.25   -9999.25
 1885.50000   55.46250    0.22280    2.46180   -0.00580   12.03510    0.21560    0.97090   -9999.25   -9999.25  -17.73330    0.91400    0.85710    1.15360   -9999.25   -9999.25
 1886.00000   64.34520    0.23180    2.47960   -0.00440   12.04380    0.19610    0.93100   -9999.25   -9999.25  -17.22070    1.03020    0.94090    1.21500   -9999.25   -9999.25
 1886.50000   70.63400    0.22370    2.57070   -0.00290   12.05260    0.16870    1.23680   -9999.25   -9999.25  -16.43060    1.21200    1.09700    1.51820   -9999.25   -9999.25
 1887.00000   75.51630    0.21310    2.71780   -0.00200   12.06220    0.13460    1.66680   -9999.25   -9999.25  -15.64050    1.44000    1.30490    1.90670   -9999.25   -9999.25
 1887.50000   76.90810    0.20360    2.83530   -0.00150   12.06240    0.11010    1.91570   -9999.25   -9999.25  -14.85030    1.71090    1.55470    2.38270   -9999.25   -9999.25
 1888.00000   79.75860    0.21020    2.86030   -0.00090   12.04510    0.10610    2.58780   -9999.25   -9999.25  -14.06020    2.03280    1.85830    2.70050   -9999.25   -9999.25
 1888.50000   83.74920    0.22100    2.86390   -0.00030   12.03290    0.10980    2.99120   -9999.25   -9999.25  -13.43860    2.41520    2.22110    2.97220   -9999.25   -9999.25
 1889.00000   85.98330    0.21170    2.85130    0.00030   12.02070    0.11260    2.39800   -9999.25   -9999.25  -13.72150    2.65490    2.50180    3.27130   -9999.25   -9999.25
 1889.50000   88.35840    0.20560    2.84380    0.00090   12.02180    0.11520    2.78880   -9999.25   -9999.25  -13.86930    2.50730    2.64240    3.64220   -9999.25   -9999.25
 1890.00000   84.56290    0.20720    2.79040    0.00150   12.02070    0.11810    3.08010   -9999.25   -9999.25  -14.04070    2.23980    2.55330    3.60940   -9999.25   -9999.25
 1890.50000   72.49370    0.19730    2.74990    0.00130   12.01920    0.12490    2.27920   -9999.25   -9999.25  -14.91190    2.08210    2.22740    3.33760   -9999.25   -9999.25
 1891.00000   61.02940    0.18410    2.71780   -0.00080   12.01710    0.14070    1.77950   -9999.25   -9999.25  -15.78310    1.95710    1.78360    2.73510   -9999.25   -9999.25
 1891.50000   52.81260    0.17970    2.66510   -0.00270   12.01500    0.15800    1.53460   -9999.25   -9999.25  -16.49510    1.70600    1.41930    2.10220   -9999.25   -9999.25
 1892.00000   59.82710    0.19100    2.63160   -0.00180   12.01290    0.17300    1.29920   -9999.25   -9999.25  -16.16770    1.34930    1.14730    1.68690   -9999.25   -9999.25
 1892.50000   65.58730    0.20810    2.63500    0.00030   12.01830    0.17950    1.11430   -9999.25   -9999.25  -15.73150    1.07360    1.01580    1.38520   -9999.25   -9999.25
 1893.00000   71.19770    0.22270    2.69590    0.00240   12.02680    0.17390    1.00010   -9999.25   -9999.25  -15.29520    1.04330    0.97010    1.28940   -9999.25   -9999.25
 1893.50000   77.01200    0.22240    2.79350    0.00440   12.03530    0.14840    1.01900   -9999.25   -9999.25  -14.85890    1.12100    0.98240    1.55630   -9999.25   -9999.25
 1894.00000   80.47340    0.20800    2.87300    0.00230   12.04380    0.10530    1.43500   -9999.25   -9999.25  -14.42260    1.50060    1.26870    2.03220   -9999.25   -9999.25
 1894.50000   86.55650    0.18580    2.96400   -0.00010   12.05230    0.08890    2.63340   -9999.25   -9999.25  -13.98630    2.00860    1.59380    2.85080   -9999.25   -9999.25
 1895.00000   92.48330    0.19080    2.99910   -0.00240   12.08150    0.08250    2.65100   -9999.25   -9999.25  -13.55000    2.47470    2.00210    3.67450   -9999.25   -9999.25
 1895.50000   96.06400    0.20380    3.00970   -0.00130   12.11680    0.07980    2.96630   -9999.25   -9999.25  -13.11370    2.90530    2.51080    4.04370   -9999.25   -9999.25
 1896.00000   92.12630    0.21650    3.02020    0.00020   12.11050    0.06970    3.58960   -9999.25   -9999.25  -12.67750    3.41080    3.11360    4.65080   -9999.25   -9999.25
 1896.50000   90.06870    0.21060    3.03360    0.00170   12.09310    0.06860    4.41660   -9999.25   -9999.25  -12.64390    3.83050    3.68640    4.64550   -9999.25   -9999.25
 1897.00000   90.51830    0.22750    3.05000   -0.00120   12.08370    0.07220    3.32110   -9999.25   -9999.25  -12.58060    3.56260    3.19210    3.77120   -9999.25   -9999.25
 1897.50000   94.21940    0.24800    3.06640   -0.00190   12.08670    0.09020    2.74270   -9999.25   -9999.25  -12.48450    2.93570    2.60580    3.20390   -9999.25   -9999.25
 1898.00000   97.30090    0.25330    3.05620   -0.00260   12.08960    0.10330    2.34770   -9999.25   -9999.25  -12.38840    2.40910    2.17310    2.72200   -9999.25   -9999.25
 1898.50000   98.02250    0.24880    2.99400   -0.00290   12.09250    0.11410    1.88010   -9999.25   -9999.25  -12.46490    2.07520    2.02140    2.33560   -9999.25   -9999.25
