~Version ---------------------------------------------------
VERS.   2.0 : CWLS log ASCII Standard -VERSION 2.0
WRAP.    NO : One line per depth step
DLM . SPACE : Column Data Section Delimiter
~Well ------------------------------------------------------
STRT .F                   13.0 : START DEPTH
STOP .F                 9216.0 : STOP DEPTH
STEP .F                    0.5 : STEP
NULL .                -9999.25 : NULL VALUE
COMP .                         : COMPANY
WELL .                         : WELL
FLD  .                         : FIELD
LOC  .                         : LOCATION
PROV .                         : PROVINCE
CNTY .                         : COUNTY
STAT .                         : STATE
CTRY .                         : COUNTRY
SRVC .                         : SERVICE COMPANY
DATE .                         : DATE
UWI  .                         : UNIQUE WELL ID
API  .                         : API NUMBER
SLAT .WGS84 2.2998730455597993 : SURFACE LATITUDE
SLON .WGS84     5.807630427682 : SURFACE LONGITUDE
DATUM.F                    nan : DEPTH DATUM ELEV
~Curve Information -----------------------------------------
DEPT   .F     : 1 MEASURED DEPTH
GRD    .GAPI  : GAMMA RAY FROM DENSITY LOG
TNPH_LS.DEC   : THERMAL NEUTRON POROSITY [LIMESTONE]
PEFZ   .B/E   : HRDD STANDARD RESOLUTION FORMATION PHOTOELECTRIC FACTOR
HDRA   .G/C3  : HRDD SPINE AND RIBS DENSITY CORRECTION
CALD   .IN    : CALIPER FROM DENSITY LOG
DPHZ_LS.DEC   : HGRD STANDARD RESOLUTION DENSITY POROSITY
AO30   .OHMM  : ARRAY INDUCTION ONE FOOT RESISTIVITY A30
GRR    .GAPI  : GAMMA RAY FROM RESISTIVITY LOG
CALR   .IN    : CALIPER FROM RESISTIVITY LOG
SPR    .MV    : SPONTANEOUS POTENTIAL FROM RESISTIVITY LOG
AT30   .OHMM  : ARRAY INDUCTION TWO FOOT RESISTIVITY A30
AT90   .OHMM  : ARRAY INDUCTION TWO FOOT RESISTIVITY A90
AT10   .OHMM  : ARRAY INDUCTION TWO FOOT RESISTIVITY A10
DTCO   .US/F  : DELTA-T COMPRESSIONAL
DTSM   .US/F  : DELTA-T SHEAR
~Params ----------------------------------------------------
~Other -----------------------------------------------------
~ASCII -----------------------------------------------------
# ...
 4291.00000   15.03850    0.15840    3.43060    0.00250    8.73610    0.07380   -9999.25   -9999.25   -9999.25  -82.53970    5.45180    3.98640    7.47300   -9999.25   -9999.25
 4291.50000   19.09230    0.17460    3.38610    0.00160    8.74660    0.09350   -9999.25   -9999.25   -9999.25  -81.18150    5.01200    3.81150    6.63160   -9999.25   -9999.25
 4292.00000   22.45280    0.18590    3.33830    0.00060    8.74400    0.09960   -9999.25   -9999.25   -9999.25  -79.20620    4.78730    3.67910    5.80970   -9999.25   -9999.25
 4292.50000   24.65990    0.17970    3.40490   -0.00120    8.71920    0.09000   -9999.25   -9999.25   -9999.25  -77.23080    5.17820    3.83110    6.50620   -9999.25   -9999.25
 4293.00000   27.39810    0.15800    3.60200   -0.00420    8.69440    0.07350   -9999.25   -9999.25   -9999.25  -74.44270    5.95870    4.85420    8.11800   -9999.25   -9999.25
 4293.50000   38.13430    0.12540    3.87460   -0.00710    8.67340    0.06240   -9999.25   -9999.25   -9999.25  -71.16880    6.85680    6.19030   10.79660   -9999.25   -9999.25
 4294.00000   41.32830    0.09380    4.20930   -0.00560    8.67340    0.05270   -9999.25   -9999.25   -9999.25  -68.13950    7.71380    7.35530   16.87600   -9999.25   -9999.25
 4294.50000   43.64910    0.07070    4.39780   -0.00340    8.67340    0.04170   -9999.25   -9999.25   -9999.25  -65.41430    8.18780    7.45330   17.82260   -9999.25   -9999.25
 4295.00000   48.02920    0.07130    4.39350   -0.00120    8.67340    0.03740   -9999.25   -9999.25   -9999.25  -64.40550    7.98670    6.82990   10.26300   -9999.25   -9999.25
 4295.50000   59.63720    0.10310    4.13050    0.00010    8.67340    0.04190   -9999.25   -9999.25   -9999.25  -66.16650    4.54810    3.96990    5.75920   -9999.25   -9999.25
 4296.00000   57.03450    0.13650    3.90060   -0.00090    8.67340    0.05830   -9999.25   -9999.25   -9999.25  -69.52870    3.05540    2.79210    3.25680   -9999.25   -9999.25
 4296.50000   50.78240    0.16740    3.77310   -0.00180    8.67040    0.07490   -9999.25   -9999.25   -9999.25  -72.96670    3.82150    3.52820    4.06570   -9999.25   -9999.25
 4297.00000   43.84550    0.14560    3.83730   -0.00260    8.66730    0.08340   -9999.25   -9999.25   -9999.25  -75.81530    5.81260    5.37560    7.46410   -9999.25   -9999.25
 4297.50000   36.39380    0.11330    4.21000   -0.00150    8.66420    0.08350   -9999.25   -9999.25   -9999.25  -76.46860    8.17730    7.82070   14.32300   -9999.25   -9999.25
 4298.00000   25.22710    0.08660    4.51310    0.00530    8.66070    0.08080   -9999.25   -9999.25   -9999.25  -76.32700   10.83120    8.78770   20.25230   -9999.25   -9999.25
 4298.50000   18.11380    0.07350    4.72180    0.02040    8.65480    0.07930   -9999.25   -9999.25   -9999.25  -75.98650   11.81850    9.06720   22.18180   -9999.25   -9999.25
 4299.00000   16.30630    0.07350    4.77670    0.01930    8.64890    0.08190   -9999.25   -9999.25   -9999.25  -75.58000   14.51810   12.38240   26.38440   -9999.25   -9999.25
 4299.50000   16.25700    0.07810    4.79260    0.00880    8.64300    0.07830   -9999.25   -9999.25   -9999.25  -75.17360   17.21430   15.20830   29.82350   -9999.25   -9999.25
 4300.00000   15.31210    0.08360    4.81560   -0.00050    8.63710    0.07360   -9999.25   -9999.25   -9999.25  -74.59990   16.59480   15.10690   28.71870   -9999.25   -9999.25
 4300.50000   14.77080    0.08440    4.84070   -0.00240    8.63110    0.07250   -9999.25   -9999.25   -9999.25  -73.89310   15.20140   14.56400   20.60760   -9999.25   -9999.25
 4301.00000   17.07730    0.08140    4.83820   -0.00430    8.62520    0.07560   -9999.25   -9999.25   -9999.25  -74.41560   12.70730   11.58160   14.92140   -9999.25   -9999.25
 4301.50000   27.88250    0.11550    4.67300   -0.00300    8.61930    0.06870   -9999.25   -9999.25   -9999.25  -75.01880    7.75540    6.93080    9.63110   -9999.25   -9999.25
 4302.00000   41.97000    0.14240    4.35690   -0.00280    8.61340    0.06410   -9999.25   -9999.25   -9999.25  -75.59490    5.83660    5.33000    6.96790   -9999.25   -9999.25
 4302.50000   49.80430    0.14360    4.16440   -0.00270    8.60750    0.05960   -9999.25   -9999.25   -9999.25  -76.27420    9.03440    8.26310   10.38200   -9999.25   -9999.25
 4303.00000   42.89360    0.11650    4.16380   -0.00270    8.60130    0.05360   -9999.25   -9999.25   -9999.25  -76.95350   14.66040   13.40800   17.13220   -9999.25   -9999.25
 4303.50000   31.68680    0.08960    4.31750   -0.00270    8.59320    0.05400   -9999.25   -9999.25   -9999.25  -77.63280   21.96060   20.61370   28.54600   -9999.25   -9999.25
 4304.00000   20.88930    0.08190    4.55550   -0.00260    8.58510    0.06050   -9999.25   -9999.25   -9999.25  -78.31200   28.72930   24.38060   38.24120   -9999.25   -9999.25
 4304.50000   16.86960    0.07870    4.64870   -0.00260    8.57700    0.06690   -9999.25   -9999.25   -9999.25  -78.99130   28.52750   23.49270   42.90470   -9999.25   -9999.25
 4305.00000   17.10090    0.07550    4.69980   -0.00250    8.56890    0.06960   -9999.25   -9999.25   -9999.25  -79.63940   24.75060   21.35900   42.49010   -9999.25   -9999.25
 4305.50000   19.58040    0.07650    4.71430   -0.00180    8.56080    0.07290   -9999.25   -9999.25   -9999.25  -80.28090   21.47370   19.56540   36.20510   -9999.25   -9999.25
 4306.00000   23.93220    0.08190    4.71460   -0.00110    8.55270    0.07840   -9999.25   -9999.25   -9999.25  -80.93620   18.63060   17.44020   33.30290   -9999.25   -9999.25
 4306.50000   28.08370    0.08730    4.71210   -0.00040    8.54460    0.08370   -9999.25   -9999.25   -9999.25  -81.59150   16.84900   15.52260   32.24670   -9999.25   -9999.25
 4307.00000   31.13480    0.09270    4.67370    0.00050    8.53650    0.08690   -9999.25   -9999.25   -9999.25  -82.24670   15.27160   13.81130   31.18320   -9999.25   -9999.25
 4307.50000   31.22660    0.09810    4.63530    0.00150    8.52840    0.08520   -9999.25   -9999.25   -9999.25  -82.72830   13.84180   12.48100   29.57880   -9999.25   -9999.25
 4308.00000   29.93350    0.10060    4.59690    0.00240    8.52030    0.08670   -9999.25   -9999.25   -9999.25  -82.75140   12.67350   11.24790   28.05880   -9999.25   -9999.25
 4308.50000   29.24320    0.09970    4.55980    0.00320    8.51730    0.08810   -9999.25   -9999.25   -9999.25  -82.73110   10.76780    9.52750   22.70570   -9999.25   -9999.25
 4309.00000   30.55090    0.09850    4.53070    0.00110    8.51500    0.08320   -9999.25   -9999.25   -9999.25  -82.71240    9.14860    7.75860   17.60040   -9999.25   -9999.25
 4309.50000   31.73360    0.09880    4.49080   -0.00530    8.51270    0.07380   -9999.25   -9999.25   -9999.25  -82.69360    9.02590    7.08520   15.03610   -9999.25   -9999.25
 4310.00000   30.56910    0.09980    4.40250   -0.00990    8.51050    0.07040   -9999.25   -9999.25   -9999.25  -82.27610    9.71730    7.05850   14.68010   -9999.25   -9999.25
 4310.50000   29.38210    0.10020    4.26630   -0.00810    8.50820    0.06950   -9999.25   -9999.25   -9999.25  -81.51990   10.46180    7.36520   15.11630   -9999.25   -9999.25
 4311.00000   28.67210    0.09830    4.13010   -0.00270    8.50590    0.06980   -9999.25   -9999.25   -9999.25  -80.91230   10.78650    7.91070   15.85830   -9999.25   -9999.25
 4311.50000   29.88950    0.09520    3.99390    0.00140    8.50360    0.06460   -9999.25   -9999.25   -9999.25  -80.47100   10.64270    8.19460   15.93290   -9999.25   -9999.25
 4312.00000   35.33240    0.09210    3.89640    0.00180    8.50140    0.06000   -9999.25   -9999.25   -9999.25  -79.65850   10.35890    9.14250   15.77950   -9999.25   -9999.25
 4312.50000   41.62570    0.08900    3.94080    0.00220    8.49910    0.05790   -9999.25   -9999.25   -9999.25  -78.79390   10.61190   10.03110   15.76400   -9999.25   -9999.25
 4313.00000   44.75300    0.08600    4.07260    0.00260    8.49790    0.06300   -9999.25   -9999.25   -9999.25  -78.00590   11.79810   10.22340   16.15080   -9999.25   -9999.25
 4313.50000   43.49380    0.08290    4.22190    0.00280    8.51090    0.06810   -9999.25   -9999.25   -9999.25  -77.27130   13.11690   10.15210   16.77410   -9999.25   -9999.25
