~Version ---------------------------------------------------
VERS.   2.0 : CWLS log ASCII Standard -VERSION 2.0
WRAP.    NO : One line per depth step
DLM . SPACE : Column Data Section Delimiter
~Well ------------------------------------------------------
STRT .F                   13.0 : START DEPTH
STOP .F                 9216.0 : STOP DEPTH
STEP .F                    0.5 : STEP
NULL .                -9999.25 : NULL VALUE
COMP .                         : COMPANY
WELL .                         : WELL
FLD  .                         : FIELD
LOC  .                         : LOCATION
PROV .                         : PROVINCE
CNTY .                         : COUNTY
STAT .                         : STATE
CTRY .                         : COUNTRY
SRVC .                         : SERVICE COMPANY
DATE .                         : DATE
UWI  .                         : UNIQUE WELL ID
API  .                         : API NUMBER
SLAT .WGS84 2.2998730455597993 : SURFACE LATITUDE
SLON .WGS84     5.807630427682 : SURFACE LONGITUDE
DATUM.F                    nan : DEPTH DATUM ELEV
~Curve Information -----------------------------------------
DEPT   .F     : 1 MEASURED DEPTH
GRD    .GAPI  : GAMMA RAY FROM DENSITY LOG
TNPH_LS.DEC   : THERMAL NEUTRON POROSITY [LIMESTONE]
PEFZ   .B/E   : HRDD STANDARD RESOLUTION FORMATION PHOTOELECTRIC FACTOR
HDRA   .G/C3  : HRDD SPINE AND RIBS DENSITY CORRECTION
CALD   .IN    : CALIPER FROM DENSITY LOG
DPHZ_LS.DEC   : HGRD STANDARD RESOLUTION DENSITY POROSITY
AO30   .OHMM  : ARRAY INDUCTION ONE FOOT RESISTIVITY A30
GRR    .GAPI  : GAMMA RAY FROM RESISTIVITY LOG
CALR   .IN    : CALIPER FROM RESISTIVITY LOG
SPR    .MV    : SPONTANEOUS POTENTIAL FROM RESISTIVITY LOG
AT30   .OHMM  : ARRAY INDUCTION TWO FOOT RESISTIVITY A30
AT90   .OHMM  : ARRAY INDUCTION TWO FOOT RESISTIVITY A90
AT10   .OHMM  : ARRAY INDUCTION TWO FOOT RESISTIVITY A10
DTCO   .US/F  : DELTA-T COMPRESSIONAL
DTSM   .US/F  : DELTA-T SHEAR
~Params ----------------------------------------------------
~Other -----------------------------------------------------
~ASCII -----------------------------------------------------
# ...
 2474.00000   33.70890    0.09700    2.86760   -0.00160    8.02080    0.01800   -9999.25   -9999.25   -9999.25  -58.62690    8.38130    8.08970    8.89130   -9999.25   -9999.25
 2474.50000   35.61350    0.09850    2.75450   -0.00070    8.02110    0.02620   -9999.25   -9999.25   -9999.25  -55.97330    8.30290    7.69730    8.70010   -9999.25   -9999.25
 2475.00000   43.19320    0.09430    2.70670    0.00020    8.02130    0.03510   -9999.25   -9999.25   -9999.25  -53.04300    8.75880    8.35190    9.11500   -9999.25   -9999.25
 2475.50000   42.94600    0.09220    2.73460   -0.00050    8.02140    0.03660   -9999.25   -9999.25   -9999.25  -51.30950    9.30050    8.80070    9.74940   -9999.25   -9999.25
 2476.00000   41.85780    0.09720    2.78160    0.00150    8.01540    0.02250   -9999.25   -9999.25   -9999.25  -50.25130    9.87580    9.23130   10.40690   -9999.25   -9999.25
 2476.50000   39.87540    0.10530    2.85020    0.00250    8.01010    0.00970   -9999.25   -9999.25   -9999.25  -49.19300   10.02900    9.67830   10.43170   -9999.25   -9999.25
 2477.00000   43.29000    0.11530    2.91660    0.00350    8.02440    0.00760   -9999.25   -9999.25   -9999.25  -47.94870    9.31260    8.88140    9.68710   -9999.25   -9999.25
 2477.50000   45.81480    0.13510    2.97560    0.00260    8.03880    0.03810   -9999.25   -9999.25   -9999.25  -48.75820    7.78890    7.30630    8.67440   -9999.25   -9999.25
 2478.00000   49.52100    0.15830    3.02140    0.00150    8.05320    0.06490   -9999.25   -9999.25   -9999.25  -47.95380    5.97390    5.42030    6.44810   -9999.25   -9999.25
 2478.50000   53.21000    0.17640    3.05640    0.00610    8.04730    0.06000   -9999.25   -9999.25   -9999.25  -47.68630    5.83850    5.40380    6.24390   -9999.25   -9999.25
 2479.00000   55.15600    0.17760    3.06580    0.03100    8.03350    0.03550   -9999.25   -9999.25   -9999.25  -49.82240    6.84500    6.63030    7.15140   -9999.25   -9999.25
 2479.50000   53.40760    0.15720    3.14360    0.05590    8.02430    0.01360   -9999.25   -9999.25   -9999.25  -49.31470    7.10620    6.82010    7.66000   -9999.25   -9999.25
 2480.00000   49.49340    0.14890    3.20930    0.07710    8.04650    0.00130   -9999.25   -9999.25   -9999.25  -48.30570    6.52160    6.11150    7.10580   -9999.25   -9999.25
 2480.50000   47.55200    0.14220    3.33070    0.07500    8.05080   -0.00750   -9999.25   -9999.25   -9999.25  -49.38170    7.06260    6.61330    7.33930   -9999.25   -9999.25
 2481.00000   48.60720    0.13290    3.52890    0.04110    8.03530   -0.00620   -9999.25   -9999.25   -9999.25  -51.72030    8.11370    7.88770    8.43210   -9999.25   -9999.25
 2481.50000   47.65050    0.12780    3.62090    0.01510    8.01970   -0.01340   -9999.25   -9999.25   -9999.25  -57.44800    8.29420    8.18860    9.04660   -9999.25   -9999.25
 2482.00000   43.66540    0.12490    3.55570    0.01250    8.01070   -0.02410   -9999.25   -9999.25   -9999.25  -63.45380    8.92090    8.49260    9.38800   -9999.25   -9999.25
 2482.50000   37.21440    0.11850    3.34360    0.01020    8.01070   -0.01880   -9999.25   -9999.25   -9999.25  -66.79350    9.92560    9.33760   10.73810   -9999.25   -9999.25
 2483.00000   32.22800    0.10600    3.22130    0.00200    8.01070    0.00110   -9999.25   -9999.25   -9999.25  -66.79350   12.75030   12.07980   13.47560   -9999.25   -9999.25
 2483.50000   32.70490    0.09860    3.17040   -0.00680    8.01080    0.01500   -9999.25   -9999.25   -9999.25  -66.79350   11.90630   11.42380   13.02410   -9999.25   -9999.25
 2484.00000   36.16600    0.10090    3.14890   -0.00590    8.02070    0.01260   -9999.25   -9999.25   -9999.25  -66.55260    9.77580    8.91030   10.57610   -9999.25   -9999.25
 2484.50000   37.34910    0.11310    3.11610   -0.00450    8.03200    0.00670   -9999.25   -9999.25   -9999.25  -66.64720    9.09980    8.83360    9.59970   -9999.25   -9999.25
 2485.00000   35.26860    0.12150    3.16210   -0.00330    8.04320    0.00640   -9999.25   -9999.25   -9999.25  -66.78750    9.67520    9.33090   10.05770   -9999.25   -9999.25
 2485.50000   31.93960    0.12450    3.29350   -0.00220    8.04460    0.00490   -9999.25   -9999.25   -9999.25  -66.24330    9.63670    9.25430   10.09580   -9999.25   -9999.25
 2486.00000   31.36070    0.12930    3.45020   -0.00100    8.03860    0.00760   -9999.25   -9999.25   -9999.25  -66.80250    9.34510    8.98280    9.72810   -9999.25   -9999.25
 2486.50000   31.12660    0.13380    3.60320    0.00010    8.03260    0.00960   -9999.25   -9999.25   -9999.25  -67.08190    9.06230    8.71930    9.37370   -9999.25   -9999.25
 2487.00000   30.67760    0.12260    3.61300    0.00080    8.02670    0.00760   -9999.25   -9999.25   -9999.25  -66.36470    8.78810    8.46360    9.03220   -9999.25   -9999.25
 2487.50000   27.61440    0.10850    3.55210    0.00250    8.01740   -0.00320   -9999.25   -9999.25   -9999.25  -66.20230    8.65200    8.40330    8.96970   -9999.25   -9999.25
 2488.00000   24.83730    0.09450    3.59780   -0.00140    8.03220   -0.01460   -9999.25   -9999.25   -9999.25  -66.85540    9.37260    9.02810   10.01800   -9999.25   -9999.25
 2488.50000   21.79520    0.08230    3.67370   -0.00510    8.05590   -0.02410   -9999.25   -9999.25   -9999.25  -67.20240   10.33990   10.08300   10.81670   -9999.25   -9999.25
 2489.00000   21.93250    0.08850    3.74400   -0.00630    8.07960   -0.01430   -9999.25   -9999.25   -9999.25  -66.72030    9.48230    9.18690    9.91730   -9999.25   -9999.25
 2489.50000   22.33760    0.09790    3.68430   -0.00630    8.07450   -0.00310   -9999.25   -9999.25   -9999.25  -66.23820    8.69580    8.31330    9.31190   -9999.25   -9999.25
 2490.00000   23.69990    0.10150    3.58120   -0.00580    8.06600    0.00550   -9999.25   -9999.25   -9999.25  -65.75610    8.50200    8.26640    9.34270   -9999.25   -9999.25
 2490.50000   25.26810    0.09000    3.51070   -0.00410    8.06930   -0.00470   -9999.25   -9999.25   -9999.25  -65.22380    9.45450    9.12920    9.72070   -9999.25   -9999.25
 2491.00000   26.55480    0.07840    3.45760    0.00680    8.07260   -0.02850   -9999.25   -9999.25   -9999.25  -64.22510   10.59740   10.45060   10.82570   -9999.25   -9999.25
 2491.50000   29.21560    0.07750    3.41550    0.01340    8.07590   -0.03780   -9999.25   -9999.25   -9999.25  -62.96630   10.39690   10.25880   10.67650   -9999.25   -9999.25
 2492.00000   32.51220    0.08720    3.39530    0.00910    8.07660   -0.02410   -9999.25   -9999.25   -9999.25  -61.71370   10.11120    9.96380   10.29500   -9999.25   -9999.25
 2492.50000   36.33980    0.09700    3.35580    0.00480    8.07680   -0.00770   -9999.25   -9999.25   -9999.25  -60.55880    9.95850    9.78010   10.13030   -9999.25   -9999.25
 2493.00000   37.29540    0.11130    3.31830    0.00270    8.07400   -0.00130   -9999.25   -9999.25   -9999.25  -60.10340    9.78900    9.56550   10.00580   -9999.25   -9999.25
 2493.50000   38.13350    0.11600    3.20060    0.00370    8.06770   -0.00940   -9999.25   -9999.25   -9999.25  -60.94550    9.46600    9.18750    9.80100   -9999.25   -9999.25
 2494.00000   39.13360    0.11920    3.15340    0.00160    8.06500   -0.01480   -9999.25   -9999.25   -9999.25  -63.22110    9.06100    8.79040    9.34280   -9999.25   -9999.25
 2494.50000   39.90960    0.12250    3.15230   -0.00200    8.06500   -0.01230   -9999.25   -9999.25   -9999.25  -65.64050    9.06520    8.75470    9.54940   -9999.25   -9999.25
 2495.00000   37.46020    0.12350    3.19540   -0.00470    8.06500   -0.00990   -9999.25   -9999.25   -9999.25  -67.42470   10.03670    9.63260   10.89340   -9999.25   -9999.25
 2495.50000   33.80040    0.11030    3.21160   -0.00540    8.06440   -0.01770   -9999.25   -9999.25   -9999.25  -68.15090   11.20100   10.72530   12.03260   -9999.25   -9999.25
 2496.00000   29.70100    0.09710    3.19860   -0.00550    8.06190   -0.02710   -9999.25   -9999.25   -9999.25  -68.60610   12.50030   11.94210   13.28650   -9999.25   -9999.25
 2496.50000   26.29200    0.08750    3.18570   -0.00640    8.05950   -0.03650   -9999.25   -9999.25   -9999.25  -68.81210   14.30220   13.54520   14.76240   -9999.25   -9999.25
