~Version ---------------------------------------------------
VERS.   2.0 : CWLS log ASCII Standard -VERSION 2.0
WRAP.    NO : One line per depth step
DLM . SPACE : Column Data Section Delimiter
~Well ------------------------------------------------------
STRT .F                   13.0 : START DEPTH
STOP .F                 9216.0 : STOP DEPTH
STEP .F                    0.5 : STEP
NULL .                -9999.25 : NULL VALUE
COMP .                         : COMPANY
WELL .                         : WELL
FLD  .                         : FIELD
LOC  .                         : LOCATION
PROV .                         : PROVINCE
CNTY .                         : COUNTY
STAT .                         : STATE
CTRY .                         : COUNTRY
SRVC .                         : SERVICE COMPANY
DATE .                         : DATE
UWI  .                         : UNIQUE WELL ID
API  .                         : API NUMBER
SLAT .WGS84 2.2998730455597993 : SURFACE LATITUDE
SLON .WGS84     5.807630427682 : SURFACE LONGITUDE
DATUM.F                    nan : DEPTH DATUM ELEV
~Curve Information -----------------------------------------
DEPT   .F     : 1 MEASURED DEPTH
GRD    .GAPI  : GAMMA RAY FROM DENSITY LOG
TNPH_LS.DEC   : THERMAL NEUTRON POROSITY [LIMESTONE]
PEFZ   .B/E   : HRDD STANDARD RESOLUTION FORMATION PHOTOELECTRIC FACTOR
HDRA   .G/C3  : HRDD SPINE AND RIBS DENSITY CORRECTION
CALD   .IN    : CALIPER FROM DENSITY LOG
DPHZ_LS.DEC   : HGRD STANDARD RESOLUTION DENSITY POROSITY
AO30   .OHMM  : ARRAY INDUCTION ONE FOOT RESISTIVITY A30
GRR    .GAPI  : GAMMA RAY FROM RESISTIVITY LOG
CALR   .IN    : CALIPER FROM RESISTIVITY LOG
SPR    .MV    : SPONTANEOUS POTENTIAL FROM RESISTIVITY LOG
AT30   .OHMM  : ARRAY INDUCTION TWO FOOT RESISTIVITY A30
AT90   .OHMM  : ARRAY INDUCTION TWO FOOT RESISTIVITY A90
AT10   .OHMM  : ARRAY INDUCTION TWO FOOT RESISTIVITY A10
DTCO   .US/F  : DELTA-T COMPRESSIONAL
DTSM   .US/F  : DELTA-T SHEAR
~Params ----------------------------------------------------
~Other -----------------------------------------------------
~ASCII -----------------------------------------------------
# ...
 3693.00000   60.99230    0.07100    3.25380    0.00360    8.19690   -0.04500   -9999.25   -9999.25   -9999.25  -55.11030   71.31480   66.26410   78.63740   -9999.25   -9999.25
 3693.50000   44.17840    0.05420    3.33640    0.00520    8.19320   -0.05320   -9999.25   -9999.25   -9999.25  -55.03430   87.04330   72.75550   96.26290   -9999.25   -9999.25
 3694.00000   31.39260    0.04140    3.47140    0.01020    8.18960   -0.06150   -9999.25   -9999.25   -9999.25  -54.76570   66.95630   53.82710   76.47530   -9999.25   -9999.25
 3694.50000   30.89000    0.04240    3.52800    0.01490    8.18590   -0.05860   -9999.25   -9999.25   -9999.25  -54.26000   48.43030   38.74130   56.82110   -9999.25   -9999.25
 3695.00000   35.34860    0.04960    3.53010    0.01840    8.18220   -0.05520   -9999.25   -9999.25   -9999.25  -53.67490   32.99710   29.09000   42.39220   -9999.25   -9999.25
 3695.50000   35.23540    0.06040    3.51660    0.02590    8.17850   -0.05350   -9999.25   -9999.25   -9999.25  -53.69450   27.30990   24.95800   35.13460   -9999.25   -9999.25
 3696.00000   37.21980    0.06580    3.46740    0.02590    8.17480   -0.03570   -9999.25   -9999.25   -9999.25  -53.71420   24.63920   22.88510   28.81820   -9999.25   -9999.25
 3696.50000   38.79250    0.07430    3.38100    0.02180    8.17290    0.00080   -9999.25   -9999.25   -9999.25  -53.43880   20.39300   19.36140   23.05950   -9999.25   -9999.25
 3697.00000   38.26350    0.08330    3.35480    0.02030    8.17290    0.03530   -9999.25   -9999.25   -9999.25  -52.71830   17.40550   13.23660   20.78390   -9999.25   -9999.25
 3697.50000   34.93650    0.07820    3.49630    0.01290    8.17290    0.03510   -9999.25   -9999.25   -9999.25  -53.16040   26.80760   19.45120   34.13840   -9999.25   -9999.25
 3698.00000   26.19140    0.05280    4.01960    0.00500    8.17290   -0.02090   -9999.25   -9999.25   -9999.25  -54.32390   45.51180   36.87030   59.28630   -9999.25   -9999.25
 3698.50000   18.23600    0.02570    4.61580   -0.00190    8.17300   -0.07690   -9999.25   -9999.25   -9999.25  -55.50340   80.03160   68.55310  102.91650   -9999.25   -9999.25
 3699.00000   12.52930    0.01910    4.91350   -0.00250    8.17300   -0.10940   -9999.25   -9999.25   -9999.25  -56.57050  183.94920  139.41330  413.39270   -9999.25   -9999.25
 3699.50000   12.26430    0.01700    4.93380   -0.00290    8.17300   -0.11500   -9999.25   -9999.25   -9999.25  -57.12720 1332.68200 1089.63380 1987.55580   -9999.25   -9999.25
 3700.00000   13.63650    0.01490    4.80130   -0.00340    8.17300   -0.11000   -9999.25   -9999.25   -9999.25  -57.75750 1500.46590 1245.05460 2010.34940   -9999.25   -9999.25
 3700.50000   14.73410    0.01390    4.61630   -0.00380    8.17310   -0.10420   -9999.25   -9999.25   -9999.25  -58.32170 1005.93990  873.59840 1667.67880   -9999.25   -9999.25
 3701.00000   13.89530    0.01330    4.45140   -0.00310    8.16390   -0.10030   -9999.25   -9999.25   -9999.25  -58.57520  629.16830  464.43020 1351.70970   -9999.25   -9999.25
 3701.50000   12.94710    0.01410    4.28390   -0.00110    8.15440   -0.10240   -9999.25   -9999.25   -9999.25  -58.82870  387.82770  255.95810 1145.77470   -9999.25   -9999.25
 3702.00000   15.42590    0.01710    4.12000    0.00090    8.14480   -0.10860   -9999.25   -9999.25   -9999.25  -59.08210  236.48320  178.92490  799.89690   -9999.25   -9999.25
 3702.50000   19.56370    0.02010    3.89920    0.00340    8.13560   -0.11470   -9999.25   -9999.25   -9999.25  -59.33560  191.37550  156.75220  577.99150   -9999.25   -9999.25
 3703.00000   25.20640    0.02400    3.70340    0.00640    8.12920   -0.11520   -9999.25   -9999.25   -9999.25  -59.64630  156.01160  123.91860  403.80710   -9999.25   -9999.25
 3703.50000   33.83060    0.02910    3.51580    0.00610    8.12280   -0.10670   -9999.25   -9999.25   -9999.25  -60.12910  130.37020  108.61710  272.13670   -9999.25   -9999.25
 3704.00000   43.98590    0.03350    3.39490    0.00460    8.11640   -0.09520   -9999.25   -9999.25   -9999.25  -60.61190  112.87740  100.56260  213.63710   -9999.25   -9999.25
 3704.50000   45.81970    0.03720    3.32610    0.00070    8.11440   -0.08710   -9999.25   -9999.25   -9999.25  -60.90660  108.24100   97.26830  204.73300   -9999.25   -9999.25
 3705.00000   37.36490    0.03740    3.29040   -0.00010    8.11850   -0.08370   -9999.25   -9999.25   -9999.25  -61.15330  110.75710  102.61710  219.00780   -9999.25   -9999.25
 3705.50000   29.74040    0.03360    3.35790    0.00300    8.12260   -0.08470   -9999.25   -9999.25   -9999.25  -61.77800  111.66350  104.91040  214.18440   -9999.25   -9999.25
 3706.00000   29.43140    0.03080    3.47310    0.00980    8.12670   -0.08200   -9999.25   -9999.25   -9999.25  -61.53830  104.03190   90.57800  158.05420   -9999.25   -9999.25
 3706.50000   32.39760    0.03230    3.62060    0.00920    8.13080   -0.07020   -9999.25   -9999.25   -9999.25  -61.20450   83.33550   71.04530  113.99740   -9999.25   -9999.25
 3707.00000   32.52850    0.03600    3.62500    0.00700    8.13490   -0.07050   -9999.25   -9999.25   -9999.25  -61.15490   70.22820   63.10420  100.64740   -9999.25   -9999.25
 3707.50000   32.19700    0.03490    3.56100    0.00460    8.13510   -0.07710   -9999.25   -9999.25   -9999.25  -61.10530   78.57360   68.58190   98.62350   -9999.25   -9999.25
 3708.00000   35.95130    0.03590    3.48880    0.00100    8.13290   -0.08020   -9999.25   -9999.25   -9999.25  -61.05570   73.62240   67.14110   88.15110   -9999.25   -9999.25
 3708.50000   44.11620    0.04330    3.41970   -0.00190    8.13070   -0.07470   -9999.25   -9999.25   -9999.25  -61.00610   62.37910   58.15420   69.59610   -9999.25   -9999.25
 3709.00000   48.35900    0.05010    3.39250   -0.00190    8.12850   -0.06810   -9999.25   -9999.25   -9999.25  -60.95650   54.22020   51.91480   63.86680   -9999.25   -9999.25
 3709.50000   42.90880    0.05000    3.34950   -0.00130    8.12640   -0.06690   -9999.25   -9999.25   -9999.25  -60.46840   54.66900   50.23020   65.98710   -9999.25   -9999.25
 3710.00000   30.36920    0.04840    3.34260   -0.00060    8.12530   -0.06860   -9999.25   -9999.25   -9999.25  -59.98010   55.85960   50.17000   67.00320   -9999.25   -9999.25
 3710.50000   20.94000    0.04980    3.35550    0.00020    8.12930   -0.07730   -9999.25   -9999.25   -9999.25  -59.54550   52.20770   50.38970   62.99960   -9999.25   -9999.25
 3711.00000   23.83930    0.05390    3.36850    0.00060    8.13330   -0.07760   -9999.25   -9999.25   -9999.25  -59.57570   45.16490   49.46700   57.04780   -9999.25   -9999.25
 3711.50000   24.36950    0.05600    3.42180    0.00100    8.13730   -0.07000   -9999.25   -9999.25   -9999.25  -59.81090   41.85980   46.05800   52.49750   -9999.25   -9999.25
 3712.00000   28.29560    0.05490    3.48550    0.00020    8.14130   -0.05810   -9999.25   -9999.25   -9999.25  -60.23360   41.59690   42.22310   48.78740   -9999.25   -9999.25
 3712.50000   32.79530    0.05620    3.51010   -0.00110    8.14530   -0.05780   -9999.25   -9999.25   -9999.25  -61.63730   42.90580   41.02880   49.45270   -9999.25   -9999.25
 3713.00000   37.24490    0.05680    3.47660   -0.00240    8.15090   -0.07060   -9999.25   -9999.25   -9999.25  -63.92370   50.26840   48.58290   65.19220   -9999.25   -9999.25
 3713.50000   38.04420    0.04900    3.46460    0.00060    8.16100   -0.07550   -9999.25   -9999.25   -9999.25  -66.29890   64.24800   58.72050   87.96020   -9999.25   -9999.25
 3714.00000   30.25900    0.03840    3.47920    0.00060    8.17120   -0.07580   -9999.25   -9999.25   -9999.25  -68.14600   79.53620   69.98930  115.75790   -9999.25   -9999.25
 3714.50000   21.22610    0.02780    3.50510    0.00060    8.18480   -0.07870   -9999.25   -9999.25   -9999.25  -69.09960   97.11360   90.97430  166.95090   -9999.25   -9999.25
 3715.00000   17.31790    0.01960    3.54910    0.00020    8.19870   -0.08800   -9999.25   -9999.25   -9999.25  -69.50730  170.94650  144.92280  278.60950   -9999.25   -9999.25
 3715.50000   16.40440    0.01640    3.62120   -0.00030    8.21270   -0.09380   -9999.25   -9999.25   -9999.25  -69.83670  351.42290  277.56370  492.51450   -9999.25   -9999.25
