~Version ---------------------------------------------------
VERS.   2.0 : CWLS log ASCII Standard -VERSION 2.0
WRAP.    NO : One line per depth step
DLM . SPACE : Column Data Section Delimiter
~Well ------------------------------------------------------
STRT .F                   13.0 : START DEPTH
STOP .F                 9216.0 : STOP DEPTH
STEP .F                    0.5 : STEP
NULL .                -9999.25 : NULL VALUE
COMP .                         : COMPANY
WELL .                         : WELL
FLD  .                         : FIELD
LOC  .                         : LOCATION
PROV .                         : PROVINCE
CNTY .                         : COUNTY
STAT .                         : STATE
CTRY .                         : COUNTRY
SRVC .                         : SERVICE COMPANY
DATE .                         : DATE
UWI  .                         : UNIQUE WELL ID
API  .                         : API NUMBER
SLAT .WGS84 2.2998730455597993 : SURFACE LATITUDE
SLON .WGS84     5.807630427682 : SURFACE LONGITUDE
DATUM.F                    nan : DEPTH DATUM ELEV
~Curve Information -----------------------------------------
DEPT   .F     : 1 MEASURED DEPTH
GRD    .GAPI  : GAMMA RAY FROM DENSITY LOG
TNPH_LS.DEC   : THERMAL NEUTRON POROSITY [LIMESTONE]
PEFZ   .B/E   : HRDD STANDARD RESOLUTION FORMATION PHOTOELECTRIC FACTOR
HDRA   .G/C3  : HRDD SPINE AND RIBS DENSITY CORRECTION
CALD   .IN    : CALIPER FROM DENSITY LOG
DPHZ_LS.DEC   : HGRD STANDARD RESOLUTION DENSITY POROSITY
AO30   .OHMM  : ARRAY INDUCTION ONE FOOT RESISTIVITY A30
GRR    .GAPI  : GAMMA RAY FROM RESISTIVITY LOG
CALR   .IN    : CALIPER FROM RESISTIVITY LOG
SPR    .MV    : SPONTANEOUS POTENTIAL FROM RESISTIVITY LOG
AT30   .OHMM  : ARRAY INDUCTION TWO FOOT RESISTIVITY A30
AT90   .OHMM  : ARRAY INDUCTION TWO FOOT RESISTIVITY A90
AT10   .OHMM  : ARRAY INDUCTION TWO FOOT RESISTIVITY A10
DTCO   .US/F  : DELTA-T COMPRESSIONAL
DTSM   .US/F  : DELTA-T SHEAR
~Params ----------------------------------------------------
~Other -----------------------------------------------------
~ASCII -----------------------------------------------------
# ...
 7304.00000   82.50520    0.16730    2.81420    0.00250    8.10410    0.07860   -9999.25   -9999.25   -9999.25   -1.82900   21.51430   19.42210   28.28640   74.49420  135.56840
 7304.50000   83.25870    0.16600    2.80810    0.00870    8.09700    0.08130   -9999.25   -9999.25   -9999.25   -1.46500   19.45940   17.17630   25.56330   74.47130  135.32510
 7305.00000   87.63310    0.15860    2.80200    0.02010    8.09420    0.08510   -9999.25   -9999.25   -9999.25   -2.05230   17.66370   15.24870   23.38640   74.45970  134.65350
 7305.50000   89.49850    0.15100    2.79390    0.03470    8.09180    0.08070   -9999.25   -9999.25   -9999.25   -2.47300   17.75270   15.92640   22.20450   74.54840  133.53160
 7306.00000   89.94570    0.15140    2.77100    0.04320    8.08930    0.07880   -9999.25   -9999.25   -9999.25   -2.48730   19.97780   18.57910   23.00380   74.69910  133.30740
 7306.50000   89.59490    0.15530    2.74580    0.02590    8.08680    0.08290   -9999.25   -9999.25   -9999.25   -2.15430   22.48180   21.71880   24.34600   74.87740  133.20460
 7307.00000   86.26810    0.15280    2.71110    0.00840    8.08630    0.08700   -9999.25   -9999.25   -9999.25   -2.08480   23.06290   21.27870   24.96070   75.05580  133.32560
 7307.50000   92.49380    0.15480    2.68510    0.00160    8.08670    0.08380   -9999.25   -9999.25   -9999.25   -1.95090   15.40270   14.43300   21.39730   75.69160  134.50660
 7308.00000   98.11320    0.15990    2.68490    0.00180    8.08700    0.07630   -9999.25   -9999.25   -9999.25   -2.13400   11.50630   10.12820   15.60780   77.32400  136.26970
 7308.50000  100.68090    0.16420    2.70590    0.00480    8.11620    0.07440   -9999.25   -9999.25   -9999.25   -2.24220   11.23610   10.60630   13.65270   78.13870  138.48710
 7309.00000  101.72640    0.16250    2.71340    0.00730    8.59090    0.07300   -9999.25   -9999.25   -9999.25   -2.41350   12.31940   11.78390   13.80680   79.09720  139.60820
 7309.50000  109.03520    0.16200    2.75130    0.02060    9.84490    0.07340   -9999.25   -9999.25   -9999.25   -1.80430   11.57080   10.97890   13.68640   80.44550  141.79760
 7310.00000  113.60610    0.20370    2.82500    0.05760   10.15900    0.10800   -9999.25   -9999.25   -9999.25   -1.19510   10.72270   10.15170   11.20780   81.75350  142.84270
 7310.50000  115.35700    0.22210    2.89880    0.08280   10.37290    0.18300   -9999.25   -9999.25   -9999.25   -1.02570   10.62050    9.89360   11.28660   81.92800  143.88770
 7311.00000  116.25680    0.21380    2.94310    0.10800   10.33540    0.23480   -9999.25   -9999.25   -9999.25   -1.26470   11.14630   10.59890   12.20440   82.09800  144.90990
 7311.50000  115.59280    0.20540    2.91120    0.13130    9.60780    0.24360   -9999.25   -9999.25   -9999.25   -1.88760   11.55710   10.54090   13.19470   82.36200  146.10990
 7312.00000  112.12500    0.20600    2.86690    0.12730    8.60360    0.23430   -9999.25   -9999.25   -9999.25   -1.60130   11.55980   10.11520   13.74990   82.75060  146.95160
 7312.50000  109.98020    0.21050    2.82260    0.07090    8.22790    0.22500   -9999.25   -9999.25   -9999.25   -1.21310   11.27340   10.08020   13.50510   82.67030  147.35240
 7313.00000  109.94310    0.21800    2.78960    0.00340    8.18820    0.22140   -9999.25   -9999.25   -9999.25   -0.79850   10.94790   10.42100   13.13290   82.44540  147.41490
 7313.50000  114.63200    0.23290    2.74980    0.01500    8.17940    0.23000   -9999.25   -9999.25   -9999.25   -0.69610   10.63360   10.28640   12.70490   82.46120  146.84050
 7314.00000  112.37030    0.24770    2.67620    0.12110    8.16070    0.23700   -9999.25   -9999.25   -9999.25   -0.80660   10.51980   10.10050   12.38280   81.75680  147.11940
 7314.50000  109.33220    0.26250    2.52760    0.29820    8.47760    0.20280   -9999.25   -9999.25   -9999.25   -1.16790   10.49930   10.10050   12.31620   80.88390  146.76750
 7315.00000   99.05220    0.25520    2.37900    0.46920    8.58570    0.11010   -9999.25   -9999.25   -9999.25   -1.78300   10.71640   10.03220   12.17160   80.22870  144.27990
 7315.50000   98.48240    0.23940    2.23040    0.61510    8.62040    0.05410   -9999.25   -9999.25   -9999.25   -1.65350   10.95820   10.24920   12.19180   80.20850  143.38130
 7316.00000   99.00250    0.22760    2.19420    0.62090    8.65500    0.06850   -9999.25   -9999.25   -9999.25   -1.17330   11.22740   10.65410   12.08550   80.23510  142.89730
 7316.50000   99.92870    0.21880    2.30390    0.56210    8.66220    0.07030   -9999.25   -9999.25   -9999.25   -0.91290   11.38730   10.82690   12.23040   80.24280  142.94270
 7317.00000  101.80560    0.20940    2.56650    0.44030    8.58560    0.03250   -9999.25   -9999.25   -9999.25   -1.02610   11.31760   10.80760   12.51620   80.26900  142.35680
 7317.50000  101.72090    0.20730    2.84840    0.28320    8.11690    0.00280   -9999.25   -9999.25   -9999.25   -1.45820   11.08370   10.59860   12.08210   80.22970  143.00230
 7318.00000  104.92050    0.20480    2.99580    0.17090    8.26410    0.01910   -9999.25   -9999.25   -9999.25   -1.80920   10.85210   10.18740   11.59990   80.12680  142.10830
 7318.50000  109.08240    0.20500    3.06630    0.08070    8.34070    0.04740   -9999.25   -9999.25   -9999.25   -1.93820   11.50270   10.74120   12.19860   80.01410  141.66780
 7319.00000  111.22710    0.20650    3.04700    0.06780    8.35160    0.05910   -9999.25   -9999.25   -9999.25   -1.47460   13.18470   12.78260   13.86690   79.94340  141.71030
 7319.50000  112.01320    0.21390    3.05310    0.07210    8.51740    0.05970   -9999.25   -9999.25   -9999.25   -1.05130   14.79090   14.49430   15.76350   79.94870  141.74110
 7320.00000  106.04620    0.21420    3.09060    0.09950    8.06600    0.05870   -9999.25   -9999.25   -9999.25   -1.60190   14.82210   14.30110   15.84180   79.95610  141.56660
 7320.50000  100.01510    0.21200    3.09730    0.12330    8.17870    0.05130   -9999.25   -9999.25   -9999.25   -2.36320   14.42120   13.91420   15.54110   79.88930  141.16060
 7321.00000  100.06850    0.19230    3.04600    0.14100    8.41120    0.03610   -9999.25   -9999.25   -9999.25   -3.17000   14.27270   13.53780   15.28140   78.92370  140.75460
 7321.50000  101.68870    0.18870    2.99290    0.14520    8.45890    0.02920   -9999.25   -9999.25   -9999.25   -2.87620   14.95120   13.39720   15.97500   78.39430  140.25270
 7322.00000  106.66670    0.18990    2.94970    0.14970    8.51810    0.03140   -9999.25   -9999.25   -9999.25   -2.37030   16.14390   14.45870   17.30840   78.34900  139.21950
 7322.50000  109.52760    0.19600    2.93550    0.16270    8.74640    0.04080   -9999.25   -9999.25   -9999.25   -2.10010   16.56590   15.01090   18.24930   78.37880  138.45500
 7323.00000  108.44750    0.19130    2.96530    0.19330    8.87810    0.05510   -9999.25   -9999.25   -9999.25   -2.48250   16.04660   14.50980   18.48630   78.35160  138.35430
 7323.50000  104.90950    0.17860    2.96740    0.27150    9.87750    0.04910   -9999.25   -9999.25   -9999.25   -3.11620   16.28190   14.30060   18.76250   78.43400  137.81330
 7324.00000  103.82760    0.16590    2.85370    0.37990   11.04330    0.01150   -9999.25   -9999.25   -9999.25   -2.54150   17.67170   14.65790   19.42220   78.59880  137.92520
 7324.50000  104.03070    0.17000    2.76570    0.48470   11.65320   -0.02180   -9999.25   -9999.25   -9999.25   -1.96750   18.13630   15.17290   19.84600   78.28360  137.86140
 7325.00000  110.74340    0.17930    2.74990    0.47290   11.73440    0.00640   -9999.25   -9999.25   -9999.25   -1.78200   17.69020   15.40010   19.11210   78.22900  137.88410
 7325.50000  116.57990    0.18860    2.78150    0.37650   11.77300    0.05280   -9999.25   -9999.25   -9999.25   -1.89300   16.90430   15.18430   18.69360   78.22780  137.89790
 7326.00000  115.31310    0.19330    2.83370    0.26370   11.10960    0.07080   -9999.25   -9999.25   -9999.25   -2.35620   16.13920   15.15950   18.64300   78.26110  138.55800
 7326.50000  114.30450    0.18990    2.87410    0.16860   10.39940    0.06210   -9999.25   -9999.25   -9999.25   -2.68370   16.41120   15.51620   18.74420   78.35570  139.57320
