~Version ---------------------------------------------------
VERS.   2.0 : CWLS log ASCII Standard -VERSION 2.0
WRAP.    NO : One line per depth step
DLM . SPACE : Column Data Section Delimiter
~Well ------------------------------------------------------
STRT .F                   13.0 : START DEPTH
STOP .F                 9216.0 : STOP DEPTH
STEP .F                    0.5 : STEP
NULL .                -9999.25 : NULL VALUE
COMP .                         : COMPANY
WELL .                         : WELL
FLD  .                         : FIELD
LOC  .                         : LOCATION
PROV .                         : PROVINCE
CNTY .                         : COUNTY
STAT .                         : STATE
CTRY .                         : COUNTRY
SRVC .                         : SERVICE COMPANY
DATE .                         : DATE
UWI  .                         : UNIQUE WELL ID
API  .                         : API NUMBER
SLAT .WGS84 2.2998730455597993 : SURFACE LATITUDE
SLON .WGS84     5.807630427682 : SURFACE LONGITUDE
DATUM.F                    nan : DEPTH DATUM ELEV
~Curve Information -----------------------------------------
DEPT   .F     : 1 MEASURED DEPTH
GRD    .GAPI  : GAMMA RAY FROM DENSITY LOG
TNPH_LS.DEC   : THERMAL NEUTRON POROSITY [LIMESTONE]
PEFZ   .B/E   : HRDD STANDARD RESOLUTION FORMATION PHOTOELECTRIC FACTOR
HDRA   .G/C3  : HRDD SPINE AND RIBS DENSITY CORRECTION
CALD   .IN    : CALIPER FROM DENSITY LOG
DPHZ_LS.DEC   : HGRD STANDARD RESOLUTION DENSITY POROSITY
AO30   .OHMM  : ARRAY INDUCTION ONE FOOT RESISTIVITY A30
GRR    .GAPI  : GAMMA RAY FROM RESISTIVITY LOG
CALR   .IN    : CALIPER FROM RESISTIVITY LOG
SPR    .MV    : SPONTANEOUS POTENTIAL FROM RESISTIVITY LOG
AT30   .OHMM  : ARRAY INDUCTION TWO FOOT RESISTIVITY A30
AT90   .OHMM  : ARRAY INDUCTION TWO FOOT RESISTIVITY A90
AT10   .OHMM  : ARRAY INDUCTION TWO FOOT RESISTIVITY A10
DTCO   .US/F  : DELTA-T COMPRESSIONAL
DTSM   .US/F  : DELTA-T SHEAR
~Params ----------------------------------------------------
~Other -----------------------------------------------------
~ASCII -----------------------------------------------------
# ...
 5487.00000   43.25410    0.11240    3.84860   -0.00250    8.12440    0.02510   -9999.25   -9999.25   -9999.25  -14.57420   64.59310   61.78140   74.93610   63.06980  112.62200
 5487.50000   42.82250    0.09980    3.91460   -0.00230    8.11800    0.02930   -9999.25   -9999.25   -9999.25  -14.67210   61.73290   58.33420   71.15770   62.68380  111.28740
 5488.00000   43.19960    0.09620    3.94020   -0.00140    8.11580    0.03210   -9999.25   -9999.25   -9999.25  -15.02800   61.85350   57.74120   69.93390   62.65730  110.54350
 5488.50000   43.26200    0.09560    3.91660    0.00010    8.11350    0.02760   -9999.25   -9999.25   -9999.25  -15.41050   63.46110   60.11640   74.48550   62.81640  110.57320
 5489.00000   42.24820    0.09570    3.88200    0.00130    8.11130    0.02200   -9999.25   -9999.25   -9999.25  -15.79310   65.11050   62.44180   78.77190   63.07350  109.74010
 5489.50000   43.41930    0.09550    3.90320   -0.00030    8.10910    0.02630   -9999.25   -9999.25   -9999.25  -16.21930   65.09920   63.13410   78.89790   62.71670  109.54280
 5490.00000   46.76420    0.09580    3.92660   -0.00310    8.10690    0.03460   -9999.25   -9999.25   -9999.25  -16.42560   64.74450   62.86040   79.91010   62.16740  109.10080
 5490.50000   51.00150    0.09670    3.94180   -0.00470    8.10260    0.04410   -9999.25   -9999.25   -9999.25  -16.67050   64.36020   62.50650   80.84620   61.70350  108.14700
 5491.00000   54.87010    0.09940    3.92260   -0.00460    8.09730    0.04660   -9999.25   -9999.25   -9999.25  -17.20520   64.06740   62.15450   80.66380   61.18150  107.62350
 5491.50000   50.63770    0.10340    3.88330   -0.00070    8.09200    0.03840   -9999.25   -9999.25   -9999.25  -17.91490   64.40800   62.54220   80.99230   60.56950  106.73280
 5492.00000   43.22720    0.10450    3.88610    0.00320    8.08670    0.01790   -9999.25   -9999.25   -9999.25  -18.34260   72.79880   68.86260   94.45680   60.18330  105.73690
 5492.50000   36.63430    0.10000    3.90150    0.00620    8.08090   -0.00530   -9999.25   -9999.25   -9999.25  -19.13590   87.46220   82.27560  113.14610   59.73010  105.13500
 5493.00000   32.85090    0.08980    3.90730    0.00800    8.07370   -0.02180   -9999.25   -9999.25   -9999.25  -19.50320   97.69010   91.01620  132.01400   59.49750  103.78070
 5493.50000   33.50440    0.07980    3.91320    0.00640    8.06640   -0.00990   -9999.25   -9999.25   -9999.25  -19.84610   95.61400   90.76980  134.65640   59.19500  103.18310
 5494.00000   35.31360    0.08040    3.95520    0.00110    8.05920    0.00750   -9999.25   -9999.25   -9999.25  -20.18910   93.73890   89.59760  132.06720   59.04320  102.83090
 5494.50000   36.75770    0.08240    4.02020   -0.00450    8.05200    0.02760   -9999.25   -9999.25   -9999.25  -20.53210   93.74660   89.14040  136.01170   58.72530  102.47440
 5495.00000   38.20170    0.08070    4.00310   -0.00470    8.04670    0.02700   -9999.25   -9999.25   -9999.25  -20.87500  103.27060   96.30710  149.21500   58.73570  102.18160
 5495.50000   39.53910    0.07830    3.98430   -0.00320    8.04520    0.02140   -9999.25   -9999.25   -9999.25  -21.21800  115.31960  108.50470  172.85420   59.29930  102.83770
 5496.00000   40.47610    0.07630    4.03130   -0.00070    8.04360    0.01580   -9999.25   -9999.25   -9999.25  -21.56100  120.31850  117.09780  189.49730   59.48160  102.86750
 5496.50000   39.82100    0.07460    4.09740   -0.00160    8.04210    0.01900   -9999.25   -9999.25   -9999.25  -21.90390  121.32920  117.94850  201.49930   59.47180  102.83180
 5497.00000   39.00830    0.07290    4.16810   -0.00100    8.04060    0.02400   -9999.25   -9999.25   -9999.25  -22.32410  124.46520  120.30510  215.26410   59.27850  102.79610
 5497.50000   38.16550    0.07270    4.20890   -0.00080    8.03910    0.02440   -9999.25   -9999.25   -9999.25  -22.57240  125.17120  122.58970  219.45420   59.32750  102.89430
 5498.00000   37.26190    0.07700    4.19570   -0.00090    8.03760    0.02470   -9999.25   -9999.25   -9999.25  -22.76780  120.08050  116.98070  207.48500   59.45440  104.44790
 5498.50000   36.68140    0.08140    4.15130   -0.00110    8.03610    0.02500   -9999.25   -9999.25   -9999.25  -23.01780  116.03350  111.52070  196.96900   59.53760  104.24670
 5499.00000   36.92590    0.07730    4.10690   -0.00120    8.03460    0.02660   -9999.25   -9999.25   -9999.25  -23.30200  114.62290  110.15840  192.12760   59.48980  103.44540
 5499.50000   37.22850    0.07060    4.05780   -0.00140    8.03300    0.02490   -9999.25   -9999.25   -9999.25  -23.61250  115.10480  111.69840  193.50920   59.57210  103.64930
 5500.00000   39.63530    0.06460    4.01600   -0.00150    8.03150    0.02320   -9999.25   -9999.25   -9999.25  -23.92310  115.98340  111.17690  192.00690   59.46700  103.14410
 5500.50000   42.29320    0.06790    3.97420   -0.00180    8.03000    0.02810   -9999.25   -9999.25   -9999.25  -24.25310  116.07040  110.54630  187.97790   59.32250  102.97000
 5501.00000   46.04880    0.07210    4.01640   -0.00310    8.02850    0.04100   -9999.25   -9999.25   -9999.25  -24.36120  118.80010  111.24950  187.04650   59.28770  103.22000
 5501.50000   47.50910    0.07390    4.08470   -0.00440    8.02700    0.04660   -9999.25   -9999.25   -9999.25  -24.46800  125.09780  118.19640  206.95130   59.21830  103.02080
 5502.00000   44.52400    0.07150    4.10540   -0.00490    8.02550    0.04490   -9999.25   -9999.25   -9999.25  -24.53530  131.72940  127.58450  225.55190   59.25120  102.91480
 5502.50000   39.00160    0.06830    4.09960   -0.00540    8.02400    0.03400   -9999.25   -9999.25   -9999.25  -24.59440  136.20910  132.02780  241.73350   59.25190  103.06690
 5503.00000   36.77930    0.07020    4.09040   -0.00590    8.02450    0.03280   -9999.25   -9999.25   -9999.25  -24.73530  139.32950  134.80400  251.41030   59.28580  103.67320
 5503.50000   38.17460    0.07310    4.10480   -0.00660    8.02540    0.03450   -9999.25   -9999.25   -9999.25  -24.78470  139.51140  136.13910  254.09890   59.55720  104.48020
 5504.00000   41.20890    0.07450    4.10300   -0.00600    8.02630    0.03570   -9999.25   -9999.25   -9999.25  -24.84930  135.69310  132.83360  247.10790   59.84970  105.28880
 5504.50000   42.44760    0.07480    4.10120   -0.00580    8.02720    0.03670   -9999.25   -9999.25   -9999.25  -24.85650  126.24670  120.40630  233.58730   60.24400  105.63080
 5505.00000   43.04080    0.07510    4.05970   -0.00530    8.02810    0.03450   -9999.25   -9999.25   -9999.25  -24.85490  114.60120  110.71130  210.21410   60.71980  105.41210
 5505.50000   45.81600    0.07690    3.98780   -0.00380    8.02900    0.03470   -9999.25   -9999.25   -9999.25  -24.90370  109.23540  102.58970  179.70230   60.79490  106.00270
 5506.00000   49.73180    0.08000    3.89910   -0.00270    8.03000    0.03500   -9999.25   -9999.25   -9999.25  -24.92900   96.79560   85.07350  142.46940   60.63410  105.72400
 5506.50000   53.51000    0.09300    3.83270   -0.00080    8.03090    0.03530   -9999.25   -9999.25   -9999.25  -25.09330   87.09580   83.16560  137.69840   60.17500  105.30960
 5507.00000   50.43980    0.09260    3.83880    0.00130    8.03180    0.03390   -9999.25   -9999.25   -9999.25  -25.25760   95.65800   93.08630  163.79870   59.87660  104.82210
 5507.50000   46.04270    0.08320    3.87880    0.00100    8.03270    0.02980   -9999.25   -9999.25   -9999.25  -25.42190  119.32910  111.33320  228.43240   59.81750  104.33200
 5508.00000   40.98160    0.07270    3.97130   -0.00080    8.03360    0.02880   -9999.25   -9999.25   -9999.25  -25.58620  152.23700  133.15700  308.47820   59.55790  103.64980
 5508.50000   37.29330    0.06280    4.06900   -0.00250    8.03450    0.02820   -9999.25   -9999.25   -9999.25  -25.75050  206.59130  179.91840  471.78970   59.25120  102.53850
 5509.00000   33.97980    0.05270    4.07170   -0.00410    8.03550    0.02540   -9999.25   -9999.25   -9999.25  -25.91480  253.44780  242.09020  684.03520   58.96690  101.69220
 5509.50000   34.48030    0.05180    4.06670   -0.00570    8.03200    0.02070   -9999.25   -9999.25   -9999.25  -26.05250  249.84280  230.14040  826.93510   58.60700  100.80430
