~Version ---------------------------------------------------
VERS.   2.0 : CWLS log ASCII Standard -VERSION 2.0
WRAP.    NO : One line per depth step
DLM . SPACE : Column Data Section Delimiter
~Well ------------------------------------------------------
STRT .F                   13.0 : START DEPTH
STOP .F                 9216.0 : STOP DEPTH
STEP .F                    0.5 : STEP
NULL .                -9999.25 : NULL VALUE
COMP .                         : COMPANY
WELL .                         : WELL
FLD  .                         : FIELD
LOC  .                         : LOCATION
PROV .                         : PROVINCE
CNTY .                         : COUNTY
STAT .                         : STATE
CTRY .                         : COUNTRY
SRVC .                         : SERVICE COMPANY
DATE .                         : DATE
UWI  .                         : UNIQUE WELL ID
API  .                         : API NUMBER
SLAT .WGS84 2.2998730455597993 : SURFACE LATITUDE
SLON .WGS84     5.807630427682 : SURFACE LONGITUDE
DATUM.F                    nan : DEPTH DATUM ELEV
~Curve Information -----------------------------------------
DEPT   .F     : 1 MEASURED DEPTH
GRD    .GAPI  : GAMMA RAY FROM DENSITY LOG
TNPH_LS.DEC   : THERMAL NEUTRON POROSITY [LIMESTONE]
PEFZ   .B/E   : HRDD STANDARD RESOLUTION FORMATION PHOTOELECTRIC FACTOR
HDRA   .G/C3  : HRDD SPINE AND RIBS DENSITY CORRECTION
CALD   .IN    : CALIPER FROM DENSITY LOG
DPHZ_LS.DEC   : HGRD STANDARD RESOLUTION DENSITY POROSITY
AO30   .OHMM  : ARRAY INDUCTION ONE FOOT RESISTIVITY A30
GRR    .GAPI  : GAMMA RAY FROM RESISTIVITY LOG
CALR   .IN    : CALIPER FROM RESISTIVITY LOG
SPR    .MV    : SPONTANEOUS POTENTIAL FROM RESISTIVITY LOG
AT30   .OHMM  : ARRAY INDUCTION TWO FOOT RESISTIVITY A30
AT90   .OHMM  : ARRAY INDUCTION TWO FOOT RESISTIVITY A90
AT10   .OHMM  : ARRAY INDUCTION TWO FOOT RESISTIVITY A10
DTCO   .US/F  : DELTA-T COMPRESSIONAL
DTSM   .US/F  : DELTA-T SHEAR
~Params ----------------------------------------------------
~Other -----------------------------------------------------
~ASCII -----------------------------------------------------
# ...
   59.00000   38.24470    0.27430    1.91230    0.20190   13.63730    0.23470   -9999.25   -9999.25   -9999.25  -78.39020   12.26000  176.40880   11.92060   -9999.25   -9999.25
   59.50000   37.95460    0.28920    1.88370    0.17620   14.71730    0.24040   -9999.25   -9999.25   -9999.25  -78.88760   12.28970  268.50850   11.80010   -9999.25   -9999.25
   60.00000   37.80550    0.34810    1.85510    0.13960   14.82860    0.22570   -9999.25   -9999.25   -9999.25  -79.77350   12.31960  588.42970   11.54770   -9999.25   -9999.25
   60.50000   36.92990    0.37250    1.83990    0.10380   14.86070    0.21710   -9999.25   -9999.25   -9999.25  -81.64610   12.64220  930.39840   11.29630   -9999.25   -9999.25
   61.00000   36.40650    0.33240    1.87600    0.06810   15.25080    0.24010   -9999.25   -9999.25   -9999.25  -84.66030   13.61260 1081.43730   10.68710   -9999.25   -9999.25
   61.50000   33.83180    0.27160    1.91210    0.06310   15.24370    0.26220   -9999.25   -9999.25   -9999.25  -85.08390   14.65750  574.41260   10.95310   -9999.25   -9999.25
   62.00000   35.13840    0.28510    1.93600    0.06550   12.84710    0.27420   -9999.25   -9999.25   -9999.25  -85.81510   15.15300  250.75350   10.86270   -9999.25   -9999.25
   62.50000   41.02890    0.30130    1.94230    0.09280   12.77060    0.26230   -9999.25   -9999.25   -9999.25  -86.55960   15.47500  105.09160   10.51490   -9999.25   -9999.25
   63.00000   47.86940    0.30180    1.94860    0.12100   12.77390    0.23880   -9999.25   -9999.25   -9999.25  -87.30410   14.93600   60.90250    8.42490   -9999.25   -9999.25
   63.50000   48.10540    0.28510    1.95490    0.12060   12.64910    0.22260   -9999.25   -9999.25   -9999.25  -88.39630   11.05540   45.51470    6.89880   -9999.25   -9999.25
   64.00000   44.38810    0.27960    1.96120    0.10620   12.35840    0.22260   -9999.25   -9999.25   -9999.25  -89.20100    7.77260   19.90540    6.34090   -9999.25   -9999.25
   64.50000   42.02210    0.27090    2.03370    0.09780   12.25820    0.21670   -9999.25   -9999.25   -9999.25  -89.56530    5.14690    7.68100    3.29990   -9999.25   -9999.25
   65.00000   44.03710    0.25860    2.05610    0.09110   12.26540    0.22700   -9999.25   -9999.25   -9999.25  -90.70980    3.94510    4.35500    3.15640   -9999.25   -9999.25
   65.50000   44.42770    0.24530    1.96500    0.08430   12.41140    0.24170   -9999.25   -9999.25   -9999.25  -91.83900   12.91930    8.69280    6.17200   -9999.25   -9999.25
   66.00000   43.50120    0.23060    1.98770    0.08320   12.38900    0.25750   -9999.25   -9999.25   -9999.25  -92.89820   24.66670   16.31270   10.64890   -9999.25   -9999.25
   66.50000   39.94110    0.22640    2.01040    0.09730   12.72120    0.25790   -9999.25   -9999.25   -9999.25  -94.52350   45.54430   23.88250   14.20170   -9999.25   -9999.25
   67.00000   38.46980    0.25600    2.00160    0.09640   13.15470    0.25500   -9999.25   -9999.25   -9999.25  -95.95160   28.41400   22.12810    9.77490   -9999.25   -9999.25
   67.50000   38.89160    0.26880    1.98890    0.08040   13.17260    0.26400   -9999.25   -9999.25   -9999.25  -98.03440   14.08850    9.74570    3.63070   -9999.25   -9999.25
   68.00000   40.01900    0.26790    1.97620    0.06450   12.99720    0.28720   -9999.25   -9999.25   -9999.25 -100.24620    7.51800    8.53240    3.20400   -9999.25   -9999.25
   68.50000   37.99150    0.26110    1.96350    0.06300   13.09530    0.28960   -9999.25   -9999.25   -9999.25 -102.70520    8.80780   18.65420    7.05010   -9999.25   -9999.25
   69.00000   33.81750    0.25240    1.96400    0.07980   13.53160    0.28830   -9999.25   -9999.25   -9999.25 -105.52850   21.87020   29.93270    7.96520   -9999.25   -9999.25
   69.50000   31.20280    0.24480    1.96490    0.07940   13.27740    0.28020   -9999.25   -9999.25   -9999.25 -109.50500   19.80320   37.39940    8.80330   -9999.25   -9999.25
   70.00000   33.27120    0.23720    1.96580    0.07480   14.10350    0.27570   -9999.25   -9999.25   -9999.25 -112.89830   10.20610   27.37660    6.16060   -9999.25   -9999.25
   70.50000   35.38160    0.22020    1.94770    0.08010   14.26930    0.26040   -9999.25   -9999.25   -9999.25 -116.09850    9.62360   14.93280    2.98020   -9999.25   -9999.25
   71.00000   36.72680    0.20460    1.86680    0.08860   14.04040    0.25110   -9999.25   -9999.25   -9999.25 -119.48080    9.68510   11.43380    3.26730   -9999.25   -9999.25
   71.50000   38.62960    0.20550    1.80320    0.07840   14.28710    0.25840   -9999.25   -9999.25   -9999.25 -123.10170   13.45360   24.00760    6.14510   -9999.25   -9999.25
   72.00000   38.47270    0.21880    1.77020    0.05780   13.71590    0.31130   -9999.25   -9999.25   -9999.25 -126.89970    9.47210   12.17560    6.08330   -9999.25   -9999.25
   72.50000   37.00330    0.25740    1.73710    0.04530   13.77350    0.44670   -9999.25   -9999.25   -9999.25 -131.45890    6.41680    7.66210    4.09380   -9999.25   -9999.25
   73.00000   30.42610    0.30170    1.69010    0.04530   15.76920    0.51280   -9999.25   -9999.25   -9999.25 -135.45430    7.64240    9.75980    3.07320   -9999.25   -9999.25
   73.50000   27.43630    0.34590    1.64230    0.04330   16.92900    0.48290   -9999.25   -9999.25   -9999.25 -139.92040    8.49630    9.35660    5.98860   -9999.25   -9999.25
   74.00000   25.90240    0.28930    1.59450    0.01850   15.84540    0.41870   -9999.25   -9999.25   -9999.25 -144.86860    9.04630   15.15070    8.35710   -9999.25   -9999.25
   74.50000   27.60710    0.23270    1.56890    0.00600   14.76190    0.35570   -9999.25   -9999.25   -9999.25 -148.99460    9.62000   38.91420    8.48100   -9999.25   -9999.25
   75.00000   25.68160    0.16520    1.58870    0.00170   14.81680    0.38860   -9999.25   -9999.25   -9999.25 -151.53800   22.72570   49.80240    6.76940   -9999.25   -9999.25
   75.50000   24.62780    0.12230    1.65150    0.00100   15.56880    0.42660   -9999.25   -9999.25   -9999.25 -154.09760   22.19530   25.65570    5.53260   -9999.25   -9999.25
   76.00000   21.97400    0.12150    1.71430    0.00100   15.68440    0.45030   -9999.25   -9999.25   -9999.25 -157.88110   16.74680   23.99150    6.12750   -9999.25   -9999.25
   76.50000   22.63220    0.13070    1.77710    0.00100   15.82360    0.44340   -9999.25   -9999.25   -9999.25 -160.63420   13.13310   22.45270    6.16830   -9999.25   -9999.25
   77.00000   23.69380    0.14190    1.83990    0.00080   15.44670    0.41340   -9999.25   -9999.25   -9999.25 -160.31950   10.24420   18.25720    5.91530   -9999.25   -9999.25
   77.50000   24.42490    0.16400    1.90270    0.00050   17.23240    0.37950   -9999.25   -9999.25   -9999.25 -161.25490    5.87280    7.42570    5.37020   -9999.25   -9999.25
   78.00000   21.88050    0.24980    1.96560    0.00030   15.66700    0.34530   -9999.25   -9999.25   -9999.25 -162.19030    5.69610    7.26420    2.60220   -9999.25   -9999.25
   78.50000   22.84620    0.27110    2.02840    0.00040   16.40020    0.32070   -9999.25   -9999.25   -9999.25 -163.12570    9.09090    9.90970    5.88840   -9999.25   -9999.25
   79.00000   26.08890    0.25950    2.11180    0.00040   16.34450    0.31010   -9999.25   -9999.25   -9999.25 -164.36120   10.34060    8.98020    7.62920   -9999.25   -9999.25
   79.50000   30.90760    0.24110    2.19890    0.00050   16.06640    0.28830   -9999.25   -9999.25   -9999.25 -166.02270    8.22780    9.83060    6.68120   -9999.25   -9999.25
   80.00000   36.21790    0.21950    2.28610    0.00060   15.93560    0.27130   -9999.25   -9999.25   -9999.25 -165.59530    9.72370    9.78870    5.44970   -9999.25   -9999.25
   80.50000   40.02270    0.19800    2.32470    0.00070   14.91020    0.27010   -9999.25   -9999.25   -9999.25 -168.59240   17.49650    7.96550    6.89150   -9999.25   -9999.25
   81.00000   36.75390    0.17640    2.33620    0.00070   14.52110    0.31640   -9999.25   -9999.25   -9999.25 -170.03770   16.01380    8.94660    7.11460   -9999.25   -9999.25
   81.50000   33.76380    0.15490    2.32980    0.00080   14.95090    0.38030   -9999.25   -9999.25   -9999.25 -169.13980    9.10530    7.22840    5.67500   -9999.25   -9999.25
