~Version ---------------------------------------------------
VERS.   2.0 : CWLS log ASCII Standard -VERSION 2.0
WRAP.    NO : One line per depth step
DLM . SPACE : Column Data Section Delimiter
~Well ------------------------------------------------------
STRT .F                   13.0 : START DEPTH
STOP .F                 9216.0 : STOP DEPTH
STEP .F                    0.5 : STEP
NULL .                -9999.25 : NULL VALUE
COMP .                         : COMPANY
WELL .                         : WELL
FLD  .                         : FIELD
LOC  .                         : LOCATION
PROV .                         : PROVINCE
CNTY .                         : COUNTY
STAT .                         : STATE
CTRY .                         : COUNTRY
SRVC .                         : SERVICE COMPANY
DATE .                         : DATE
UWI  .                         : UNIQUE WELL ID
API  .                         : API NUMBER
SLAT .WGS84 2.2998730455597993 : SURFACE LATITUDE
SLON .WGS84     5.807630427682 : SURFACE LONGITUDE
DATUM.F                    nan : DEPTH DATUM ELEV
~Curve Information -----------------------------------------
DEPT   .F     : 1 MEASURED DEPTH
GRD    .GAPI  : GAMMA RAY FROM DENSITY LOG
TNPH_LS.DEC   : THERMAL NEUTRON POROSITY [LIMESTONE]
PEFZ   .B/E   : HRDD STANDARD RESOLUTION FORMATION PHOTOELECTRIC FACTOR
HDRA   .G/C3  : HRDD SPINE AND RIBS DENSITY CORRECTION
CALD   .IN    : CALIPER FROM DENSITY LOG
DPHZ_LS.DEC   : HGRD STANDARD RESOLUTION DENSITY POROSITY
AO30   .OHMM  : ARRAY INDUCTION ONE FOOT RESISTIVITY A30
GRR    .GAPI  : GAMMA RAY FROM RESISTIVITY LOG
CALR   .IN    : CALIPER FROM RESISTIVITY LOG
SPR    .MV    : SPONTANEOUS POTENTIAL FROM RESISTIVITY LOG
AT30   .OHMM  : ARRAY INDUCTION TWO FOOT RESISTIVITY A30
AT90   .OHMM  : ARRAY INDUCTION TWO FOOT RESISTIVITY A90
AT10   .OHMM  : ARRAY INDUCTION TWO FOOT RESISTIVITY A10
DTCO   .US/F  : DELTA-T COMPRESSIONAL
DTSM   .US/F  : DELTA-T SHEAR
~Params ----------------------------------------------------
~Other -----------------------------------------------------
~ASCII -----------------------------------------------------
# ...
 6706.00000  116.13500    0.23140    3.39190   -0.00330    7.95760    0.06160   -9999.25   -9999.25   -9999.25   -3.41720   22.18040   20.28200   27.60740   79.50730  140.11030
 6706.50000  117.80270    0.23340    3.46550   -0.00390    7.95770    0.06560   -9999.25   -9999.25   -9999.25   -3.31360   25.75840   23.54660   34.38460   79.80640  140.40710
 6707.00000  117.18580    0.22800    3.56900   -0.00390    7.95780    0.06450   -9999.25   -9999.25   -9999.25   -3.21000   27.92710   25.96450   37.42310   80.50760  140.50960
 6707.50000  113.19820    0.22160    3.66560   -0.00510    7.95790    0.06220   -9999.25   -9999.25   -9999.25   -3.10640   27.94820   25.09090   38.63510   80.97320  141.04980
 6708.00000  113.40840    0.21520    3.74750   -0.00630    7.95810    0.05990   -9999.25   -9999.25   -9999.25   -2.97380   28.04660   25.31940   39.41040   81.36100  141.26890
 6708.50000  117.62400    0.21380    3.71360   -0.00750    7.95820    0.06500   -9999.25   -9999.25   -9999.25   -2.83020   28.18540   25.33820   39.71600   81.94870  141.34920
 6709.00000  124.74980    0.22950    3.60770   -0.00870    7.95840    0.07940   -9999.25   -9999.25   -9999.25   -2.68670   28.20660   25.23100   39.69860   82.36900  141.29270
 6709.50000  132.41020    0.24830    3.50170   -0.00850    7.95860    0.09330   -9999.25   -9999.25   -9999.25   -2.54320   28.10090   25.12410   38.00320   82.40160  141.63360
 6710.00000  132.17580    0.25550    3.44560   -0.00750    7.95870    0.09610   -9999.25   -9999.25   -9999.25   -2.39960   27.74030   25.32100   36.35360   82.31920  141.97440
 6710.50000  123.19180    0.25080    3.44810   -0.00650    7.95890    0.09150   -9999.25   -9999.25   -9999.25   -2.25610   26.87400   25.38750   34.94230   82.20800  141.88970
 6711.00000  115.93710    0.24790    3.45480   -0.00590    7.95900    0.08650   -9999.25   -9999.25   -9999.25   -2.11250   26.08570   24.57630   33.64330   82.14890  142.24410
 6711.50000  123.39970    0.24950    3.46150   -0.00600    7.95900    0.08160   -9999.25   -9999.25   -9999.25   -1.96900   25.53800   23.91930   32.81790   82.21580  142.66020
 6712.00000  131.72330    0.23520    3.44760   -0.00430    7.95900    0.07300   -9999.25   -9999.25   -9999.25   -1.82540   25.46690   23.53730   33.52210   81.87000  142.71410
 6712.50000  127.28400    0.21690    3.37810   -0.00250    7.95900    0.06770   -9999.25   -9999.25   -9999.25   -1.78130   26.55620   24.92400   34.65930   81.54640  142.63440
 6713.00000  120.91730    0.20530    3.34650   -0.00080    7.95900    0.06840   -9999.25   -9999.25   -9999.25   -1.74360   27.08750   26.25620   32.56160   81.49140  142.77320
 6713.50000  124.40990    0.23780    3.35120    0.00220    7.95900    0.07860   -9999.25   -9999.25   -9999.25   -1.70590   24.92080   23.72060   28.54510   81.81340  143.24000
 6714.00000  130.33120    0.26140    3.39530    0.00530    7.95810    0.09080   -9999.25   -9999.25   -9999.25   -1.66830   22.75420   20.93860   27.01890   82.28740  143.19790
 6714.50000  132.45190    0.27590    3.46720    0.00840    7.95580    0.09120   -9999.25   -9999.25   -9999.25   -1.59600   21.47690   19.91900   25.25630   83.33390  145.70270
 6715.00000  120.95110    0.26450    3.50000    0.01510    7.95350    0.08100   -9999.25   -9999.25   -9999.25   -1.25270   21.04280   20.08650   24.08940   84.05910  147.72780
 6715.50000  119.88830    0.25090    3.48410    0.02230    7.95130    0.05720   -9999.25   -9999.25   -9999.25   -0.77480   17.92990   16.99560   19.59960   84.26340  147.44380
 6716.00000  127.34700    0.25370    3.40790    0.02270    7.94900    0.04990   -9999.25   -9999.25   -9999.25   -0.66280   13.94180   12.78760   14.78180   84.55350  148.41530
 6716.50000  141.33110    0.25900    3.34250    0.01670    7.98630    0.05610   -9999.25   -9999.25   -9999.25   -0.55090   13.07500   12.60340   14.29810   84.55240  149.76030
 6717.00000  151.96770    0.26330    3.29110    0.01060    7.98320    0.07370   -9999.25   -9999.25   -9999.25   -0.43890   14.23140   13.51090   15.61320   84.40120  149.28110
 6717.50000  148.34340    0.26720    3.30050    0.00460    7.96730    0.08140   -9999.25   -9999.25   -9999.25   -0.32700   15.30520   14.48370   16.94120   83.84670  149.17320
 6718.00000  144.71910    0.27020    3.32870    0.00050    7.96120    0.07100   -9999.25   -9999.25   -9999.25   -0.21500   15.52080   14.57470   18.07090   83.73490  149.18940
 6718.50000  141.09490    0.25820    3.37470   -0.00160    7.96140    0.05540   -9999.25   -9999.25   -9999.25   -0.10300   15.35390   14.31860   19.19150   83.42710  149.25620
 6719.00000  130.28280    0.24350    3.42380   -0.00280    7.96170    0.05200   -9999.25   -9999.25   -9999.25    0.02200   15.03080   14.18640   19.37600   82.97860  149.24000
 6719.50000  121.52010    0.23400    3.47290   -0.00320    7.93470    0.05550   -9999.25   -9999.25   -9999.25    0.15620   14.86170   14.11030   17.91820   82.41630  147.98930
 6720.00000  118.40310    0.22460    3.48660   -0.00240    7.90760    0.06550   -9999.25   -9999.25   -9999.25    0.29040   14.04570   13.77750   15.19300   82.26260  146.75510
 6720.50000  117.43710    0.21840    3.51290    0.00420    7.88060    0.07050   -9999.25   -9999.25   -9999.25    0.42470   12.02310   11.22210   12.86620   82.08230  146.30830
 6721.00000  117.82730    0.22810    3.58610    0.02600    7.87570    0.07160   -9999.25   -9999.25   -9999.25    0.55890   10.83530   10.31660   11.58230   81.55100  146.26690
 6721.50000  118.70250    0.23700    3.74810    0.05770    7.85800    0.06880   -9999.25   -9999.25   -9999.25    0.69310   10.95600   10.43960   11.75730   80.22860  145.83650
 6722.00000  119.47010    0.22660    3.91020    0.05720    7.92870    0.04800   -9999.25   -9999.25   -9999.25    0.82730   13.74160   12.86190   18.64310   78.93270  143.38690
 6722.50000  111.24900    0.21130    4.07230    0.04060    8.00020    0.04100   -9999.25   -9999.25   -9999.25    0.96150   20.18770   18.35720   33.26240   78.63300  142.71470
 6723.00000  101.79310    0.19970    4.19220    0.01940    7.99280    0.04370   -9999.25   -9999.25   -9999.25    1.14770   29.19890   25.07170   44.58150   78.45630  142.08790
 6723.50000   91.02980    0.19690    4.19090   -0.00230    7.98550    0.04520   -9999.25   -9999.25   -9999.25    1.52850   25.62900   23.72930   33.69710   78.40890  142.46810
 6724.00000   93.76400    0.19350    4.10450   -0.00300    7.97810    0.03990   -9999.25   -9999.25   -9999.25    1.87440   19.92750   19.11110   22.03580   78.14140  143.44860
 6724.50000   98.90510    0.19680    4.01800   -0.00200    7.97080    0.03050   -9999.25   -9999.25   -9999.25    1.91700   16.90850   16.38240   18.34100   78.21860  145.21850
 6725.00000  106.59720    0.21050    3.94660   -0.00130    7.97150    0.02490   -9999.25   -9999.25   -9999.25    1.77160   15.43830   14.12380   16.46210   78.31840  147.03900
 6725.50000  111.18680    0.22640    3.89370   -0.00120    7.98210    0.02350   -9999.25   -9999.25   -9999.25    1.25210   13.95450   13.16000   14.79310   78.37040  147.43050
 6726.00000  113.12020    0.23030    3.84080   -0.00100    7.99270    0.01960   -9999.25   -9999.25   -9999.25    1.17270   12.14440   11.84900   12.86010   80.14150  148.76820
 6726.50000  116.33220    0.23640    3.79320    0.00020    8.00320    0.02510   -9999.25   -9999.25   -9999.25    1.21090   11.43810   11.22530   11.83740   83.22620  153.00220
 6727.00000  116.20500    0.24230    3.75670    0.00090    7.99160    0.03940   -9999.25   -9999.25   -9999.25    1.23720   11.24570   11.14660   11.44690   84.17400  156.20750
 6727.50000  116.82870    0.25900    3.74730    0.00370    7.98880    0.04800   -9999.25   -9999.25   -9999.25    1.26350   10.91060   10.78170   11.07600   84.24480  156.21270
 6728.00000  113.92870    0.27480    3.73740    0.00610    7.98600    0.05500   -9999.25   -9999.25   -9999.25    1.28450   10.07070    9.81810   10.58230   84.37120  157.18260
 6728.50000  112.07090    0.27680    3.69240    0.01810    7.98320    0.06100   -9999.25   -9999.25   -9999.25    1.30490    9.20080    8.72960   10.03170   84.50830  157.50580
