~Version ---------------------------------------------------
VERS.   2.0 : CWLS log ASCII Standard -VERSION 2.0
WRAP.    NO : One line per depth step
DLM . SPACE : Column Data Section Delimiter
~Well ------------------------------------------------------
STRT .F                   13.0 : START DEPTH
STOP .F                 9216.0 : STOP DEPTH
STEP .F                    0.5 : STEP
NULL .                -9999.25 : NULL VALUE
COMP .                         : COMPANY
WELL .                         : WELL
FLD  .                         : FIELD
LOC  .                         : LOCATION
PROV .                         : PROVINCE
CNTY .                         : COUNTY
STAT .                         : STATE
CTRY .                         : COUNTRY
SRVC .                         : SERVICE COMPANY
DATE .                         : DATE
UWI  .                         : UNIQUE WELL ID
API  .                         : API NUMBER
SLAT .WGS84 2.2998730455597993 : SURFACE LATITUDE
SLON .WGS84     5.807630427682 : SURFACE LONGITUDE
DATUM.F                    nan : DEPTH DATUM ELEV
~Curve Information -----------------------------------------
DEPT   .F     : 1 MEASURED DEPTH
GRD    .GAPI  : GAMMA RAY FROM DENSITY LOG
TNPH_LS.DEC   : THERMAL NEUTRON POROSITY [LIMESTONE]
PEFZ   .B/E   : HRDD STANDARD RESOLUTION FORMATION PHOTOELECTRIC FACTOR
HDRA   .G/C3  : HRDD SPINE AND RIBS DENSITY CORRECTION
CALD   .IN    : CALIPER FROM DENSITY LOG
DPHZ_LS.DEC   : HGRD STANDARD RESOLUTION DENSITY POROSITY
AO30   .OHMM  : ARRAY INDUCTION ONE FOOT RESISTIVITY A30
GRR    .GAPI  : GAMMA RAY FROM RESISTIVITY LOG
CALR   .IN    : CALIPER FROM RESISTIVITY LOG
SPR    .MV    : SPONTANEOUS POTENTIAL FROM RESISTIVITY LOG
AT30   .OHMM  : ARRAY INDUCTION TWO FOOT RESISTIVITY A30
AT90   .OHMM  : ARRAY INDUCTION TWO FOOT RESISTIVITY A90
AT10   .OHMM  : ARRAY INDUCTION TWO FOOT RESISTIVITY A10
DTCO   .US/F  : DELTA-T COMPRESSIONAL
DTSM   .US/F  : DELTA-T SHEAR
~Params ----------------------------------------------------
~Other -----------------------------------------------------
~ASCII -----------------------------------------------------
# ...
 3072.00000   19.50750    0.04380    3.84540   -0.00570    8.41800   -0.08390   -9999.25   -9999.25   -9999.25  -51.59460   70.01920   49.88350  110.93760   -9999.25   -9999.25
 3072.50000   25.56940    0.05540    3.63030   -0.00370    8.40970   -0.06270   -9999.25   -9999.25   -9999.25  -50.82850   40.92550   29.95970   64.83800   -9999.25   -9999.25
 3073.00000   41.38450    0.06700    3.49240   -0.00170    8.40130   -0.04030   -9999.25   -9999.25   -9999.25  -49.48800   22.05560   19.04450   31.61330   -9999.25   -9999.25
 3073.50000   57.16300    0.08660    3.33380   -0.00040    8.39300   -0.02430   -9999.25   -9999.25   -9999.25  -46.75590   13.81760   12.83160   16.99310   -9999.25   -9999.25
 3074.00000   72.80460    0.10630    3.18910    0.00070    8.39060   -0.01520   -9999.25   -9999.25   -9999.25  -43.81790   10.16230    9.37490   11.18320   -9999.25   -9999.25
 3074.50000   72.59880    0.11340    3.10210    0.00030    8.39230   -0.02880   -9999.25   -9999.25   -9999.25  -42.70540   11.31730    9.84180   12.28030   -9999.25   -9999.25
 3075.00000   67.21000    0.10500    3.08380   -0.00330    8.39400   -0.03110   -9999.25   -9999.25   -9999.25  -42.75510   15.15410   14.21200   15.78500   -9999.25   -9999.25
 3075.50000   78.77440    0.11080    3.13790   -0.00610    8.39570   -0.02120   -9999.25   -9999.25   -9999.25  -42.13790   11.10680   10.22960   12.99280   -9999.25   -9999.25
 3076.00000  101.26920    0.13570    3.13830   -0.00520    8.39730   -0.00100   -9999.25   -9999.25   -9999.25  -40.60920    7.87430    7.53330    9.21360   -9999.25   -9999.25
 3076.50000  117.24830    0.17170    3.12100   -0.00320    8.39900    0.01320   -9999.25   -9999.25   -9999.25  -39.08070    6.96970    6.75430    7.26820   -9999.25   -9999.25
 3077.00000  120.52450    0.18770    3.01430   -0.00140    8.40070    0.01810   -9999.25   -9999.25   -9999.25  -38.27530    6.84820    6.66910    7.21070   -9999.25   -9999.25
 3077.50000  109.99480    0.19530    2.96590   -0.00200    8.39400    0.01780   -9999.25   -9999.25   -9999.25  -40.85160    7.46600    6.81160    8.08260   -9999.25   -9999.25
 3078.00000   87.73730    0.17750    2.97160   -0.00080    8.37980    0.00460   -9999.25   -9999.25   -9999.25  -45.20890    8.59430    7.98690    9.06000   -9999.25   -9999.25
 3078.50000   64.67360    0.15470    3.00960    0.00040    8.36580   -0.00610   -9999.25   -9999.25   -9999.25  -48.09260    9.00610    8.79810    9.14730   -9999.25   -9999.25
 3079.00000   59.77370    0.13970    3.04760    0.00150    8.36340    0.00480   -9999.25   -9999.25   -9999.25  -47.03520    8.78370    8.54650    9.05590   -9999.25   -9999.25
 3079.50000   57.22910    0.15040    3.08560    0.00040    8.36090    0.02430   -9999.25   -9999.25   -9999.25  -45.44430    8.61950    8.41410    9.14520   -9999.25   -9999.25
 3080.00000   57.46750    0.16230    3.12360   -0.00400    8.35840    0.04360   -9999.25   -9999.25   -9999.25  -46.44650   10.15030    9.47680   11.23420   -9999.25   -9999.25
 3080.50000   52.27870    0.15110    3.16930   -0.00710    8.35590    0.04430   -9999.25   -9999.25   -9999.25  -47.87330   12.85150   12.19900   13.80030   -9999.25   -9999.25
 3081.00000   47.09420    0.13770    3.21310   -0.00790    8.35340    0.03260   -9999.25   -9999.25   -9999.25  -49.09950   14.87140   14.28530   15.30290   -9999.25   -9999.25
 3081.50000   42.18110    0.12030    3.26160   -0.00750    8.35310    0.02300   -9999.25   -9999.25   -9999.25  -49.96990   15.52770   14.69550   16.27140   -9999.25   -9999.25
 3082.00000   41.31370    0.10150    3.25680   -0.00700    8.35310    0.01270   -9999.25   -9999.25   -9999.25  -50.28440   16.27100   15.55140   18.94390   -9999.25   -9999.25
 3082.50000   45.69370    0.09590    3.18510   -0.00650    8.36190    0.00180   -9999.25   -9999.25   -9999.25  -50.76860   15.96870   14.58730   18.35680   -9999.25   -9999.25
 3083.00000   53.34360    0.10520    3.06310   -0.00440    8.37660    0.00120   -9999.25   -9999.25   -9999.25  -49.31480   10.48740    9.73390   12.71440   -9999.25   -9999.25
 3083.50000   63.31310    0.12580    2.96800   -0.00220    8.39130    0.00620   -9999.25   -9999.25   -9999.25  -45.93570    7.51730    7.02600    8.70470   -9999.25   -9999.25
 3084.00000   64.08160    0.15070    2.93050   -0.00140    8.40600    0.01940   -9999.25   -9999.25   -9999.25  -46.53120    5.90100    5.82750    6.19900   -9999.25   -9999.25
 3084.50000   60.82180    0.15080    2.95860   -0.00210    8.42070    0.02050   -9999.25   -9999.25   -9999.25  -48.71420    6.24320    6.10320    6.54650   -9999.25   -9999.25
 3085.00000   63.20570    0.14150    2.98820   -0.00300    8.43280    0.03270   -9999.25   -9999.25   -9999.25  -48.71420    6.29320    6.13530    6.76920   -9999.25   -9999.25
 3085.50000   79.97420    0.14670    3.03450   -0.00420    8.44390    0.05930   -9999.25   -9999.25   -9999.25  -43.62890    5.22710    5.03350    5.86450   -9999.25   -9999.25
 3086.00000  117.06620    0.17540    3.05870   -0.00360    8.45490    0.08380   -9999.25   -9999.25   -9999.25  -34.17170    4.42760    4.38440    4.55500   -9999.25   -9999.25
 3086.50000  132.82280    0.20960    3.05760   -0.00250    8.46160    0.08200   -9999.25   -9999.25   -9999.25  -33.16680    4.50980    4.45810    4.66540   -9999.25   -9999.25
 3087.00000  124.62270    0.22420    3.05640   -0.00160    8.44410    0.06110   -9999.25   -9999.25   -9999.25  -36.24900    4.98810    4.78630    5.33770   -9999.25   -9999.25
 3087.50000  111.66320    0.19510    3.07800   -0.00260    8.42660    0.04400   -9999.25   -9999.25   -9999.25  -39.48800    5.76770    5.31180    6.10690   -9999.25   -9999.25
 3088.00000   93.35140    0.19220    3.10560   -0.00230    8.40830    0.02390   -9999.25   -9999.25   -9999.25  -43.76650    6.71100    6.13730    7.06100   -9999.25   -9999.25
 3088.50000   77.14300    0.17220    3.11860   -0.00130    8.38770    0.00380   -9999.25   -9999.25   -9999.25  -47.61040    8.40460    7.11410    9.04320   -9999.25   -9999.25
 3089.00000   51.75440    0.14240    3.11680   -0.00100    8.36710   -0.01310   -9999.25   -9999.25   -9999.25  -51.15540    9.54360    8.88310   10.09400   -9999.25   -9999.25
 3089.50000   41.83050    0.11710    3.11600   -0.00220    8.35400   -0.01870   -9999.25   -9999.25   -9999.25  -54.46570    8.32370    7.87920    8.76120   -9999.25   -9999.25
 3090.00000   43.94630    0.11660    3.08440   -0.00360    8.35400   -0.01030   -9999.25   -9999.25   -9999.25  -54.26300    7.26050    6.90860    7.60430   -9999.25   -9999.25
 3090.50000   56.50620    0.13310    3.05010   -0.00460    8.35390    0.00130   -9999.25   -9999.25   -9999.25  -46.57110    7.34810    6.99260    7.70560   -9999.25   -9999.25
 3091.00000   72.97620    0.15530    3.01830   -0.00510    8.35320    0.02030   -9999.25   -9999.25   -9999.25  -39.28950    7.68910    7.31650    8.15660   -9999.25   -9999.25
 3091.50000   81.35250    0.16640    3.01830    0.00270    8.34830    0.02730   -9999.25   -9999.25   -9999.25  -39.13160    8.04600    7.60330    8.44560   -9999.25   -9999.25
 3092.00000   87.04240    0.15450    3.06740    0.00420    8.34350    0.03430   -9999.25   -9999.25   -9999.25  -40.07490    8.17010    7.67340    8.94900   -9999.25   -9999.25
 3092.50000   87.64340    0.15770    3.12680    0.00070    8.33860    0.03310   -9999.25   -9999.25   -9999.25  -42.21340    8.05590    7.59640    8.58060   -9999.25   -9999.25
 3093.00000   77.49150    0.16050    3.18540   -0.00500    8.33380    0.02670   -9999.25   -9999.25   -9999.25  -44.35180    8.25980    7.26270    9.02150   -9999.25   -9999.25
 3093.50000   64.83960    0.13260    3.16630   -0.00640    8.32670    0.00530   -9999.25   -9999.25   -9999.25  -46.49030   10.25840    8.78340   11.15390   -9999.25   -9999.25
 3094.00000   48.32490    0.10580    3.08410   -0.00580    8.31350   -0.00440   -9999.25   -9999.25   -9999.25  -48.62880   12.68170   11.54340   13.79040   -9999.25   -9999.25
 3094.50000   43.61170    0.09840    2.92180   -0.00480    8.30030   -0.00580   -9999.25   -9999.25   -9999.25  -50.83990   15.12730   14.37800   16.35590   -9999.25   -9999.25
