~Version ---------------------------------------------------
VERS.   2.0 : CWLS log ASCII Standard -VERSION 2.0
WRAP.    NO : One line per depth step
DLM . SPACE : Column Data Section Delimiter
~Well ------------------------------------------------------
STRT .F                   13.0 : START DEPTH
STOP .F                 9216.0 : STOP DEPTH
STEP .F                    0.5 : STEP
NULL .                -9999.25 : NULL VALUE
COMP .                         : COMPANY
WELL .                         : WELL
FLD  .                         : FIELD
LOC  .                         : LOCATION
PROV .                         : PROVINCE
CNTY .                         : COUNTY
STAT .                         : STATE
CTRY .                         : COUNTRY
SRVC .                         : SERVICE COMPANY
DATE .                         : DATE
UWI  .                         : UNIQUE WELL ID
API  .                         : API NUMBER
SLAT .WGS84 2.2998730455597993 : SURFACE LATITUDE
SLON .WGS84     5.807630427682 : SURFACE LONGITUDE
DATUM.F                    nan : DEPTH DATUM ELEV
~Curve Information -----------------------------------------
DEPT   .F     : 1 MEASURED DEPTH
GRD    .GAPI  : GAMMA RAY FROM DENSITY LOG
TNPH_LS.DEC   : THERMAL NEUTRON POROSITY [LIMESTONE]
PEFZ   .B/E   : HRDD STANDARD RESOLUTION FORMATION PHOTOELECTRIC FACTOR
HDRA   .G/C3  : HRDD SPINE AND RIBS DENSITY CORRECTION
CALD   .IN    : CALIPER FROM DENSITY LOG
DPHZ_LS.DEC   : HGRD STANDARD RESOLUTION DENSITY POROSITY
AO30   .OHMM  : ARRAY INDUCTION ONE FOOT RESISTIVITY A30
GRR    .GAPI  : GAMMA RAY FROM RESISTIVITY LOG
CALR   .IN    : CALIPER FROM RESISTIVITY LOG
SPR    .MV    : SPONTANEOUS POTENTIAL FROM RESISTIVITY LOG
AT30   .OHMM  : ARRAY INDUCTION TWO FOOT RESISTIVITY A30
AT90   .OHMM  : ARRAY INDUCTION TWO FOOT RESISTIVITY A90
AT10   .OHMM  : ARRAY INDUCTION TWO FOOT RESISTIVITY A10
DTCO   .US/F  : DELTA-T COMPRESSIONAL
DTSM   .US/F  : DELTA-T SHEAR
~Params ----------------------------------------------------
~Other -----------------------------------------------------
~ASCII -----------------------------------------------------
# ...
 1278.00000    9.90310   -0.02200    5.06290    0.00910   12.30160   -0.17630   -9999.25   -9999.25   -9999.25 -103.09760   47.62160  312.54920   82.66810   -9999.25   -9999.25
 1278.50000    7.83240   -0.02380    4.82620   -0.01330   12.24660   -0.17180   -9999.25   -9999.25   -9999.25 -101.29680   30.93880   63.15930   72.24970   -9999.25   -9999.25
 1279.00000   11.98990    0.00230    4.57030   -0.00940   12.21100   -0.14870   -9999.25   -9999.25   -9999.25  -97.51610   28.06700   20.40110   39.28310   -9999.25   -9999.25
 1279.50000   19.58850    0.03760    4.16830    0.02810   12.16400   -0.10460   -9999.25   -9999.25   -9999.25  -94.18150   23.40340   10.97360   29.50260   -9999.25   -9999.25
 1280.00000   36.31290    0.11830    4.09370    0.06110   12.15800   -0.06050   -9999.25   -9999.25   -9999.25  -90.04510   14.48660    4.40780   21.11560   -9999.25   -9999.25
 1280.50000   53.86890    0.21790    4.04910    0.09420   12.19920    0.00030   -9999.25   -9999.25   -9999.25  -87.15250   11.62290    4.29280   16.13820   -9999.25   -9999.25
 1281.00000   58.85400    0.22780    4.19670    0.11060   12.26650   -0.03590   -9999.25   -9999.25   -9999.25  -84.25980   18.19850   11.44010   41.15630   -9999.25   -9999.25
 1281.50000   50.05880    0.16210    4.46750    0.08140   12.25660   -0.09690   -9999.25   -9999.25   -9999.25  -80.72200   29.25260   19.64550   77.16760   -9999.25   -9999.25
 1282.00000   45.50140    0.11840    4.68910    0.05240   12.30470   -0.02560   -9999.25   -9999.25   -9999.25  -76.98520   29.35480   16.04280   90.35280   -9999.25   -9999.25
 1282.50000   39.02550    0.07040    4.78120    0.02340   12.33430   -0.02920   -9999.25   -9999.25   -9999.25  -74.15540   22.53630   11.34630   80.49340   -9999.25   -9999.25
 1283.00000   30.56780    0.01340    4.75860    0.00420   12.32240   -0.11810   -9999.25   -9999.25   -9999.25  -70.77670   20.74060   15.67330   66.59420   -9999.25   -9999.25
 1283.50000   20.00690   -0.00650    4.71290   -0.00160   12.31050   -0.14880   -9999.25   -9999.25   -9999.25  -65.92540   20.95370   22.21060   30.89160   -9999.25   -9999.25
 1284.00000   15.95630    0.00070    4.52450    0.00240   12.28480   -0.12910   -9999.25   -9999.25   -9999.25  -60.96320   21.55750   25.39370   19.45150   -9999.25   -9999.25
 1284.50000   33.14020    0.02610    4.13300    0.00960   12.27760   -0.09430   -9999.25   -9999.25   -9999.25  -55.69970   10.42330   15.83240    6.02560   -9999.25   -9999.25
 1285.00000   54.58980    0.12150    3.73950    0.01380   12.31760   -0.00140   -9999.25   -9999.25   -9999.25  -50.98880    6.28000    4.20260    5.93180   -9999.25   -9999.25
 1285.50000   79.16360    0.19830    3.40550    0.01180   12.40900    0.06180   -9999.25   -9999.25   -9999.25  -47.64470    5.36960    4.35350    9.01510   -9999.25   -9999.25
 1286.00000   93.56480    0.25100    3.05110    0.00680   12.47330    0.12230   -9999.25   -9999.25   -9999.25  -44.57600    5.00500    4.75370    8.37490   -9999.25   -9999.25
 1286.50000   95.47070    0.26690    2.91590    0.00170   12.52750    0.13110   -9999.25   -9999.25   -9999.25  -41.50720    5.11760    5.24040    7.54050   -9999.25   -9999.25
 1287.00000   90.96210    0.25090    2.80320   -0.00070   12.55320    0.14270   -9999.25   -9999.25   -9999.25  -39.25670    5.23720    5.62980    7.27010   -9999.25   -9999.25
 1287.50000   90.99700    0.25370    2.69050   -0.00030   12.59880    0.15740   -9999.25   -9999.25   -9999.25  -38.43520    5.24630    4.64390    6.63650   -9999.25   -9999.25
 1288.00000   88.60770    0.25660    2.58710   -0.00010   12.62160    0.16200   -9999.25   -9999.25   -9999.25  -37.49280    5.21400    4.56910    6.74920   -9999.25   -9999.25
 1288.50000   80.53030    0.25350    2.55400   -0.00010   12.64370    0.16000   -9999.25   -9999.25   -9999.25  -36.55040    6.13450    4.94110    9.34810   -9999.25   -9999.25
 1289.00000   67.16990    0.24670    2.56960   -0.00010   12.66570    0.15150   -9999.25   -9999.25   -9999.25  -35.60800   10.06960    7.32310   12.00010   -9999.25   -9999.25
 1289.50000   52.18280    0.23870    2.61810    0.00000   12.66770    0.13830   -9999.25   -9999.25   -9999.25  -34.32340   16.03150   10.75510   23.12680   -9999.25   -9999.25
 1290.00000   49.39480    0.22140    2.66650    0.00040   12.57670    0.12620   -9999.25   -9999.25   -9999.25  -33.45110   23.40260   14.30050   35.92400   -9999.25   -9999.25
 1290.50000   51.43210    0.20880    2.71500    0.00070   12.49400    0.12350   -9999.25   -9999.25   -9999.25  -32.05740   25.20860   14.44840   34.01030   -9999.25   -9999.25
 1291.00000   53.66450    0.20940    2.72020    0.00100   12.44580    0.12720   -9999.25   -9999.25   -9999.25  -31.85630   14.66750    9.32690   22.32950   -9999.25   -9999.25
 1291.50000   54.22300    0.21370    2.66560    0.00140   12.39900    0.13530   -9999.25   -9999.25   -9999.25  -31.55800    7.51540    4.95230   11.41710   -9999.25   -9999.25
 1292.00000   53.09150    0.21790    2.61850    0.00150   12.39950    0.14830   -9999.25   -9999.25   -9999.25  -31.57240    5.27570    4.29740    8.04960   -9999.25   -9999.25
 1292.50000   50.67420    0.21000    2.56710    0.00120   12.39930    0.15970   -9999.25   -9999.25   -9999.25  -32.08030    4.40070    3.72910    7.55040   -9999.25   -9999.25
 1293.00000   48.78210    0.22140    2.47370    0.00100   12.39890    0.16830   -9999.25   -9999.25   -9999.25  -32.09510    3.64020    3.28780    7.02610   -9999.25   -9999.25
 1293.50000   53.31860    0.23960    2.39630    0.00080   12.39840    0.16940   -9999.25   -9999.25   -9999.25  -32.10300    3.15140    2.88090    6.30170   -9999.25   -9999.25
 1294.00000   61.21640    0.24830    2.32920    0.00060   12.39830    0.17870   -9999.25   -9999.25   -9999.25  -32.10090    2.82710    2.51150    5.88320   -9999.25   -9999.25
 1294.50000   66.78730    0.23990    2.28200    0.00050   12.39820    0.19080   -9999.25   -9999.25   -9999.25  -32.09890    2.48080    2.10900    4.31290   -9999.25   -9999.25
 1295.00000   62.95820    0.22690    2.26420    0.00030   12.41060    0.20550   -9999.25   -9999.25   -9999.25  -31.95280    2.14140    1.76220    3.36580   -9999.25   -9999.25
 1295.50000   60.25220    0.23780    2.25020    0.00020   12.42540    0.21590   -9999.25   -9999.25   -9999.25  -31.39130    1.84840    1.46170    2.75470   -9999.25   -9999.25
 1296.00000   58.96090    0.24280    2.26530    0.00000   12.41240    0.23220   -9999.25   -9999.25   -9999.25  -31.79850    1.59550    1.33370    2.31500   -9999.25   -9999.25
 1296.50000   62.30700    0.25830    2.28100   -0.00060   12.39870    0.24140   -9999.25   -9999.25   -9999.25  -32.10040    1.40960    1.23170    1.98560   -9999.25   -9999.25
 1297.00000   75.48570    0.27970    2.29670   -0.00130   12.41140    0.24630   -9999.25   -9999.25   -9999.25  -31.63010    1.35300    1.17690    1.84380   -9999.25   -9999.25
 1297.50000   85.62540    0.28030    2.31250   -0.00200   12.43030    0.24060   -9999.25   -9999.25   -9999.25  -30.80130    1.35830    1.22660    1.82010   -9999.25   -9999.25
 1298.00000   92.27440    0.26440    2.38310   -0.00270   12.43160    0.23200   -9999.25   -9999.25   -9999.25  -30.28200    1.37700    1.23660    1.79910   -9999.25   -9999.25
 1298.50000   97.48630    0.26180    2.46960   -0.00340   12.47360    0.22420   -9999.25   -9999.25   -9999.25  -29.77370    1.41660    1.25320    1.76460   -9999.25   -9999.25
 1299.00000  102.18700    0.26180    2.55600   -0.00340   12.52690    0.21250   -9999.25   -9999.25   -9999.25  -29.57540    1.51150    1.33740    1.81750   -9999.25   -9999.25
 1299.50000  107.35840    0.26820    2.63980   -0.00130   12.52800    0.20060   -9999.25   -9999.25   -9999.25  -29.64650    1.61270    1.46750    1.94930   -9999.25   -9999.25
 1300.00000  108.63800    0.29790    2.72230    0.00010   12.53410    0.18320   -9999.25   -9999.25   -9999.25  -29.55160    1.72070    1.61020    2.02480   -9999.25   -9999.25
 1300.50000  109.73310    0.30600    2.80480    0.00140   12.54350    0.16800   -9999.25   -9999.25   -9999.25  -29.45400    1.83590    1.68020    2.10440   -9999.25   -9999.25
