~Version ---------------------------------------------------
VERS.   2.0 : CWLS log ASCII Standard -VERSION 2.0
WRAP.    NO : One line per depth step
DLM . SPACE : Column Data Section Delimiter
~Well ------------------------------------------------------
STRT .F                   13.0 : START DEPTH
STOP .F                 9216.0 : STOP DEPTH
STEP .F                    0.5 : STEP
NULL .                -9999.25 : NULL VALUE
COMP .                         : COMPANY
WELL .                         : WELL
FLD  .                         : FIELD
LOC  .                         : LOCATION
PROV .                         : PROVINCE
CNTY .                         : COUNTY
STAT .                         : STATE
CTRY .                         : COUNTRY
SRVC .                         : SERVICE COMPANY
DATE .                         : DATE
UWI  .                         : UNIQUE WELL ID
API  .                         : API NUMBER
SLAT .WGS84 2.2998730455597993 : SURFACE LATITUDE
SLON .WGS84     5.807630427682 : SURFACE LONGITUDE
DATUM.F                    nan : DEPTH DATUM ELEV
~Curve Information -----------------------------------------
DEPT   .F     : 1 MEASURED DEPTH
GRD    .GAPI  : GAMMA RAY FROM DENSITY LOG
TNPH_LS.DEC   : THERMAL NEUTRON POROSITY [LIMESTONE]
PEFZ   .B/E   : HRDD STANDARD RESOLUTION FORMATION PHOTOELECTRIC FACTOR
HDRA   .G/C3  : HRDD SPINE AND RIBS DENSITY CORRECTION
CALD   .IN    : CALIPER FROM DENSITY LOG
DPHZ_LS.DEC   : HGRD STANDARD RESOLUTION DENSITY POROSITY
AO30   .OHMM  : ARRAY INDUCTION ONE FOOT RESISTIVITY A30
GRR    .GAPI  : GAMMA RAY FROM RESISTIVITY LOG
CALR   .IN    : CALIPER FROM RESISTIVITY LOG
SPR    .MV    : SPONTANEOUS POTENTIAL FROM RESISTIVITY LOG
AT30   .OHMM  : ARRAY INDUCTION TWO FOOT RESISTIVITY A30
AT90   .OHMM  : ARRAY INDUCTION TWO FOOT RESISTIVITY A90
AT10   .OHMM  : ARRAY INDUCTION TWO FOOT RESISTIVITY A10
DTCO   .US/F  : DELTA-T COMPRESSIONAL
DTSM   .US/F  : DELTA-T SHEAR
~Params ----------------------------------------------------
~Other -----------------------------------------------------
~ASCII -----------------------------------------------------
# ...
 9121.00000   16.44060    0.03980    3.05730   -0.00310    7.86710   -0.04790   -9999.25   -9999.25   -9999.25  -84.63750  171.12200  139.72980   -9999.25   46.61780   82.17290
 9121.50000   16.76640    0.03790    3.06860   -0.00300    7.86820   -0.05300   -9999.25   -9999.25   -9999.25  -84.97890  213.57070  182.73940   -9999.25   46.21600   82.15770
 9122.00000   16.81230    0.03610    3.07990   -0.00330    7.87030   -0.04860   -9999.25   -9999.25   -9999.25  -85.30210  266.54940  237.66980   -9999.25   46.04650   82.17530
 9122.50000   16.41500    0.03440    3.09440   -0.00350    7.87250   -0.04370   -9999.25   -9999.25   -9999.25  -85.60830  278.26170  247.68890   -9999.25   45.93300   82.16520
 9123.00000   16.01780    0.03320    3.10220   -0.00310    7.87460   -0.04290   -9999.25   -9999.25   -9999.25  -85.67350  288.03170  257.54950   -9999.25   45.80120   82.09800
 9123.50000   -9999.25    0.03260    3.07530   -0.00270    7.87670   -0.04740   -9999.25   -9999.25   -9999.25  -85.73870  303.82600  290.29440   -9999.25   45.83560   82.03160
 9124.00000   -9999.25    0.03270    3.06670   -0.00260    7.87250   -0.05330   -9999.25   -9999.25   -9999.25  -85.56580  312.76580  290.77070   -9999.25   45.81190   82.04210
 9124.50000   -9999.25    0.03320    3.06430   -0.00310    7.86730   -0.05200   -9999.25   -9999.25   -9999.25  -85.01240  310.28650  283.59060   -9999.25   45.93070   82.04030
 9125.00000   -9999.25    0.03370    3.07660   -0.00500    7.86210   -0.05030   -9999.25   -9999.25   -9999.25  -84.29960  264.81120  245.30810   -9999.25   46.21240   82.03790
 9125.50000   -9999.25    0.03430    3.12290   -0.00640    7.85690   -0.04760   -9999.25   -9999.25   -9999.25  -83.63100  222.23480  208.19420   -9999.25   46.45180   82.47050
 9126.00000   -9999.25    0.03460    3.14230   -0.00620    7.85160   -0.04730   -9999.25   -9999.25   -9999.25  -83.31470  186.50380  173.26060   -9999.25   46.35950   82.48190
 9126.50000   -9999.25    0.03430    3.16060   -0.00640    7.84640   -0.04200   -9999.25   -9999.25   -9999.25  -83.11360  182.83710  158.05530   -9999.25   46.42780   82.71880
 9127.00000   -9999.25    0.03420    3.16060   -0.00660    7.84880   -0.03990   -9999.25   -9999.25   -9999.25  -82.92880  194.59920  211.24750   -9999.25   46.56980   82.82310
 9127.50000   -9999.25    0.03430    3.16580   -0.00670    7.85210   -0.04410   -9999.25   -9999.25   -9999.25  -82.85610  208.94610  237.06580   -9999.25   46.72510   82.82620
 9128.00000   -9999.25    0.03440    3.18530   -0.00700    7.85540   -0.04840   -9999.25   -9999.25   -9999.25  -82.61810  275.34480  240.12750   -9999.25   46.81530   82.82930
 9128.50000   -9999.25    0.03460    3.21800   -0.00740    7.86990   -0.05180   -9999.25   -9999.25   -9999.25  -82.31850  302.74330  237.55310   -9999.25   46.87130   82.89520
 9129.00000   -9999.25    0.03490    3.22820   -0.00670    7.88640   -0.05930   -9999.25   -9999.25   -9999.25  -82.14980  249.05220  190.18820   -9999.25   47.15180   83.33420
 9129.50000   -9999.25    0.03510    3.20770   -0.00460    7.87300   -0.06540   -9999.25   -9999.25   -9999.25  -82.08670  202.37630  160.07470 1957.71400   47.17210   83.48230
 9130.00000   -9999.25    0.03490    3.18230   -0.00020    7.85950   -0.06850   -9999.25   -9999.25   -9999.25  -81.65730  187.66250  155.32090 1907.91200   46.97820   83.57430
 9130.50000   -9999.25   -9999.25    3.14580    0.00200    7.84630   -0.06830   -9999.25   -9999.25   -9999.25  -81.32340  180.37020  158.39270 1847.77260   46.62810   83.81680
 9131.00000   -9999.25   -9999.25    3.10940    0.00270    7.85200   -0.06410   -9999.25   -9999.25   -9999.25  -81.32710  175.00280  153.40290 1853.07840   46.44590   83.72580
 9131.50000   -9999.25   -9999.25    3.06630    0.00320    7.85780   -0.05860   -9999.25   -9999.25   -9999.25  -81.33070  139.30400  120.17960 1901.16720   46.45620   83.28500
 9132.00000   -9999.25   -9999.25    3.01990    0.00350    7.86350   -0.05340   -9999.25   -9999.25   -9999.25  -81.21040  161.79520  122.52760 1927.27660   46.53530   82.87710
 9132.50000   -9999.25   -9999.25    2.98220    0.00300    7.86450   -0.05870   -9999.25   -9999.25   -9999.25  -80.93970  206.79680  181.11900 1953.00680   46.44960   82.62350
 9133.00000   -9999.25   -9999.25    3.00180    0.00250    7.86120   -0.06630   -9999.25   -9999.25   -9999.25  -80.47460  245.28640  228.00470 1974.36450   46.04320   82.53040
 9133.50000   -9999.25   -9999.25    3.04380    0.00200    7.85790   -0.07410   -9999.25   -9999.25   -9999.25  -80.00080  333.46700  271.60200 1990.05620   45.74160   82.43730
 9134.00000   -9999.25   -9999.25    3.08570    0.00170    7.85460   -0.07180   -9999.25   -9999.25   -9999.25  -79.52690  464.73190  400.78850 1996.43010   45.58580   82.34430
 9134.50000   -9999.25   -9999.25    3.10610    0.00290    7.85360   -0.06970   -9999.25   -9999.25   -9999.25  -79.53580  435.18370  408.38400 1993.05070   45.54550   82.25120
 9135.00000   -9999.25   -9999.25    3.12510    0.00400    7.83750   -0.07030   -9999.25   -9999.25   -9999.25  -79.01840  427.81390  380.62250 1989.67810   45.53830   82.14830
 9135.50000   -9999.25   -9999.25    3.08040    0.00520    7.81680   -0.07200   -9999.25   -9999.25   -9999.25  -78.90940  414.19070  318.23680 1986.31130   45.64770   81.74180
 9136.00000   -9999.25   -9999.25    3.03560    0.00640    7.80020   -0.06910   -9999.25   -9999.25   -9999.25  -78.67970  347.30180  289.38090 1982.94900   45.68880   81.68100
 9136.50000   -9999.25   -9999.25    2.99430    0.00750    7.79970   -0.06690   -9999.25   -9999.25   -9999.25  -78.50070  305.25670  238.16780 1979.59350   45.65770   81.17360
 9137.00000   -9999.25   -9999.25    2.98770    0.00770    7.79920   -0.06680   -9999.25   -9999.25   -9999.25  -78.33820  365.20940  250.85990 1914.00500   45.54640   80.89170
 9137.50000   -9999.25   -9999.25    3.02340    0.00520    7.79870   -0.06680   -9999.25   -9999.25   -9999.25  -78.12240  423.27160  281.82190 1659.19170   45.53160   81.27610
 9138.00000   -9999.25   -9999.25    3.05590    0.00510    7.79820   -0.06460   -9999.25   -9999.25   -9999.25  -77.90660  312.71980  275.22690 1472.05700   45.63210   81.63290
 9138.50000   -9999.25   -9999.25    3.05580    0.00510    7.79770   -0.06540   -9999.25   -9999.25   -9999.25  -77.69410  337.67130  303.00310 1895.38450   46.07220   81.76330
 9139.00000   -9999.25   -9999.25    3.05560    0.00640    7.79720   -0.06670   -9999.25   -9999.25   -9999.25  -77.41510  290.37700  228.12800  709.64760   46.38410   81.89370
 9139.50000   -9999.25   -9999.25    3.06650    0.00970    7.80130   -0.06880   -9999.25   -9999.25   -9999.25  -77.31500  195.10990  164.42420  276.07170   46.91830   82.03130
 9140.00000   -9999.25   -9999.25    3.09390    0.01310    7.83660   -0.07380   -9999.25   -9999.25   -9999.25  -77.07550  121.67180  137.96690  149.82000   47.33310   82.50050
 9140.50000   -9999.25   -9999.25    3.14240    0.01420    7.87200   -0.07630   -9999.25   -9999.25   -9999.25  -76.51930  107.19210  125.57030   87.85110   47.70040   82.93510
 9141.00000   -9999.25   -9999.25    3.19750    0.01330    7.86810   -0.07430   -9999.25   -9999.25   -9999.25  -75.23810   81.66140  105.24760   64.32170   47.96850   83.55860
 9141.50000   -9999.25   -9999.25    3.23540    0.01170   -9999.25   -0.06950   -9999.25   -9999.25   -9999.25  -74.50790   62.18920   74.73810   49.47000   48.09290   83.97440
 9142.00000   -9999.25   -9999.25    3.17090    0.00920   -9999.25   -0.06440   -9999.25   -9999.25   -9999.25  -74.16470   58.29720   72.80420   49.18600   48.08650   84.25630
 9142.50000   -9999.25   -9999.25   -9999.25   -9999.25   -9999.25   -9999.25   -9999.25   -9999.25   -9999.25  -74.07860   82.40810  117.06300   56.85980   47.89320   84.54500
 9143.00000   -9999.25   -9999.25   -9999.25   -9999.25   -9999.25   -9999.25   -9999.25   -9999.25   -9999.25  -74.55270  113.45960  188.22750   73.17420   47.58860   84.56600
 9143.50000   -9999.25   -9999.25   -9999.25   -9999.25   -9999.25   -9999.25   -9999.25   -9999.25   -9999.25  -75.32640  107.91590  205.99260   65.00840   47.21950   84.28780
