~Version ---------------------------------------------------
VERS.   2.0 : CWLS log ASCII Standard -VERSION 2.0
WRAP.    NO : One line per depth step
DLM . SPACE : Column Data Section Delimiter
~Well ------------------------------------------------------
STRT .F                  205.0 : START DEPTH
STOP .F                 7752.0 : STOP DEPTH
STEP .F                    0.5 : STEP
NULL .                -9999.25 : NULL VALUE
COMP .                         : COMPANY
WELL .                         : WELL
FLD  .                         : FIELD
LOC  .                         : LOCATION
PROV .                         : PROVINCE
CNTY .                         : COUNTY
STAT .                         : STATE
CTRY .                         : COUNTRY
SRVC .                         : SERVICE COMPANY
DATE .                         : DATE
UWI  .                         : UNIQUE WELL ID
API  .                         : API NUMBER
SLAT .WGS84 1.4047718878026991 : SURFACE LATITUDE
SLON .WGS84   8.61810387525999 : SURFACE LONGITUDE
DATUM.F                 3512.0 : DEPTH DATUM ELEV
~Curve Information -----------------------------------------
DEPT   .F     : Depth in Feet
GRR    .GAPI  : GAMMA RAY FROM RESISTIVITY LOG
SPR    .MV    : SPONTANEOUS POTENTIAL FROM RESISTIVITY LOG
AT20   .OHMM  : ARRAY INDUCTION TWO FOOT RESISTIVITY A20
AT30   .OHMM  : ARRAY INDUCTION TWO FOOT RESISTIVITY A30
AT90   .OHMM  : ARRAY INDUCTION TWO FOOT RESISTIVITY A90
DTCO   .US/F  : DELTA-T COMPRESSIONAL
DTSM   .US/F  : DELTA-T SHEAR
GRS    .GAPI  : GAMMA RAY FROM SONIC LOG
HCALR  .IN    : HRCC CALIPER CALIBRATED FROM RESISTIVITY LOG
SPHI_LS.DEC   : SONIC POROSITY [LIMESTONE]
TENR   .LB    : TENSION FROM RESISTIVITY LOG
TENS   .LB    : TENSION FROM SONIC LOG
TNPH_LS.DEC   : THERMAL NEUTRON POROSITY [LIMESTONE]
AT10   .OHMM  : ARRAY INDUCTION TWO FOOT RESISTIVITY A10
AT60   .OHMM  : ARRAY INDUCTION TWO FOOT RESISTIVITY A60
~Params ----------------------------------------------------
~Other -----------------------------------------------------
~ASCII -----------------------------------------------------
# ...
 7611.00000   -9999.25    1.43110   20.03630   57.83790  132.78050   79.99690  130.92700  126.72970    2.21370    0.23120 3559.13780 3227.27930    0.22270   23.52900  135.26510
 7611.50000   -9999.25    1.42740   22.23830   60.78630  130.94180   80.29870  132.59950  121.37700    2.22960    0.23280 3561.16470 3223.42720    0.22470   22.33500  132.84150
 7612.00000   -9999.25    1.12060   24.51650   65.22500  134.64510   80.44890  136.24310  120.05460    2.23040    0.23390 3570.70770 3215.80710    0.22950   21.19390  133.92270
 7612.50000   -9999.25    0.51070   27.09120   69.98780  140.39720   80.59890  140.49330  121.49250    2.23110    0.23560 3581.09350 3217.73000    0.23410   20.08870  135.14000
 7613.00000   -9999.25    0.20390   28.79650   75.09840  144.36790   80.90070  135.64560  125.00170    2.23190    0.23740 3580.98720 3225.82140    0.24250   19.20690  141.57640
 7613.50000   -9999.25   -0.70900   29.56500   78.90820  146.39510   81.20240  132.76920  126.25590    2.23270    0.23870 3580.08160 3212.02060    0.25230   19.08010  160.24700
 7614.00000   -9999.25   -1.62180   29.55780   82.33970  144.36790   80.43320  132.16710  124.08440    2.23340    0.23770 3574.29810 3203.50880    0.25210   18.94990  173.00290
 7614.50000   -9999.25   -2.53470   28.90520   83.55550  136.53580   80.13800  130.50370  121.51390    2.23420    0.23530 3566.05720 3208.42900    0.24560   18.82490  176.22980
 7615.00000   -9999.25   -3.75060   27.94240   80.74740  126.45570   80.28820  128.38540  118.67920    2.23500    0.23370 3557.57240 3208.43820    0.23450   18.14800  177.70130
 7615.50000   -9999.25   -4.66350   27.16820   76.95230  118.76440   80.43830  127.17690  114.75120    2.22040    0.23420 3558.73140 3211.27300    0.22670   17.88520  170.95780
 7616.00000   -9999.25   -5.57630   26.97360   75.39800  117.11980   80.58810  127.15670  110.80970    2.22140    0.23540 3568.55790 3214.28490    0.22250   17.82690  170.51180
 7616.50000   -9999.25   -6.18620   27.15580   77.06060  120.43210   80.88980  127.94400  109.50990    2.22200    0.23690 3574.36670 3210.76010    0.21850   17.51830  176.07320
 7617.00000   -9999.25   -6.79600   27.55790   79.29730  123.83810   81.49480  128.10020  110.24100    2.22270    0.24170 3561.44930 3206.31360    0.22270   17.43780  185.22490
 7617.50000   -9999.25   -8.01190   28.16040   81.59900  130.03210   82.40310  127.80130  113.68200    2.22350    0.25040 3555.88470 3208.69800    0.23040   17.57640  199.30690
 7618.00000   -9999.25   -8.92480   28.94650   85.14750  138.45300   83.61470  127.80590  119.44960    2.22420    0.25460 3568.59490 3212.46790    0.23210   17.71200  218.87100
 7618.50000   -9999.25   -9.83760   29.72900   90.09890  149.48950   83.91680  128.42410  127.80150    2.22500    0.25840 3579.32360 3218.18350    0.23300   17.85270  249.88610
 7619.00000   -9999.25  -10.44750   30.53480   96.00580  162.53490   83.91490  129.34020  135.79750    2.22580    0.25780 3582.12950 3216.87950    0.23440   17.99050  291.76550
 7619.50000   -9999.25  -10.45120   30.76610  103.01620  176.71880   83.76180  129.48750  135.74850    2.22650    0.25550 3598.06770 3220.15670    0.23710   18.13340  325.53990
 7620.00000   -9999.25  -10.45500   31.16520  109.76990  190.80550   83.60870  129.12790  129.46220    2.22730    0.25270 3604.18910 3222.68020    0.23650   18.26240  385.25220
 7620.50000   -9999.25  -10.76180   31.15780  111.37110  197.57450   83.00070  127.17060  122.25390    2.21290    0.25000 3611.49800 3221.59530    0.23470   18.38910  418.42640
 7621.00000   -9999.25  -10.76560   30.91250  106.01640  194.83860   81.93770  126.31670  119.98130    2.21370    0.24200 3607.80870 3221.64370    0.22730   18.51670  404.79410
 7621.50000   -9999.25  -10.46630   30.28740  103.71300  181.71670   80.57160  128.59680  123.14810    2.21440    0.23540 3600.87620 3221.38210    0.21250   18.64520  367.99710
 7622.00000   -9999.25  -10.47010   29.39370   96.92460  162.53490   80.57010  128.44850  126.10600    2.21520    0.23500 3582.93890 3221.51500    0.20280   18.77460  328.16500
 7622.50000   -9999.25  -11.08000   27.61920   91.81300  145.37800   80.88450  127.99810  127.28410    2.21600    0.23670 3569.93500 3221.54260    0.19380   18.90480  265.26340
 7623.00000   -9999.25  -11.68980   26.51380   91.28920  133.70960   81.02200  129.06520  125.41220    2.21670    0.23740 3565.22400 3221.36670    0.19420   18.72820  241.88670
 7623.50000   -9999.25  -12.29960   27.25680   91.35380  124.70460   81.02050  130.13110  122.92100    2.21750    0.23870 3560.78160 3222.28720    0.20140   18.37720  228.14550
 7624.00000   -9999.25  -12.90950   27.44100   92.05770  116.30600   81.49420  132.25840  121.57720    2.21830    0.24310 3545.06760 3222.17560    0.21110   18.03280  219.42870
 7624.50000   -9999.25  -13.51930   26.47240   92.12240  106.22780   82.24780  132.71780  120.96610    2.21900    0.25070 3529.31120 3218.52570    0.21330   18.17760  217.10700
 7625.00000   -9999.25  -13.82610   26.12270   93.48270   95.67930   83.18910  133.17720  124.26290    2.21980    0.25620 3532.29010 3205.22190    0.21550   18.35780  233.65930
 7625.50000   -9999.25  -14.13290   27.44130   98.23100   93.69880   84.19870  133.93990  129.76100    2.22060    0.25780 3549.67300 3217.80630    0.22410   18.46120  295.60710
 7626.00000   -9999.25  -14.43970   28.58580  106.14190   95.01450   84.50010  133.94440  128.81880    2.22130    0.25940 3562.67690 3216.44340    0.23710   18.56500  396.05270
 7626.50000   -9999.25  -14.44350   28.98800  115.49310   95.67930   84.65020  133.49290  118.08210    2.22210    0.26140 3571.83710 3215.08000    0.24650   18.66950  549.00770
 7627.00000   -9999.25  -14.14330   29.37990  121.35930   98.38530   84.80070  133.34570  103.18830    2.22290    0.26300 3574.84060 3213.71650    0.23780   18.77460  701.21220
 7627.50000   -9999.25  -13.54100   28.76550  118.92880  112.32130   85.10210  133.80630   98.91180    2.22360    0.26340 3577.16590 3212.35240    0.22210   18.88030  730.07120
 7628.00000   -9999.25  -12.83430   28.40980  118.05440  120.47710   85.40430  134.41730  102.82690    2.22420    0.26520 3579.22000 3210.98960    0.21080   18.71950  634.13380
 7628.50000   -9999.25  -12.31340   -9999.25   -9999.25   -9999.25   85.85730  135.18000  106.62800   -9999.25    0.26730 3581.54400 3209.62610    0.20140   -9999.25   -9999.25
 7629.00000   -9999.25  -11.83750   -9999.25   -9999.25   -9999.25   86.15900  135.18450  109.71270   -9999.25    0.27090 3575.61470 3208.26260    0.19300   -9999.25   -9999.25
 7629.50000   -9999.25  -12.22190   -9999.25   -9999.25   -9999.25   86.61280  135.79550  116.75500   -9999.25    0.27470 3563.75800 3181.83630    0.19020   -9999.25   -9999.25
 7630.00000   -9999.25  -12.16980   -9999.25   -9999.25   -9999.25   87.06620  136.10330  128.02080   -9999.25    0.27790 3566.54350 3175.87190    0.19630   -9999.25   -9999.25
 7630.50000   -9999.25  -12.23930   -9999.25   -9999.25   -9999.25   87.21620  136.25940  140.17770   -9999.25    0.28040 3583.85980 3178.90830    0.20710   -9999.25   -9999.25
 7631.00000   -9999.25  -11.78110   -9999.25   -9999.25   -9999.25   86.91110  136.11230  146.82210   -9999.25    0.27800 3600.81420 3190.13600    0.22100   -9999.25   -9999.25
 7631.50000   -9999.25  -10.86600   -9999.25   -9999.25   -9999.25   85.99980  134.60050  146.11480   -9999.25    0.27090 3589.47460 3202.85470    0.24210   -9999.25   -9999.25
 7632.00000   -9999.25   -9.26290   -9999.25   -9999.25   -9999.25   84.78530  131.87570  139.04490   -9999.25    0.25910 3572.13800 3207.45620    0.24810   -9999.25   -9999.25
 7632.50000   -9999.25   -8.03050   -9999.25   -9999.25   -9999.25   82.96420  131.86470  129.99960   -9999.25    0.24730 3544.22560 3209.44590    0.24490   -9999.25   -9999.25
 7633.00000   -9999.25   -6.54470   -9999.25   -9999.25   -9999.25   81.44640  130.27660  117.19780   -9999.25    0.23530 3522.28460 3204.74150    0.23140   -9999.25   -9999.25
 7633.50000   -9999.25   -5.06020   -9999.25   -9999.25   -9999.25   79.32210  124.57280  103.90340   -9999.25    0.22510 3550.61890 3178.30770    0.21530   -9999.25   -9999.25
