~Version ---------------------------------------------------
VERS.   2.0 : CWLS log ASCII Standard -VERSION 2.0
WRAP.    NO : One line per depth step
DLM . SPACE : Column Data Section Delimiter
~Well ------------------------------------------------------
STRT .F                  205.0 : START DEPTH
STOP .F                 7752.0 : STOP DEPTH
STEP .F                    0.5 : STEP
NULL .                -9999.25 : NULL VALUE
COMP .                         : COMPANY
WELL .                         : WELL
FLD  .                         : FIELD
LOC  .                         : LOCATION
PROV .                         : PROVINCE
CNTY .                         : COUNTY
STAT .                         : STATE
CTRY .                         : COUNTRY
SRVC .                         : SERVICE COMPANY
DATE .                         : DATE
UWI  .                         : UNIQUE WELL ID
API  .                         : API NUMBER
SLAT .WGS84 1.4047718878026991 : SURFACE LATITUDE
SLON .WGS84   8.61810387525999 : SURFACE LONGITUDE
DATUM.F                 3512.0 : DEPTH DATUM ELEV
~Curve Information -----------------------------------------
DEPT   .F     : Depth in Feet
GRR    .GAPI  : GAMMA RAY FROM RESISTIVITY LOG
SPR    .MV    : SPONTANEOUS POTENTIAL FROM RESISTIVITY LOG
AT20   .OHMM  : ARRAY INDUCTION TWO FOOT RESISTIVITY A20
AT30   .OHMM  : ARRAY INDUCTION TWO FOOT RESISTIVITY A30
AT90   .OHMM  : ARRAY INDUCTION TWO FOOT RESISTIVITY A90
DTCO   .US/F  : DELTA-T COMPRESSIONAL
DTSM   .US/F  : DELTA-T SHEAR
GRS    .GAPI  : GAMMA RAY FROM SONIC LOG
HCALR  .IN    : HRCC CALIPER CALIBRATED FROM RESISTIVITY LOG
SPHI_LS.DEC   : SONIC POROSITY [LIMESTONE]
TENR   .LB    : TENSION FROM RESISTIVITY LOG
TENS   .LB    : TENSION FROM SONIC LOG
TNPH_LS.DEC   : THERMAL NEUTRON POROSITY [LIMESTONE]
AT10   .OHMM  : ARRAY INDUCTION TWO FOOT RESISTIVITY A10
AT60   .OHMM  : ARRAY INDUCTION TWO FOOT RESISTIVITY A60
~Params ----------------------------------------------------
~Other -----------------------------------------------------
~ASCII -----------------------------------------------------
# ...
 5288.00000  127.49630  -31.99990  208.90800  238.48520  215.05160   -9999.25   -9999.25   -9999.25    8.64790   -9999.25 2794.71870   -9999.25   -9999.25   -9999.25  267.52650
 5288.50000  135.93780  -31.69340  184.26840  206.04000  183.10860   -9999.25   -9999.25   -9999.25    8.66320   -9999.25 2799.56490   -9999.25   -9999.25   -9999.25  228.96350
 5289.00000  140.95990  -31.08340  144.36790  161.46620  153.75300   -9999.25   -9999.25   -9999.25    8.67850   -9999.25 2802.04400   -9999.25   -9999.25   -9999.25  184.79090
 5289.50000  136.17950  -30.77690  151.58860  174.33910  165.90690   -9999.25   -9999.25   -9999.25    8.69380   -9999.25 2807.31960   -9999.25   -9999.25   -9999.25  163.41540
 5290.00000  117.94920  -30.47040  164.81730  194.91100  180.29820   -9999.25   -9999.25   -9999.25    8.70910   -9999.25 2805.66880   -9999.25   -9999.25   -9999.25  190.27030
 5290.50000  101.77070  -29.86030  133.70960  158.15940  142.17200   -9999.25   -9999.25   -9999.25    8.73960   -9999.25 2794.40040   -9999.25   -9999.25   -9999.25  165.49540
 5291.00000   96.76230  -29.85730   93.69880   99.86830   83.09810   -9999.25   -9999.25   -9999.25    8.75490   -9999.25 2782.01720   -9999.25   -9999.25   -9999.25  117.06710
 5291.50000   97.22510  -29.85430   73.40970   74.02050   66.91940   -9999.25   -9999.25   -9999.25    8.80050   -9999.25 2770.06410   -9999.25   -9999.25   -9999.25   85.23670
 5292.00000  104.75480  -29.54780   62.09860   57.60450   54.64410   -9999.25   -9999.25   -9999.25    8.81580   -9999.25 2762.00170   -9999.25   -9999.25   -9999.25   66.20230
 5292.50000  107.72510  -29.24120   54.77440   54.37050   57.74400   -9999.25   -9999.25   -9999.25    8.83110   -9999.25 2767.67530   -9999.25   -9999.25   -9999.25   57.54210
 5293.00000  108.64210  -29.23820   57.51400   59.24060   60.17540   -9999.25   -9999.25   -9999.25    8.86150   -9999.25 2782.29770   -9999.25   -9999.25   -9999.25   60.23380
 5293.50000  106.14310  -28.93170   59.14060   61.34490   62.27380   -9999.25   -9999.25   -9999.25    8.87680   -9999.25 2784.63590   -9999.25   -9999.25   -9999.25   63.39370
 5294.00000  103.87030  -28.62520   58.32160   59.66310   62.23910   -9999.25   -9999.25   -9999.25    8.90730   -9999.25 2786.03960   -9999.25   -9999.25   -9999.25   65.01620
 5294.50000  101.82550  -28.62210   55.93210   57.22440   58.83220   -9999.25   -9999.25   -9999.25    8.92260   -9999.25 2788.37660   -9999.25   -9999.25   -9999.25   60.02960
 5295.00000  100.23660  -28.31560   52.89780   52.63840   52.23190   -9999.25   -9999.25   -9999.25    8.92280   -9999.25 2789.85990   -9999.25   -9999.25   -9999.25   54.77420
 5295.50000   99.10360  -28.00910   47.31390   48.08380   45.09760   -9999.25   -9999.25   -9999.25    8.92290   -9999.25 2793.49910   -9999.25   -9999.25   -9999.25   49.46490
 5296.00000  100.25030  -28.00610   42.31950   43.01480   40.59990   -9999.25   -9999.25   -9999.25    8.92310   -9999.25 2795.18070   -9999.25   -9999.25   -9999.25   44.44840
 5296.50000  102.76470  -28.00300   38.65240   39.02000   36.29710   -9999.25   -9999.25   -9999.25    8.92320   -9999.25 2803.03860   -9999.25   -9999.25   -9999.25   40.48240
 5297.00000  104.36730  -28.00000   35.79880   36.39660   33.83550   -9999.25   -9999.25   -9999.25    8.92340   -9999.25 2810.98180   -9999.25   -9999.25   -9999.25   37.46810
 5297.50000  103.69030  -27.99700   30.70810   31.00980   28.80970   -9999.25   -9999.25   -9999.25    8.92350   -9999.25 2803.94120   -9999.25   -9999.25   -9999.25   32.31180
 5298.00000  102.32940  -27.99390   25.61680   25.69420   23.69060   -9999.25   -9999.25   -9999.25    8.92370   -9999.25 2792.52550   -9999.25   -9999.25   -9999.25   27.63490
 5298.50000  102.10650  -27.99090   25.61680   26.23870   24.51670   -9999.25   -9999.25   -9999.25    8.92380   -9999.25 2790.06370   -9999.25   -9999.25   -9999.25   26.14410
 5299.00000  102.57100  -27.98790   26.52550   27.74460   25.90750   -9999.25   -9999.25   -9999.25    8.92400   -9999.25 2787.59150   -9999.25   -9999.25   -9999.25   27.98410
 5299.50000   99.61430  -27.98480   28.64000   29.74850   27.37720   -9999.25   -9999.25   -9999.25    8.92410   -9999.25 2785.25990   -9999.25   -9999.25   -9999.25   29.04230
 5300.00000   94.09590  -28.28530   32.24400   31.89720   31.30080   -9999.25   -9999.25   -9999.25    8.92420   -9999.25 2802.47530   -9999.25   -9999.25   -9999.25   31.49050
 5300.50000   82.75080  -28.58880   38.95340   42.13900   41.54840   -9999.25   -9999.25   -9999.25    8.92410   -9999.25 2811.00280   -9999.25   -9999.25   -9999.25   40.36420
 5301.00000   77.73560  -29.49920   49.67410   48.43090   49.43920   -9999.25   -9999.25   -9999.25    8.90880   -9999.25 2813.65490   -9999.25   -9999.25   -9999.25   48.75210
 5301.50000   76.13980  -29.80270   35.05030   34.65570   37.56870   -9999.25   -9999.25   -9999.25    8.87830   -9999.25 2801.99900   -9999.25   -9999.25   -9999.25   39.85080
 5302.00000   80.47110  -29.80270   27.65090   28.30990   29.05560   -9999.25   -9999.25   -9999.25    8.86300   -9999.25 2793.95640   -9999.25   -9999.25   -9999.25   31.58790
 5302.50000   88.44980  -29.49920   26.33240   26.77100   26.54740   -9999.25   -9999.25   -9999.25    8.86290   -9999.25 2800.07100   -9999.25   -9999.25   -9999.25   28.28400
 5303.00000   95.51670  -29.19580   29.02990   29.09780   28.10220   -9999.25   -9999.25   -9999.25    8.86270   -9999.25 2804.39770   -9999.25   -9999.25   -9999.25   29.05310
 5303.50000   97.80170  -28.58880   29.84880   29.50150   29.29650   -9999.25   -9999.25   -9999.25    8.86260   -9999.25 2824.31740   -9999.25   -9999.25   -9999.25   29.85730
 5304.00000   96.88450  -28.28530   29.84670   29.49380   29.87540   -9999.25   -9999.25   -9999.25    8.86240   -9999.25 2823.26350   -9999.25   -9999.25   -9999.25   30.15070
 5304.50000   95.97260  -27.63290   29.63730   29.90140   29.65750   -9999.25   -9999.25   -9999.25    8.86230   -9999.25 2818.18980   -9999.25   -9999.25   -9999.25   30.64930
 5305.00000   95.96470  -26.76780   29.84260   30.10580   29.64720   -9999.25   -9999.25   -9999.25    8.86210   -9999.25 2804.51570   -9999.25   -9999.25   -9999.25   30.41190
 5305.50000   99.62010  -26.16090   30.89910   31.38270   30.94960   -9999.25   -9999.25   -9999.25    8.84570   -9999.25 2800.98520   -9999.25   -9999.25   -9999.25   30.91760
 5306.00000   99.62980  -25.85740   32.66930   33.64010   32.26460   -9999.25   -9999.25   -9999.25    8.83030   -9999.25 2803.11220   -9999.25   -9999.25   -9999.25   32.46730
 5306.50000   97.56840  -25.55390   34.06260   35.31400   33.63390   -9999.25   -9999.25   -9999.25    8.80110   -9999.25 2797.19280   -9999.25   -9999.25   -9999.25   34.29960
 5307.00000   96.42860  -24.94690   35.76380   37.85410   35.55380   -9999.25   -9999.25   -9999.25    8.75400   -9999.25 2795.45750   -9999.25   -9999.25   -9999.25   36.34850
 5307.50000  103.26750  -24.64340   42.27520   44.73420   39.76870   -9999.25   -9999.25   -9999.25    8.70830   -9999.25 2796.46020   -9999.25   -9999.25   -9999.25   42.54170
 5308.00000  126.51980  -23.73290   59.48780   68.88810   57.39750   -9999.25   -9999.25   -9999.25    8.66260   -9999.25 2797.55910   -9999.25   -9999.25   -9999.25   62.40950
 5308.50000  153.41940  -23.12590  112.18810  132.57790  104.90930   -9999.25   -9999.25   -9999.25    8.61690   -9999.25 2798.28130   -9999.25   -9999.25   -9999.25  117.80530
 5309.00000  165.95740  -22.21550  236.54480  226.65270  219.30840   -9999.25   -9999.25   -9999.25    8.57300   -9999.25 2799.35310   -9999.25   -9999.25   -9999.25  235.50740
 5309.50000  170.28880  -21.30500  291.55710  265.98790  266.34590   -9999.25   -9999.25   -9999.25    8.55770   -9999.25 2799.44270   -9999.25   -9999.25   -9999.25  243.68360
 5310.00000  165.25360  -20.39450  349.47940  314.33200  320.06320   -9999.25   -9999.25   -9999.25    8.55760   -9999.25 2799.05410   -9999.25   -9999.25   -9999.25  249.44940
 5310.50000  148.63220  -19.48410  401.74610  376.67490  506.73660   -9999.25   -9999.25   -9999.25    8.54230   -9999.25 2796.81740   -9999.25   -9999.25   -9999.25  385.07530
