~Version ---------------------------------------------------
VERS.   2.0 : CWLS log ASCII Standard -VERSION 2.0
WRAP.    NO : One line per depth step
DLM . SPACE : Column Data Section Delimiter
~Well ------------------------------------------------------
STRT .F                  205.0 : START DEPTH
STOP .F                 7752.0 : STOP DEPTH
STEP .F                    0.5 : STEP
NULL .                -9999.25 : NULL VALUE
COMP .                         : COMPANY
WELL .                         : WELL
FLD  .                         : FIELD
LOC  .                         : LOCATION
PROV .                         : PROVINCE
CNTY .                         : COUNTY
STAT .                         : STATE
CTRY .                         : COUNTRY
SRVC .                         : SERVICE COMPANY
DATE .                         : DATE
UWI  .                         : UNIQUE WELL ID
API  .                         : API NUMBER
SLAT .WGS84 1.4047718878026991 : SURFACE LATITUDE
SLON .WGS84   8.61810387525999 : SURFACE LONGITUDE
DATUM.F                 3512.0 : DEPTH DATUM ELEV
~Curve Information -----------------------------------------
DEPT   .F     : Depth in Feet
GRR    .GAPI  : GAMMA RAY FROM RESISTIVITY LOG
SPR    .MV    : SPONTANEOUS POTENTIAL FROM RESISTIVITY LOG
AT20   .OHMM  : ARRAY INDUCTION TWO FOOT RESISTIVITY A20
AT30   .OHMM  : ARRAY INDUCTION TWO FOOT RESISTIVITY A30
AT90   .OHMM  : ARRAY INDUCTION TWO FOOT RESISTIVITY A90
DTCO   .US/F  : DELTA-T COMPRESSIONAL
DTSM   .US/F  : DELTA-T SHEAR
GRS    .GAPI  : GAMMA RAY FROM SONIC LOG
HCALR  .IN    : HRCC CALIPER CALIBRATED FROM RESISTIVITY LOG
SPHI_LS.DEC   : SONIC POROSITY [LIMESTONE]
TENR   .LB    : TENSION FROM RESISTIVITY LOG
TENS   .LB    : TENSION FROM SONIC LOG
TNPH_LS.DEC   : THERMAL NEUTRON POROSITY [LIMESTONE]
AT10   .OHMM  : ARRAY INDUCTION TWO FOOT RESISTIVITY A10
AT60   .OHMM  : ARRAY INDUCTION TWO FOOT RESISTIVITY A60
~Params ----------------------------------------------------
~Other -----------------------------------------------------
~ASCII -----------------------------------------------------
# ...
 4138.00000   68.23100  -37.80610   27.89180   27.49650   27.49900   -9999.25   -9999.25   -9999.25    9.47690   -9999.25 2378.79700   -9999.25   -9999.25   -9999.25   27.96380
 4138.50000   67.09520  -37.50600   29.08820   29.27900   30.10170   -9999.25   -9999.25   -9999.25    9.47660   -9999.25 2399.55770   -9999.25   -9999.25   -9999.25   30.12100
 4139.00000   66.41410  -37.50910   32.75790   32.73750   33.64620   -9999.25   -9999.25   -9999.25    9.46120   -9999.25 2424.26210   -9999.25   -9999.25   -9999.25   32.65650
 4139.50000   66.18870  -37.20900   34.88530   34.61710   35.32460   -9999.25   -9999.25   -9999.25    9.46090   -9999.25 2413.38940   -9999.25   -9999.25   -9999.25   33.93760
 4140.00000   70.28870  -36.90900   33.45820   33.43070   32.94620   -9999.25   -9999.25   -9999.25    9.44540   -9999.25 2395.68000   -9999.25   -9999.25   -9999.25   33.16420
 4140.50000   75.98140  -36.58520   33.69620   33.19860   32.48840   -9999.25   -9999.25   -9999.25    9.43000   -9999.25 2377.21380   -9999.25   -9999.25   -9999.25   33.37680
 4141.00000   78.25990  -36.00600   34.41310   33.90130   33.63680   -9999.25   -9999.25   -9999.25    9.39940   -9999.25 2377.47580   -9999.25   -9999.25   -9999.25   34.27250
 4141.50000   78.94500  -35.70600   34.90070   34.86120   34.82650   -9999.25   -9999.25   -9999.25    9.38390   -9999.25 2396.62450   -9999.25   -9999.25   -9999.25   34.65330
 4142.00000   79.63010  -35.70910   35.39510   36.09930   35.55900   -9999.25   -9999.25   -9999.25    9.38360   -9999.25 2392.64180   -9999.25   -9999.25   -9999.25   35.47500
 4142.50000   80.54290  -36.01520   36.40150   37.90670   36.55990   -9999.25   -9999.25   -9999.25    9.36820   -9999.25 2386.89790   -9999.25   -9999.25   -9999.25   36.68040
 4143.00000   81.68320  -36.32120   38.22890   39.52770   38.92120   -9999.25   -9999.25   -9999.25    9.35270   -9999.25 2376.19450   -9999.25   -9999.25   -9999.25   39.21450
 4143.50000   82.82360  -36.32420   39.59130   39.80500   40.01820   -9999.25   -9999.25   -9999.25    9.33730   -9999.25 2375.22900   -9999.25   -9999.25   -9999.25   40.18260
 4144.00000   84.19160  -36.63020   40.43360   39.52860   38.91580   -9999.25   -9999.25   -9999.25    9.32180   -9999.25 2373.98600   -9999.25   -9999.25   -9999.25   40.04560
 4144.50000   84.87670  -36.33020   38.50880   37.12310   37.58180   -9999.25   -9999.25   -9999.25    9.30640   -9999.25 2391.05110   -9999.25   -9999.25   -9999.25   37.66520
 4145.00000   83.96850  -36.03020   36.42030   35.35380   35.79180   -9999.25   -9999.25   -9999.25    9.30610   -9999.25 2393.81370   -9999.25   -9999.25   -9999.25   35.99150
 4145.50000   81.46700  -36.03390   35.17340   34.86430   34.56500   -9999.25   -9999.25   -9999.25    9.29060   -9999.25 2386.06760   -9999.25   -9999.25   -9999.25   35.13740
 4146.00000   80.10360  -36.03690   36.17440   35.10880   34.80400   -9999.25   -9999.25   -9999.25    9.27510   -9999.25 2377.09340   -9999.25   -9999.25   -9999.25   35.87870
 4146.50000   78.74010  -36.04000   38.52470   37.38470   37.31070   -9999.25   -9999.25   -9999.25    9.24450   -9999.25 2372.89630   -9999.25   -9999.25   -9999.25   38.03800
 4147.00000   77.83190  -36.04300   40.45870   39.53130   39.44490   -9999.25   -9999.25   -9999.25    9.22910   -9999.25 2376.48730   -9999.25   -9999.25   -9999.25   40.10050
 4147.50000   78.97230  -36.04600   41.31950   41.22180   41.12460   -9999.25   -9999.25   -9999.25    9.19850   -9999.25 2379.99010   -9999.25   -9999.25   -9999.25   41.31770
 4148.00000   88.30690  -36.35210   42.49430   42.68580   43.17530   -9999.25   -9999.25   -9999.25    9.18300   -9999.25 2372.02710   -9999.25   -9999.25   -9999.25   43.01590
 4148.50000  108.79480  -36.65810   45.89170   45.45290   47.26170   -9999.25   -9999.25   -9999.25    9.15240   -9999.25 2365.75730   -9999.25   -9999.25   -9999.25   47.78890
 4149.00000  140.20830  -36.96420   60.68520   60.50740   66.00910   -9999.25   -9999.25   -9999.25    9.12180   -9999.25 2363.45610   -9999.25   -9999.25   -9999.25   62.12350
 4149.50000  151.35210  -37.57320   76.95490   76.70850   80.21020   -9999.25   -9999.25   -9999.25    9.09120   -9999.25 2359.41780   -9999.25   -9999.25   -9999.25   77.40300
 4150.00000  168.20940  -37.92180   81.38250   83.40880   82.47090   -9999.25   -9999.25   -9999.25    9.07580   -9999.25 2396.95340   -9999.25   -9999.25   -9999.25   79.27430
 4150.50000  158.56200  -38.48480   66.71230   66.65510   71.98870   -9999.25   -9999.25   -9999.25    9.06030   -9999.25 2415.54690   -9999.25   -9999.25   -9999.25   71.50420
 4151.00000  138.36480  -38.78790   56.42460   60.46090   62.30980   -9999.25   -9999.25   -9999.25    9.04480   -9999.25 2411.23380   -9999.25   -9999.25   -9999.25   64.53210
 4151.50000  108.30640  -38.78790   51.89330   53.33280   52.73410   -9999.25   -9999.25   -9999.25    9.02880   -9999.25 2378.65390   -9999.25   -9999.25   -9999.25   60.68970
 4152.00000   82.36060  -39.09090   60.51800   59.22630   54.59990   -9999.25   -9999.25   -9999.25    8.99880   -9999.25 2349.16090   -9999.25   -9999.25   -9999.25   61.57880
 4152.50000   75.80360  -39.39390   65.35640   64.85710   66.00070   -9999.25   -9999.25   -9999.25    8.99850   -9999.25 2368.07810   -9999.25   -9999.25   -9999.25   62.67750
 4153.00000   76.04690  -39.39390   55.66510   55.63810   59.96500   -9999.25   -9999.25   -9999.25    8.99940   -9999.25 2388.39760   -9999.25   -9999.25   -9999.25   55.98140
 4153.50000   78.33770  -39.39390   45.14920   46.73910   50.50170   -9999.25   -9999.25   -9999.25    9.02820   -9999.25 2401.64140   -9999.25   -9999.25   -9999.25   47.53360
 4154.00000   84.07760  -39.09090   41.81540   41.80810   41.11070   -9999.25   -9999.25   -9999.25    9.02950   -9999.25 2407.80970   -9999.25   -9999.25   -9999.25   42.37130
 4154.50000   93.83640  -39.09090   41.52770   40.66200   40.54230   -9999.25   -9999.25   -9999.25    9.04270   -9999.25 2401.26960   -9999.25   -9999.25   -9999.25   41.27000
 4155.00000   99.03640  -39.39390   42.41230   41.52990   41.11070   -9999.25   -9999.25   -9999.25    9.04240   -9999.25 2381.54620   -9999.25   -9999.25   -9999.25   41.54860
 4155.50000   96.49060  -39.39390   42.71390   42.11990   42.27160   -9999.25   -9999.25   -9999.25    9.05730   -9999.25 2375.35450   -9999.25   -9999.25   -9999.25   42.82420
 4156.00000   91.26630  -39.39390   42.71830   42.42120   42.86430   -9999.25   -9999.25   -9999.25    9.05640   -9999.25 2372.96020   -9999.25   -9999.25   -9999.25   43.31310
 4156.50000   88.33540  -39.09090   43.32360   43.02380   42.27160   -9999.25   -9999.25   -9999.25    9.04090   -9999.25 2379.82830   -9999.25   -9999.25   -9999.25   43.62510
 4157.00000   89.27930  -38.78790   45.18200   44.55800   44.07470   -9999.25   -9999.25   -9999.25    9.02540   -9999.25 2377.49070   -9999.25   -9999.25   -9999.25   45.55660
 4157.50000   90.17070  -38.48480   47.45020   46.47000   46.92460   -9999.25   -9999.25   -9999.25    9.01050   -9999.25 2374.41000   -9999.25   -9999.25   -9999.25   48.47640
 4158.00000   89.93380  -37.57580   50.53320   48.46410   49.61210   -9999.25   -9999.25   -9999.25    8.99510   -9999.25 2368.83180   -9999.25   -9999.25   -9999.25   51.97560
 4158.50000   90.88470  -38.18180   58.11300   54.19630   55.07310   -9999.25   -9999.25   -9999.25    8.97960   -9999.25 2376.82910   -9999.25   -9999.25   -9999.25   55.83070
 4159.00000   94.84330  -38.78790   64.53680   61.88870   64.18810   -9999.25   -9999.25   -9999.25    8.96420   -9999.25 2411.67730   -9999.25   -9999.25   -9999.25   63.22190
 4159.50000  103.59590  -39.39390   68.72990   66.83590   69.78080   -9999.25   -9999.25   -9999.25    8.96390   -9999.25 2418.56770   -9999.25   -9999.25   -9999.25   69.54660
 4160.00000  112.09410  -40.00000   74.74500   72.68400   75.86080   -9999.25   -9999.25   -9999.25    8.96360   -9999.25 2405.60890   -9999.25   -9999.25   -9999.25   76.22590
 4160.50000  110.46190  -40.30300   84.76450   84.75610   83.62670   -9999.25   -9999.25   -9999.25    8.94810   -9999.25 2382.78500   -9999.25   -9999.25   -9999.25   83.39580
