~Version ---------------------------------------------------
VERS.   2.0 : CWLS log ASCII Standard -VERSION 2.0
WRAP.    NO : One line per depth step
DLM . SPACE : Column Data Section Delimiter
~Well ------------------------------------------------------
STRT .F                  205.0 : START DEPTH
STOP .F                 7752.0 : STOP DEPTH
STEP .F                    0.5 : STEP
NULL .                -9999.25 : NULL VALUE
COMP .                         : COMPANY
WELL .                         : WELL
FLD  .                         : FIELD
LOC  .                         : LOCATION
PROV .                         : PROVINCE
CNTY .                         : COUNTY
STAT .                         : STATE
CTRY .                         : COUNTRY
SRVC .                         : SERVICE COMPANY
DATE .                         : DATE
UWI  .                         : UNIQUE WELL ID
API  .                         : API NUMBER
SLAT .WGS84 1.4047718878026991 : SURFACE LATITUDE
SLON .WGS84   8.61810387525999 : SURFACE LONGITUDE
DATUM.F                 3512.0 : DEPTH DATUM ELEV
~Curve Information -----------------------------------------
DEPT   .F     : Depth in Feet
GRR    .GAPI  : GAMMA RAY FROM RESISTIVITY LOG
SPR    .MV    : SPONTANEOUS POTENTIAL FROM RESISTIVITY LOG
AT20   .OHMM  : ARRAY INDUCTION TWO FOOT RESISTIVITY A20
AT30   .OHMM  : ARRAY INDUCTION TWO FOOT RESISTIVITY A30
AT90   .OHMM  : ARRAY INDUCTION TWO FOOT RESISTIVITY A90
DTCO   .US/F  : DELTA-T COMPRESSIONAL
DTSM   .US/F  : DELTA-T SHEAR
GRS    .GAPI  : GAMMA RAY FROM SONIC LOG
HCALR  .IN    : HRCC CALIPER CALIBRATED FROM RESISTIVITY LOG
SPHI_LS.DEC   : SONIC POROSITY [LIMESTONE]
TENR   .LB    : TENSION FROM RESISTIVITY LOG
TENS   .LB    : TENSION FROM SONIC LOG
TNPH_LS.DEC   : THERMAL NEUTRON POROSITY [LIMESTONE]
AT10   .OHMM  : ARRAY INDUCTION TWO FOOT RESISTIVITY A10
AT60   .OHMM  : ARRAY INDUCTION TWO FOOT RESISTIVITY A60
~Params ----------------------------------------------------
~Other -----------------------------------------------------
~ASCII -----------------------------------------------------
# ...
 3747.00000   56.69080  -45.45450   11.68340   11.65840   11.23270   -9999.25   -9999.25   -9999.25   11.37880   -9999.25 2310.57700   -9999.25   -9999.25   -9999.25   11.43220
 3747.50000   58.73650  -45.15150   11.04820   11.10280   10.69860   -9999.25   -9999.25   -9999.25   11.39390   -9999.25 2312.29000   -9999.25   -9999.25   -9999.25   10.82300
 3748.00000   62.83140  -45.15150   10.89460   10.72220   10.62500   -9999.25   -9999.25   -9999.25   11.40910   -9999.25 2301.63610   -9999.25   -9999.25   -9999.25   10.42590
 3748.50000   64.87760  -45.15150   10.89420   10.64770   10.62630   -9999.25   -9999.25   -9999.25   11.42420   -9999.25 2297.85090   -9999.25   -9999.25   -9999.25   10.44310
 3749.00000   64.87540  -45.15150   11.04700   10.87310   10.77650   -9999.25   -9999.25   -9999.25   11.42420   -9999.25 2311.42520   -9999.25   -9999.25   -9999.25   10.52640
 3749.50000   64.64550  -44.54550   11.35950   11.10320   11.00530   -9999.25   -9999.25   -9999.25   11.42420   -9999.25 2315.30040   -9999.25   -9999.25   -9999.25   10.72160
 3750.00000   64.97170  -43.93940   11.59960   11.35470   11.33070   -9999.25   -9999.25   -9999.25   11.42320   -9999.25 2316.08000   -9999.25   -9999.25   -9999.25   11.03220
 3750.50000   65.32250  -43.33840   11.88820   11.45410   11.69430   -9999.25   -9999.25   -9999.25   11.40870   -9999.25 2322.27530   -9999.25   -9999.25   -9999.25   11.33190
 3751.00000   65.31680  -43.95200   11.80580   11.32870   11.53500   -9999.25   -9999.25   -9999.25   11.42370   -9999.25 2291.10900   -9999.25   -9999.25   -9999.25   11.35830
 3751.50000   63.26370  -44.56410   11.56160   11.17340   11.06500   -9999.25   -9999.25   -9999.25   11.42330   -9999.25 2260.07250   -9999.25   -9999.25   -9999.25   11.15400
 3752.00000   60.30010  -44.26560   11.48140   11.17550   11.14500   -9999.25   -9999.25   -9999.25   11.43820   -9999.25 2292.44830   -9999.25   -9999.25   -9999.25   11.02650
 3752.50000   58.70220  -44.27320   11.48190   11.17720   11.22560   -9999.25   -9999.25   -9999.25   11.43780   -9999.25 2316.23790   -9999.25   -9999.25   -9999.25   11.06290
 3753.00000   58.47010  -43.97470   11.56270   11.17890   11.22820   -9999.25   -9999.25   -9999.25   11.45280   -9999.25 2317.40860   -9999.25   -9999.25   -9999.25   11.09500
 3753.50000   58.01030  -43.67920   11.48260   11.18050   11.30940   -9999.25   -9999.25   -9999.25   11.45240   -9999.25 2307.87770   -9999.25   -9999.25   -9999.25   11.08500
 3754.00000   57.32290  -43.68520   11.48300   11.18220   11.31200   -9999.25   -9999.25   -9999.25   11.48240   -9999.25 2303.34580   -9999.25   -9999.25   -9999.25   11.05570
 3754.50000   57.09070  -43.38820   11.40350   11.18390   11.31470   -9999.25   -9999.25   -9999.25   11.49720   -9999.25 2308.59930   -9999.25   -9999.25   -9999.25   11.02870
 3755.00000   58.67950  -43.39430   11.32460   11.10740   11.31730   -9999.25   -9999.25   -9999.25   11.49690   -9999.25 2307.58800   -9999.25   -9999.25   -9999.25   11.00180
 3755.50000   60.04070  -43.40030   11.24610   11.03180   11.16320   -9999.25   -9999.25   -9999.25   11.49660   -9999.25 2304.87360   -9999.25   -9999.25   -9999.25   10.97160
 3756.00000   60.49140  -43.40640   11.24650   10.95680   11.01120   -9999.25   -9999.25   -9999.25   11.49630   -9999.25 2304.49610   -9999.25   -9999.25   -9999.25   10.88020
 3756.50000   60.71560  -43.41240   11.24690   10.95880   10.86120   -9999.25   -9999.25   -9999.25   11.49600   -9999.25 2296.05610   -9999.25   -9999.25   -9999.25   10.78880
 3757.00000   61.16630  -43.72150   11.56590   11.19230   10.93970   -9999.25   -9999.25   -9999.25   11.48060   -9999.25 2276.88690   -9999.25   -9999.25   -9999.25   10.85770
 3757.50000   60.47770  -44.03060   12.06110   11.59140   11.40970   -9999.25   -9999.25   -9999.25   11.46510   -9999.25 2256.86880   -9999.25   -9999.25   -9999.25   11.20700
 3758.00000   57.74180  -44.33970   12.49010   11.83840   11.49220   -9999.25   -9999.25   -9999.25   11.41940   -9999.25 2282.39490   -9999.25   -9999.25   -9999.25   11.34530
 3758.50000   55.91630  -44.34570   12.49050   11.84020   11.17880   -9999.25   -9999.25   -9999.25   11.40390   -9999.25 2295.50750   -9999.25   -9999.25   -9999.25   11.10230
 3759.00000   55.00130  -44.35170   12.40390   11.84200   10.79830   -9999.25   -9999.25   -9999.25   11.40360   -9999.25 2302.40190   -9999.25   -9999.25   -9999.25   10.88540
 3759.50000   55.90720  -44.05450   12.23230   11.84380   10.80080   -9999.25   -9999.25   -9999.25   11.38810   -9999.25 2317.44500   -9999.25   -9999.25   -9999.25   10.79780
 3760.00000   56.58660  -44.06080   11.73090   11.60020   10.72820   -9999.25   -9999.25   -9999.25   11.38780   -9999.25 2320.12190   -9999.25   -9999.25   -9999.25   10.48130
 3760.50000   57.49140  -43.76380   11.32880   11.20410   10.58210   -9999.25   -9999.25   -9999.25   11.40280   -9999.25 2316.52910   -9999.25   -9999.25   -9999.25   10.48270
 3761.00000   58.85260  -43.46680   10.94040   10.67170   10.36550   -9999.25   -9999.25   -9999.25   11.40240   -9999.25 2320.52230   -9999.25   -9999.25   -9999.25   10.35380
 3761.50000   60.44140  -43.16970   10.56540   10.37910   10.22430   -9999.25   -9999.25   -9999.25   11.41730   -9999.25 2337.51530   -9999.25   -9999.25   -9999.25   10.32890
 3762.00000   62.48540  -42.56980   10.34670   10.30850   10.29830   -9999.25   -9999.25   -9999.25   11.40180   -9999.25 2339.07820   -9999.25   -9999.25   -9999.25   10.32560
 3762.50000   65.43990  -41.96980   10.64020   10.67650   10.59200   -9999.25   -9999.25   -9999.25   11.37120   -9999.25 2332.61310   -9999.25   -9999.25   -9999.25   10.45470
 3763.00000   69.30480  -41.06680   11.17360   11.29110   11.51900   -9999.25   -9999.25   -9999.25   11.35570   -9999.25 2320.31720   -9999.25   -9999.25   -9999.25   10.81700
 3763.50000   76.35640  -40.16370   12.06600   12.19370   12.61480   -9999.25   -9999.25   -9999.25   11.32510   -9999.25 2309.40820   -9999.25   -9999.25   -9999.25   11.88620
 3764.00000   81.35950  -38.95770   13.12110   12.98590   13.91150   -9999.25   -9999.25   -9999.25   11.29450   -9999.25 2321.63610   -9999.25   -9999.25   -9999.25   13.13320
 3764.50000   85.67970  -38.05450   14.16920   13.82960   15.02390   -9999.25   -9999.25   -9999.25   11.26390   -9999.25 2335.11530   -9999.25   -9999.25   -9999.25   14.31490
 3765.00000   88.40650  -36.84850   14.98370   14.72820   16.00060   -9999.25   -9999.25   -9999.25   11.23330   -9999.25 2338.01200   -9999.25   -9999.25   -9999.25   15.21360
 3765.50000   89.99530  -36.55150   15.62540   15.68510   16.45690   -9999.25   -9999.25   -9999.25   11.21780   -9999.25 2309.66450   -9999.25   -9999.25   -9999.25   15.78360
 3766.00000   87.71460  -36.86060   15.40920   15.90730   15.67660   -9999.25   -9999.25   -9999.25   11.21750   -9999.25 2301.39740   -9999.25   -9999.25   -9999.25   15.12800
 3766.50000   82.70240  -38.07880   14.27040   14.42960   14.52270   -9999.25   -9999.25   -9999.25   11.23250   -9999.25 2304.45780   -9999.25   -9999.25   -9999.25   14.01630
 3767.00000   76.77990  -38.69270   13.59010   13.64830   13.64250   -9999.25   -9999.25   -9999.25   11.23210   -9999.25 2305.82990   -9999.25   -9999.25   -9999.25   13.47990
 3767.50000   66.53250  -39.30300   13.12420   13.27410   13.27040   -9999.25   -9999.25   -9999.25   11.24700   -9999.25 2306.57550   -9999.25   -9999.25   -9999.25   13.04260
 3768.00000   58.78900  -39.62040   13.03320   12.91120   12.90840   -9999.25   -9999.25   -9999.25   11.26190   -9999.25 2302.39820   -9999.25   -9999.25   -9999.25   12.74420
 3768.50000   58.29010  -40.22420   13.03380   12.73420   12.55630   -9999.25   -9999.25   -9999.25   11.26150   -9999.25 2308.95910   -9999.25   -9999.25   -9999.25   12.60040
 3769.00000   60.82840  -40.53330   13.03420   12.73610   12.55920   -9999.25   -9999.25   -9999.25   11.27640   -9999.25 2323.83040   -9999.25   -9999.25   -9999.25   12.45750
 3769.50000   63.10010  -41.14550   13.31060   12.91700   12.65000   -9999.25   -9999.25   -9999.25   11.27600   -9999.25 2331.47400   -9999.25   -9999.25   -9999.25   12.48200
