~Version ---------------------------------------------------
VERS.   2.0 : CWLS log ASCII Standard -VERSION 2.0
WRAP.    NO : One line per depth step
DLM . SPACE : Column Data Section Delimiter
~Well ------------------------------------------------------
STRT .F                  205.0 : START DEPTH
STOP .F                 7752.0 : STOP DEPTH
STEP .F                    0.5 : STEP
NULL .                -9999.25 : NULL VALUE
COMP .                         : COMPANY
WELL .                         : WELL
FLD  .                         : FIELD
LOC  .                         : LOCATION
PROV .                         : PROVINCE
CNTY .                         : COUNTY
STAT .                         : STATE
CTRY .                         : COUNTRY
SRVC .                         : SERVICE COMPANY
DATE .                         : DATE
UWI  .                         : UNIQUE WELL ID
API  .                         : API NUMBER
SLAT .WGS84 1.4047718878026991 : SURFACE LATITUDE
SLON .WGS84   8.61810387525999 : SURFACE LONGITUDE
DATUM.F                 3512.0 : DEPTH DATUM ELEV
~Curve Information -----------------------------------------
DEPT   .F     : Depth in Feet
GRR    .GAPI  : GAMMA RAY FROM RESISTIVITY LOG
SPR    .MV    : SPONTANEOUS POTENTIAL FROM RESISTIVITY LOG
AT20   .OHMM  : ARRAY INDUCTION TWO FOOT RESISTIVITY A20
AT30   .OHMM  : ARRAY INDUCTION TWO FOOT RESISTIVITY A30
AT90   .OHMM  : ARRAY INDUCTION TWO FOOT RESISTIVITY A90
DTCO   .US/F  : DELTA-T COMPRESSIONAL
DTSM   .US/F  : DELTA-T SHEAR
GRS    .GAPI  : GAMMA RAY FROM SONIC LOG
HCALR  .IN    : HRCC CALIPER CALIBRATED FROM RESISTIVITY LOG
SPHI_LS.DEC   : SONIC POROSITY [LIMESTONE]
TENR   .LB    : TENSION FROM RESISTIVITY LOG
TENS   .LB    : TENSION FROM SONIC LOG
TNPH_LS.DEC   : THERMAL NEUTRON POROSITY [LIMESTONE]
AT10   .OHMM  : ARRAY INDUCTION TWO FOOT RESISTIVITY A10
AT60   .OHMM  : ARRAY INDUCTION TWO FOOT RESISTIVITY A60
~Params ----------------------------------------------------
~Other -----------------------------------------------------
~ASCII -----------------------------------------------------
# ...
 2965.00000   11.08450 -102.17850 2000.00000 1840.87340 1716.75780   -9999.25   -9999.25   -9999.25    8.93470   -9999.25 1969.05040   -9999.25   -9999.25   -9999.25 1667.30470
 2965.50000   10.39940 -102.18760 2000.00000 1826.39720 1524.55110   -9999.25   -9999.25   -9999.25    8.91920   -9999.25 1970.69980   -9999.25   -9999.25   -9999.25 1455.33650
 2966.00000   10.39710 -102.19850 2000.00000 1786.87230 1421.57930   -9999.25   -9999.25   -9999.25    8.90370   -9999.25 1972.34860   -9999.25   -9999.25   -9999.25 1290.88180
 2966.50000    9.71200 -102.20750 2000.00000 1645.66000 1193.93320   -9999.25   -9999.25   -9999.25    8.90340   -9999.25 1973.99800   -9999.25   -9999.25   -9999.25 1140.01220
 2967.00000    7.88880 -102.21660 1948.85600 1671.05420  995.77440   -9999.25   -9999.25   -9999.25    8.94870   -9999.25 1975.64740   -9999.25   -9999.25   -9999.25 1005.50280
 2967.50000    7.43180 -102.22560 1934.58790 1679.72570  981.77980   -9999.25   -9999.25   -9999.25    8.97880   -9999.25 1977.29630   -9999.25   -9999.25   -9999.25  988.10680
 2968.00000    8.33950 -102.23460 1907.03100 1619.19780  988.49380   -9999.25   -9999.25   -9999.25    8.97840   -9999.25 1978.94570   -9999.25   -9999.25   -9999.25 1001.95250
 2968.50000   10.84100 -101.94110 1645.79680 1519.09630 1030.45370   -9999.25   -9999.25   -9999.25    8.99330   -9999.25 1978.75600   -9999.25   -9999.25   -9999.25 1116.30440
 2969.00000   12.65960 -101.64760 1450.48520 1395.64160 1324.24600   -9999.25   -9999.25   -9999.25    8.99300   -9999.25 1976.69150   -9999.25   -9999.25   -9999.25 1327.34360
 2969.50000   13.56780 -101.35180 1217.23290 1279.00590 1296.56360   -9999.25   -9999.25   -9999.25    9.02310   -9999.25 1974.62690   -9999.25   -9999.25   -9999.25 1367.96970
 2970.00000   13.56600 -101.36310 1035.88890 1383.15830 1490.18590   -9999.25   -9999.25   -9999.25    9.08340   -9999.25 1972.55000   -9999.25   -9999.25   -9999.25 1497.24840
 2970.50000   11.88060 -101.06730 1027.87520 1504.99220  987.40890   -9999.25   -9999.25   -9999.25    9.14380   -9999.25 1970.48550   -9999.25   -9999.25   -9999.25 1638.68520
 2971.00000   11.28540 -101.38120 1094.77750 1699.00340 1119.20690   -9999.25   -9999.25   -9999.25    9.20420   -9999.25 1968.42090   -9999.25   -9999.25   -9999.25 1777.42960
 2971.50000   11.23950 -101.39020 1207.05570 1970.31040 1520.72940   -9999.25   -9999.25   -9999.25    9.26460   -9999.25 1966.35630   -9999.25   -9999.25   -9999.25 2011.71770
 2972.00000   10.51250 -101.39920 1387.92460 1965.92800 1735.77440   -9999.25   -9999.25   -9999.25    9.32500   -9999.25 1966.61390   -9999.25   -9999.25   -9999.25 2011.24400
 2972.50000    9.18810 -101.40830 1664.33760 1951.84440 1847.89470   -9999.25   -9999.25   -9999.25    9.37020   -9999.25 1967.06000   -9999.25   -9999.25   -9999.25 2010.76920
 2973.00000    8.54480 -101.41730 1847.91700 1939.89110 1407.57420   -9999.25   -9999.25   -9999.25    9.35480   -9999.25 1967.50540   -9999.25   -9999.25   -9999.25 2010.29460
 2973.50000    8.99780 -101.12150 2000.00000 1937.35550 1397.50210   -9999.25   -9999.25   -9999.25    9.41510   -9999.25 1967.95080   -9999.25   -9999.25   -9999.25 2009.82010
 2974.00000    9.94550 -101.13280 2000.00000 1925.61770 1446.77730   -9999.25   -9999.25   -9999.25    9.44520   -9999.25 1968.39620   -9999.25   -9999.25   -9999.25 2009.34570
 2974.50000   11.34670 -101.14190 2000.00000 1925.21530 1529.44870   -9999.25   -9999.25   -9999.25    9.47530   -9999.25 1968.84220   -9999.25   -9999.25   -9999.25 2009.21830
 2975.00000   11.72240 -100.84610 1951.60400 1922.57280 1782.62620   -9999.25   -9999.25   -9999.25    9.53560   -9999.25 1969.28760   -9999.25   -9999.25   -9999.25 2012.26550
 2975.50000   10.77220 -100.55250 1818.82750 1908.79570 1992.58810   -9999.25   -9999.25   -9999.25    9.58090   -9999.25 1969.73300   -9999.25   -9999.25   -9999.25 1853.65520
 2976.00000   10.12440 -100.56380 1660.27080 1800.57530 1732.87230   -9999.25   -9999.25   -9999.25    9.58050   -9999.25 1970.17840   -9999.25   -9999.25   -9999.25 1658.43880
 2976.50000   10.61330 -100.57290 1659.68980 1578.80630 1720.56230   -9999.25   -9999.25   -9999.25    9.61060   -9999.25 1972.15710   -9999.25   -9999.25   -9999.25 1602.20330
 2977.00000   11.03040 -100.58190 1602.05870 1629.12130 1844.32290   -9999.25   -9999.25   -9999.25    9.64070   -9999.25 1974.28100   -9999.25   -9999.25   -9999.25 1562.39210
 2977.50000   11.48340 -100.59100 1682.69570 1459.75310 1768.39000   -9999.25   -9999.25   -9999.25    9.68580   -9999.25 1976.40420   -9999.25   -9999.25   -9999.25 1889.23710
 2978.00000   11.25340 -100.29520 1791.66430 1497.89760 1707.44680   -9999.25   -9999.25   -9999.25    9.68550   -9999.25 1978.52810   -9999.25   -9999.25   -9999.25 2053.22590
 2978.50000   11.70650 -100.30650 1908.20350 1548.67460 1683.45030   -9999.25   -9999.25   -9999.25    9.70050   -9999.25 1980.65140   -9999.25   -9999.25   -9999.25 2052.43680
 2979.00000   12.38700 -100.31550 2000.00000 1596.41910 1614.14090   -9999.25   -9999.25   -9999.25    9.70010   -9999.25 1982.77520   -9999.25   -9999.25   -9999.25 2050.89320
 2979.50000   12.84000 -100.32450 2000.00000 1661.97790 1515.64840   -9999.25   -9999.25   -9999.25    9.69980   -9999.25 1984.89910   -9999.25   -9999.25   -9999.25 2049.34960
 2980.00000   13.52060 -100.33360 2000.00000 1730.12270 1526.01370   -9999.25   -9999.25   -9999.25    9.68430   -9999.25 1987.02230   -9999.25   -9999.25   -9999.25 2047.80950
 2980.50000   14.00320 -100.34260 2000.00000 1906.98070 1557.86160   -9999.25   -9999.25   -9999.25    9.68400   -9999.25 1989.15850   -9999.25   -9999.25   -9999.25 2046.26930
 2981.00000   14.45530 -100.04680 2000.00000 1933.43540 1612.79090   -9999.25   -9999.25   -9999.25    9.68370   -9999.25 1991.28240   -9999.25   -9999.25   -9999.25 2044.73040
 2981.50000   15.13540 -100.05810 2000.00000 1906.18430 1728.88980   -9999.25   -9999.25   -9999.25    9.66820   -9999.25 1993.40570   -9999.25   -9999.25   -9999.25 2043.19250
 2982.00000   15.07720 -100.06720 2000.00000 1853.40930 1815.07790   -9999.25   -9999.25   -9999.25    9.59210   -9999.25 1995.52950   -9999.25   -9999.25   -9999.25 2041.65590
 2982.50000   14.36620  -99.77140 2000.00000 1740.40030 1756.22500   -9999.25   -9999.25   -9999.25    9.48550   -9999.25 1997.65280   -9999.25   -9999.25   -9999.25 1830.87360
 2983.00000   12.29140  -99.47780 2000.00000 1589.36670 1668.63880   -9999.25   -9999.25   -9999.25    9.42450   -9999.25 1998.31130   -9999.25   -9999.25   -9999.25 1495.86070
 2983.50000    9.35690  -99.48910 2000.00000 1202.55430 1451.14660   -9999.25   -9999.25   -9999.25    9.36350   -9999.25 1998.11730   -9999.25   -9999.25   -9999.25 1222.14980
 2984.00000    8.03950  -99.49820 2000.00000 1017.17740 1210.29770   -9999.25   -9999.25   -9999.25    9.36320   -9999.25 1997.92340   -9999.25   -9999.25   -9999.25  998.52110
 2984.50000    8.06070  -99.50720 2000.00000  819.42410  974.83940   -9999.25   -9999.25   -9999.25    9.39340   -9999.25 1997.72940   -9999.25   -9999.25   -9999.25  803.23220
 2985.00000    9.21910  -99.81880 2000.00000  727.74770  785.18860   -9999.25   -9999.25   -9999.25    9.42330   -9999.25 1997.53540   -9999.25   -9999.25   -9999.25  742.14340
 2985.50000    9.85360  -99.82790 2000.00000  748.15750  758.12890   -9999.25   -9999.25   -9999.25    9.43830   -9999.25 1997.34140   -9999.25   -9999.25   -9999.25  800.77050
 2986.00000    9.83000  -99.83690 2000.00000  818.91090  784.86020   -9999.25   -9999.25   -9999.25    9.45310   -9999.25 1997.14750   -9999.25   -9999.25   -9999.25  903.81320
 2986.50000    8.93850 -100.14850 2000.00000  974.51590  902.11440   -9999.25   -9999.25   -9999.25    9.46800   -9999.25 1996.95350   -9999.25   -9999.25   -9999.25 1054.47230
 2987.00000    8.95620 -100.15760 2000.00000 1200.79760 1081.18260   -9999.25   -9999.25   -9999.25    9.46760   -9999.25 1996.75950   -9999.25   -9999.25   -9999.25 1375.38550
 2987.50000   10.12940 -100.16660 2000.00000 1469.34900 1370.12600   -9999.25   -9999.25   -9999.25    9.45220   -9999.25 1996.56550   -9999.25   -9999.25   -9999.25 1793.96400
