~Version ---------------------------------------------------
VERS.   2.0 : CWLS log ASCII Standard -VERSION 2.0
WRAP.    NO : One line per depth step
DLM . SPACE : Column Data Section Delimiter
~Well ------------------------------------------------------
STRT .F                  205.0 : START DEPTH
STOP .F                 7752.0 : STOP DEPTH
STEP .F                    0.5 : STEP
NULL .                -9999.25 : NULL VALUE
COMP .                         : COMPANY
WELL .                         : WELL
FLD  .                         : FIELD
LOC  .                         : LOCATION
PROV .                         : PROVINCE
CNTY .                         : COUNTY
STAT .                         : STATE
CTRY .                         : COUNTRY
SRVC .                         : SERVICE COMPANY
DATE .                         : DATE
UWI  .                         : UNIQUE WELL ID
API  .                         : API NUMBER
SLAT .WGS84 1.4047718878026991 : SURFACE LATITUDE
SLON .WGS84   8.61810387525999 : SURFACE LONGITUDE
DATUM.F                 3512.0 : DEPTH DATUM ELEV
~Curve Information -----------------------------------------
DEPT   .F     : Depth in Feet
GRR    .GAPI  : GAMMA RAY FROM RESISTIVITY LOG
SPR    .MV    : SPONTANEOUS POTENTIAL FROM RESISTIVITY LOG
AT20   .OHMM  : ARRAY INDUCTION TWO FOOT RESISTIVITY A20
AT30   .OHMM  : ARRAY INDUCTION TWO FOOT RESISTIVITY A30
AT90   .OHMM  : ARRAY INDUCTION TWO FOOT RESISTIVITY A90
DTCO   .US/F  : DELTA-T COMPRESSIONAL
DTSM   .US/F  : DELTA-T SHEAR
GRS    .GAPI  : GAMMA RAY FROM SONIC LOG
HCALR  .IN    : HRCC CALIPER CALIBRATED FROM RESISTIVITY LOG
SPHI_LS.DEC   : SONIC POROSITY [LIMESTONE]
TENR   .LB    : TENSION FROM RESISTIVITY LOG
TENS   .LB    : TENSION FROM SONIC LOG
TNPH_LS.DEC   : THERMAL NEUTRON POROSITY [LIMESTONE]
AT10   .OHMM  : ARRAY INDUCTION TWO FOOT RESISTIVITY A10
AT60   .OHMM  : ARRAY INDUCTION TWO FOOT RESISTIVITY A60
~Params ----------------------------------------------------
~Other -----------------------------------------------------
~ASCII -----------------------------------------------------
# ...
 3356.00000   14.36720 -103.30590 2000.00000 1987.72020 1733.91920   -9999.25   -9999.25   -9999.25   10.80850   -9999.25 2201.29470   -9999.25   -9999.25   -9999.25 2041.13720
 3356.50000   13.90890 -103.57640 2000.00000 1987.85910 1745.56460   -9999.25   -9999.25   -9999.25   10.80830   -9999.25 2203.91030   -9999.25   -9999.25   -9999.25 2041.13720
 3357.00000   12.77840 -103.89340 2000.00000 1987.99830 1732.83340   -9999.25   -9999.25   -9999.25   10.82340   -9999.25 2206.52590   -9999.25   -9999.25   -9999.25 2041.13720
 3357.50000   13.23600 -103.90540 2000.00000 1988.14730 1684.70500   -9999.25   -9999.25   -9999.25   10.82320   -9999.25 2205.64560   -9999.25   -9999.25   -9999.25 2041.13720
 3358.00000   13.46590 -103.91740 2000.00000 1988.27660 1649.48790   -9999.25   -9999.25   -9999.25   10.83830   -9999.25 2206.74830   -9999.25   -9999.25   -9999.25 2041.13720
 3358.50000   13.18600 -104.23190 2000.00000 1988.39060 1672.18440   -9999.25   -9999.25   -9999.25   10.83810   -9999.25 2207.85030   -9999.25   -9999.25   -9999.25 2041.13720
 3359.00000   12.10460 -104.54650 2000.00000 1988.35130 1695.19370   -9999.25   -9999.25   -9999.25   10.83790   -9999.25 2213.36290   -9999.25   -9999.25   -9999.25 2041.13720
 3359.50000   12.10700 -105.16360 2000.00000 1988.31800 1706.57900   -9999.25   -9999.25   -9999.25   10.83780   -9999.25 2221.73910   -9999.25   -9999.25   -9999.25 2041.13720
 3360.00000   12.10970 -105.78070 2000.00000 1988.28480 1705.98520   -9999.25   -9999.25   -9999.25   10.83760   -9999.25 2224.69380   -9999.25   -9999.25   -9999.25 2041.13720
 3360.50000   12.33960 -106.39790 2000.00000 1988.25150 1705.51050   -9999.25   -9999.25   -9999.25   10.83750   -9999.25 2222.42340   -9999.25   -9999.25   -9999.25 2041.13720
 3361.00000   12.56950 -106.40980 2000.00000 1988.21830 1716.96500   -9999.25   -9999.25   -9999.25   10.82210   -9999.25 2199.90480   -9999.25   -9999.25   -9999.25 2041.13720
 3361.50000   13.02700 -106.11620 2000.00000 1988.18490 1752.76860   -9999.25   -9999.25   -9999.25   10.80680   -9999.25 2216.63070   -9999.25   -9999.25   -9999.25 2041.13720
 3362.00000   12.80100 -105.52310 2000.00000 1988.15160 1801.83760   -9999.25   -9999.25   -9999.25   10.79150   -9999.25 2226.64540   -9999.25   -9999.25   -9999.25 2041.13720
 3362.50000   12.34860 -105.23250 2000.00000 1988.11840 1878.29080   -9999.25   -9999.25   -9999.25   10.79130   -9999.25 2225.70210   -9999.25   -9999.25   -9999.25 2041.13720
 3363.00000   11.66800 -105.55000 2000.00000 1988.08510 1917.59170   -9999.25   -9999.25   -9999.25   10.77600   -9999.25 2224.75870   -9999.25   -9999.25   -9999.25 2041.13720
 3363.50000   10.30460 -106.16720 2000.00000 1988.05180 1903.60580   -9999.25   -9999.25   -9999.25   10.77590   -9999.25 2221.11870   -9999.25   -9999.25   -9999.25 2021.16240
 3364.00000    9.39580 -106.48170 2000.00000 1988.01860 1850.73400   -9999.25   -9999.25   -9999.25   10.77570   -9999.25 2216.46640   -9999.25   -9999.25   -9999.25 1943.29570
 3364.50000   10.53670 -106.49370 2000.00000 1987.98520 1749.84290   -9999.25   -9999.25   -9999.25   10.77560   -9999.25 2212.87720   -9999.25   -9999.25   -9999.25 1774.04280
 3365.00000   10.76660 -106.50570 2000.00000 1987.95190 1564.69600   -9999.25   -9999.25   -9999.25   10.77540   -9999.25 2213.26760   -9999.25   -9999.25   -9999.25 1566.10540
 3365.50000   10.76890 -106.51770 2000.00000 1987.91870 1469.11900   -9999.25   -9999.25   -9999.25   10.77530   -9999.25 2226.39330   -9999.25   -9999.25   -9999.25 1488.95900
 3366.00000   10.54300 -106.52970 2000.00000 1987.88540 1448.37170   -9999.25   -9999.25   -9999.25   10.77510   -9999.25 2230.06100   -9999.25   -9999.25   -9999.25 1487.73040
 3366.50000    9.63530 -106.54160 2000.00000 1987.85210 1488.91930   -9999.25   -9999.25   -9999.25   10.77500   -9999.25 2226.05540   -9999.25   -9999.25   -9999.25 1533.04760
 3367.00000    9.40940 -106.55370 2000.00000 1987.81880 1607.15710   -9999.25   -9999.25   -9999.25   10.75960   -9999.25 2223.52630   -9999.25   -9999.25   -9999.25 1629.12800
 3367.50000    9.41220 -106.56580 2000.00000 1987.78550 1734.78450   -9999.25   -9999.25   -9999.25   10.77470   -9999.25 2221.89280   -9999.25   -9999.25   -9999.25 1771.73100
 3368.00000    9.64210 -106.27500 2000.00000 1987.75220 1795.95260   -9999.25   -9999.25   -9999.25   10.77450   -9999.25 2220.75050   -9999.25   -9999.25   -9999.25 1862.84150
 3368.50000   10.78240 -106.28740 2000.00000 1987.71900 1795.32780   -9999.25   -9999.25   -9999.25   10.77430   -9999.25 2219.94440   -9999.25   -9999.25   -9999.25 1884.33240
 3369.00000   11.46700 -106.29950 2000.00000 1987.68570 1745.46350   -9999.25   -9999.25   -9999.25   10.77420   -9999.25 2220.62510   -9999.25   -9999.25   -9999.25 1888.76410
 3369.50000    9.87650 -106.31400 2000.00000 1987.65250 1627.45800   -9999.25   -9999.25   -9999.25   10.77400   -9999.25 2225.10530   -9999.25   -9999.25   -9999.25 1883.32420
 3370.00000   10.10640 -106.32600 2000.00000 1987.61910 1455.26030   -9999.25   -9999.25   -9999.25   10.77390   -9999.25 2229.71380   -9999.25   -9999.25   -9999.25 1778.73810
 3370.50000   10.79150 -106.03240 2000.00000 1987.58580 1395.24890   -9999.25   -9999.25   -9999.25   10.75200   -9999.25 2235.23420   -9999.25   -9999.25   -9999.25 1674.92910
 3371.00000   11.24900 -106.04730 2000.00000 1987.55260 1404.61990   -9999.25   -9999.25   -9999.25   10.73830   -9999.25 2242.83890   -9999.25   -9999.25   -9999.25 1646.02420
 3371.50000   11.25120 -106.05930 2000.00000 1987.51930 1474.46330   -9999.25   -9999.25   -9999.25   10.72790   -9999.25 2250.68630   -9999.25   -9999.25   -9999.25 1663.32160
 3372.00000   11.93640 -106.37390 2000.00000 1987.48600 1580.49500   -9999.25   -9999.25   -9999.25   10.72780   -9999.25 2246.78390   -9999.25   -9999.25   -9999.25 1746.46850
 3372.50000   12.62150 -106.38590 2000.00000 1987.45280 1694.15160   -9999.25   -9999.25   -9999.25   10.71240   -9999.25 2230.07650   -9999.25   -9999.25   -9999.25 1862.41780
 3373.00000   13.30660 -106.39790 2000.00000 1987.41940 1867.34050   -9999.25   -9999.25   -9999.25   10.71230   -9999.25 2232.30600   -9999.25   -9999.25   -9999.25 1986.88480
 3373.50000   12.85360 -106.40980 2000.00000 1987.38610 1933.04790   -9999.25   -9999.25   -9999.25   10.71210   -9999.25 2244.36230   -9999.25   -9999.25   -9999.25 1986.88480
 3374.00000   12.40060 -106.42180 2000.00000 1987.35290 1959.64650   -9999.25   -9999.25   -9999.25   10.71200   -9999.25 2244.72860   -9999.25   -9999.25   -9999.25 1945.50640
 3374.50000   13.31340 -106.73640 2000.00000 1987.31960 1959.10080   -9999.25   -9999.25   -9999.25   10.71180   -9999.25 2227.22740   -9999.25   -9999.25   -9999.25 1945.50640
 3375.00000   15.13660 -106.74840 2000.00000 1987.28630 1958.55550   -9999.25   -9999.25   -9999.25   10.71170   -9999.25 2209.76200   -9999.25   -9999.25   -9999.25 1945.50640
 3375.50000   17.19320 -106.45480 2000.00000 1987.25310 1958.01010   -9999.25   -9999.25   -9999.25   10.71150   -9999.25 2216.78040   -9999.25   -9999.25   -9999.25 1945.50640
 3376.00000   17.41730 -106.46970 2000.00000 1987.21970 1957.46520   -9999.25   -9999.25   -9999.25   10.69620   -9999.25 2223.11680   -9999.25   -9999.25   -9999.25 1945.50640
 3376.50000   17.17400 -106.48170 2000.00000 1987.18650 1956.92020   -9999.25   -9999.25   -9999.25   10.69600   -9999.25 2229.28020   -9999.25   -9999.25   -9999.25 1945.50640
 3377.00000   16.03200 -106.19110 2000.00000 1987.15320 1956.37550   -9999.25   -9999.25   -9999.25   10.68070   -9999.25 2228.38510   -9999.25   -9999.25   -9999.25 1945.50640
 3377.50000   13.43450 -106.20310 2000.00000 1987.11990 1969.65210   -9999.25   -9999.25   -9999.25   10.68050   -9999.25 2226.32980   -9999.25   -9999.25   -9999.25 1945.50640
 3378.00000   11.17210 -106.51770 2000.00000 1987.08670 1982.88090   -9999.25   -9999.25   -9999.25   10.66520   -9999.25 2207.01910   -9999.25   -9999.25   -9999.25 1945.50640
 3378.50000   10.60000 -106.52970 2000.00000 1987.05330 1982.19070   -9999.25   -9999.25   -9999.25   10.66510   -9999.25 2218.00850   -9999.25   -9999.25   -9999.25 1945.50640
