~Version ---------------------------------------------------
VERS.   2.0 : CWLS log ASCII Standard -VERSION 2.0
WRAP.    NO : One line per depth step
DLM . SPACE : Column Data Section Delimiter
~Well ------------------------------------------------------
STRT .F                  205.0 : START DEPTH
STOP .F                 7752.0 : STOP DEPTH
STEP .F                    0.5 : STEP
NULL .                -9999.25 : NULL VALUE
COMP .                         : COMPANY
WELL .                         : WELL
FLD  .                         : FIELD
LOC  .                         : LOCATION
PROV .                         : PROVINCE
CNTY .                         : COUNTY
STAT .                         : STATE
CTRY .                         : COUNTRY
SRVC .                         : SERVICE COMPANY
DATE .                         : DATE
UWI  .                         : UNIQUE WELL ID
API  .                         : API NUMBER
SLAT .WGS84 1.4047718878026991 : SURFACE LATITUDE
SLON .WGS84   8.61810387525999 : SURFACE LONGITUDE
DATUM.F                 3512.0 : DEPTH DATUM ELEV
~Curve Information -----------------------------------------
DEPT   .F     : Depth in Feet
GRR    .GAPI  : GAMMA RAY FROM RESISTIVITY LOG
SPR    .MV    : SPONTANEOUS POTENTIAL FROM RESISTIVITY LOG
AT20   .OHMM  : ARRAY INDUCTION TWO FOOT RESISTIVITY A20
AT30   .OHMM  : ARRAY INDUCTION TWO FOOT RESISTIVITY A30
AT90   .OHMM  : ARRAY INDUCTION TWO FOOT RESISTIVITY A90
DTCO   .US/F  : DELTA-T COMPRESSIONAL
DTSM   .US/F  : DELTA-T SHEAR
GRS    .GAPI  : GAMMA RAY FROM SONIC LOG
HCALR  .IN    : HRCC CALIPER CALIBRATED FROM RESISTIVITY LOG
SPHI_LS.DEC   : SONIC POROSITY [LIMESTONE]
TENR   .LB    : TENSION FROM RESISTIVITY LOG
TENS   .LB    : TENSION FROM SONIC LOG
TNPH_LS.DEC   : THERMAL NEUTRON POROSITY [LIMESTONE]
AT10   .OHMM  : ARRAY INDUCTION TWO FOOT RESISTIVITY A10
AT60   .OHMM  : ARRAY INDUCTION TWO FOOT RESISTIVITY A60
~Params ----------------------------------------------------
~Other -----------------------------------------------------
~ASCII -----------------------------------------------------
# ...
 6461.00000  138.50380  -51.34660  741.96710 1186.18320 1194.74980   -9999.25   -9999.25   -9999.25    7.86860   -9999.25 3231.91030   -9999.25   -9999.25   -9999.25 1237.44880
 6461.50000  131.91600  -50.44200  654.53050  932.27140 1046.87730   -9999.25   -9999.25   -9999.25    7.86950   -9999.25 3240.02950   -9999.25   -9999.25   -9999.25 1129.64460
 6462.00000  123.28590  -49.84200  687.53220  788.52730  831.99850   -9999.25   -9999.25   -9999.25    7.87040   -9999.25 3242.48760   -9999.25   -9999.25   -9999.25  968.96260
 6462.50000  114.65580  -49.24200  722.14750  784.35200  781.66650   -9999.25   -9999.25   -9999.25    7.87130   -9999.25 3242.61670   -9999.25   -9999.25   -9999.25  830.16620
 6463.00000  104.66410  -48.64210  763.81670  790.24150  675.43620   -9999.25   -9999.25   -9999.25    7.85690   -9999.25 3238.76000   -9999.25   -9999.25   -9999.25  708.19520
 6463.50000  101.02650  -48.04360  807.89010  804.36710  856.42180   -9999.25   -9999.25   -9999.25    7.85800   -9999.25 3236.24570   -9999.25   -9999.25   -9999.25  696.69040
 6464.00000  103.06200  -48.04960  848.56540  999.29300  880.87230   -9999.25   -9999.25   -9999.25    7.85890   -9999.25 3232.38960   -9999.25   -9999.25   -9999.25  701.47750
 6464.50000  110.77080  -47.14660  903.81340 1129.33840  676.08240   -9999.25   -9999.25   -9999.25    7.87500   -9999.25 3229.87660   -9999.25   -9999.25   -9999.25  752.96490
 6465.00000  123.01820  -46.54660  976.18680 1152.25730  772.11660   -9999.25   -9999.25   -9999.25    7.89110   -9999.25 3226.02050   -9999.25   -9999.25   -9999.25  860.14720
 6465.50000  129.81920  -45.34060 1025.33530 1348.06200  690.91310   -9999.25   -9999.25   -9999.25    7.89200   -9999.25 3223.50740   -9999.25   -9999.25   -9999.25  982.58660
 6466.00000  127.54310  -44.43600  943.24180 1413.69650  676.78820   -9999.25   -9999.25   -9999.25    7.90800   -9999.25 3222.19280   -9999.25   -9999.25   -9999.25 1096.99520
 6466.50000  119.82070  -42.92840  861.68780 1362.72610  710.94750   -9999.25   -9999.25   -9999.25    7.90890   -9999.25 3222.83720   -9999.25   -9999.25   -9999.25 1177.89150
 6467.00000  110.96370  -41.72240  776.27600 1248.16000  716.17080   -9999.25   -9999.25   -9999.25    7.92500   -9999.25 3222.45910   -9999.25   -9999.25   -9999.25 1254.00890
 6467.50000  105.05670  -40.51630  744.65520 1198.44630  696.71570   -9999.25   -9999.25   -9999.25    7.94110   -9999.25 3223.31470   -9999.25   -9999.25   -9999.25  991.71460
 6468.00000  104.82300  -39.31030  612.67130  828.07650  614.75560   -9999.25   -9999.25   -9999.25    7.95710   -9999.25 3222.64010   -9999.25   -9999.25   -9999.25  765.10190
 6468.50000  106.85850  -38.10420  490.20600  596.34730  505.90530   -9999.25   -9999.25   -9999.25    7.95800   -9999.25 3222.39670   -9999.25   -9999.25   -9999.25  556.68200
 6469.00000  109.34800  -36.89820  429.46100  436.04000  459.02970   -9999.25   -9999.25   -9999.25    7.97410   -9999.25 3220.34140   -9999.25   -9999.25   -9999.25  395.63750
 6469.50000  108.43340  -35.99510  414.83250  325.11920  462.40190   -9999.25   -9999.25   -9999.25    7.99020   -9999.25 3219.62480   -9999.25   -9999.25   -9999.25  343.80070
 6470.00000  102.29950  -35.02960  448.08170  323.67600  422.48040   -9999.25   -9999.25   -9999.25    8.00620   -9999.25 3217.56830   -9999.25   -9999.25   -9999.25  318.62230
 6470.50000   95.03100  -34.12770  470.64140  357.33480  357.47670   -9999.25   -9999.25   -9999.25    8.00710   -9999.25 3223.43210   -9999.25   -9999.25   -9999.25  356.09420
 6471.00000   91.16640  -33.22590  494.33690  386.28410  365.19130   -9999.25   -9999.25   -9999.25    7.99270   -9999.25 3221.88270   -9999.25   -9999.25   -9999.25  361.56250
 6471.50000   91.84040  -32.38150  504.93420  425.72280  343.09900   -9999.25   -9999.25   -9999.25    7.99380   -9999.25 3221.16740   -9999.25   -9999.25   -9999.25  366.97670
 6472.00000   97.73370  -31.78150  433.20050  431.62650  278.43910   -9999.25   -9999.25   -9999.25    7.99470   -9999.25 3220.45200   -9999.25   -9999.25   -9999.25  319.83980
 6472.50000  102.03860  -31.12620  295.21810  298.21040  222.83580   -9999.25   -9999.25   -9999.25    7.98030   -9999.25 3218.39730   -9999.25   -9999.25   -9999.25  250.59030
 6473.00000  103.62030  -30.52740  283.17300  292.39110  226.04350   -9999.25   -9999.25   -9999.25    7.98140   -9999.25 3216.34200   -9999.25   -9999.25   -9999.25  226.20560
 6473.50000  104.97500  -29.98160  303.74270  303.08020  261.77680   -9999.25   -9999.25   -9999.25    7.96690   -9999.25 3215.62660   -9999.25   -9999.25   -9999.25  247.50660
 6474.00000  105.19520  -29.68460  351.77340  318.24480  269.27380   -9999.25   -9999.25   -9999.25    7.96790   -9999.25 3214.91190   -9999.25   -9999.25   -9999.25  276.08460
 6474.50000   95.88430  -29.38760  407.39930  346.19570  294.92350   -9999.25   -9999.25   -9999.25    7.96880   -9999.25 3212.85720   -9999.25   -9999.25   -9999.25  336.41880
 6475.00000   78.17700  -29.04120  520.23750  662.35440  580.19940   -9999.25   -9999.25   -9999.25    7.98480   -9999.25 3207.82490   -9999.25   -9999.25   -9999.25  503.73470
 6475.50000   67.50450  -28.74420  975.10140  888.33400  932.38460   -9999.25   -9999.25   -9999.25    7.98580   -9999.25 3211.76440   -9999.25   -9999.25   -9999.25  936.40410
 6476.00000   70.44780  -28.44840  554.26310  622.67740  556.81540   -9999.25   -9999.25   -9999.25    7.98670   -9999.25 3215.22260   -9999.25   -9999.25   -9999.25  541.89700
 6476.50000   91.99920  -27.89670  347.38130  318.99690  271.62980   -9999.25   -9999.25   -9999.25    7.98760   -9999.25 3221.62820   -9999.25   -9999.25   -9999.25  313.47130
 6477.00000  114.68530  -27.59980  225.44910  217.49960  208.47980   -9999.25   -9999.25   -9999.25    7.98850   -9999.25 3228.03380   -9999.25   -9999.25   -9999.25  214.04300
 6477.50000  119.89790  -27.30280  165.89600  168.12580  169.19000   -9999.25   -9999.25   -9999.25    7.98940   -9999.25 3233.09760   -9999.25   -9999.25   -9999.25  172.60530
 6478.00000  119.21030  -27.00580  151.55240  154.70720  155.66450   -9999.25   -9999.25   -9999.25    7.99030   -9999.25 3238.16140   -9999.25   -9999.25   -9999.25  158.52180
 6478.50000  119.20350  -26.40580  147.41180  149.47990  149.33880   -9999.25   -9999.25   -9999.25    7.99120   -9999.25 3244.56640   -9999.25   -9999.25   -9999.25  151.84240
 6479.00000  121.01210  -26.10890  147.46310  147.48110  147.30920   -9999.25   -9999.25   -9999.25    7.97700   -9999.25 3250.97130   -9999.25   -9999.25   -9999.25  150.78390
 6479.50000  120.09760  -25.81190  148.53690  153.85780  153.66920   -9999.25   -9999.25   -9999.25    7.97790   -9999.25 3241.86980   -9999.25   -9999.25   -9999.25  159.12780
 6480.00000  113.50980  -25.81820  176.89390  183.24490  182.99450   -9999.25   -9999.25   -9999.25    7.97880   -9999.25 3251.69340   -9999.25   -9999.25   -9999.25  180.30700
 6480.50000  104.65280  -25.82420  210.66440  207.84930  201.82790   -9999.25   -9999.25   -9999.25    7.97970   -9999.25 3225.72830   -9999.25   -9999.25   -9999.25  206.01450
 6481.00000   99.19970  -25.83030  213.66940  221.41800  217.99180   -9999.25   -9999.25   -9999.25    7.98060   -9999.25 3214.05630   -9999.25   -9999.25   -9999.25  213.60200
 6481.50000   97.37740  -26.13940  172.16860  200.92460  193.69350   -9999.25   -9999.25   -9999.25    7.99670   -9999.25 3213.84190   -9999.25   -9999.25   -9999.25  199.56320
 6482.00000   99.18610  -26.44850  156.18900  159.70600  152.86700   -9999.25   -9999.25   -9999.25    8.01270   -9999.25 3216.85970   -9999.25   -9999.25   -9999.25  173.54180
 6482.50000  104.39860  -26.45450  141.69260  138.98670  138.69880   -9999.25   -9999.25   -9999.25    8.01360   -9999.25 3218.53870   -9999.25   -9999.25   -9999.25  152.40680
 6483.00000  111.19970  -26.46060  133.10530  129.68970  129.40280   -9999.25   -9999.25   -9999.25    7.99940   -9999.25 3220.21840   -9999.25   -9999.25   -9999.25  134.67610
 6483.50000  114.36990  -26.76970  125.02970  129.75310  126.76830   -9999.25   -9999.25   -9999.25    8.00030   -9999.25 3223.23620   -9999.25   -9999.25   -9999.25  131.42830
