~Version ---------------------------------------------------
VERS.   2.0 : CWLS log ASCII Standard -VERSION 2.0
WRAP.    NO : One line per depth step
DLM . SPACE : Column Data Section Delimiter
~Well ------------------------------------------------------
STRT .F                  205.0 : START DEPTH
STOP .F                 7752.0 : STOP DEPTH
STEP .F                    0.5 : STEP
NULL .                -9999.25 : NULL VALUE
COMP .                         : COMPANY
WELL .                         : WELL
FLD  .                         : FIELD
LOC  .                         : LOCATION
PROV .                         : PROVINCE
CNTY .                         : COUNTY
STAT .                         : STATE
CTRY .                         : COUNTRY
SRVC .                         : SERVICE COMPANY
DATE .                         : DATE
UWI  .                         : UNIQUE WELL ID
API  .                         : API NUMBER
SLAT .WGS84 1.4047718878026991 : SURFACE LATITUDE
SLON .WGS84   8.61810387525999 : SURFACE LONGITUDE
DATUM.F                 3512.0 : DEPTH DATUM ELEV
~Curve Information -----------------------------------------
DEPT   .F     : Depth in Feet
GRR    .GAPI  : GAMMA RAY FROM RESISTIVITY LOG
SPR    .MV    : SPONTANEOUS POTENTIAL FROM RESISTIVITY LOG
AT20   .OHMM  : ARRAY INDUCTION TWO FOOT RESISTIVITY A20
AT30   .OHMM  : ARRAY INDUCTION TWO FOOT RESISTIVITY A30
AT90   .OHMM  : ARRAY INDUCTION TWO FOOT RESISTIVITY A90
DTCO   .US/F  : DELTA-T COMPRESSIONAL
DTSM   .US/F  : DELTA-T SHEAR
GRS    .GAPI  : GAMMA RAY FROM SONIC LOG
HCALR  .IN    : HRCC CALIPER CALIBRATED FROM RESISTIVITY LOG
SPHI_LS.DEC   : SONIC POROSITY [LIMESTONE]
TENR   .LB    : TENSION FROM RESISTIVITY LOG
TENS   .LB    : TENSION FROM SONIC LOG
TNPH_LS.DEC   : THERMAL NEUTRON POROSITY [LIMESTONE]
AT10   .OHMM  : ARRAY INDUCTION TWO FOOT RESISTIVITY A10
AT60   .OHMM  : ARRAY INDUCTION TWO FOOT RESISTIVITY A60
~Params ----------------------------------------------------
~Other -----------------------------------------------------
~ASCII -----------------------------------------------------
# ...
 4529.00000   75.79670  -41.19220   31.91100   33.19680   34.27570   -9999.25   -9999.25   -9999.25    9.45500   -9999.25 2522.75550   -9999.25   -9999.25   -9999.25   32.33090
 4529.50000   76.93480  -41.20210   29.15020   30.32220   29.82170   -9999.25   -9999.25   -9999.25    9.43960   -9999.25 2513.47180   -9999.25   -9999.25   -9999.25   29.63430
 4530.00000   78.75570  -40.90910   27.96220   28.28230   27.43560   -9999.25   -9999.25   -9999.25    9.42420   -9999.25 2513.47000   -9999.25   -9999.25   -9999.25   28.51250
 4530.50000   79.66620  -40.91910   27.38840   27.50760   26.87310   -9999.25   -9999.25   -9999.25    9.40880   -9999.25 2519.64520   -9999.25   -9999.25   -9999.25   28.05540
 4531.00000   76.93480  -40.32300   27.39830   27.51130   27.25970   -9999.25   -9999.25   -9999.25    9.39340   -9999.25 2527.12700   -9999.25   -9999.25   -9999.25   27.82210
 4531.50000   74.43100  -39.68180   27.40620   27.53090   27.84340   -9999.25   -9999.25   -9999.25    9.37800   -9999.25 2524.96730   -9999.25   -9999.25   -9999.25   27.59530
 4532.00000   73.52050  -38.52480   27.41400   27.51860   26.70980   -9999.25   -9999.25   -9999.25    9.37780   -9999.25 2520.14810   -9999.25   -9999.25   -9999.25   27.42530
 4532.50000   77.16240  -37.32510   27.61410   27.54900   27.09220   -9999.25   -9999.25   -9999.25    9.36230   -9999.25 2517.74370   -9999.25   -9999.25   -9999.25   27.59180
 4533.00000   82.85280  -36.12300   30.67220   29.44790   29.46440   -9999.25   -9999.25   -9999.25    9.31660   -9999.25 2524.90490   -9999.25   -9999.25   -9999.25   28.30580
 4533.50000   89.68130  -35.22380   34.30770   33.46840   33.88240   -9999.25   -9999.25   -9999.25    9.27090   -9999.25 2541.50230   -9999.25   -9999.25   -9999.25   33.79250
 4534.00000   93.77850  -34.32470   42.91010   41.26970   42.06880   -9999.25   -9999.25   -9999.25    9.22520   -9999.25 2545.98970   -9999.25   -9999.25   -9999.25   43.22260
 4534.50000   92.18510  -34.02920   54.04560   59.74420   55.61570   -9999.25   -9999.25   -9999.25    9.17950   -9999.25 2539.81400   -9999.25   -9999.25   -9999.25   59.29170
 4535.00000   78.52810  -34.34470   85.71100   97.38120   92.54640   -9999.25   -9999.25   -9999.25    9.14900   -9999.25 2531.14240   -9999.25   -9999.25   -9999.25   90.14850
 4535.50000   63.50530  -34.35470  165.28220  175.01640  148.72410   -9999.25   -9999.25   -9999.25    9.10320   -9999.25 2529.47070   -9999.25   -9999.25   -9999.25  141.98850
 4536.00000   50.98630  -34.66770  279.12310  260.53390  278.62450   -9999.25   -9999.25   -9999.25    9.07270   -9999.25 2528.60710   -9999.25   -9999.25   -9999.25  223.22220
 4536.50000   48.71020  -34.98070  229.61910  198.49090  252.78100   -9999.25   -9999.25   -9999.25    9.05730   -9999.25 2528.75170   -9999.25   -9999.25   -9999.25  215.37420
 4537.00000   52.12440  -34.99060  163.13060  156.59160  184.75710   -9999.25   -9999.25   -9999.25    9.04190   -9999.25 2528.89620   -9999.25   -9999.25   -9999.25  170.74330
 4537.50000   55.08350  -35.60670  134.19850  125.27290  130.41210   -9999.25   -9999.25   -9999.25    9.01130   -9999.25 2528.28770   -9999.25   -9999.25   -9999.25  140.23350
 4538.00000   57.37440  -35.91970  119.83510  119.16630  125.33750   -9999.25   -9999.25   -9999.25    8.99590   -9999.25 2527.67860   -9999.25   -9999.25   -9999.25  118.24630
 4538.50000   59.36310  -36.74010  102.05040  109.01380   99.13940   -9999.25   -9999.25   -9999.25    8.98060   -9999.25 2527.82190   -9999.25   -9999.25   -9999.25   99.72780
 4539.00000   61.35190  -38.63190   90.52230   89.44520   87.46090   -9999.25   -9999.25   -9999.25    9.00080   -9999.25 2527.96710   -9999.25   -9999.25   -9999.25   90.19030
 4539.50000   63.36330  -39.22360   88.58220   88.20770   85.65640   -9999.25   -9999.25   -9999.25    9.00030   -9999.25 2527.35800   -9999.25   -9999.25   -9999.25   93.38770
 4540.00000   65.88240  -40.42230   98.96790   94.57260  100.55170   -9999.25   -9999.25   -9999.25    8.99990   -9999.25 2530.48070   -9999.25   -9999.25   -9999.25   93.27750
 4540.50000   69.31340  -41.31760   78.48790   77.81200   89.95150   -9999.25   -9999.25   -9999.25    8.99960   -9999.25 2532.50630   -9999.25   -9999.25   -9999.25   81.34020
 4541.00000   72.97230  -42.51630   50.10560   58.47820   55.62430   -9999.25   -9999.25   -9999.25    8.99920   -9999.25 2533.63500   -9999.25   -9999.25   -9999.25   57.34290
 4541.50000   75.26050  -43.41150   41.73220   44.87640   43.59080   -9999.25   -9999.25   -9999.25    8.99880   -9999.25 2533.96730   -9999.25   -9999.25   -9999.25   44.35830
 4542.00000   71.62750  -44.61030   41.12460   42.44370   40.37700   -9999.25   -9999.25   -9999.25    8.99840   -9999.25 2533.79120   -9999.25   -9999.25   -9999.25   42.48150
 4542.50000   69.35930  -45.80900   42.55130   41.85660   43.29350   -9999.25   -9999.25   -9999.25    8.99800   -9999.25 2533.00610   -9999.25   -9999.25   -9999.25   42.21450
 4543.00000   69.82680  -46.70420   40.47170   39.03980   40.38340   -9999.25   -9999.25   -9999.25    8.98250   -9999.25 2532.22090   -9999.25   -9999.25   -9999.25   39.49510
 4543.50000   71.88990  -47.29600   37.96720   37.44160   37.40680   -9999.25   -9999.25   -9999.25    8.96700   -9999.25 2539.07680   -9999.25   -9999.25   -9999.25   37.56180
 4544.00000   73.49720  -47.28380   37.67710   37.70350   36.89110   -9999.25   -9999.25   -9999.25    8.95150   -9999.25 2548.99560   -9999.25   -9999.25   -9999.25   37.76040
 4544.50000   74.87640  -47.26860   38.76040   39.31320   39.00910   -9999.25   -9999.25   -9999.25    8.90560   -9999.25 2558.91500   -9999.25   -9999.25   -9999.25   38.64750
 4545.00000   75.79980  -46.94990   39.77580   40.42430   40.11430   -9999.25   -9999.25   -9999.25    8.85980   -9999.25 2547.24610   -9999.25   -9999.25   -9999.25   40.46560
 4545.50000   76.72310  -46.63130   41.32770   42.74150   42.71310   -9999.25   -9999.25   -9999.25    8.81400   -9999.25 2532.10100   -9999.25   -9999.25   -9999.25   44.88210
 4546.00000   77.18770  -45.96790   50.51090   51.94820   56.44440   -9999.25   -9999.25   -9999.25    8.78330   -9999.25 2534.35030   -9999.25   -9999.25   -9999.25   64.60830
 4546.50000   74.01060  -45.35150   79.99630   91.97740   92.57150   -9999.25   -9999.25   -9999.25    8.75260   -9999.25 2538.60860   -9999.25   -9999.25   -9999.25   97.73070
 4547.00000   70.19140  -44.46130  116.05420  115.90960  117.32270   -9999.25   -9999.25   -9999.25    8.72190   -9999.25 2546.98850   -9999.25   -9999.25   -9999.25  119.63050
 4547.50000   64.00080  -44.14260  123.19040  127.76100  123.19490   -9999.25   -9999.25   -9999.25    8.70640   -9999.25 2541.30760   -9999.25   -9999.25   -9999.25  121.23590
 4548.00000   58.29460  -44.12750  138.99910  140.78660  151.84300   -9999.25   -9999.25   -9999.25    8.70600   -9999.25 2534.81120   -9999.25   -9999.25   -9999.25  171.85570
 4548.50000   51.83060  -44.09690  210.33000  189.66760  196.50640   -9999.25   -9999.25   -9999.25    8.70560   -9999.25 2528.31480   -9999.25   -9999.25   -9999.25  257.81240
 4549.00000   47.31850  -43.49010  303.10740  350.45060  257.87560   -9999.25   -9999.25   -9999.25    8.72050   -9999.25 2521.81840   -9999.25   -9999.25   -9999.25  349.88970
 4549.50000   43.04200  -42.86800  348.11180  422.98270  288.30510   -9999.25   -9999.25   -9999.25    8.73530   -9999.25 2523.80880   -9999.25   -9999.25   -9999.25  383.90930
 4550.00000   41.26140  -42.24580  488.19180  500.86750  375.71630   -9999.25   -9999.25   -9999.25    8.75000   -9999.25 2529.05730   -9999.25   -9999.25   -9999.25  468.78710
 4550.50000   44.91130  -41.94560  553.90730  611.91830  441.04420   -9999.25   -9999.25   -9999.25    8.74960   -9999.25 2535.36900   -9999.25   -9999.25   -9999.25  521.26000
 4551.00000   44.91360  -41.03820  407.22450  411.39410  362.90460   -9999.25   -9999.25   -9999.25    8.68860   -9999.25 2531.30780   -9999.25   -9999.25   -9999.25  433.24070
 4551.50000   43.77600  -40.13070  364.19760  405.72280  329.19660   -9999.25   -9999.25   -9999.25    8.56700   -9999.25 2526.61280   -9999.25   -9999.25   -9999.25  358.02990
