~Version ---------------------------------------------------
VERS.   2.0 : CWLS log ASCII Standard -VERSION 2.0
WRAP.    NO : One line per depth step
DLM . SPACE : Column Data Section Delimiter
~Well ------------------------------------------------------
STRT .F                  205.0 : START DEPTH
STOP .F                 7752.0 : STOP DEPTH
STEP .F                    0.5 : STEP
NULL .                -9999.25 : NULL VALUE
COMP .                         : COMPANY
WELL .                         : WELL
FLD  .                         : FIELD
LOC  .                         : LOCATION
PROV .                         : PROVINCE
CNTY .                         : COUNTY
STAT .                         : STATE
CTRY .                         : COUNTRY
SRVC .                         : SERVICE COMPANY
DATE .                         : DATE
UWI  .                         : UNIQUE WELL ID
API  .                         : API NUMBER
SLAT .WGS84 1.4047718878026991 : SURFACE LATITUDE
SLON .WGS84   8.61810387525999 : SURFACE LONGITUDE
DATUM.F                 3512.0 : DEPTH DATUM ELEV
~Curve Information -----------------------------------------
DEPT   .F     : Depth in Feet
GRR    .GAPI  : GAMMA RAY FROM RESISTIVITY LOG
SPR    .MV    : SPONTANEOUS POTENTIAL FROM RESISTIVITY LOG
AT20   .OHMM  : ARRAY INDUCTION TWO FOOT RESISTIVITY A20
AT30   .OHMM  : ARRAY INDUCTION TWO FOOT RESISTIVITY A30
AT90   .OHMM  : ARRAY INDUCTION TWO FOOT RESISTIVITY A90
DTCO   .US/F  : DELTA-T COMPRESSIONAL
DTSM   .US/F  : DELTA-T SHEAR
GRS    .GAPI  : GAMMA RAY FROM SONIC LOG
HCALR  .IN    : HRCC CALIPER CALIBRATED FROM RESISTIVITY LOG
SPHI_LS.DEC   : SONIC POROSITY [LIMESTONE]
TENR   .LB    : TENSION FROM RESISTIVITY LOG
TENS   .LB    : TENSION FROM SONIC LOG
TNPH_LS.DEC   : THERMAL NEUTRON POROSITY [LIMESTONE]
AT10   .OHMM  : ARRAY INDUCTION TWO FOOT RESISTIVITY A10
AT60   .OHMM  : ARRAY INDUCTION TWO FOOT RESISTIVITY A60
~Params ----------------------------------------------------
~Other -----------------------------------------------------
~ASCII -----------------------------------------------------
# ...
 1815.00000   63.66430  -71.40850   26.49830   33.25890   41.24230   -9999.25   -9999.25   -9999.25    8.79180   -9999.25 1520.22770   -9999.25   -9999.25   -9999.25   40.01210
 1815.50000   67.75910  -72.02570   26.69190   33.02800   41.24510   -9999.25   -9999.25   -9999.25    8.74600   -9999.25 1510.68080   -9999.25   -9999.25   -9999.25   40.05470
 1816.00000   68.66790  -73.24800   26.88690   32.57090   41.24800   -9999.25   -9999.25   -9999.25    8.74590   -9999.25 1504.04900   -9999.25   -9999.25   -9999.25   40.09730
 1816.50000   67.75460  -74.47030   27.08330   32.34480   40.96360   -9999.25   -9999.25   -9999.25    8.68490   -9999.25 1503.94830   -9999.25   -9999.25   -9999.25   40.14390
 1817.00000   62.28950  -76.29780   27.09090   32.34480   40.68180   -9999.25   -9999.25   -9999.25    8.77600   -9999.25 1506.65100   -9999.25   -9999.25   -9999.25   40.59850
 1817.50000   59.55580  -78.12530   27.28880   32.34480   40.68530   -9999.25   -9999.25   -9999.25    9.00380   -9999.25 1511.62230   -9999.25   -9999.25   -9999.25   41.05810
 1818.00000   62.51250  -79.65020   27.68120   33.02800   40.40470   -9999.25   -9999.25   -9999.25    8.38050   -9999.25 1506.09380   -9999.25   -9999.25   -9999.25   41.52390
 1818.50000   60.91690  -80.57000   28.07930   34.19880   40.97570   -9999.25   -9999.25   -9999.25    8.07640   -9999.25 1503.69560   -9999.25   -9999.25   -9999.25   42.50050
 1819.00000   58.63850  -81.18720   28.68310   34.43790   41.55390   -9999.25   -9999.25   -9999.25    8.01550   -9999.25 1501.28390   -9999.25   -9999.25   -9999.25   43.31830
 1819.50000   57.95390  -81.19920   29.29990   33.49140   41.84760   -9999.25   -9999.25   -9999.25    7.86330   -9999.25 1500.86130   -9999.25   -9999.25   -9999.25   43.25460
 1820.00000   60.45490  -81.21130   29.51390   34.67860   41.55970   -9999.25   -9999.25   -9999.25    7.86320   -9999.25 1504.40600   -9999.25   -9999.25   -9999.25   41.56680
 1820.50000   61.13600  -81.22330   29.93830   39.03900   40.13870   -9999.25   -9999.25   -9999.25    7.86610   -9999.25 1505.65580   -9999.25   -9999.25   -9999.25   41.23050
 1821.00000   61.36130  -80.92980   28.71520   39.31200   44.87800   -9999.25   -9999.25   -9999.25    7.92960   -9999.25 1508.00210   -9999.25   -9999.25   -9999.25   46.19040
 1821.50000   62.26900  -80.63930   24.79730   28.33450   34.19570   -9999.25   -9999.25   -9999.25    8.03280   -9999.25 1500.00760   -9999.25   -9999.25   -9999.25   38.18130
 1822.00000   64.08760  -80.04620   21.26450   24.30810   34.19870   -9999.25   -9999.25   -9999.25    8.15700   -9999.25 1499.07540   -9999.25   -9999.25   -9999.25   36.32540
 1822.50000   65.67870  -79.45310   17.85620   20.28060   24.47340   -9999.25   -9999.25   -9999.25    8.31160   -9999.25 1508.33760   -9999.25   -9999.25   -9999.25   30.09820
 1823.00000   65.22120  -78.55740   23.79750   23.64000   27.55510   -9999.25   -9999.25   -9999.25    8.44250   -9999.25 1509.01090   -9999.25   -9999.25   -9999.25   30.20690
 1823.50000   64.30840  -78.26690   23.97140   23.80530   33.96810   -9999.25   -9999.25   -9999.25    8.47270   -9999.25 1502.94700   -9999.25   -9999.25   -9999.25   35.61470
 1824.00000   62.48520  -78.28200   24.65880   28.13780   37.71570   -9999.25   -9999.25   -9999.25    8.48510   -9999.25 1499.27870   -9999.25   -9999.25   -9999.25   39.72370
 1824.50000   59.75150  -78.29400   31.29230   39.58680   46.49350   -9999.25   -9999.25   -9999.25    8.37600   -9999.25 1505.12460   -9999.25   -9999.25   -9999.25   44.08320
 1825.00000   58.61120  -78.00300   36.25670   43.94770   53.45340   -9999.25   -9999.25   -9999.25    8.34550   -9999.25 1512.87690   -9999.25   -9999.25   -9999.25   54.23680
 1825.50000   60.42980  -77.71260   34.05290   42.73990   49.16650   -9999.25   -9999.25   -9999.25    8.34790   -9999.25 1519.68460   -9999.25   -9999.25   -9999.25   58.99180
 1826.00000   62.93130  -76.81730   31.53850   38.23150   50.56140   -9999.25   -9999.25   -9999.25    8.37810   -9999.25 1522.80930   -9999.25   -9999.25   -9999.25   53.67030
 1826.50000   63.38490  -75.92170   27.69010   33.25890   46.83190   -9999.25   -9999.25   -9999.25    8.39320   -9999.25 1522.44420   -9999.25   -9999.25   -9999.25   45.96900
 1827.00000   62.69920  -75.02570   23.03070   27.55580   38.26130   -9999.25   -9999.25   -9999.25    8.44090   -9999.25 1517.56510   -9999.25   -9999.25   -9999.25   38.12550
 1827.50000   60.19310  -73.52520   18.80540   22.51480   30.18820   -9999.25   -9999.25   -9999.25    8.61700   -9999.25 1504.33380   -9999.25   -9999.25   -9999.25   30.85530
 1828.00000   59.28090  -72.02440   14.93140   18.39590   23.98520   -9999.25   -9999.25   -9999.25    8.89240   -9999.25 1514.46580   -9999.25   -9999.25   -9999.25   24.85320
 1828.50000   59.50630  -70.52360   16.01830   20.13980   22.68520   -9999.25   -9999.25   -9999.25    9.11340   -9999.25 1523.10090   -9999.25   -9999.25   -9999.25   23.43570
 1829.00000   59.50340  -70.83820   18.30160   24.47800   27.96530   -9999.25   -9999.25   -9999.25    9.24770   -9999.25 1515.74580   -9999.25   -9999.25   -9999.25   27.01500
 1829.50000   58.81830  -70.85030   21.35400   25.70130   31.70690   -9999.25   -9999.25   -9999.25    9.35390   -9999.25 1511.25400   -9999.25   -9999.25   -9999.25   30.37460
 1830.00000   57.67790  -70.55980   20.77030   23.15100   29.57360   -9999.25   -9999.25   -9999.25    9.44480   -9999.25 1542.71680   -9999.25   -9999.25   -9999.25   27.37820
 1830.50000   54.94420  -69.96670   18.06240   20.85380   27.58380   -9999.25   -9999.25   -9999.25    9.61170   -9999.25 1512.90900   -9999.25   -9999.25   -9999.25   25.64140
 1831.00000   54.94200  -69.67610   18.97460   21.89600   26.27130   -9999.25   -9999.25   -9999.25    9.71590   -9999.25 1508.22570   -9999.25   -9999.25   -9999.25   25.87390
 1831.50000   56.07780  -69.99090   20.21390   23.80530   29.99510   -9999.25   -9999.25   -9999.25    9.79170   -9999.25 1505.57680   -9999.25   -9999.25   -9999.25   30.20230
 1832.00000   59.48980  -70.00300   21.23480   25.70130   32.38840   -9999.25   -9999.25   -9999.25    9.86750   -9999.25 1510.00060   -9999.25   -9999.25   -9999.25   32.42850
 1832.50000   64.03980  -70.31770   20.36730   24.99500   32.39060   -9999.25   -9999.25   -9999.25    9.94330   -9999.25 1511.23860   -9999.25   -9999.25   -9999.25   33.54400
 1833.00000   66.76900  -70.32980   21.39590   25.70130   33.30900   -9999.25   -9999.25   -9999.25   10.02080   -9999.25 1511.09220   -9999.25   -9999.25   -9999.25   35.21820
 1833.50000   66.99490  -70.64450   23.57590   29.33890   36.47170   -9999.25   -9999.25   -9999.25   10.11000   -9999.25 1508.72670   -9999.25   -9999.25   -9999.25   39.69270
 1834.00000   66.08160  -70.95920   26.09450   33.72550   48.88350   -9999.25   -9999.25   -9999.25   10.17220   -9999.25 1516.63100   -9999.25   -9999.25   -9999.25   44.01540
 1834.50000   64.71360  -71.27380   28.73130   35.16520   50.62040   -9999.25   -9999.25   -9999.25   10.23120   -9999.25 1532.06280   -9999.25   -9999.25   -9999.25   43.74840
 1835.00000   64.02850  -71.58850   27.55750   33.96130   40.78450   -9999.25   -9999.25   -9999.25   10.25990   -9999.25 1530.13780   -9999.25   -9999.25   -9999.25   37.25310
 1835.50000   66.53000  -71.90320   24.30240   28.73210   33.78850   -9999.25   -9999.25   -9999.25   10.24450   -9999.25 1529.90680   -9999.25   -9999.25   -9999.25   33.20030
 1836.00000   66.75590  -72.52280   22.66610   27.36450   34.26530   -9999.25   -9999.25   -9999.25   10.22920   -9999.25 1531.88480   -9999.25   -9999.25   -9999.25   35.64230
 1836.50000   63.79400  -72.83750   25.18200   30.16810   38.57990   -9999.25   -9999.25   -9999.25   10.22900   -9999.25 1528.55880   -9999.25   -9999.25   -9999.25   40.21380
 1837.00000   58.78410  -73.15210   28.97360   37.96610   47.89170   -9999.25   -9999.25   -9999.25   10.29230   -9999.25 1528.15170   -9999.25   -9999.25   -9999.25   45.58530
 1837.50000   56.05100  -73.46670   30.65070   38.76800   45.93270   -9999.25   -9999.25   -9999.25   10.36680   -9999.25 1533.41260   -9999.25   -9999.25   -9999.25   46.66000
