~Version ---------------------------------------------------
VERS.   2.0 : CWLS log ASCII Standard -VERSION 2.0
WRAP.    NO : One line per depth step
DLM . SPACE : Column Data Section Delimiter
~Well ------------------------------------------------------
STRT .F                  205.0 : START DEPTH
STOP .F                 7752.0 : STOP DEPTH
STEP .F                    0.5 : STEP
NULL .                -9999.25 : NULL VALUE
COMP .                         : COMPANY
WELL .                         : WELL
FLD  .                         : FIELD
LOC  .                         : LOCATION
PROV .                         : PROVINCE
CNTY .                         : COUNTY
STAT .                         : STATE
CTRY .                         : COUNTRY
SRVC .                         : SERVICE COMPANY
DATE .                         : DATE
UWI  .                         : UNIQUE WELL ID
API  .                         : API NUMBER
SLAT .WGS84 1.4047718878026991 : SURFACE LATITUDE
SLON .WGS84   8.61810387525999 : SURFACE LONGITUDE
DATUM.F                 3512.0 : DEPTH DATUM ELEV
~Curve Information -----------------------------------------
DEPT   .F     : Depth in Feet
GRR    .GAPI  : GAMMA RAY FROM RESISTIVITY LOG
SPR    .MV    : SPONTANEOUS POTENTIAL FROM RESISTIVITY LOG
AT20   .OHMM  : ARRAY INDUCTION TWO FOOT RESISTIVITY A20
AT30   .OHMM  : ARRAY INDUCTION TWO FOOT RESISTIVITY A30
AT90   .OHMM  : ARRAY INDUCTION TWO FOOT RESISTIVITY A90
DTCO   .US/F  : DELTA-T COMPRESSIONAL
DTSM   .US/F  : DELTA-T SHEAR
GRS    .GAPI  : GAMMA RAY FROM SONIC LOG
HCALR  .IN    : HRCC CALIPER CALIBRATED FROM RESISTIVITY LOG
SPHI_LS.DEC   : SONIC POROSITY [LIMESTONE]
TENR   .LB    : TENSION FROM RESISTIVITY LOG
TENS   .LB    : TENSION FROM SONIC LOG
TNPH_LS.DEC   : THERMAL NEUTRON POROSITY [LIMESTONE]
AT10   .OHMM  : ARRAY INDUCTION TWO FOOT RESISTIVITY A10
AT60   .OHMM  : ARRAY INDUCTION TWO FOOT RESISTIVITY A60
~Params ----------------------------------------------------
~Other -----------------------------------------------------
~ASCII -----------------------------------------------------
# ...
 2597.00000   10.51830  -90.33610 2000.00000 1975.53690 2000.00000   -9999.25   -9999.25   -9999.25   10.20610   -9999.25 1804.56820   -9999.25   -9999.25   -9999.25 1953.09810
 2597.50000   11.20430  -90.65070 2000.00000 1961.27420 2000.00000   -9999.25   -9999.25   -9999.25   10.20560   -9999.25 1806.04400   -9999.25   -9999.25   -9999.25 1870.82630
 2598.00000   11.66160  -90.96540 2000.00000 1960.72710 1986.10400   -9999.25   -9999.25   -9999.25   10.20520   -9999.25 1807.30490   -9999.25   -9999.25   -9999.25 1785.24370
 2598.50000   12.34760  -90.97740 2000.00000 1960.18030 1904.73220   -9999.25   -9999.25   -9999.25   10.18950   -9999.25 1806.40420   -9999.25   -9999.25   -9999.25 1643.35840
 2599.00000   12.80490  -90.98950 2000.00000 1959.63380 1764.11070   -9999.25   -9999.25   -9999.25   10.15870   -9999.25 1799.98870   -9999.25   -9999.25   -9999.25 1510.26800
 2599.50000   13.49090  -91.30410 2000.00000 1959.08700 1645.30250   -9999.25   -9999.25   -9999.25   10.14310   -9999.25 1782.73890   -9999.25   -9999.25   -9999.25 1397.52930
 2600.00000   14.17680  -91.92330 2000.00000 1959.61760 1587.11100   -9999.25   -9999.25   -9999.25   10.14260   -9999.25 1797.80180   -9999.25   -9999.25   -9999.25 1343.28980
 2600.50000   14.63410  -91.94730 2000.00000 1970.87710 1600.44030   -9999.25   -9999.25   -9999.25   10.11820   -9999.25 1797.41810   -9999.25   -9999.25   -9999.25 1330.21010
 2601.00000   15.09150  -91.97130 2000.00000 1982.13670 1657.56370   -9999.25   -9999.25   -9999.25   10.09710   -9999.25 1774.76290   -9999.25   -9999.25   -9999.25 1403.25060
 2601.50000   14.86280  -91.99530 2000.00000 1986.98960 1728.73720   -9999.25   -9999.25   -9999.25   10.06680   -9999.25 1749.77000   -9999.25   -9999.25   -9999.25 1533.59860
 2602.00000   14.63410  -92.32190 2000.00000 1987.26600 1821.10470   -9999.25   -9999.25   -9999.25   10.03640   -9999.25 1764.38810   -9999.25   -9999.25   -9999.25 1662.56880
 2602.50000   14.63410  -92.34590 2000.00000 1987.54250 1883.63600   -9999.25   -9999.25   -9999.25   10.00610   -9999.25 1814.50910   -9999.25   -9999.25   -9999.25 1803.20640
 2603.00000   14.40550  -92.36990 2000.00000 2000.00000 1946.16720   -9999.25   -9999.25   -9999.25   10.00610   -9999.25 1825.65610   -9999.25   -9999.25   -9999.25 1899.84660
 2603.50000   14.63410  -92.39390 2000.00000 2000.00000 2000.00000   -9999.25   -9999.25   -9999.25    9.99090   -9999.25 1806.34350   -9999.25   -9999.25   -9999.25 1920.31540
 2604.00000   14.86280  -92.41790 2000.00000 1988.37210 2000.00000   -9999.25   -9999.25   -9999.25    9.99090   -9999.25 1789.22160   -9999.25   -9999.25   -9999.25 1940.99930
 2604.50000   13.03350  -92.44190 2000.00000 1988.64870 2000.00000   -9999.25   -9999.25   -9999.25    9.97570   -9999.25 1783.71050   -9999.25   -9999.25   -9999.25 1962.81770
 2605.00000   10.06100  -92.76850 2000.00000 1988.92540 1989.34250   -9999.25   -9999.25   -9999.25    9.96050   -9999.25 1827.24870   -9999.25   -9999.25   -9999.25 1963.38340
 2605.50000    7.94050  -92.79270 2000.00000 1989.20200 1933.98290   -9999.25   -9999.25   -9999.25    9.96050   -9999.25 1815.10650   -9999.25   -9999.25   -9999.25 1906.81490
 2606.00000    8.90450  -93.11950 2000.00000 1989.47880 1852.90220   -9999.25   -9999.25   -9999.25    9.96050   -9999.25 1771.06120   -9999.25   -9999.25   -9999.25 1839.90670
 2606.50000   10.27250  -93.17410 2000.00000 1989.75560 1704.25630   -9999.25   -9999.25   -9999.25    9.96050   -9999.25 1757.17820   -9999.25   -9999.25   -9999.25 1711.90480
 2607.00000   10.27480  -93.47050 2000.00000 1990.03230 1479.63130   -9999.25   -9999.25   -9999.25    9.96050   -9999.25 1787.49620   -9999.25   -9999.25   -9999.25 1592.81290
 2607.50000    9.77980  -93.79730 2000.00000 1990.30920 1301.23210   -9999.25   -9999.25   -9999.25    9.94540   -9999.25 1783.30530   -9999.25   -9999.25   -9999.25 1482.67850
 2608.00000   10.05170  -94.12890 2000.00000 1990.58620 1256.84740   -9999.25   -9999.25   -9999.25    9.94540   -9999.25 1781.45940   -9999.25   -9999.25   -9999.25 1454.65170
 2608.50000   10.50920  -94.45540 2000.00000 1990.86300 1258.04930   -9999.25   -9999.25   -9999.25    9.94540   -9999.25 1782.56950   -9999.25   -9999.25   -9999.25 1481.81710
 2609.00000   11.19430  -93.87430 2000.00000 1991.14000 1314.26820   -9999.25   -9999.25   -9999.25    9.93020   -9999.25 1785.24820   -9999.25   -9999.25   -9999.25 1583.85710
 2609.50000   12.56230  -93.58970 2000.00000 2000.00000 1368.40750   -9999.25   -9999.25   -9999.25    9.91500   -9999.25 1775.77410   -9999.25   -9999.25   -9999.25 1693.69040
 2610.00000   14.15790  -93.61970 2000.00000 1991.69410 1407.40260   -9999.25   -9999.25   -9999.25    9.91500   -9999.25 1786.03630   -9999.25   -9999.25   -9999.25 1811.14840
 2610.50000   14.16020  -93.33520 2000.00000 1991.97110 1418.92690   -9999.25   -9999.25   -9999.25    9.89980   -9999.25 1756.67170   -9999.25   -9999.25   -9999.25 1894.02730
 2611.00000   13.25200  -93.05660 2000.00000 1992.24830 1437.75220   -9999.25   -9999.25   -9999.25    9.88470   -9999.25 1786.77050   -9999.25   -9999.25   -9999.25 1938.36880
 2611.50000    9.84000  -93.08660 2000.00000 1992.52540 1493.88330   -9999.25   -9999.25   -9999.25    9.86950   -9999.25 1804.96930   -9999.25   -9999.25   -9999.25 1915.95780
 2612.00000   10.06990  -93.11060 2000.00000 1992.80250 1624.84730   -9999.25   -9999.25   -9999.25    9.85430   -9999.25 1780.63300   -9999.25   -9999.25   -9999.25 1892.05660
 2612.50000    9.61690  -93.13460 2000.00000 1993.07980 1767.23050   -9999.25   -9999.25   -9999.25    9.85430   -9999.25 1764.97810   -9999.25   -9999.25   -9999.25 1870.17880
 2613.00000    8.48110  -92.85010 2000.00000 1993.35710 1893.20920   -9999.25   -9999.25   -9999.25    9.83920   -9999.25 1781.77400   -9999.25   -9999.25   -9999.25 1841.07380
 2613.50000    8.25570  -92.88010 2000.00000 1993.63440 1956.00820   -9999.25   -9999.25   -9999.25    9.83920   -9999.25 1801.08650   -9999.25   -9999.25   -9999.25 1892.13510
 2614.00000    8.48560  -92.60150 2000.00000 1993.91170 1970.10550   -9999.25   -9999.25   -9999.25    9.82400   -9999.25 1796.30380   -9999.25   -9999.25   -9999.25 1959.12330
 2614.50000    9.17070  -92.62750 2000.00000 1994.18910 1970.51760   -9999.25   -9999.25   -9999.25    9.82400   -9999.25 1777.98160   -9999.25   -9999.25   -9999.25 1983.19530
 2615.00000    9.85590  -92.64950 2000.00000 1994.46670 1971.01220   -9999.25   -9999.25   -9999.25    9.82400   -9999.25 1793.56210   -9999.25   -9999.25   -9999.25 1991.49490
 2615.50000   10.76860  -92.67350 2000.00000 1994.74400 1971.42370   -9999.25   -9999.25   -9999.25    9.82400   -9999.25 1782.87060   -9999.25   -9999.25   -9999.25 1994.57210
 2616.00000   11.90900  -92.69750 2000.00000 1995.02150 1971.83560   -9999.25   -9999.25   -9999.25    9.80880   -9999.25 1741.13110   -9999.25   -9999.25   -9999.25 1997.64940
 2616.50000   12.36650  -92.72150 2000.00000 1995.29920 1986.04630   -9999.25   -9999.25   -9999.25    9.79360   -9999.25 1727.46250   -9999.25   -9999.25   -9999.25 1995.05270
 2617.00000   12.59640  -92.74550 2000.00000 1995.57670 1986.46120   -9999.25   -9999.25   -9999.25    9.76330   -9999.25 1780.38780   -9999.25   -9999.25   -9999.25 1990.60660
 2617.50000   12.59860  -92.76950 2000.00000 1995.85420 1986.87600   -9999.25   -9999.25   -9999.25    9.76330   -9999.25 1822.64100   -9999.25   -9999.25   -9999.25 1988.01840
 2618.00000   12.13990  -92.79350 2000.00000 1996.13200 1987.29100   -9999.25   -9999.25   -9999.25    9.76330   -9999.25 1798.90510   -9999.25   -9999.25   -9999.25 1983.59620
 2618.50000   10.99380  -92.81750 2000.00000 1996.40970 1973.79250   -9999.25   -9999.25   -9999.25    9.76330   -9999.25 1776.36900   -9999.25   -9999.25   -9999.25 1981.01430
 2619.00000   11.25040  -93.14410 2000.00000 1996.68740 1960.48780   -9999.25   -9999.25   -9999.25    9.74810   -9999.25 1785.42250   -9999.25   -9999.25   -9999.25 1976.60680
 2619.50000   12.15250  -93.16810 2000.00000 1996.96520 1920.30760   -9999.25   -9999.25   -9999.25    9.74810   -9999.25 1783.15900   -9999.25   -9999.25   -9999.25 1974.03560
