~Version ---------------------------------------------------
VERS.   2.0 : CWLS log ASCII Standard -VERSION 2.0
WRAP.    NO : One line per depth step
DLM . SPACE : Column Data Section Delimiter
~Well ------------------------------------------------------
STRT .F                  205.0 : START DEPTH
STOP .F                 7752.0 : STOP DEPTH
STEP .F                    0.5 : STEP
NULL .                -9999.25 : NULL VALUE
COMP .                         : COMPANY
WELL .                         : WELL
FLD  .                         : FIELD
LOC  .                         : LOCATION
PROV .                         : PROVINCE
CNTY .                         : COUNTY
STAT .                         : STATE
CTRY .                         : COUNTRY
SRVC .                         : SERVICE COMPANY
DATE .                         : DATE
UWI  .                         : UNIQUE WELL ID
API  .                         : API NUMBER
SLAT .WGS84 1.4047718878026991 : SURFACE LATITUDE
SLON .WGS84   8.61810387525999 : SURFACE LONGITUDE
DATUM.F                 3512.0 : DEPTH DATUM ELEV
~Curve Information -----------------------------------------
DEPT   .F     : Depth in Feet
GRR    .GAPI  : GAMMA RAY FROM RESISTIVITY LOG
SPR    .MV    : SPONTANEOUS POTENTIAL FROM RESISTIVITY LOG
AT20   .OHMM  : ARRAY INDUCTION TWO FOOT RESISTIVITY A20
AT30   .OHMM  : ARRAY INDUCTION TWO FOOT RESISTIVITY A30
AT90   .OHMM  : ARRAY INDUCTION TWO FOOT RESISTIVITY A90
DTCO   .US/F  : DELTA-T COMPRESSIONAL
DTSM   .US/F  : DELTA-T SHEAR
GRS    .GAPI  : GAMMA RAY FROM SONIC LOG
HCALR  .IN    : HRCC CALIPER CALIBRATED FROM RESISTIVITY LOG
SPHI_LS.DEC   : SONIC POROSITY [LIMESTONE]
TENR   .LB    : TENSION FROM RESISTIVITY LOG
TENS   .LB    : TENSION FROM SONIC LOG
TNPH_LS.DEC   : THERMAL NEUTRON POROSITY [LIMESTONE]
AT10   .OHMM  : ARRAY INDUCTION TWO FOOT RESISTIVITY A10
AT60   .OHMM  : ARRAY INDUCTION TWO FOOT RESISTIVITY A60
~Params ----------------------------------------------------
~Other -----------------------------------------------------
~ASCII -----------------------------------------------------
# ...
 6829.00000  115.24360  -15.07340   28.89730   27.64080   28.57080   97.31610  213.44050   85.87080    7.90130    0.35390 3351.84360 2996.29630    0.12850   -9999.25   26.93290
 6829.50000  112.51590  -15.08240   30.13750   29.43850   29.80390   96.55800  214.84160   85.27280    7.88680    0.34430 3354.61860 2995.56700    0.10470   -9999.25   30.17670
 6830.00000  122.49620  -15.39450   28.30910   27.85110   27.43090   95.95150  220.79350   89.26830    7.90310    0.33560 3352.49470 2959.60920    0.10350   -9999.25   27.80450
 6830.50000  130.43420  -16.31270   27.53710   29.05360   27.63820   94.58680  222.52930   93.44680    7.90400    0.33130 3358.55000 2990.98120    0.11030   -9999.25   29.56470
 6831.00000  131.56430  -17.53390   36.66490   38.95170   40.57810   93.22210  220.77200   91.78570    7.90490    0.32430 3358.14970 2990.50190    0.11030   -9999.25   37.81600
 6831.50000  107.73220  -19.05810   45.52820   37.10920   44.45270   92.91890  216.26990   79.62760    7.93620    0.33780 3358.41970 2982.47120    0.09680   -9999.25   44.54810
 6832.00000   77.54610  -20.88540   46.50100   36.86100   46.70210  101.06870  215.09030   62.38340    7.98240    0.38560 3358.01870 2974.92590    0.07320   -9999.25   46.05120
 6832.50000   47.13310  -22.71270   64.56200   60.49840   54.47480  109.04240  217.80460   48.28070    8.01370    0.43830 3358.28930 2975.18690    0.05600   -9999.25   77.06820
 6833.00000   32.37820  -24.53990  101.63370  113.34850  105.70570  110.35630  225.54600   36.14870    8.06000    0.42730 3357.88840 2976.77710    0.03720   -9999.25  100.70180
 6833.50000   25.33890  -26.06410  165.67220  138.79660  130.37100  105.04340  224.63320   27.27070    8.07620    0.36010 3358.15770 2979.01630    0.02890   -9999.25  114.84290
 6834.00000   22.61120  -26.07320  142.12600  135.97080  135.05250   83.55900  223.72120   24.52860    8.13780    0.25270 3357.75740 2980.20880    0.02480   -9999.25  133.51060
 6834.50000   25.78370  -25.17320   88.45120  103.63450  106.62350   83.84740  226.90170   24.75350    8.18410    0.26970 3358.02800 2965.86740    0.02210   -9999.25  118.90170
 6835.00000   32.36010  -24.87700   46.88530   59.34920   50.94790   90.94770  227.20270   28.49790    8.20000    0.36870 3357.62650 2951.23190    0.02570   -9999.25   74.07510
 6835.50000   39.16340  -24.88830   35.47440   34.94920   42.22330  103.53300  221.13370   34.22930    8.15250    0.41730 3357.92180 2966.99680    0.03190   -9999.25   47.37050
 6836.00000   43.92440  -25.20040   39.39680   50.23940   42.54830  105.95910  220.06930   36.99100    8.19220    0.40620 3357.54860 2969.11160    0.03960   -9999.25   50.86180
 6836.50000   44.37370  -26.42160  112.22680  132.46110  108.36230  104.29110  225.52490   36.64910    8.21780    0.38540 3357.84700 2964.93910    0.04180   -9999.25  105.77680
 6837.00000   39.60360  -28.24890  165.91450  191.74480  192.05130  100.04550  231.89040   32.32680    8.08980    0.36720 3357.47330 2970.44690    0.03420   -9999.25  171.71100
 6837.50000   34.37970  -29.47010  173.03510  211.46030  252.20390   99.28730  232.79790   28.35910    8.02270    0.35230 3357.77100 2968.51590    0.02530   -9999.25  251.02600
 6838.00000   31.87900  -29.78220  152.65190  198.68520  207.59160   94.43520  231.27780   26.88560    8.14730    0.30980 3357.39790 2965.69460    0.02310   -9999.25  221.35290
 6838.50000   34.14370  -29.18520  140.42000  141.23550  133.87120   90.18950  225.05800   27.51840    8.12820    0.31450 3357.69690 2963.52230    0.02370   -9999.25  160.30730
 6839.00000   39.35850  -27.07310   69.41590   74.91110   75.09390   95.79990  221.26420   30.50900    7.99510    0.38200 3357.32310 2961.34990    0.02740   -9999.25   99.37800
 6839.50000   48.43120  -24.05180   45.04750   48.97660   49.10640  104.74600  219.89650   36.88780    7.98090    0.40690 3357.62090 2959.80260    0.03330   -9999.25   59.40260
 6840.00000   59.31920  -21.03060   29.85200   32.02070   31.66770  103.98790  219.74260   46.47230    7.98180    0.31320 3370.95420 2957.70730    0.04400   -9999.25   39.37920
 6840.50000   72.24960  -18.61540   22.90900   23.73430   22.35930   88.06670  220.04290   58.08850    7.98270    0.27570 3350.75340 2958.90780    0.06100   -9999.25   29.02270
 6841.00000   86.08770  -16.50330   17.32940   16.98960   16.80940   87.15690  220.64560   66.67680    7.92120    0.28110 3349.84780 2960.10830    0.08180   -9999.25   21.91470
 6841.50000   94.25260  -15.60300   19.13470   17.84560   17.90800   85.33740  220.64260   68.76190    7.89360    0.24730 3348.68950 2961.30810    0.09880   -9999.25   19.30290
 6842.00000   89.70950  -15.61240   33.59370   27.31430   30.22660   80.78850  218.82000   63.55440    7.87940    0.22520 3345.26950 2962.50860    0.10050   -9999.25   34.46510
 6842.50000   70.86990  -15.62140   62.66350   74.57170   67.90160   78.81730  216.99750   52.17600    7.88030    0.22730 3349.84220 2963.70840    0.07460   -9999.25   69.80950
 6843.00000   53.84570  -15.63050   69.53150   90.04950   71.33760   81.39500  212.74880   41.12860    7.89640    0.28820 3350.87320 2964.90900    0.04430   -9999.25   89.56920
 6843.50000   45.21790  -15.63960   57.20610   76.20090   67.50510   93.52540  211.83600   37.82620    7.99340    0.38840 3350.59090 2966.10950    0.03240   -9999.25   79.05380
 6844.00000   50.43270  -15.04260   27.12000   36.15050   31.80930  109.74980  212.13630   40.14080    8.11030    0.43110 3352.47510 2967.30990    0.04130   -9999.25   48.16970
 6844.50000   63.81690  -15.35470   23.26560   26.66340   23.41880  113.38890  212.89220   44.45940    7.94120    0.44880 3353.04280 2968.50980    0.05280   -9999.25   28.59620
 6845.00000   71.75490  -15.96990   29.50090   26.80550   26.56500  111.87260  212.28180   47.30100    7.90000    0.44040 3347.10680 2974.32090    0.06310   -9999.25   29.72080
 6845.50000   70.16190  -16.88800   34.16350   34.70650   32.76370  108.38510  212.12800   46.20020    7.90090    0.42960 3353.33010 2964.73680    0.06080   -9999.25   33.39320
 6846.00000   58.58400  -18.41220   34.64900   37.74840   36.39610  106.11070  214.70190   44.29600    7.88670    0.41960 3353.55800 2968.23710    0.05520   -9999.25   36.55870
 6846.50000   56.76400  -20.54250   20.25210   26.46110   25.69790  104.89770  217.12500   44.00780    7.90410    0.41040 3353.05580 2971.73740    0.04980   -9999.25   32.05750
 6847.00000   60.16340  -23.27890   18.62840   19.07400   19.05170  103.68460  218.20490   47.46800    8.05640    0.40260 3352.55420 2975.23770    0.04990   -9999.25   22.00400
 6847.50000   63.78970  -26.62130   26.22850   27.41890   27.20230  102.47160  216.05750   49.40200    8.11670    0.38820 3352.05190 2970.65270    0.05180   -9999.25   30.29470
 6848.00000   56.97730  -29.35760   47.80470   36.76010   54.65740  101.10690  216.04030   45.65380    8.02630    0.38200 3351.55030 2969.86770    0.04630   -9999.25   47.57910
 6848.50000   41.54160  -31.48790   67.77600   59.07890   59.87630   99.28120  217.11290   38.77030    8.04300    0.37150 3351.04870 2973.93980    0.03910   -9999.25   57.56280
 6849.00000   34.27530  -33.61820   68.73920   59.92940   59.90970   98.36660  216.65500   33.18820    8.07390    0.36090 3350.54640 2978.01190    0.03840   -9999.25   59.21920
 6849.50000   33.81690  -36.35460   56.16160   53.99870   55.51770  103.49900  214.37750   30.94250    7.98370    0.39080 3350.04480 2982.08390    0.04320   -9999.25   59.29990
 6850.00000   33.58550  -38.78790   57.91950   58.51030   57.52350  103.64450  212.25170   30.87640    7.56080    0.39720 3348.85200 2985.94500    0.04760   -9999.25   63.78760
 6850.50000   32.21130  -43.04340   76.38170   83.24330   75.14010   97.73940  212.09660   30.98100    7.59220    0.36340 3348.75380 2986.31200    0.05150   -9999.25   74.08940
 6851.00000   28.33210  -46.38880   80.22170   86.27070   92.03820   95.01080  212.70010   31.26760    7.71440    0.33580 3348.60610 2989.50770    0.05310   -9999.25   73.93890
 6851.50000   26.08330  -47.91610   68.34650   73.45610   88.91120   94.39860  213.91010   30.80450    7.82160    0.33150 3355.05430 2997.84170    0.05050   -9999.25   69.37400
