~Version ---------------------------------------------------
VERS.   2.0 : CWLS log ASCII Standard -VERSION 2.0
WRAP.    NO : One line per depth step
DLM . SPACE : Column Data Section Delimiter
~Well ------------------------------------------------------
STRT .F                  205.0 : START DEPTH
STOP .F                 7752.0 : STOP DEPTH
STEP .F                    0.5 : STEP
NULL .                -9999.25 : NULL VALUE
COMP .                         : COMPANY
WELL .                         : WELL
FLD  .                         : FIELD
LOC  .                         : LOCATION
PROV .                         : PROVINCE
CNTY .                         : COUNTY
STAT .                         : STATE
CTRY .                         : COUNTRY
SRVC .                         : SERVICE COMPANY
DATE .                         : DATE
UWI  .                         : UNIQUE WELL ID
API  .                         : API NUMBER
SLAT .WGS84 1.4047718878026991 : SURFACE LATITUDE
SLON .WGS84   8.61810387525999 : SURFACE LONGITUDE
DATUM.F                 3512.0 : DEPTH DATUM ELEV
~Curve Information -----------------------------------------
DEPT   .F     : Depth in Feet
GRR    .GAPI  : GAMMA RAY FROM RESISTIVITY LOG
SPR    .MV    : SPONTANEOUS POTENTIAL FROM RESISTIVITY LOG
AT20   .OHMM  : ARRAY INDUCTION TWO FOOT RESISTIVITY A20
AT30   .OHMM  : ARRAY INDUCTION TWO FOOT RESISTIVITY A30
AT90   .OHMM  : ARRAY INDUCTION TWO FOOT RESISTIVITY A90
DTCO   .US/F  : DELTA-T COMPRESSIONAL
DTSM   .US/F  : DELTA-T SHEAR
GRS    .GAPI  : GAMMA RAY FROM SONIC LOG
HCALR  .IN    : HRCC CALIPER CALIBRATED FROM RESISTIVITY LOG
SPHI_LS.DEC   : SONIC POROSITY [LIMESTONE]
TENR   .LB    : TENSION FROM RESISTIVITY LOG
TENS   .LB    : TENSION FROM SONIC LOG
TNPH_LS.DEC   : THERMAL NEUTRON POROSITY [LIMESTONE]
AT10   .OHMM  : ARRAY INDUCTION TWO FOOT RESISTIVITY A10
AT60   .OHMM  : ARRAY INDUCTION TWO FOOT RESISTIVITY A60
~Params ----------------------------------------------------
~Other -----------------------------------------------------
~ASCII -----------------------------------------------------
# ...
 4897.00000  113.52580  -25.23230   48.60400   47.19410   48.03900   -9999.25   -9999.25   -9999.25    8.59090   -9999.25 2620.92710   -9999.25   -9999.25   -9999.25   49.59920
 4897.50000   98.25230  -25.84230   48.60900   47.53530   48.72330   -9999.25   -9999.25   -9999.25    8.59090   -9999.25 2624.93330   -9999.25   -9999.25   -9999.25   49.83290
 4898.00000   80.69910  -26.75580   49.29920   50.62540   46.41700   -9999.25   -9999.25   -9999.25    8.57580   -9999.25 2628.93940   -9999.25   -9999.25   -9999.25   50.61450
 4898.50000   67.70520  -27.66930   57.51130   57.00920   54.12450   -9999.25   -9999.25   -9999.25    8.56060   -9999.25 2632.94560   -9999.25   -9999.25   -9999.25   59.21140
 4899.00000   60.86630  -28.58270   66.62350   63.75190   67.19120   -9999.25   -9999.25   -9999.25    8.54550   -9999.25 2636.79920   -9999.25   -9999.25   -9999.25   66.83230
 4899.50000   57.67480  -29.19270   67.56770   67.42440   66.27990   -9999.25   -9999.25   -9999.25    8.53030   -9999.25 2638.07790   -9999.25   -9999.25   -9999.25   66.31600
 4900.00000   58.01670  -29.80270   56.10110   56.65230   57.65000   -9999.25   -9999.25   -9999.25    8.53160   -9999.25 2638.42290   -9999.25   -9999.25   -9999.25   56.57280
 4900.50000   58.81990  -30.04550   46.49070   45.54260   44.57370   -9999.25   -9999.25   -9999.25    8.53960   -9999.25 2638.83780   -9999.25   -9999.25   -9999.25   47.66010
 4901.00000   62.01600  -30.40970   44.27560   43.07890   43.66090   -9999.25   -9999.25   -9999.25    8.52960   -9999.25 2639.31290   -9999.25   -9999.25   -9999.25   43.98270
 4901.50000   65.21200  -30.71320   41.87200   40.74690   40.42660   -9999.25   -9999.25   -9999.25    8.52930   -9999.25 2633.63260   -9999.25   -9999.25   -9999.25   42.14970
 4902.00000   67.26830  -31.32020   42.76780   43.09300   42.77580   -9999.25   -9999.25   -9999.25    8.52900   -9999.25 2625.52320   -9999.25   -9999.25   -9999.25   43.60510
 4902.50000   69.78040  -31.62370   43.68280   43.70530   43.09440   -9999.25   -9999.25   -9999.25    8.52870   -9999.25 2616.21910   -9999.25   -9999.25   -9999.25   44.11070
 4903.00000   72.52060  -31.92720   41.31140   41.05380   40.47390   -9999.25   -9999.25   -9999.25    8.54360   -9999.25 2624.67190   -9999.25   -9999.25   -9999.25   42.76430
 4903.50000   75.26070  -31.92720   38.52560   38.45840   37.23550   -9999.25   -9999.25   -9999.25    8.54330   -9999.25 2629.07900   -9999.25   -9999.25   -9999.25   39.13660
 4904.00000   76.40510  -32.23070   37.99650   36.98770   36.72790   -9999.25   -9999.25   -9999.25    8.54300   -9999.25 2629.87410   -9999.25   -9999.25   -9999.25   37.61470
 4904.50000   74.58600  -32.23070   37.47480   36.73670   36.73570   -9999.25   -9999.25   -9999.25    8.54270   -9999.25 2625.03760   -9999.25   -9999.25   -9999.25   37.41960
 4905.00000   72.53890  -32.23070   36.96030   36.48740   36.48820   -9999.25   -9999.25   -9999.25    8.54240   -9999.25 2622.30280   -9999.25   -9999.25   -9999.25   36.86750
 4905.50000   72.77140  -32.23070   36.70890   36.21160   35.74110   -9999.25   -9999.25   -9999.25    8.54210   -9999.25 2626.00130   -9999.25   -9999.25   -9999.25   36.69930
 4906.00000   74.37170  -32.53410   36.71540   35.99390   35.48010   -9999.25   -9999.25   -9999.25    8.54180   -9999.25 2639.46050   -9999.25   -9999.25   -9999.25   36.92220
 4906.50000   75.97200  -32.53410   37.76430   37.07570   37.54310   -9999.25   -9999.25   -9999.25    8.54150   -9999.25 2652.40020   -9999.25   -9999.25   -9999.25   37.85130
 4907.00000   74.97510  -32.53410   41.65900   40.91500   43.16540   -9999.25   -9999.25   -9999.25    8.55640   -9999.25 2669.08910   -9999.25   -9999.25   -9999.25   42.91060
 4907.50000   73.34760  -32.53410   46.60330   46.96720   48.26570   -9999.25   -9999.25   -9999.25    8.55610   -9999.25 2667.01530   -9999.25   -9999.25   -9999.25   48.31190
 4908.00000   71.34720  -32.53410   45.32450   44.06980   44.09560   -9999.25   -9999.25   -9999.25    8.55580   -9999.25 2644.64790   -9999.25   -9999.25   -9999.25   46.47140
 4908.50000   70.25290  -32.53410   41.10120   39.99490   38.36830   -9999.25   -9999.25   -9999.25    8.55550   -9999.25 2625.00610   -9999.25   -9999.25   -9999.25   41.64220
 4909.00000   71.08250  -32.53410   37.27150   36.53520   34.56830   -9999.25   -9999.25   -9999.25    8.57030   -9999.25 2620.53290   -9999.25   -9999.25   -9999.25   37.37980
 4909.50000   74.27320  -32.53410   34.75820   34.31870   32.67260   -9999.25   -9999.25   -9999.25    8.58520   -9999.25 2635.08930   -9999.25   -9999.25   -9999.25   33.52190
 4910.00000   77.49190  -32.53410   34.71560   33.84890   34.10430   -9999.25   -9999.25   -9999.25    8.58480   -9999.25 2630.03990   -9999.25   -9999.25   -9999.25   32.93350
 4910.50000   79.88300  -32.53410   37.03070   35.05560   34.34990   -9999.25   -9999.25   -9999.25    8.58450   -9999.25 2618.52120   -9999.25   -9999.25   -9999.25   34.36610
 4911.00000   78.18890  -32.23070   40.00110   38.12100   36.32640   -9999.25   -9999.25   -9999.25    8.58420   -9999.25 2608.75870   -9999.25   -9999.25   -9999.25   36.17640
 4911.50000   72.43520  -31.62370   45.37930   42.62690   44.16050   -9999.25   -9999.25   -9999.25    8.58390   -9999.25 2605.40740   -9999.25   -9999.25   -9999.25   38.24260
 4912.00000   68.18500  -31.32020   74.08080   63.43820   67.56070   -9999.25   -9999.25   -9999.25    8.58360   -9999.25 2601.09170   -9999.25   -9999.25   -9999.25   60.95640
 4912.50000   65.00550  -31.01670   86.42700   86.83250   65.71770   -9999.25   -9999.25   -9999.25    8.58330   -9999.25 2602.13010   -9999.25   -9999.25   -9999.25   89.27020
 4913.00000   61.89660  -31.01670   80.03690   78.22280   55.61050   -9999.25   -9999.25   -9999.25    8.58300   -9999.25 2605.65510   -9999.25   -9999.25   -9999.25   78.83200
 4913.50000   63.53970  -30.71320   63.98830   63.02840   54.09350   -9999.25   -9999.25   -9999.25    8.58270   -9999.25 2613.81750   -9999.25   -9999.25   -9999.25   64.91000
 4914.00000   66.75510  -30.40970   55.63980   52.95500   48.73600   -9999.25   -9999.25   -9999.25    8.58240   -9999.25 2629.17080   -9999.25   -9999.25   -9999.25   55.53710
 4914.50000   70.85390  -29.80270   48.72030   46.71690   43.60440   -9999.25   -9999.25   -9999.25    8.58210   -9999.25 2646.10600   -9999.25   -9999.25   -9999.25   50.85360
 4915.00000   75.67820  -29.19580   44.18060   42.97430   39.01300   -9999.25   -9999.25   -9999.25    8.58180   -9999.25 2650.18140   -9999.25   -9999.25   -9999.25   47.68270
 4915.50000   81.08440  -28.89230   43.87810   41.79920   37.94880   -9999.25   -9999.25   -9999.25    8.58150   -9999.25 2646.46060   -9999.25   -9999.25   -9999.25   45.49220
 4916.00000   84.75590  -28.58880   42.67600   41.22540   39.57710   -9999.25   -9999.25   -9999.25    8.59640   -9999.25 2645.50430   -9999.25   -9999.25   -9999.25   43.32220
 4916.50000   91.56380  -27.98180   37.36870   37.92430   36.41050   -9999.25   -9999.25   -9999.25    8.61120   -9999.25 2641.78420   -9999.25   -9999.25   -9999.25   38.84570
 4917.00000   93.39210  -27.98180   31.15700   31.42190   30.81060   -9999.25   -9999.25   -9999.25    8.64120   -9999.25 2638.06400   -9999.25   -9999.25   -9999.25   32.86680
 4917.50000   95.90430  -27.67830   28.45230   28.70380   27.95170   -9999.25   -9999.25   -9999.25    8.64090   -9999.25 2645.83240   -9999.25   -9999.25   -9999.25   29.17380
 4918.00000   98.41640  -27.67830   29.47060   28.50790   28.74920   -9999.25   -9999.25   -9999.25    8.64060   -9999.25 2656.64740   -9999.25   -9999.25   -9999.25   30.76720
 4918.50000   99.33290  -27.67830   32.28330   30.36030   31.48120   -9999.25   -9999.25   -9999.25    8.64030   -9999.25 2654.57790   -9999.25   -9999.25   -9999.25   33.17010
 4919.00000   98.88150  -27.98180   35.11780   33.24610   36.70350   -9999.25   -9999.25   -9999.25    8.64000   -9999.25 2629.09350   -9999.25   -9999.25   -9999.25   36.30480
 4919.50000   98.20220  -27.98180   37.14650   36.66100   35.70230   -9999.25   -9999.25   -9999.25    8.63970   -9999.25 2622.52800   -9999.25   -9999.25   -9999.25   37.92140
