~Version ---------------------------------------------------
VERS.   2.0 : CWLS log ASCII Standard -VERSION 2.0
WRAP.    NO : One line per depth step
DLM . SPACE : Column Data Section Delimiter
~Well ------------------------------------------------------
STRT .F                  205.0 : START DEPTH
STOP .F                 7752.0 : STOP DEPTH
STEP .F                    0.5 : STEP
NULL .                -9999.25 : NULL VALUE
COMP .                         : COMPANY
WELL .                         : WELL
FLD  .                         : FIELD
LOC  .                         : LOCATION
PROV .                         : PROVINCE
CNTY .                         : COUNTY
STAT .                         : STATE
CTRY .                         : COUNTRY
SRVC .                         : SERVICE COMPANY
DATE .                         : DATE
UWI  .                         : UNIQUE WELL ID
API  .                         : API NUMBER
SLAT .WGS84 1.4047718878026991 : SURFACE LATITUDE
SLON .WGS84   8.61810387525999 : SURFACE LONGITUDE
DATUM.F                 3512.0 : DEPTH DATUM ELEV
~Curve Information -----------------------------------------
DEPT   .F     : Depth in Feet
GRR    .GAPI  : GAMMA RAY FROM RESISTIVITY LOG
SPR    .MV    : SPONTANEOUS POTENTIAL FROM RESISTIVITY LOG
AT20   .OHMM  : ARRAY INDUCTION TWO FOOT RESISTIVITY A20
AT30   .OHMM  : ARRAY INDUCTION TWO FOOT RESISTIVITY A30
AT90   .OHMM  : ARRAY INDUCTION TWO FOOT RESISTIVITY A90
DTCO   .US/F  : DELTA-T COMPRESSIONAL
DTSM   .US/F  : DELTA-T SHEAR
GRS    .GAPI  : GAMMA RAY FROM SONIC LOG
HCALR  .IN    : HRCC CALIPER CALIBRATED FROM RESISTIVITY LOG
SPHI_LS.DEC   : SONIC POROSITY [LIMESTONE]
TENR   .LB    : TENSION FROM RESISTIVITY LOG
TENS   .LB    : TENSION FROM SONIC LOG
TNPH_LS.DEC   : THERMAL NEUTRON POROSITY [LIMESTONE]
AT10   .OHMM  : ARRAY INDUCTION TWO FOOT RESISTIVITY A10
AT60   .OHMM  : ARRAY INDUCTION TWO FOOT RESISTIVITY A60
~Params ----------------------------------------------------
~Other -----------------------------------------------------
~ASCII -----------------------------------------------------
# ...
 7220.00000  127.18060   23.71720   34.68730   39.40140   36.06360   79.96950  135.50660   90.56810    7.74240    0.23330 3468.20610 3204.31070    0.23490   34.18160   39.33510
 7220.50000  126.96250   23.99410   46.20700   45.95680   44.31240   79.96790  134.60030   88.98680    7.75800    0.23300 3472.15300 3199.00570    0.22620   42.80490   46.36430
 7221.00000  127.65570   24.29100   48.69160   47.93660   46.04740   79.81480  134.31390   89.17890    7.77360    0.23040 3471.51610 3195.15310    0.21710   52.78040   47.03430
 7221.50000  134.25570   24.58800   46.66780   47.61630   43.56570   79.66170  134.31390   91.81330    7.78900    0.22760 3468.46190 3189.34180    0.20540   49.81360   44.01230
 7222.00000  134.94440   24.88500   47.49000   46.96570   43.67550   79.35690  134.31390   94.33380    7.77420    0.22600 3463.30450 3178.59640    0.20110   48.23170   44.43160
 7222.50000  131.31950   24.87880   49.49050   49.33570   45.88310   78.90050  134.16220   92.57580    7.75790    0.22480 3457.42460 3168.06300    0.20470   50.70440   45.70220
 7223.00000  127.01040   24.56970   50.91270   50.39410   47.76290   78.74740  134.01060   87.01350    7.74460    0.22270 3454.47670 3154.43740    0.21550   53.30400   47.00900
 7223.50000  123.83770   24.56360   51.23520   50.76140   47.83540   78.74590  133.85900   81.31780    7.74510    0.22360 3461.42960 3139.73880    0.22670   55.12430   47.92700
 7224.00000  119.07420   24.55760   49.39020   49.37700   49.61150   79.04770  133.85900   79.73900    7.74550    0.22750 3468.38280 3139.55870    0.22740   56.22570   47.85070
 7224.50000  116.12880   24.85480   45.60930   45.73900   47.28020   79.50110  134.31390   79.98950    7.73060    0.23120 3471.94110 3167.47160    0.22180   53.12220   45.24660
 7225.00000  119.31970   25.50470   40.00250   39.78840   40.71250   80.25770  136.43670   83.35510    7.73110    0.23620 3472.61940 3182.60350    0.21100   44.91350   39.08770
 7225.50000  130.01070   26.05480   34.79980   32.73140   32.75830   81.16600  139.31770   89.45740    7.71630    0.24370 3473.43060 3171.06080    0.21340   37.61840   32.98630
 7226.00000  137.29250   26.40740   30.13450   28.47300   27.87850   81.92260  141.28880   96.94120    7.70150    0.24630 3472.70470 3171.48180    0.23040   31.64270   28.80010
 7226.50000  138.89030   26.95180   25.91700   24.08640   24.91370   82.37600  142.95680   99.27690    7.71710    0.24750 3474.09960 3179.31340    0.24680   27.85740   24.54840
 7227.00000  137.76530   26.33820   22.50040   21.84930   22.28890   82.22170  143.10840   95.53320    7.74780    0.24610 3473.56150 3182.34370    0.25210   25.45370   22.06930
 7227.50000  136.41080   25.72610   22.09730   22.16280   21.94450   81.44770  142.02370   89.12340    7.74810    0.24050 3476.04860 3194.76640    0.25000   24.01700   22.33980
 7228.00000  130.05640   25.72000   25.59780   24.96310   24.43410   80.38590  140.35030   86.99830    7.74850    0.23520 3476.74480 3183.24760    0.24780   24.54610   25.44460
 7228.50000  125.70740   25.41100   35.30030   30.36220   30.13720   79.94390  139.25500   86.53320    7.74650    0.23050 3491.60700 3180.24240    0.24540   27.40140   29.85690
 7229.00000  120.39780   25.10190   47.01140   37.44830   37.85920   79.94240  138.10460   86.82980    7.73410    0.22920 3487.12510 3189.05260    0.23790   35.26050   40.15470
 7229.50000  115.20560   25.09580   49.72580   44.91600   45.10050   80.39550  138.40790   84.86830    7.73450    0.22950 3488.50090 3197.11580    0.23380   50.70800   41.43440
 7230.00000  114.40880   25.69590   41.78800   42.48760   38.81810   81.00050  139.77260   81.43900    7.73490    0.23670 3493.98290 3198.64530    0.23280   44.73950   34.97230
 7230.50000  118.16070   25.68980   35.11360   29.35320   28.68210   81.75710  141.13720   79.61800    7.75040    0.24520 3495.80340 3199.40640    0.23360   35.63110   28.36820
 7231.00000  126.08160   25.98830   27.13540   26.07300   26.02100   82.96870  142.95680   81.43840    7.75080    0.25100 3495.02510 3202.91710    0.24240   29.69430   27.05310
 7231.50000  128.07260   25.98080   28.90610   30.62620   29.51860   82.96720  143.10840   85.85250    7.75120    0.25160 3495.94300 3184.31000    0.25500   29.67280   29.50410
 7232.00000  123.92900   25.67170   36.66080   36.22400   35.15890   82.51080  141.59210   88.73400    7.75150    0.24520 3495.58100 3171.97010    0.26330   35.77700   34.77560
 7232.50000  119.87370   25.66560   44.90170   38.31320   39.05450   81.14460  139.16600   89.10380    7.75190    0.23800 3496.49590 3178.60430    0.26070   41.50100   38.62010
 7233.00000  119.23630   25.35660   41.60170   35.49290   36.94970   79.93010  135.67850   87.09110    7.75230    0.23160 3490.65560 3184.05570    0.24300   43.91740   37.33640
 7233.50000  123.33640   25.35050   37.22270   33.80920   35.20310   79.92860  134.46550   85.77980    7.75270    0.22720 3477.66350 3125.60920    0.22230   38.73750   35.06820
 7234.00000  133.34550   25.34450   35.95770   33.11520   33.77380   79.92710  134.92040   88.01130    7.75310    0.22700 3480.46870 3120.60570    0.21260   35.81700   34.28650
 7234.50000  142.44560   24.73240   38.84660   36.27460   35.72760   79.92560  135.07200   92.43530    7.75340    0.22700 3487.87570 3114.73390    0.21440   35.38170   36.01360
 7235.00000  145.40920   24.42330   40.80810   37.83720   37.53170   79.92410  134.61710   97.74870    7.75380    0.22690 3494.52280 3115.22720    0.22090   37.22650   36.65180
 7235.50000  139.28200   24.11420   39.42550   37.06320   38.07110   79.92260  134.46550   99.85280    7.75420    0.22670 3493.99150 3119.80540    0.22430   39.36580   34.44260
 7236.00000  128.83660   23.80510   33.59400   31.79410   32.21770   79.92110  136.13340   99.68560    7.73940    0.22730 3493.46030 3115.10280    0.22780   34.97860   30.33740
 7236.50000  124.98210   23.79910   28.22840   27.85150   28.42700   79.91960  137.95300   98.92480    7.73980    0.23080 3492.31550 3111.61040    0.23060   30.76900   26.49300
 7237.00000  126.35490   23.49000   24.56190   24.39780   24.56270   80.82760  140.83400   97.06090    7.74020    0.23800 3490.45730 3117.02940    0.23210   27.03110   23.13590
 7237.50000  132.04580   24.09000   22.12800   22.13020   21.51970   82.19080  142.95680   94.65960    7.74060    0.25000 3489.48190 3114.94100    0.23490   23.74730   22.37470
 7238.00000  141.82770   24.99310   25.27820   25.99480   25.27910   83.55390  144.47310   95.24890    7.72580    0.25730 3490.26270 3119.55290    0.25360   23.30640   24.52260
 7238.50000  144.10730   26.19910   28.87370   28.07800   28.47460   84.91710  146.29260   96.40820    7.72610    0.26460 3491.13310 3129.03480    0.26720   27.17520   27.79980
 7239.00000  143.66190   27.10220   27.69860   27.69440   28.08880   85.37090  146.74750   95.63190    7.72660    0.26670 3485.44170 3138.79360    0.26900   29.87070   28.64170
 7239.50000  146.62780   27.70220   29.50920   28.88940   29.51020   84.76250  146.44430   93.85730    7.72690    0.26600 3477.50530 3184.06800    0.26600   29.84630   29.17490
 7240.00000  146.86200   27.69620   35.14770   31.64350   32.55210   84.45770  147.22280   96.21370    7.72740    0.26240 3486.51800 3175.88800    0.26240   33.45750   32.84540
 7240.50000  144.60060   27.99470   43.95900   39.30210   41.57390   84.63490  147.96060   99.26420    7.72890    0.25970 3470.70310 3161.06240    0.26500   39.20410   39.37990
 7241.00000  135.74620   27.98710   49.51590   46.48570   44.90450   84.90950  146.14100  100.47370    7.79110    0.26060 3481.07590 3142.65940    0.27070   47.40920   44.58080
 7241.50000  130.07350   27.98110   50.93870   45.85380   43.38760   85.21130  145.83780   97.76860    7.71700    0.26250 3496.88010 3135.53870    0.26800   49.49970   44.13720
 7242.00000  125.76440   27.97500   47.85320   43.67860   40.76380   85.36180  146.44430   92.71510    7.76380    0.26450 3505.63170 3145.34170    0.25240   47.24320   41.49060
 7242.50000  126.22810   27.96900   44.96410   39.07220   38.03240   85.66350  146.74750   89.76960    7.76540    0.26640 3513.76580 3178.19680    0.24150   42.13900   39.15970
