~Version ---------------------------------------------------
VERS.   2.0 : CWLS log ASCII Standard -VERSION 2.0
WRAP.    NO : One line per depth step
DLM . SPACE : Column Data Section Delimiter
~Well ------------------------------------------------------
STRT .F                  205.0 : START DEPTH
STOP .F                 7752.0 : STOP DEPTH
STEP .F                    0.5 : STEP
NULL .                -9999.25 : NULL VALUE
COMP .                         : COMPANY
WELL .                         : WELL
FLD  .                         : FIELD
LOC  .                         : LOCATION
PROV .                         : PROVINCE
CNTY .                         : COUNTY
STAT .                         : STATE
CTRY .                         : COUNTRY
SRVC .                         : SERVICE COMPANY
DATE .                         : DATE
UWI  .                         : UNIQUE WELL ID
API  .                         : API NUMBER
SLAT .WGS84 1.4047718878026991 : SURFACE LATITUDE
SLON .WGS84   8.61810387525999 : SURFACE LONGITUDE
DATUM.F                 3512.0 : DEPTH DATUM ELEV
~Curve Information -----------------------------------------
DEPT   .F     : Depth in Feet
GRR    .GAPI  : GAMMA RAY FROM RESISTIVITY LOG
SPR    .MV    : SPONTANEOUS POTENTIAL FROM RESISTIVITY LOG
AT20   .OHMM  : ARRAY INDUCTION TWO FOOT RESISTIVITY A20
AT30   .OHMM  : ARRAY INDUCTION TWO FOOT RESISTIVITY A30
AT90   .OHMM  : ARRAY INDUCTION TWO FOOT RESISTIVITY A90
DTCO   .US/F  : DELTA-T COMPRESSIONAL
DTSM   .US/F  : DELTA-T SHEAR
GRS    .GAPI  : GAMMA RAY FROM SONIC LOG
HCALR  .IN    : HRCC CALIPER CALIBRATED FROM RESISTIVITY LOG
SPHI_LS.DEC   : SONIC POROSITY [LIMESTONE]
TENR   .LB    : TENSION FROM RESISTIVITY LOG
TENS   .LB    : TENSION FROM SONIC LOG
TNPH_LS.DEC   : THERMAL NEUTRON POROSITY [LIMESTONE]
AT10   .OHMM  : ARRAY INDUCTION TWO FOOT RESISTIVITY A10
AT60   .OHMM  : ARRAY INDUCTION TWO FOOT RESISTIVITY A60
~Params ----------------------------------------------------
~Other -----------------------------------------------------
~ASCII -----------------------------------------------------
# ...
 6070.00000  156.76320  -62.36360 1285.04660 1531.34010  530.28720   -9999.25   -9999.25   -9999.25    7.97580   -9999.25 3013.13650   -9999.25   -9999.25   -9999.25 1040.09120
 6070.50000  151.56730  -62.36970 1387.94900 1648.63920  541.64640   -9999.25   -9999.25   -9999.25    7.97670   -9999.25 3012.04980   -9999.25   -9999.25   -9999.25 1092.03150
 6071.00000  148.67430  -62.07270 1520.15730 1841.00840  601.52920   -9999.25   -9999.25   -9999.25    7.97760   -9999.25 3010.95640   -9999.25   -9999.25   -9999.25 1746.32120
 6071.50000  145.49240  -61.77570 1585.59270 1652.32530  658.78180   -9999.25   -9999.25   -9999.25    7.97850   -9999.25 3009.86290   -9999.25   -9999.25   -9999.25 1505.87530
 6072.00000  140.78150  -61.47870 1174.92380  763.44950  565.25720   -9999.25   -9999.25   -9999.25    7.97940   -9999.25 3008.76950   -9999.25   -9999.25   -9999.25  859.96520
 6072.50000  131.30570  -61.48480 1000.93010  941.80460  534.70290   -9999.25   -9999.25   -9999.25    7.99550   -9999.25 3007.33260   -9999.25   -9999.25   -9999.25  831.53180
 6073.00000  119.24510  -61.18770 1088.72680 1106.44320  721.88480   -9999.25   -9999.25   -9999.25    7.99640   -9999.25 3005.56270   -9999.25   -9999.25   -9999.25 1055.50430
 6073.50000  113.58470  -60.85530 1598.47830 1212.25650  737.34810   -9999.25   -9999.25   -9999.25    7.99730   -9999.25 3004.40500   -9999.25   -9999.25   -9999.25  897.33510
 6074.00000  115.31630  -60.59370 1812.89830 1055.01790  909.14590   -9999.25   -9999.25   -9999.25    7.99820   -9999.25 3003.31710   -9999.25   -9999.25   -9999.25  739.90360
 6074.50000  119.74090  -60.29670 1512.53960  782.03820  758.62300   -9999.25   -9999.25   -9999.25    7.99910   -9999.25 3003.18490   -9999.25   -9999.25   -9999.25  609.83930
 6075.00000  125.37550  -60.25290 1297.66110  739.92760  570.16220   -9999.25   -9999.25   -9999.25    8.00000   -9999.25 3005.39220   -9999.25   -9999.25   -9999.25  566.72430
 6075.50000  130.52150  -60.00580 1202.12390  745.57430  558.47650   -9999.25   -9999.25   -9999.25    8.00090   -9999.25 3007.48820   -9999.25   -9999.25   -9999.25  562.50920
 6076.00000  134.64660  -59.70880 1185.71280  700.74070  628.97300   -9999.25   -9999.25   -9999.25    8.01960   -9999.25 3010.17430   -9999.25   -9999.25   -9999.25  623.47870
 6076.50000  137.43920  -59.11030 1113.93100  649.37480  513.97320   -9999.25   -9999.25   -9999.25    8.08110   -9999.25 3013.26560   -9999.25   -9999.25   -9999.25  621.58240
 6077.00000  135.64480  -58.81330  872.80830  614.50350  422.93830   -9999.25   -9999.25   -9999.25    8.12760   -9999.25 3014.27440   -9999.25   -9999.25   -9999.25  550.96660
 6077.50000  131.32730  -58.51480  637.78820  581.50490  338.13650   -9999.25   -9999.25   -9999.25    8.14090   -9999.25 3013.81660   -9999.25   -9999.25   -9999.25  495.53960
 6078.00000  129.67630  -57.91630  629.08120  550.27820  333.85350   -9999.25   -9999.25   -9999.25    8.09630   -9999.25 3013.35950   -9999.25   -9999.25   -9999.25  459.76450
 6078.50000  131.34900  -57.61780  674.77860  524.37430  343.84700   -9999.25   -9999.25   -9999.25    8.06690   -9999.25 3012.90170   -9999.25   -9999.25   -9999.25  411.32090
 6079.00000  133.70390  -57.01920  703.82450  528.29360  364.00520   -9999.25   -9999.25   -9999.25    8.03470   -9999.25 3012.44460   -9999.25   -9999.25   -9999.25  398.60380
 6079.50000  138.55970  -56.72070  708.95040  493.07330  404.01520   -9999.25   -9999.25   -9999.25    8.00520   -9999.25 3011.98740   -9999.25   -9999.25   -9999.25  403.78620
 6080.00000  142.60170  -56.12220  694.45830  460.12920  420.69490   -9999.25   -9999.25   -9999.25    7.99390   -9999.25 3011.52960   -9999.25   -9999.25   -9999.25  427.93210
 6080.50000  140.10320  -55.52070  630.00380  438.46920  384.34360   -9999.25   -9999.25   -9999.25    8.01020   -9999.25 3012.78810   -9999.25   -9999.25   -9999.25  391.74590
 6081.00000  130.11600  -54.61910  548.09800  457.50130  389.84900   -9999.25   -9999.25   -9999.25    8.05650   -9999.25 3014.32080   -9999.25   -9999.25   -9999.25  377.62250
 6081.50000  111.27870  -54.01910  587.87170  451.37260  365.80470   -9999.25   -9999.25   -9999.25    8.11810   -9999.25 3015.85220   -9999.25   -9999.25   -9999.25  372.54000
 6082.00000  102.42620  -53.72060  579.88660  471.03840  363.79590   -9999.25   -9999.25   -9999.25    8.14930   -9999.25 3017.38430   -9999.25   -9999.25   -9999.25  367.45970
 6082.50000   97.65840  -53.12060  490.61080  439.56630  332.38740   -9999.25   -9999.25   -9999.25    8.18050   -9999.25 3018.91630   -9999.25   -9999.25   -9999.25  341.03490
 6083.00000   84.49430  -52.52210  429.78590  471.62730  354.01150   -9999.25   -9999.25   -9999.25    8.19650   -9999.25 3020.44840   -9999.25   -9999.25   -9999.25  366.04080
 6083.50000   68.15310  -51.92050  600.97750  573.74480  427.45890   -9999.25   -9999.25   -9999.25    8.18230   -9999.25 3021.98040   -9999.25   -9999.25   -9999.25  417.99900
 6084.00000   60.66220  -51.62350  686.36520  542.93490  461.66100   -9999.25   -9999.25   -9999.25    8.15290   -9999.25 3023.51250   -9999.25   -9999.25   -9999.25  465.49450
 6084.50000   63.15610  -51.02350  667.65980  485.88590  465.02030   -9999.25   -9999.25   -9999.25    8.07810   -9999.25 3018.21020   -9999.25   -9999.25   -9999.25  459.96720
 6085.00000   77.22350  -50.72650  631.58830  422.86300  446.09220   -9999.25   -9999.25   -9999.25    8.00320   -9999.25 3016.31370   -9999.25   -9999.25   -9999.25  410.49990
 6085.50000   93.10620  -50.12650  512.44380  322.32150  339.97970   -9999.25   -9999.25   -9999.25    8.00410   -9999.25 3014.41780   -9999.25   -9999.25   -9999.25  331.17740
 6086.00000  111.25830  -49.82950  359.10530  269.01250  259.10820   -9999.25   -9999.25   -9999.25    8.00500   -9999.25 3012.52120   -9999.25   -9999.25   -9999.25  263.63560
 6086.50000  137.35280  -49.53250  319.02740  219.86960  208.80150   -9999.25   -9999.25   -9999.25    8.00590   -9999.25 3010.62470   -9999.25   -9999.25   -9999.25  218.21010
 6087.00000  140.30120  -49.54000  248.23230  210.98650  179.15880   -9999.25   -9999.25   -9999.25    8.02200   -9999.25 3008.72820   -9999.25   -9999.25   -9999.25  195.30990
 6087.50000  126.45570  -50.15210  205.65110  226.37540  204.59320   -9999.25   -9999.25   -9999.25    8.00750   -9999.25 3005.92720   -9999.25   -9999.25   -9999.25  199.72750
 6088.00000  113.74540  -51.06730  266.31990  251.50990  217.90340   -9999.25   -9999.25   -9999.25    7.99330   -9999.25 3001.82960   -9999.25   -9999.25   -9999.25  211.33430
 6088.50000  108.06990  -51.98240  281.68740  256.99070  221.00920   -9999.25   -9999.25   -9999.25    7.96390   -9999.25 2997.92540   -9999.25   -9999.25   -9999.25  221.51190
 6089.00000  112.37930  -52.59450  295.86990  264.42960  222.63290   -9999.25   -9999.25   -9999.25    7.87410   -9999.25 3008.13640   -9999.25   -9999.25   -9999.25  222.01260
 6089.50000  124.17730  -52.90360  312.94230  277.83920  228.99300   -9999.25   -9999.25   -9999.25    7.82930   -9999.25 3011.43210   -9999.25   -9999.25   -9999.25  228.44330
 6090.00000  130.30270  -53.21260  331.00000  296.03120  218.14580   -9999.25   -9999.25   -9999.25    7.84560   -9999.25 3010.52700   -9999.25   -9999.25   -9999.25  226.54440
 6090.50000  124.39970  -53.82470  365.06770  331.20250  230.72340   -9999.25   -9999.25   -9999.25    7.84650   -9999.25 3008.84920   -9999.25   -9999.25   -9999.25  229.18270
 6091.00000   98.52760  -54.43680  388.80970  333.79280  229.18400   -9999.25   -9999.25   -9999.25    7.84740   -9999.25 3007.17200   -9999.25   -9999.25   -9999.25  227.48340
 6091.50000   81.27870  -54.74590  274.39330  309.26690  199.40900   -9999.25   -9999.25   -9999.25    7.81800   -9999.25 3007.88110   -9999.25   -9999.25   -9999.25  201.05300
 6092.00000   88.31120  -55.66100  235.41170  292.65940  191.29230   -9999.25   -9999.25   -9999.25    7.78840   -9999.25 3012.68610   -9999.25   -9999.25   -9999.25  192.53690
 6092.50000  103.74010  -56.27310  216.56370  299.10430  182.23100   -9999.25   -9999.25   -9999.25    7.75930   -9999.25 3017.49170   -9999.25   -9999.25   -9999.25  190.54360
