~Version ---------------------------------------------------
VERS.   2.0 : CWLS log ASCII Standard -VERSION 2.0
WRAP.    NO : One line per depth step
DLM . SPACE : Column Data Section Delimiter
~Well ------------------------------------------------------
STRT .F                  205.0 : START DEPTH
STOP .F                 7752.0 : STOP DEPTH
STEP .F                    0.5 : STEP
NULL .                -9999.25 : NULL VALUE
COMP .                         : COMPANY
WELL .                         : WELL
FLD  .                         : FIELD
LOC  .                         : LOCATION
PROV .                         : PROVINCE
CNTY .                         : COUNTY
STAT .                         : STATE
CTRY .                         : COUNTRY
SRVC .                         : SERVICE COMPANY
DATE .                         : DATE
UWI  .                         : UNIQUE WELL ID
API  .                         : API NUMBER
SLAT .WGS84 1.4047718878026991 : SURFACE LATITUDE
SLON .WGS84   8.61810387525999 : SURFACE LONGITUDE
DATUM.F                 3512.0 : DEPTH DATUM ELEV
~Curve Information -----------------------------------------
DEPT   .F     : Depth in Feet
GRR    .GAPI  : GAMMA RAY FROM RESISTIVITY LOG
SPR    .MV    : SPONTANEOUS POTENTIAL FROM RESISTIVITY LOG
AT20   .OHMM  : ARRAY INDUCTION TWO FOOT RESISTIVITY A20
AT30   .OHMM  : ARRAY INDUCTION TWO FOOT RESISTIVITY A30
AT90   .OHMM  : ARRAY INDUCTION TWO FOOT RESISTIVITY A90
DTCO   .US/F  : DELTA-T COMPRESSIONAL
DTSM   .US/F  : DELTA-T SHEAR
GRS    .GAPI  : GAMMA RAY FROM SONIC LOG
HCALR  .IN    : HRCC CALIPER CALIBRATED FROM RESISTIVITY LOG
SPHI_LS.DEC   : SONIC POROSITY [LIMESTONE]
TENR   .LB    : TENSION FROM RESISTIVITY LOG
TENS   .LB    : TENSION FROM SONIC LOG
TNPH_LS.DEC   : THERMAL NEUTRON POROSITY [LIMESTONE]
AT10   .OHMM  : ARRAY INDUCTION TWO FOOT RESISTIVITY A10
AT60   .OHMM  : ARRAY INDUCTION TWO FOOT RESISTIVITY A60
~Params ----------------------------------------------------
~Other -----------------------------------------------------
~ASCII -----------------------------------------------------
# ...
 5679.00000   97.38930  -13.63640  159.69270  197.32900  204.44360   -9999.25   -9999.25   -9999.25    8.05280   -9999.25 2958.46880   -9999.25   -9999.25   -9999.25  201.38450
 5679.50000   87.18200  -14.54550  155.32160  185.38610  194.77070   -9999.25   -9999.25   -9999.25    8.06890   -9999.25 2960.34250   -9999.25   -9999.25   -9999.25  188.44750
 5680.00000   82.19410  -15.15150  171.30470  189.42290  198.95920   -9999.25   -9999.25   -9999.25    8.13040   -9999.25 2963.43130   -9999.25   -9999.25   -9999.25  189.57620
 5680.50000   81.28980  -15.75760  166.62450  186.88890  207.53120   -9999.25   -9999.25   -9999.25    8.14640   -9999.25 2957.70650   -9999.25   -9999.25   -9999.25  189.59290
 5681.00000   86.74170  -15.45450  146.98870  162.62560  179.32730   -9999.25   -9999.25   -9999.25    8.14730   -9999.25 2951.43060   -9999.25   -9999.25   -9999.25  162.93680
 5681.50000   95.82340  -15.45450  110.44150  118.86030  129.26510   -9999.25   -9999.25   -9999.25    8.11790   -9999.25 2945.96410   -9999.25   -9999.25   -9999.25  129.00110
 5682.00000   97.87030  -16.06060   94.74490  101.28650  107.87090   -9999.25   -9999.25   -9999.25    8.08830   -9999.25 2939.18350   -9999.25   -9999.25   -9999.25  103.09810
 5682.50000   91.74770  -16.66670  103.04100  104.20400  104.12560   -9999.25   -9999.25   -9999.25    8.07410   -9999.25 2933.71690   -9999.25   -9999.25   -9999.25  106.12400
 5683.00000   81.31360  -16.96970  109.74220  112.57170  113.34520   -9999.25   -9999.25   -9999.25    8.09040   -9999.25 2926.93880   -9999.25   -9999.25   -9999.25  114.04200
 5683.50000   69.74470  -17.27270  111.30760  117.44180  117.40710   -9999.25   -9999.25   -9999.25    8.10640   -9999.25 2921.47280   -9999.25   -9999.25   -9999.25  118.96480
 5684.00000   68.38650  -17.27270  102.38860  111.11990  100.04640   -9999.25   -9999.25   -9999.25    8.10730   -9999.25 2914.69720   -9999.25   -9999.25   -9999.25  111.95540
 5684.50000   72.47690  -17.27270   81.91670   84.09910   76.25360   -9999.25   -9999.25   -9999.25    8.10820   -9999.25 2923.09380   -9999.25   -9999.25   -9999.25   86.47210
 5685.00000   83.60090  -16.96970   67.86490   66.83480   64.52670   -9999.25   -9999.25   -9999.25    8.12430   -9999.25 2927.16430   -9999.25   -9999.25   -9999.25   71.86330
 5685.50000   94.95190  -16.66670   57.01360   57.35190   58.13940   -9999.25   -9999.25   -9999.25    8.12520   -9999.25 2929.16280   -9999.25   -9999.25   -9999.25   61.31240
 5686.00000   98.58730  -16.36360   71.29160   70.74050   68.75340   -9999.25   -9999.25   -9999.25    8.12610   -9999.25 2929.85030   -9999.25   -9999.25   -9999.25   74.15520
 5686.50000  105.62660  -16.06060   91.03110   87.86570   84.18940   -9999.25   -9999.25   -9999.25    8.12700   -9999.25 2931.84940   -9999.25   -9999.25   -9999.25   95.34890
 5687.00000  114.70830  -15.75760  119.52590  112.22550  109.00470   -9999.25   -9999.25   -9999.25    8.11280   -9999.25 2932.53700   -9999.25   -9999.25   -9999.25  128.61690
 5687.50000  129.23630  -14.84850  160.26010  148.42790  145.12580   -9999.25   -9999.25   -9999.25    8.11370   -9999.25 2934.53540   -9999.25   -9999.25   -9999.25  162.17200
 5688.00000  157.60730  -13.93940  174.28380  153.77240  167.26900   -9999.25   -9999.25   -9999.25    8.11460   -9999.25 2935.22240   -9999.25   -9999.25   -9999.25  172.00150
 5688.50000  170.77370  -13.03030  151.62270  152.75900  150.37900   -9999.25   -9999.25   -9999.25    8.10030   -9999.25 2937.22090   -9999.25   -9999.25   -9999.25  157.02600
 5689.00000  171.91290  -12.42420  169.56630  160.50320  176.59680   -9999.25   -9999.25   -9999.25    8.10120   -9999.25 2937.90720   -9999.25   -9999.25   -9999.25  173.64560
 5689.50000  161.70560  -12.42420  200.51990  195.22860  236.76120   -9999.25   -9999.25   -9999.25    8.10210   -9999.25 2935.58190   -9999.25   -9999.25   -9999.25  225.89490
 5690.00000  150.93370  -13.03030  265.13090  258.20650  293.98830   -9999.25   -9999.25   -9999.25    8.10300   -9999.25 2947.15460   -9999.25   -9999.25   -9999.25  296.72200
 5690.50000  135.84480  -13.63640  257.88710  267.47150  224.07270   -9999.25   -9999.25   -9999.25    8.10390   -9999.25 2914.84250   -9999.25   -9999.25   -9999.25  250.21250
 5691.00000  126.09140  -14.24240  185.82150  188.81080  173.18250   -9999.25   -9999.25   -9999.25    8.10480   -9999.25 2919.87720   -9999.25   -9999.25   -9999.25  198.53030
 5691.50000  119.28800  -14.54550  147.63410  146.94250  146.54900   -9999.25   -9999.25   -9999.25    8.09060   -9999.25 2924.27320   -9999.25   -9999.25   -9999.25  158.08590
 5692.00000  114.52700  -14.24240  119.77550  119.24770  113.26550   -9999.25   -9999.25   -9999.25    8.09150   -9999.25 2920.87990   -9999.25   -9999.25   -9999.25  121.88620
 5692.50000  108.85830  -13.93940  110.17810  111.26500  110.18870   -9999.25   -9999.25   -9999.25    8.09240   -9999.25 2920.10580   -9999.25   -9999.25   -9999.25  112.44480
 5693.00000  103.64350  -13.63640   98.56010   97.49770  104.24720   -9999.25   -9999.25   -9999.25    8.09330   -9999.25 2919.33050   -9999.25   -9999.25   -9999.25  104.24240
 5693.50000   97.97480  -13.63640   89.40610   90.97100   91.98380   -9999.25   -9999.25   -9999.25    8.09420   -9999.25 2915.93720   -9999.25   -9999.25   -9999.25   96.28500
 5694.00000   92.98690  -13.63640   77.23630   79.16050   80.03920   -9999.25   -9999.25   -9999.25    8.09720   -9999.25 2915.16130   -9999.25   -9999.25   -9999.25   85.28160
 5694.50000   89.13360  -13.93940   74.60370   77.54900   79.48900   -9999.25   -9999.25   -9999.25    8.11120   -9999.25 2911.76670   -9999.25   -9999.25   -9999.25   79.50010
 5695.00000   88.91010  -14.24240   73.58470   82.62540   83.51670   -9999.25   -9999.25   -9999.25    8.11210   -9999.25 2910.98950   -9999.25   -9999.25   -9999.25   80.87550
 5695.50000   91.18510  -14.24240   73.60060   82.08080   82.96510   -9999.25   -9999.25   -9999.25    8.11300   -9999.25 2907.59500   -9999.25   -9999.25   -9999.25   83.31280
 5696.00000   92.55120  -13.93940   77.84200   85.64230   89.60980   -9999.25   -9999.25   -9999.25    8.11410   -9999.25 2904.20040   -9999.25   -9999.25   -9999.25   91.69190
 5696.50000   92.78260  -13.33330   87.66370   89.34740   89.67040   -9999.25   -9999.25   -9999.25    8.11500   -9999.25 2913.04850   -9999.25   -9999.25   -9999.25   97.30490
 5697.00000   94.60260  -12.72730   94.01860   99.25400   94.81620   -9999.25   -9999.25   -9999.25    8.11590   -9999.25 2917.87260   -9999.25   -9999.25   -9999.25   97.85840
 5697.50000  100.05340  -12.42420  111.95970  111.80840  105.30620   -9999.25   -9999.25   -9999.25    8.10150   -9999.25 2925.31720   -9999.25   -9999.25   -9999.25  113.02800
 5698.00000  108.00040  -11.81820  136.14480  133.18140  141.18270   -9999.25   -9999.25   -9999.25    8.08720   -9999.25 2932.76370   -9999.25   -9999.25   -9999.25  142.28920
 5698.50000  117.98980  -12.12120  187.70910  173.70280  219.12770   -9999.25   -9999.25   -9999.25    8.08830   -9999.25 2937.59020   -9999.25   -9999.25   -9999.25  205.94660
 5699.00000  131.83700  -12.42420  231.46490  262.30480  287.70070   -9999.25   -9999.25   -9999.25    8.10420   -9999.25 2945.04100   -9999.25   -9999.25   -9999.25  286.93950
 5699.50000  159.98110  -13.03030  231.53210  283.33370  266.55330   -9999.25   -9999.25   -9999.25    8.10530   -9999.25 2949.86940   -9999.25   -9999.25   -9999.25  273.99100
 5700.00000  164.12560  -13.37520  197.22840  206.50430  181.71670   -9999.25   -9999.25   -9999.25    8.10600   -9999.25 2939.89000   -9999.25   -9999.25   -9999.25  216.81500
 5700.50000  163.37310  -13.64620  171.59090  169.23880  164.87760   -9999.25   -9999.25   -9999.25    8.10690   -9999.25 2944.30690   -9999.25   -9999.25   -9999.25  175.84930
 5701.00000  156.06810  -14.56440  178.97690  161.22190  178.07620   -9999.25   -9999.25   -9999.25    8.16830   -9999.25 2943.75410   -9999.25   -9999.25   -9999.25  185.07650
 5701.50000  140.67500  -14.87650  207.27850  238.42330  242.08870   -9999.25   -9999.25   -9999.25    8.29010   -9999.25 2944.81600   -9999.25   -9999.25   -9999.25  240.70310
