~Version ---------------------------------------------------
VERS.   2.0 : CWLS log ASCII Standard -VERSION 2.0
WRAP.    NO : One line per depth step
DLM . SPACE : Column Data Section Delimiter
~Well ------------------------------------------------------
STRT .F                  205.0 : START DEPTH
STOP .F                 7752.0 : STOP DEPTH
STEP .F                    0.5 : STEP
NULL .                -9999.25 : NULL VALUE
COMP .                         : COMPANY
WELL .                         : WELL
FLD  .                         : FIELD
LOC  .                         : LOCATION
PROV .                         : PROVINCE
CNTY .                         : COUNTY
STAT .                         : STATE
CTRY .                         : COUNTRY
SRVC .                         : SERVICE COMPANY
DATE .                         : DATE
UWI  .                         : UNIQUE WELL ID
API  .                         : API NUMBER
SLAT .WGS84 1.4047718878026991 : SURFACE LATITUDE
SLON .WGS84   8.61810387525999 : SURFACE LONGITUDE
DATUM.F                 3512.0 : DEPTH DATUM ELEV
~Curve Information -----------------------------------------
DEPT   .F     : Depth in Feet
GRR    .GAPI  : GAMMA RAY FROM RESISTIVITY LOG
SPR    .MV    : SPONTANEOUS POTENTIAL FROM RESISTIVITY LOG
AT20   .OHMM  : ARRAY INDUCTION TWO FOOT RESISTIVITY A20
AT30   .OHMM  : ARRAY INDUCTION TWO FOOT RESISTIVITY A30
AT90   .OHMM  : ARRAY INDUCTION TWO FOOT RESISTIVITY A90
DTCO   .US/F  : DELTA-T COMPRESSIONAL
DTSM   .US/F  : DELTA-T SHEAR
GRS    .GAPI  : GAMMA RAY FROM SONIC LOG
HCALR  .IN    : HRCC CALIPER CALIBRATED FROM RESISTIVITY LOG
SPHI_LS.DEC   : SONIC POROSITY [LIMESTONE]
TENR   .LB    : TENSION FROM RESISTIVITY LOG
TENS   .LB    : TENSION FROM SONIC LOG
TNPH_LS.DEC   : THERMAL NEUTRON POROSITY [LIMESTONE]
AT10   .OHMM  : ARRAY INDUCTION TWO FOOT RESISTIVITY A10
AT60   .OHMM  : ARRAY INDUCTION TWO FOOT RESISTIVITY A60
~Params ----------------------------------------------------
~Other -----------------------------------------------------
~ASCII -----------------------------------------------------
# ...
 2206.00000   32.80460  -45.13170   43.04410   43.19330   56.05480   -9999.25   -9999.25   -9999.25   12.41340   -9999.25 1520.63450   -9999.25   -9999.25   -9999.25   55.23390
 2206.50000   32.35160  -45.74590   50.19510   49.98450   71.97720   -9999.25   -9999.25   -9999.25   13.87230   -9999.25 1528.82720   -9999.25   -9999.25   -9999.25   60.37550
 2207.00000   31.67110  -45.75490   54.96100   54.70780   62.18060   -9999.25   -9999.25   -9999.25   13.03650   -9999.25 1526.76640   -9999.25   -9999.25   -9999.25   60.94440
 2207.50000   32.35620  -45.76400   54.56240   55.07490   57.11440   -9999.25   -9999.25   -9999.25   13.24920   -9999.25 1521.54380   -9999.25   -9999.25   -9999.25   62.69730
 2208.00000   33.72420  -45.77310   55.70460   62.41600   66.12010   -9999.25   -9999.25   -9999.25   13.14290   -9999.25 1524.86920   -9999.25   -9999.25   -9999.25   66.36870
 2208.50000   35.77500  -45.78220   60.99350   71.23020   73.92340   -9999.25   -9999.25   -9999.25   13.38600   -9999.25 1534.89730   -9999.25   -9999.25   -9999.25   70.67760
 2209.00000   35.54970  -45.81740   67.72600   81.85730   69.91290   -9999.25   -9999.25   -9999.25   13.82670   -9999.25 1539.32010   -9999.25   -9999.25   -9999.25   70.95380
 2209.50000   30.99960  -46.10290   72.61560   90.84950   88.61550   -9999.25   -9999.25   -9999.25   13.56840   -9999.25 1541.08450   -9999.25   -9999.25   -9999.25   69.37580
 2210.00000   27.81460  -46.11200   64.45200   76.83950   69.42720   -9999.25   -9999.25   -9999.25   13.72040   -9999.25 1544.38840   -9999.25   -9999.25   -9999.25   65.19880
 2210.50000   28.72800  -46.42360   54.43020   51.28290   51.80280   -9999.25   -9999.25   -9999.25   14.64740   -9999.25 1552.21600   -9999.25   -9999.25   -9999.25   61.94930
 2211.00000   32.59970  -46.43270   50.42090   57.31430   53.26790   -9999.25   -9999.25   -9999.25   15.14890   -9999.25 1553.42310   -9999.25   -9999.25   -9999.25   64.63550
 2211.50000   34.42290  -46.13870   50.40680   60.16620   62.09860   -9999.25   -9999.25   -9999.25   13.53800   -9999.25 1554.63030   -9999.25   -9999.25   -9999.25   64.78800
 2212.00000   33.74240  -46.15000   49.66910   51.95910   51.08540   -9999.25   -9999.25   -9999.25   13.14670   -9999.25 1555.83740   -9999.25   -9999.25   -9999.25   58.59640
 2212.50000   32.37890  -46.15900   49.79470   51.22940   55.93210   -9999.25   -9999.25   -9999.25   13.58610   -9999.25 1557.04450   -9999.25   -9999.25   -9999.25   58.22670
 2213.00000   30.33270  -45.86320   51.43350   64.44920   68.46580   -9999.25   -9999.25   -9999.25   13.41640   -9999.25 1558.25220   -9999.25   -9999.25   -9999.25   65.67040
 2213.50000   28.28640  -45.87450   46.87130   77.22630   79.81600   -9999.25   -9999.25   -9999.25   13.31000   -9999.25 1562.15150   -9999.25   -9999.25   -9999.25   71.43450
 2214.00000   27.15060  -45.88350   43.56070   57.61880   73.92340   -9999.25   -9999.25   -9999.25   12.25690   -9999.25 1561.92420   -9999.25   -9999.25   -9999.25   69.36240
 2214.50000   27.83570  -45.89260   36.53810   41.80810   56.32350   -9999.25   -9999.25   -9999.25   12.47420   -9999.25 1551.30300   -9999.25   -9999.25   -9999.25   67.92010
 2215.00000   29.43130  -45.90160   33.05770   41.22100   69.91290   -9999.25   -9999.25   -9999.25   12.58050   -9999.25 1549.59860   -9999.25   -9999.25   -9999.25   67.76220
 2215.50000   30.11640  -46.21320   36.28910   46.71220   72.39320   -9999.25   -9999.25   -9999.25   12.59570   -9999.25 1543.65690   -9999.25   -9999.25   -9999.25   66.05710
 2216.00000   29.66340  -46.52480   35.93140   46.37500   70.89470   -9999.25   -9999.25   -9999.25   12.89970   -9999.25 1535.56180   -9999.25   -9999.25   -9999.25   60.50550
 2216.50000   28.75470  -46.53380   36.68610   43.84880   69.91290   -9999.25   -9999.25   -9999.25   12.71730   -9999.25 1538.12800   -9999.25   -9999.25   -9999.25   58.44290
 2217.00000   28.52930  -46.54280   35.16520   37.08680   62.53300   -9999.25   -9999.25   -9999.25   12.77810   -9999.25 1549.54480   -9999.25   -9999.25   -9999.25   49.31190
 2217.50000   30.58070  -46.85440   33.01160   35.31420   48.99250   -9999.25   -9999.25   -9999.25   12.76290   -9999.25 1588.26880   -9999.25   -9999.25   -9999.25   45.75520
 2218.00000   32.40400  -46.86340   44.58760   42.60820   57.51400   -9999.25   -9999.25   -9999.25   12.79330   -9999.25 1575.87140   -9999.25   -9999.25   -9999.25   49.79480
 2218.50000   33.54430  -46.56760   52.72810   49.99930   61.66710   -9999.25   -9999.25   -9999.25   13.18840   -9999.25 1562.41220   -9999.25   -9999.25   -9999.25   54.98450
 2219.00000   32.63610  -46.27630   54.59060   52.85040   60.81310   -9999.25   -9999.25   -9999.25   13.38600   -9999.25 1585.43390   -9999.25   -9999.25   -9999.25   60.31150
 2219.50000   31.50030  -45.98280   55.34860   53.58080   62.53300   -9999.25   -9999.25   -9999.25   13.61400   -9999.25 1618.55340   -9999.25   -9999.25   -9999.25   61.51680
 2220.00000   29.68160  -45.68930   55.71790   53.56220   57.11440   -9999.25   -9999.25   -9999.25   13.93310   -9999.25 1612.04960   -9999.25   -9999.25   -9999.25   60.76530
 2220.50000   28.31820  -45.39350   54.16460   53.17560   51.08540   -9999.25   -9999.25   -9999.25   14.19150   -9999.25 1584.83650   -9999.25   -9999.25   -9999.25   55.13610
 2221.00000   25.36150  -45.40470   47.07650   50.27890   57.51400   -9999.25   -9999.25   -9999.25   14.30260   -9999.25 1557.62270   -9999.25   -9999.25   -9999.25   50.64210
 2221.50000   26.50180  -45.71630   40.91600   44.34060   50.02800   -9999.25   -9999.25   -9999.25   15.48330   -9999.25 1547.84970   -9999.25   -9999.25   -9999.25   46.77880
 2222.00000   29.69070  -46.02790   35.56160   38.83230   45.69290   -9999.25   -9999.25   -9999.25   16.74470   -9999.25 1560.43970   -9999.25   -9999.25   -9999.25   44.99820
 2222.50000   35.05860  -46.33950   38.39680   40.76170   58.32160   -9999.25   -9999.25   -9999.25   15.34650   -9999.25 1588.19340   -9999.25   -9999.25   -9999.25   57.81010
 2223.00000   39.84910  -46.65110   48.69870   56.93320  104.02890   -9999.25   -9999.25   -9999.25   15.20970   -9999.25 1589.39130   -9999.25   -9999.25   -9999.25   84.54790
 2223.50000   41.53340  -47.26530   52.58130   74.16900  117.93920   -9999.25   -9999.25   -9999.25   16.03040   -9999.25 1570.34120   -9999.25   -9999.25   -9999.25  114.90570
 2224.00000   41.53570  -47.57690   54.44250   59.74540   69.91290   -9999.25   -9999.25   -9999.25   14.64740   -9999.25 1562.52340   -9999.25   -9999.25   -9999.25   80.63640
 2224.50000   42.56040  -47.88850   49.34390   54.42450   61.23860   -9999.25   -9999.25   -9999.25   15.01220   -9999.25 1594.03130   -9999.25   -9999.25   -9999.25   77.88570
 2225.00000   45.67520  -48.50260   52.17090   56.08300   76.01400   -9999.25   -9999.25   -9999.25   15.19450   -9999.25 1621.78180   -9999.25   -9999.25   -9999.25   80.51810
 2225.50000   45.86710  -48.81420   58.74610   56.12950   80.37440   -9999.25   -9999.25   -9999.25   12.38300   -9999.25 1613.82560   -9999.25   -9999.25   -9999.25   74.58940
 2226.00000   43.92990  -48.82330   65.23050   56.05180   89.85990   -9999.25   -9999.25   -9999.25   15.42250   -9999.25 1605.86950   -9999.25   -9999.25   -9999.25   68.75350
 2226.50000   39.59290  -48.52950   72.43060   58.02270  103.30610   -9999.25   -9999.25   -9999.25   17.36270   -9999.25 1611.98350   -9999.25   -9999.25   -9999.25   72.72840
 2227.00000   32.69490  -47.93360   69.43270   70.50130  101.16780   -9999.25   -9999.25   -9999.25   19.34970   -9999.25 1633.01830   -9999.25   -9999.25   -9999.25   72.98560
 2227.50000   28.26620  -46.73230   57.06060   59.21520   97.70170   -9999.25   -9999.25   -9999.25   20.15200   -9999.25 1587.06170   -9999.25   -9999.25   -9999.25   68.32050
 2228.00000   26.94400  -45.53100   59.07630   60.44910   91.12170   -9999.25   -9999.25   -9999.25   20.36170   -9999.25 1555.95910   -9999.25   -9999.25   -9999.25   68.07470
 2228.50000   26.76090  -45.23750   69.37460   70.44250  104.75680   -9999.25   -9999.25   -9999.25   20.07220   -9999.25 1587.07220   -9999.25   -9999.25   -9999.25   76.56310
