~Version ---------------------------------------------------
VERS.   2.0 : CWLS log ASCII Standard -VERSION 2.0
WRAP.    NO : One line per depth step
DLM . SPACE : Column Data Section Delimiter
~Well ------------------------------------------------------
STRT .F                3700.0 : START DEPTH
STOP .F                9806.0 : STOP DEPTH
STEP .F                   0.5 : STEP
NULL .               -9999.25 : NULL VALUE
COMP .                        : COMPANY
WELL .                        : WELL
FLD  .                        : FIELD
LOC  .                        : LOCATION
PROV .                        : PROVINCE
CNTY .                        : COUNTY
STAT .                        : STATE
CTRY .                        : COUNTRY
SRVC .                        : SERVICE COMPANY
DATE .                        : DATE
UWI  .                        : UNIQUE WELL ID
API  .                        : API NUMBER
SLAT .WGS84 2.648271728876999 : SURFACE LATITUDE
SLON .WGS84 7.341687217178006 : SURFACE LONGITUDE
DATUM.F                   nan : DEPTH DATUM ELEV
~Curve Information -----------------------------------------
DEPT    .F     : 
DTCO    .US/F  : DELTA-T COMPRESSIONAL
DTSM    .US/F  : DELTA-T SHEAR
HSGR    .GAPI  : HNGS STANDARD GAMMA RAY
TNPH_LIM.DEC   : THERMAL NEUTRON POROSITY (RATIO METHOD) (LIMESTONE)
~Params ----------------------------------------------------
~Other -----------------------------------------------------
~ASCII -----------------------------------------------------
# ...
 8919.50000   51.73540  104.85410   53.38700    0.13990
 8920.00000   51.16330  105.04080   53.46670    0.13870
 8920.50000   50.85270  104.92200   53.71180    0.13900
 8921.00000   50.60750  104.84390   52.98670    0.13990
 8921.50000   50.53650  104.59360   51.00850    0.13480
 8922.00000   50.44110  104.34340   50.40310    0.13080
 8922.50000   50.80270  104.22830   51.38340    0.13340
 8923.00000   50.82940  104.20340   52.82490    0.14050
 8923.50000   50.75860  104.39790   54.71040    0.14680
 8924.00000   50.34500  105.36360   54.03570    0.15120
 8924.50000   49.24440  104.65860   53.76330    0.14810
 8925.00000   49.72240  104.23240   53.15810    0.13910
 8925.50000   49.95170  104.20270   53.27900    0.12870
 8926.00000   50.07520  104.17290   54.91660    0.12380
 8926.50000   50.31980  104.14310   55.34930    0.12670
 8927.00000   50.66180  104.18870   55.62920    0.12970
 8927.50000   50.98930  104.23410   53.11710    0.13350
 8928.00000   51.28990  104.19320   51.41360    0.13150
 8928.50000   51.36280  104.06810   49.96980    0.13260
 8929.00000   51.86210  103.94300   50.21140    0.12960
 8929.50000   52.67420  103.71310   50.44610    0.12670
 8930.00000   54.00420  103.06410   49.05600    0.12440
 8930.50000   57.40580  102.41520   46.78640    0.12860
 8931.00000   57.69180  101.44470   45.13650    0.13820
 8931.50000   55.81970  100.53430   44.59240    0.14960
 8932.00000   53.63290   99.82570   41.77540    0.15640
 8932.50000   51.54370   98.96420   36.58400    0.14360
 8933.00000   49.60090   98.10260   32.31130    0.12430
 8933.50000   49.08670   97.51080   29.91810    0.10910
 8934.00000   48.59620   97.37800   30.02450    0.10490
 8934.50000   47.76480   97.28140   32.75840    0.10650
 8935.00000   46.61120   97.54000   37.68870    0.11190
 8935.50000   46.34590   98.10980   44.95410    0.12350
 8936.00000   46.23280   98.97660   48.75460    0.14000
 8936.50000   46.82100  100.22100   48.89130    0.14870
 8937.00000   47.53330  101.55980   47.03340    0.15170
 8937.50000   48.22270  102.89870   45.58340    0.14960
 8938.00000   48.47650  103.44460   44.63650    0.14840
 8938.50000   48.29520  103.81570   45.55950    0.14710
 8939.00000   48.17240  103.43580   44.91530    0.14620
 8939.50000   48.33890  103.05600   46.53110    0.14260
 8940.00000   48.05520  103.31420   46.90660    0.13700
 8940.50000   47.30910  102.92050   46.72650    0.13130
 8941.00000   46.49850  102.94190   47.06970    0.13730
 8941.50000   46.21000  103.04190   48.28610    0.14460
 8942.00000   47.31090  102.98110   50.04960    0.14780
 8942.50000   51.39570  102.67630   50.86700    0.14170
 8943.00000   51.64400  102.37170   50.52220    0.14910
 8943.50000   50.93920  102.06700   50.10740    0.14540
 8944.00000   49.87240  101.76240   49.31200    0.14420
 8944.50000   49.60590  101.56450   47.49930    0.13860
 8945.00000   49.54220  101.07680   44.63340    0.13800
 8945.50000   49.99780  100.37960   42.02590    0.14020
 8946.00000   52.40700   99.50360   41.73760    0.13920
 8946.50000   52.12660   98.62770   42.02140    0.13120
 8947.00000   50.02640   97.79350   41.89640    0.12040
 8947.50000   50.72110   97.50740   39.60970    0.11670
 8948.00000   49.84390   97.12610   37.31020    0.11670
 8948.50000   49.46680   96.74470   35.02740    0.11770
 8949.00000   49.45990   96.59210   33.45050    0.11480
 8949.50000   49.45300   96.99260   31.69810    0.11090
 8950.00000   49.44620   96.95960   29.78650    0.11140
 8950.50000   49.19680   96.79480   27.76920    0.11820
 8951.00000   48.61990   96.46520   26.26530    0.12050
 8951.50000   48.66590   95.88820   25.43000    0.11270
 8952.00000   48.67020   95.39670   25.73620    0.10650
 8952.50000   48.29810   95.03330   26.24430    0.10040
 8953.00000   48.15520   94.80410   26.65350    0.09780
 8953.50000   48.16510   94.79750   26.77930    0.09780
 8954.00000   48.30620   94.84670   26.80350    0.10160
 8954.50000   48.70740   94.89580   27.88360    0.10370
 8955.00000   49.18490   94.94490   28.88210    0.10470
 8955.50000   49.58670   94.99400   28.90950    0.11000
 8956.00000   49.66150   95.04450   28.23260    0.11730
 8956.50000   49.73930   95.10010   26.09580    0.12380
 8957.00000   49.74520   95.12700   25.99040    0.12570
 8957.50000   49.44370   95.28600   25.87420    0.12590
 8958.00000   48.16420   95.37350   26.54520    0.12420
 8958.50000   48.35480   95.70230   25.74530    0.11980
 8959.00000   45.78590   95.92480   25.28590    0.11630
 8959.50000   41.20040   96.61250   24.25750    0.11540
 8960.00000   49.23540   97.59070   23.34010    0.11830
 8960.50000   52.01050   98.15240   23.52790    0.12420
 8961.00000   50.55020   98.41780   24.41370    0.12590
 8961.50000   48.50080   98.55490   25.73100    0.12030
 8962.00000   41.81890   98.62290   27.31250    0.12500
 8962.50000   41.75040   98.90000   27.97790    0.13430
 8963.00000   43.63200   99.30110   28.45560    0.14600
 8963.50000   45.20820   99.89150   27.86800    0.13870
 8964.00000   44.47680  100.03650   28.63550    0.13470
 8964.50000   44.51870  100.04480   29.41250    0.13080
 8965.00000   44.53200  100.05320   30.70250    0.13120
 8965.50000   44.54530  100.06150   32.84510    0.13210
 8966.00000   44.55850  100.06980   34.19370    0.13050
 8966.50000   44.41890  100.07810   34.07950    0.12970
 8967.00000   44.34660  100.42550   32.99640    0.12740
 8967.50000   44.51430  100.77300   30.57540    0.13180
 8968.00000   44.73420  100.82290   28.45950    0.12950
 8968.50000   44.75440  100.79850   26.73960    0.12940
 8969.00000   46.08230  100.67370   27.16370    0.13130
 8969.50000   47.25800  100.39820   27.33670    0.13290
 8970.00000   47.56950   99.80570   27.06790    0.13260
 8970.50000   47.59170   99.65880   26.54680    0.12930
 8971.00000   47.34490   99.66640   26.52640    0.12450
 8971.50000   47.25800   99.73880   26.94160    0.12250
 8972.00000   48.67080   99.81130   27.03460    0.12420
 8972.50000   52.39530   99.88360   27.28370    0.12840
 8973.00000   53.02130  100.19800   26.83890    0.13350
 8973.50000   52.16270  100.74720   25.97450    0.13870
 8974.00000   51.18520  100.39320   24.62550    0.14200
 8974.50000   50.55890  100.16340   23.87730    0.14160
 8975.00000   50.39820   99.93350   23.26830    0.14160
 8975.50000   50.39820   99.79560   23.16400    0.14070
 8976.00000   50.39820   99.79560   23.82590    0.14580
 8976.50000   50.03840   99.73230   23.41250    0.14780
 8977.00000   49.95290   99.62700   22.85520    0.15430
 8977.50000   49.95030   99.52160   22.17340    0.15410
 8978.00000   49.94770   99.41630   22.45390    0.15670
 8978.50000   50.52830   98.77490   23.19020    0.15630
 8979.00000   50.76300   98.18600   23.99430    0.15770
 8979.50000   50.47840   97.59720   24.10030    0.15470
 8980.00000   47.82290   97.12610   24.02840    0.14790
 8980.50000   45.19790   97.07260   23.66650    0.14150
 8981.00000   44.54190   97.00590   24.06090    0.14200
 8981.50000   44.54190   96.93920   24.67140    0.14630
 8982.00000   52.00890   96.87250   25.63140    0.15290
 8982.50000   45.24260   96.80580   25.09680    0.14780
 8983.00000   45.27600   96.73900   24.20580    0.15030
 8983.50000   44.60380   96.69770   23.37310    0.14610
 8984.00000   43.37240   96.66300   23.75590    0.14670
 8984.50000   43.75840   96.63510   24.00100    0.14680
 8985.00000   43.42480   96.63510   23.73280    0.15000
 8985.50000   45.74660   96.63510   23.00140    0.15220
 8986.00000   50.39210   96.51890   23.14270    0.15290
 8986.50000   52.04270   96.40270   23.18080    0.15000
 8987.00000   46.64760   96.08680   23.96820    0.14430
 8987.50000   45.33260   95.79050   24.75480    0.15340
 8988.00000   45.06280   95.57190   25.38420    0.15900
 8988.50000   44.87090   95.43800   24.65910    0.15710
 8989.00000   45.67440   95.31450   23.54120    0.14680
 8989.50000   45.20540   95.01630   22.33600    0.14080
 8990.00000   44.96540   94.71830   22.50840    0.13820
 8990.50000   44.75820   94.75140   23.27210    0.13680
