~Version ---------------------------------------------------
VERS.   2.0 : CWLS log ASCII Standard -VERSION 2.0
WRAP.    NO : One line per depth step
DLM . SPACE : Column Data Section Delimiter
~Well ------------------------------------------------------
STRT .F                3700.0 : START DEPTH
STOP .F                9806.0 : STOP DEPTH
STEP .F                   0.5 : STEP
NULL .               -9999.25 : NULL VALUE
COMP .                        : COMPANY
WELL .                        : WELL
FLD  .                        : FIELD
LOC  .                        : LOCATION
PROV .                        : PROVINCE
CNTY .                        : COUNTY
STAT .                        : STATE
CTRY .                        : COUNTRY
SRVC .                        : SERVICE COMPANY
DATE .                        : DATE
UWI  .                        : UNIQUE WELL ID
API  .                        : API NUMBER
SLAT .WGS84 2.648271728876999 : SURFACE LATITUDE
SLON .WGS84 7.341687217178006 : SURFACE LONGITUDE
DATUM.F                   nan : DEPTH DATUM ELEV
~Curve Information -----------------------------------------
DEPT    .F     : 
DTCO    .US/F  : DELTA-T COMPRESSIONAL
DTSM    .US/F  : DELTA-T SHEAR
HSGR    .GAPI  : HNGS STANDARD GAMMA RAY
TNPH_LIM.DEC   : THERMAL NEUTRON POROSITY (RATIO METHOD) (LIMESTONE)
~Params ----------------------------------------------------
~Other -----------------------------------------------------
~ASCII -----------------------------------------------------
 3700.00000   72.73910  143.42730   -9999.25    0.21650
 3700.50000   72.01260  143.26670   23.05200    0.12600
 3701.00000   60.08970  136.73440   16.66950    0.07580
 3701.50000   59.09200  135.53170   14.50010    0.05300
 3702.00000   60.66620  128.31830   13.82530    0.04860
 3702.50000   60.98870  125.59280   12.88820    0.06120
 3703.00000   61.01630  121.93910   13.15500    0.05960
 3703.50000   61.39690  127.50230   13.94190    0.04380
 3704.00000   62.33150  128.83470   15.28160    0.02450
 3704.50000   63.08000  128.91420   15.61140    0.01500
 3705.00000   65.10450  131.58860   15.48160    0.00830
 3705.50000   67.39350  133.43410   15.95250    0.00430
 3706.00000   69.87900  133.95610   16.37940    0.00490
 3706.50000   73.00850  135.86510   17.19230    0.00850
 3707.00000   74.15980  137.14070   18.20550    0.03110
 3707.50000   75.27320  144.01420   22.47110    0.07000
 3708.00000   77.69270  149.16660   28.03950    0.12130
 3708.50000   79.01440  149.54840   34.18270    0.20110
 3709.00000   79.65880  150.54120   39.54710    0.30120
 3709.50000   79.73910  151.85560   42.88250    0.38190
 3710.00000   79.16550  152.63230   43.93840    0.33500
 3710.50000   77.54780  152.20850   42.34780    0.29380
 3711.00000   75.78940  150.85080   40.10890    0.26200
 3711.50000   75.38090  149.46480   36.59810    0.29000
 3712.00000   74.51480  149.11700   32.82150    0.30460
 3712.50000   72.66540  148.09180   29.26560    0.27540
 3713.00000   70.91040  146.96360   26.65290    0.19910
 3713.50000   70.81710  143.38720   24.61920    0.14620
 3714.00000   72.96880  137.49820   23.07310    0.12480
 3714.50000   77.79130  133.55030   21.70940    0.12970
 3715.00000   75.83120  130.59980   21.11340    0.13970
 3715.50000   81.44830  128.26750   21.78930    0.16070
 3716.00000   81.82100  128.27630   25.30550    0.20260
 3716.50000   81.90700  122.43430   30.31720    0.29580
 3717.00000   80.19080  116.28150   33.98720    0.56070
 3717.50000   80.75420  122.09360   34.38070    0.74320
 3718.00000   82.65770  144.08500   31.60970    0.76410
 3718.50000   74.47760  172.38810   27.95670    0.55720
 3719.00000   69.56910  158.69420   24.69890    0.24630
 3719.50000   75.18420  153.61980   22.47630    0.15750
 3720.00000   76.34800  148.39070   22.19320    0.14350
 3720.50000   75.33300  145.18640   22.91980    0.16210
 3721.00000   73.73350  140.93860   22.62410    0.17410
 3721.50000   72.13390  133.92570   22.01260    0.15740
 3722.00000   68.86100  130.78280   20.56240    0.13250
 3722.50000   61.94620  125.52970   18.44450    0.11620
 3723.00000   64.14450  120.10030   16.08860    0.09900
 3723.50000   75.45000  119.80560   13.17950    0.08680
 3724.00000   75.80060  119.38120   13.38470    0.09030
 3724.50000   78.24070  119.11790   15.72700    0.11960
 3725.00000   80.81450  120.10750   18.06940    0.17460
 3725.50000   67.09050  120.71630   20.41190    0.22890
 3726.00000   67.31190  122.34000   21.05160    0.22270
 3726.50000   68.03670  123.41000   19.95530    0.17970
 3727.00000   67.72090  124.39840   18.47210    0.12540
 3727.50000   67.97770  125.88630   17.42320    0.08710
 3728.00000   67.79730  125.48840   17.31300    0.06600
 3728.50000   67.28180  124.66480   15.81380    0.05880
 3729.00000   66.74050  122.90420   15.71480    0.06450
 3729.50000   66.53000  117.59430   15.71580    0.06980
 3730.00000   66.51310  115.30340   15.71690    0.07320
 3730.50000   66.69560  115.10290   16.70570    0.08550
 3731.00000   66.89440  125.99050   16.83560    0.10920
 3731.50000   67.26910  136.87820   17.60170    0.12650
 3732.00000   67.82590  135.99170   18.24100    0.11470
 3732.50000   68.20820  135.35240   18.58650    0.10030
 3733.00000   69.46540  134.90990   18.31430    0.08940
 3733.50000   71.40880  134.55570   18.01160    0.07840
 3734.00000   74.57880  135.81110   17.06090    0.07390
 3734.50000   77.87960  137.71600   16.12230    0.08870
 3735.00000   71.84920  139.84460   16.30800    0.13870
 3735.50000   69.41930  139.79840   18.42240    0.21250
 3736.00000   59.50010  139.42480   20.46570    0.28210
 3736.50000   51.34060  138.82560   20.04480    0.24490
 3737.00000   50.09400  136.98890   17.34520    0.14630
 3737.50000   52.35130  134.33420   13.84970    0.07660
 3738.00000   56.96430  134.33410   11.28880    0.05220
 3738.50000   61.31310  134.33390   11.33580    0.04880
 3739.00000   61.84970  126.65370   13.43030    0.04610
 3739.50000   61.62240  122.86840   15.52730    0.04210
 3740.00000   62.10350  123.91230   16.22950    0.04410
 3740.50000   63.85200  125.31760   16.37030    0.05580
 3741.00000   66.42100  124.31570   16.43500    0.06250
 3741.50000   69.09560  125.31730   16.40580    0.06180
 3742.00000   71.67030  131.44690   16.00670    0.06070
 3742.50000   71.91040  138.10720   15.95740    0.06810
 3743.00000   76.65330  144.76740   15.90810    0.07710
 3743.50000   83.71020  144.65980   15.85880    0.09010
 3744.00000   80.51280  150.97780   17.10390    0.11600
 3744.50000   80.81330  168.39110   17.70890    0.17710
 3745.00000   82.05310  167.18890   19.49240    0.27990
 3745.50000   83.56260  169.19230   21.53790    0.41000
 3746.00000   81.66420  167.78960   23.06200    0.39550
 3746.50000   77.90870  160.55190   22.42330    0.31500
 3747.00000   72.99100  151.16050   20.71620    0.19310
 3747.50000   75.27600  145.14990   19.02060    0.12410
 3748.00000   73.47210  137.13590   17.56450    0.09070
 3748.50000   71.10170  132.15560   16.06760    0.07690
 3749.00000   67.88180  122.30980   15.78710    0.08950
 3749.50000   60.97890  121.10760   15.37040    0.09870
 3750.00000   50.31340  117.62140   14.59190    0.08570
 3750.50000   58.35480  113.81460   13.54590    0.07250
 3751.00000   51.83200  111.18990   14.28390    0.06710
 3751.50000   56.53950  108.28470   15.04160    0.07870
 3752.00000   51.75320   98.66790   14.97900    0.07330
 3752.50000   52.93010   97.86630   13.95510    0.05770
 3753.00000   52.79100   96.78100   12.87140    0.04710
 3753.50000   50.76810   95.69560   14.03630    0.06730
 3754.00000   54.24400   97.23620   16.19520    0.10190
 3754.50000   57.71990   99.86920   21.03880    0.16370
 3755.00000   60.98090   94.86030   29.48990    0.27040
 3755.50000   64.24210  107.88280   38.84910    0.38660
 3756.00000   67.50320  115.26180   45.83110    0.44100
 3756.50000   70.76420  122.82640   45.70530    0.70150
 3757.00000   73.86570  130.39100   42.42970    1.03710
 3757.50000   76.04470  133.85410   37.63770    0.82150
 3758.00000   77.24680  138.43470   33.22340    0.55960
 3758.50000   79.01250  141.72930   28.72990    0.33270
 3759.00000   80.78270  141.69040   24.46250    0.20120
 3759.50000   80.47700  139.26930   20.53440    0.14420
 3760.00000   75.75500  138.78660   17.16110    0.13220
 3760.50000   68.12280  137.62540   14.75960    0.13430
 3761.00000   66.15920  136.73800   13.57880    0.09430
 3761.50000   66.06840  136.59550   14.36590    0.06350
 3762.00000   65.72320  137.46320   16.45640    0.04750
 3762.50000   65.89170  137.52930   17.94620    0.04080
 3763.00000   66.93950  136.12320   17.57500    0.05810
 3763.50000   70.79340  137.37070   17.39120    0.07880
 3764.00000   69.11660  137.08910   19.82790    0.09930
 3764.50000   69.86640  136.89320   25.12360    0.10990
 3765.00000   71.09780  136.69720   30.30340    0.11370
 3765.50000   71.89380  136.50130   33.73930    0.10990
 3766.00000   72.31870  136.55650   34.55790    0.11620
 3766.50000   72.75990  137.28110   34.51800    0.12740
 3767.00000   72.29530  137.11340   34.96420    0.14940
 3767.50000   70.47890  136.22790   36.98680    0.17590
 3768.00000   68.64750  131.45920   36.68970    0.21070
 3768.50000   76.80260  121.92600   32.48130    0.22430
 3769.00000   69.86460  118.11260   25.02800    0.11210
 3769.50000   63.70350  119.31440   16.45920    0.04590
 3770.00000   58.60140  116.05890   11.39280    0.01930
 3770.50000   58.77250  115.80840   10.12090    0.01050
 3771.00000   58.36950  106.10620   10.46320    0.01330
