~Version ---------------------------------------------------
VERS.   2.0 : CWLS log ASCII Standard -VERSION 2.0
WRAP.    NO : One line per depth step
DLM . SPACE : Column Data Section Delimiter
~Well ------------------------------------------------------
STRT .F                3700.0 : START DEPTH
STOP .F                9806.0 : STOP DEPTH
STEP .F                   0.5 : STEP
NULL .               -9999.25 : NULL VALUE
COMP .                        : COMPANY
WELL .                        : WELL
FLD  .                        : FIELD
LOC  .                        : LOCATION
PROV .                        : PROVINCE
CNTY .                        : COUNTY
STAT .                        : STATE
CTRY .                        : COUNTRY
SRVC .                        : SERVICE COMPANY
DATE .                        : DATE
UWI  .                        : UNIQUE WELL ID
API  .                        : API NUMBER
SLAT .WGS84 2.648271728876999 : SURFACE LATITUDE
SLON .WGS84 7.341687217178006 : SURFACE LONGITUDE
DATUM.F                   nan : DEPTH DATUM ELEV
~Curve Information -----------------------------------------
DEPT    .F     : 
DTCO    .US/F  : DELTA-T COMPRESSIONAL
DTSM    .US/F  : DELTA-T SHEAR
HSGR    .GAPI  : HNGS STANDARD GAMMA RAY
TNPH_LIM.DEC   : THERMAL NEUTRON POROSITY (RATIO METHOD) (LIMESTONE)
~Params ----------------------------------------------------
~Other -----------------------------------------------------
~ASCII -----------------------------------------------------
# ...
 9706.00000   48.39800   91.78700   16.93100    0.09430
 9706.50000   48.81900   90.98620   16.35410    0.09970
 9707.00000   48.22930   91.11960   16.05090    0.10120
 9707.50000   48.15840   91.50330   16.28930    0.09980
 9708.00000   48.72700   91.92050   16.19300    0.09250
 9708.50000   48.41990   91.92050   15.92220    0.08660
 9709.00000   48.05990   91.34210   15.65140    0.08210
 9709.50000   48.18920   89.11740   15.48890    0.08320
 9710.00000   48.23640   89.18420   16.19520    0.08130
 9710.50000   48.23720   89.51790   16.39700    0.07920
 9711.00000   48.23800   89.65140   16.04380    0.07980
 9711.50000   47.73530   89.65140   15.79160    0.07860
 9712.00000   48.67540   89.11740   15.69070    0.07510
 9712.50000   47.03860   88.80600   16.19520    0.07470
 9713.00000   45.62540   88.78380   16.19520    0.07830
 9713.50000   46.41050   90.73830   16.19520    0.08250
 9714.00000   47.00060   93.06670   16.19520    0.08310
 9714.50000   47.06080   93.62480   15.94290    0.08410
 9715.00000   47.06190   93.56660   15.69070    0.08700
 9715.50000   47.06290   93.51270   15.43840    0.08820
 9716.00000   47.06400   93.46490   15.18620    0.09040
 9716.50000   47.16460   93.41720   15.16930    0.09080
 9717.00000   47.14810   94.67990   15.58980    0.09320
 9717.50000   48.28160   95.42280   15.67380    0.09420
 9718.00000   47.43660   94.36690   15.25340    0.09280
 9718.50000   46.03660   93.23670   15.82810    0.08800
 9719.00000   45.44320   92.83020   17.06610    0.09050
 9719.50000   45.36390   92.82640   16.90920    0.10190
 9720.00000   45.35430   92.76740   15.89960    0.11950
 9720.50000   46.46480   92.48810   15.59570    0.13000
 9721.00000   47.05260   92.69300   15.47690    0.13040
 9721.50000   46.72620   92.73920   15.35830    0.13140
 9722.00000   45.07650   92.59890   15.58980    0.13430
 9722.50000   44.63580   92.45850   15.75030    0.13380
 9723.00000   44.91340   92.68800   15.59690    0.12830
 9723.50000   44.83490   92.52710   15.58820    0.12020
 9724.00000   44.82840   92.28820   17.09380    0.11220
 9724.50000   44.82200   92.55090   18.59960    0.10830
 9725.00000   44.81550   92.41690   20.10520    0.10780
 9725.50000   44.80920   92.21480   19.95110    0.11080
 9726.00000   44.31270   92.13780   19.51210    0.11560
 9726.50000   44.64420   92.41680   18.72530    0.12030
 9727.00000   44.26420   92.26300   18.84980    0.12390
 9727.50000   43.41580   92.19420   18.84140    0.12340
 9728.00000   42.78790   92.12560   18.91970    0.12300
 9728.50000   43.04130   92.05690   18.32100    0.12490
 9729.00000   44.25380   92.39000   17.70940    0.12860
 9729.50000   46.14970   92.91880   17.93810    0.13240
 9730.00000   46.81080   92.83330   18.94700    0.13650
 9730.50000   46.80430   92.75800   19.20190    0.13510
 9731.00000   45.73320   92.79570   18.16290    0.12880
 9731.50000   45.90030   92.54130   18.83740    0.12220
 9732.00000   46.33030   92.09190   19.71700    0.11680
 9732.50000   46.44710   91.83680   20.13070    0.11660
 9733.00000   46.53370   91.83040   19.09760    0.11230
 9733.50000   46.53330   91.82390   18.63760    0.10890
 9734.00000   46.53290   91.81750   18.95730    0.10730
 9734.50000   46.10800   91.81090   19.37980    0.10320
 9735.00000   45.57690   91.54860   18.99690    0.10240
 9735.50000   45.00940   91.03670   18.15460    0.09740
 9736.00000   44.46940   90.47850   18.34460    0.09280
 9736.50000   44.24800   90.38260   18.04840    0.08690
 9737.00000   44.35160   90.40250   18.25490    0.08130
 9737.50000   44.32190   90.42230   17.94570    0.07930
 9738.00000   44.24700   90.39600   17.72890    0.08190
 9738.50000   45.71730   90.18520   18.07240    0.08570
 9739.00000   47.54830   90.91220   17.81000    0.09110
 9739.50000   49.23030   91.63920   17.23040    0.09560
 9740.00000   49.54020   91.94480   16.80070    0.10130
 9740.50000   49.05650   91.84900   16.29540    0.10830
 9741.00000   49.05530   91.83460   15.94400    0.12140
 9741.50000   49.05400   91.84060   16.20030    0.13780
 9742.00000   49.05280   91.84650   16.73220    0.15200
 9742.50000   49.05170   91.85250   17.26410    0.14340
 9743.00000   49.05040   91.85850   17.16280    0.15300
 9743.50000   49.04920   91.86450   17.40620    0.15590
 9744.00000   49.04800   92.07990   17.80430    0.15640
 9744.50000   49.04660   91.82980   18.41680    0.15270
 9745.00000   48.19230   91.43320   18.44610    0.15170
 9745.50000   47.26730   91.03650   17.92840    0.14740
 9746.00000   46.62940   90.75350   17.36040    0.13700
 9746.50000   46.39870   90.92570   17.12550    0.13050
 9747.00000   46.39460   91.01550   17.11980    0.12870
 9747.50000   46.49880   90.83410   17.11410    0.13330
 9748.00000   46.53070   90.69390   18.13870    0.13940
 9748.50000   46.52670   90.86640   18.23280    0.13780
 9749.00000   46.45400   90.88490   17.99150    0.13400
 9749.50000   46.54470   91.21190   17.32480    0.13050
 9750.00000   46.95100   92.20130   17.90170    0.12550
 9750.50000   47.19470   92.39810   19.21780    0.12050
 9751.00000   47.19470   92.59480   19.70530    0.11460
 9751.50000   47.19470   92.79150   19.60870    0.11740
 9752.00000   47.19470   92.82590   19.13240    0.11880
 9752.50000   47.19470   92.81960   19.51100    0.12140
 9753.00000   47.19470   92.81330   19.88540    0.11990
 9753.50000   47.19470   92.64270   20.20660    0.11980
 9754.00000   47.19470   92.88080   20.92410    0.12150
 9754.50000   47.19470   92.88010   21.69420    0.12000
 9755.00000   47.19470   92.87940   21.54500    0.11770
 9755.50000   47.19470   92.87870   20.75930    0.11170
 9756.00000   47.19470   92.87800   20.30330    0.10560
 9756.50000   47.19470   92.87730   20.07030    0.10590
 9757.00000   47.19470   92.87660   19.36420    0.10450
 9757.50000   47.19470   92.87590   18.81400    0.10350
 9758.00000   47.19470   92.87520   18.56640    0.10130
 9758.50000   47.19470   92.87450   18.18600    0.10330
 9759.00000   47.19470   92.87380   18.97160    0.10950
 9759.50000   47.19470   92.87310   19.02380    0.11730
 9760.00000   47.19470   92.87240   19.07600    0.13030
 9760.50000   47.19470   92.87170   19.12810    0.14800
 9761.00000   47.19470   92.87090   19.96830    0.15990
 9761.50000   47.19470   92.87020   19.39900    0.16040
 9762.00000   47.19470   92.86950   19.42120    0.15710
 9762.50000   47.19470   92.86880   19.44340    0.15740
 9763.00000   47.19470   92.86810   19.86120    0.15890
 9763.50000   47.19470   92.86740   20.84580    0.15920
 9764.00000   47.19470   92.86670   21.15450    0.15590
 9764.50000   47.19470   92.86600   21.71100    0.14940
 9765.00000   47.19470   92.86530   22.15350    0.14290
 9765.50000   47.19470   92.86460   22.60680    0.13960
 9766.00000   47.19470   92.86390   23.24850    0.14000
 9766.50000   47.19470   93.00330   24.08860    0.13870
 9767.00000   47.19470   92.93100   25.30720    0.13340
 9767.50000   47.19470   92.89250   26.28510    0.12320
 9768.00000   47.19470   92.85400   26.66930    0.11290
 9768.50000   47.19470   92.83090   26.10540    0.11540
 9769.00000   47.19470   92.83090   25.43280    0.12040
 9769.50000   47.19470   92.83090   25.24470    0.12060
 9770.00000   47.19470   92.83090   24.63140    0.11630
 9770.50000   47.19470   92.83090   24.24180    0.11160
 9771.00000   47.19470   92.83090   24.70230    0.11520
 9771.50000   47.19470   92.83090   25.28500    0.11920
 9772.00000   47.19470   92.83090   24.94170    0.11640
 9772.50000   47.19470   92.83090   24.26150    0.11220
 9773.00000   47.19470   92.83090   24.83960    0.10610
 9773.50000   47.19470   92.83090   25.61010    0.11010
 9774.00000   47.19470   92.83090   26.10090    0.11610
 9774.50000   47.19470   92.83090   25.40480    0.13150
 9775.00000   47.19470   92.83090   25.69520    0.14550
 9775.50000   -9999.25   -9999.25   25.44620    0.14600
 9776.00000   -9999.25   -9999.25   25.80160    0.14230
 9776.50000   -9999.25   -9999.25   25.25450    0.13900
 9777.00000   -9999.25   -9999.25   25.36580    0.13600
