~Version ---------------------------------------------------
VERS.   2.0 : CWLS log ASCII Standard -VERSION 2.0
WRAP.    NO : One line per depth step
DLM . SPACE : Column Data Section Delimiter
~Well ------------------------------------------------------
STRT .F                3700.0 : START DEPTH
STOP .F                9806.0 : STOP DEPTH
STEP .F                   0.5 : STEP
NULL .               -9999.25 : NULL VALUE
COMP .                        : COMPANY
WELL .                        : WELL
FLD  .                        : FIELD
LOC  .                        : LOCATION
PROV .                        : PROVINCE
CNTY .                        : COUNTY
STAT .                        : STATE
CTRY .                        : COUNTRY
SRVC .                        : SERVICE COMPANY
DATE .                        : DATE
UWI  .                        : UNIQUE WELL ID
API  .                        : API NUMBER
SLAT .WGS84 2.648271728876999 : SURFACE LATITUDE
SLON .WGS84 7.341687217178006 : SURFACE LONGITUDE
DATUM.F                   nan : DEPTH DATUM ELEV
~Curve Information -----------------------------------------
DEPT    .F     : 
DTCO    .US/F  : DELTA-T COMPRESSIONAL
DTSM    .US/F  : DELTA-T SHEAR
HSGR    .GAPI  : HNGS STANDARD GAMMA RAY
TNPH_LIM.DEC   : THERMAL NEUTRON POROSITY (RATIO METHOD) (LIMESTONE)
~Params ----------------------------------------------------
~Other -----------------------------------------------------
~ASCII -----------------------------------------------------
# ...
 4915.50000   47.73530   87.26410   17.24580    0.12530
 4916.00000   47.78830   87.30190   18.74070    0.13120
 4916.50000   47.96110   87.33990   19.96840    0.13500
 4917.00000   47.99570   87.37780   20.43350    0.14090
 4917.50000   48.12570   87.41580   21.27890    0.14200
 4918.00000   47.98210   87.49820   22.20680    0.13950
 4918.50000   47.79060   87.75850   23.31110    0.13360
 4919.00000   47.64340   88.01890   23.68780    0.12970
 4919.50000   47.55520   88.02280   23.74220    0.13170
 4920.00000   47.28260   88.02990   22.73960    0.13530
 4920.50000   46.72020   88.04970   21.44370    0.13760
 4921.00000   46.57590   88.65620   20.87300    0.14300
 4921.50000   47.10540   89.68670   20.39230    0.14970
 4922.00000   48.12510   90.71700   20.22480    0.15220
 4922.50000   48.37380   90.98010   20.02960    0.15560
 4923.00000   48.46210   90.81180   20.20630    0.15890
 4923.50000   49.00090   91.16370   21.19020    0.17010
 4924.00000   50.07420   92.17220   21.66540    0.18100
 4924.50000   51.47830   92.54520   22.07740    0.19130
 4925.00000   52.08760   92.59630   20.87680    0.18400
 4925.50000   52.31490   92.53860   20.73610    0.18620
 4926.00000   52.54080   92.39490   19.56080    0.19360
 4926.50000   52.79370   92.57250   17.89180    0.19740
 4927.00000   52.93740   92.73370   16.17340    0.19260
 4927.50000   52.54700   92.80350   14.27120    0.18700
 4928.00000   51.99450   92.87330   13.37090    0.18360
 4928.50000   51.76000   92.63790   13.34130    0.18450
 4929.00000   51.43280   92.55630   13.77340    0.16510
 4929.50000   50.37530   92.35230   14.53810    0.14880
 4930.00000   49.86520   92.23780   15.12490    0.13570
 4930.50000   49.66200   92.31160   15.60460    0.13920
 4931.00000   49.54700   92.68270   15.77900    0.14410
 4931.50000   48.81090   92.95530   15.49520    0.14190
 4932.00000   48.00640   93.16240   16.49180    0.13860
 4932.50000   47.64710   93.39210   17.75820    0.14980
 4933.00000   47.46950   93.71290   19.46470    0.16540
 4933.50000   47.12380   94.03360   21.75460    0.18410
 4934.00000   46.97880   94.35430   23.80790    0.18850
 4934.50000   47.04120   94.67500   24.82070    0.19920
 4935.00000   46.91660   95.01700   24.96490    0.21070
 4935.50000   46.70410   95.36440   24.43870    0.21920
 4936.00000   46.54490   95.55410   25.25170    0.21670
 4936.50000   46.04960   95.84380   26.18510    0.20860
 4937.00000   46.01020   96.30950   26.91110    0.20600
 4937.50000   46.08110   96.86920   25.95990    0.20580
 4938.00000   48.48550   97.08490   24.42720    0.20210
 4938.50000   49.64930   97.07140   23.71310    0.19800
 4939.00000   54.85300   97.05780   23.61200    0.19570
 4939.50000   54.42130   97.04420   23.83900    0.19520
 4940.00000   52.65420   97.03070   23.71870    0.19800
 4940.50000   50.24810   97.01710   22.15680    0.20190
 4941.00000   49.56660   97.00370   20.71420    0.20440
 4941.50000   49.76840   96.99280   19.74870    0.20660
 4942.00000   50.05700   96.89800   19.53130    0.20870
 4942.50000   50.37180   96.66120   19.50080    0.21710
 4943.00000   49.97340   96.42430   18.74850    0.22740
 4943.50000   49.49900   96.18750   17.80600    0.23190
 4944.00000   48.91360   95.95070   17.55090    0.23190
 4944.50000   48.86050   95.71380   16.95550    0.22010
 4945.00000   49.17990   95.47770   17.04410    0.20750
 4945.50000   48.91600   95.24440   16.83110    0.19970
 4946.00000   49.27250   95.01110   17.02730    0.21010
 4946.50000   51.39940   94.77130   17.90310    0.21550
 4947.00000   51.94040   94.50540   18.01160    0.21800
 4947.50000   51.83730   94.23960   17.27790    0.21420
 4948.00000   51.63250   94.13120   16.52940    0.21590
 4948.50000   51.35020   93.96350   16.35660    0.19930
 4949.00000   50.86210   93.75620   16.18380    0.18110
 4949.50000   50.07340   93.63190   15.42640    0.16750
 4950.00000   49.66410   93.63190   14.94780    0.16240
 4950.50000   50.11430   93.63190   14.70930    0.16070
 4951.00000   49.71060   93.63190   15.32740    0.17090
 4951.50000   49.74750   93.38160   16.27220    0.17970
 4952.00000   49.87360   93.13150   17.21710    0.18120
 4952.50000   49.94750   93.11140   16.51980    0.17890
 4953.00000   50.13770   93.31160   15.86650    0.17990
 4953.50000   50.43880   93.48040   15.54070    0.17790
 4954.00000   50.66430   93.63420   15.41400    0.17420
 4954.50000   50.83920   93.43870   15.28710    0.16590
 4955.00000   51.01360   93.43090   14.83330    0.15760
 4955.50000   50.96900   93.42300   14.73920    0.14870
 4956.00000   51.11000   93.36870   14.39200    0.14230
 4956.50000   51.38230   93.12830   14.65520    0.14200
 4957.00000   51.16270   92.88800   14.98330    0.14040
 4957.50000   51.17580   92.83260   15.82640    0.13610
 4958.00000   51.19910   92.82360   17.03380    0.12780
 4958.50000   51.13680   92.81450   18.08210    0.11880
 4959.00000   50.67390   92.67580   18.31430    0.10820
 4959.50000   50.06650   92.60900   17.63050    0.10450
 4960.00000   49.77530   92.58170   17.02350    0.10030
 4960.50000   49.51170   92.82410   16.72800    0.09750
 4961.00000   49.43540   92.82660   16.45370    0.09170
 4961.50000   49.22170   92.82910   16.16000    0.08680
 4962.00000   49.71170   92.82300   16.22120    0.08500
 4962.50000   48.33880   92.78230   17.33040    0.08700
 4963.00000   47.84550   92.74180   18.28010    0.09320
 4963.50000   48.32100   92.70120   19.30730    0.10140
 4964.00000   49.74940   92.66060   19.55110    0.10950
 4964.50000   49.17540   92.62010   19.80810    0.11650
 4965.00000   48.33280   92.57950   20.08880    0.12020
 4965.50000   49.70410   92.53880   21.34460    0.13180
 4966.00000   51.20200   92.33050   22.59080    0.13980
 4966.50000   52.70010   92.36390   23.63710    0.14920
 4967.00000   54.24990   92.69760   25.28050    0.15470
 4967.50000   53.88960   92.77900   26.61590    0.15770
 4968.00000   53.53130   92.62370   27.10830    0.15460
 4968.50000   51.88280   92.82410   27.24460    0.15710
 4969.00000   48.72560   92.82800   27.46290    0.16440
 4969.50000   47.63850   92.86580   28.14060    0.17510
 4970.00000   47.59520   93.03940   28.51230    0.18460
 4970.50000   47.59520   93.21300   28.60690    0.18820
 4971.00000   47.28820   93.50970   28.30420    0.18720
 4971.50000   46.39500   94.29910   27.68810    0.18050
 4972.00000   45.57450   94.65530   26.50640    0.17490
 4972.50000   45.40560   94.46010   25.60330    0.17880
 4973.00000   44.70080   94.81850   24.60150    0.19440
 4973.50000   44.20990   95.07980   24.29880    0.19330
 4974.00000   44.09400   95.19580   23.41490    0.17950
 4974.50000   43.94480   95.31160   23.72490    0.16640
 4975.00000   44.08640   95.63420   23.20620    0.16190
 4975.50000   44.14030   95.68900   22.60920    0.16430
 4976.00000   44.15130   95.66410   21.37940    0.15690
 4976.50000   44.16240   95.63910   20.71610    0.14910
 4977.00000   44.32660   95.73420   19.68210    0.13770
 4977.50000   44.13800   95.87770   18.41610    0.14840
 4978.00000   43.85130   96.05710   17.90540    0.15470
 4978.50000   43.23510   96.23270   17.23820    0.16110
 4979.00000   42.36950   96.24330   17.63890    0.16310
 4979.50000   41.65880   96.25380   17.31410    0.16750
 4980.00000   41.31110   96.26430   17.12050    0.17260
 4980.50000   40.35470   96.11180   17.48180    0.17890
 4981.00000   42.77630   96.08990   18.99960    0.18270
 4981.50000   49.75360   96.22840   19.58450    0.18250
 4982.00000   53.56100   96.36680   20.63740    0.17850
 4982.50000   56.03910   96.50530   21.67840    0.18750
 4983.00000   57.64230   96.77780   23.79380    0.20240
 4983.50000   58.62050   97.25150   27.17820    0.21800
 4984.00000   59.03280   97.67830   30.15390    0.22980
 4984.50000   58.21950   97.95630   32.07670    0.23580
 4985.00000   57.50240   98.15580   32.84510    0.23760
 4985.50000   56.62860   98.24000   32.57280    0.23600
 4986.00000   55.27230   98.32440   32.54150    0.23150
 4986.50000   51.86230   98.40860   31.36670    0.22540
