~Version ---------------------------------------------------
VERS.   2.0 : CWLS log ASCII Standard -VERSION 2.0
WRAP.    NO : One line per depth step
DLM . SPACE : Column Data Section Delimiter
~Well ------------------------------------------------------
STRT .F                3700.0 : START DEPTH
STOP .F                9806.0 : STOP DEPTH
STEP .F                   0.5 : STEP
NULL .               -9999.25 : NULL VALUE
COMP .                        : COMPANY
WELL .                        : WELL
FLD  .                        : FIELD
LOC  .                        : LOCATION
PROV .                        : PROVINCE
CNTY .                        : COUNTY
STAT .                        : STATE
CTRY .                        : COUNTRY
SRVC .                        : SERVICE COMPANY
DATE .                        : DATE
UWI  .                        : UNIQUE WELL ID
API  .                        : API NUMBER
SLAT .WGS84 2.648271728876999 : SURFACE LATITUDE
SLON .WGS84 7.341687217178006 : SURFACE LONGITUDE
DATUM.F                   nan : DEPTH DATUM ELEV
~Curve Information -----------------------------------------
DEPT    .F     : 
DTCO    .US/F  : DELTA-T COMPRESSIONAL
DTSM    .US/F  : DELTA-T SHEAR
HSGR    .GAPI  : HNGS STANDARD GAMMA RAY
TNPH_LIM.DEC   : THERMAL NEUTRON POROSITY (RATIO METHOD) (LIMESTONE)
~Params ----------------------------------------------------
~Other -----------------------------------------------------
~ASCII -----------------------------------------------------
# ...
 5273.00000   51.91520   96.11960   23.15790    0.19470
 5273.50000   52.40540   96.03460   22.85520    0.20350
 5274.00000   52.87360   95.99880   21.86290    0.20110
 5274.50000   52.94930   95.96300   20.95810    0.19530
 5275.00000   52.95260   95.92720   20.28200    0.19040
 5275.50000   53.19050   95.89150   20.46080    0.19620
 5276.00000   54.06990   95.85580   21.36880    0.20220
 5276.50000   54.26600   95.83750   21.83340    0.20350
 5277.00000   54.45350   95.84560   21.90000    0.19780
 5277.50000   54.24580   95.85370   21.68540    0.20380
 5278.00000   54.34620   95.86180   22.67170    0.20110
 5278.50000   49.69750   95.86990   23.92220    0.20890
 5279.00000   48.38650   95.87800   23.78880    0.19690
 5279.50000   48.67790   95.88600   22.17710    0.19940
 5280.00000   48.95300   95.89410   20.75160    0.20450
 5280.50000   48.60040   95.90210   20.02980    0.20790
 5281.00000   48.80880   95.91020   20.24390    0.20350
 5281.50000   49.36210   95.91830   20.78900    0.19810
 5282.00000   48.80000   95.92480   21.10490    0.20740
 5282.50000   44.62410   95.70750   20.86090    0.20200
 5283.00000   42.35790   95.49780   20.19560    0.21020
 5283.50000   41.90620   95.28810   19.39340    0.20890
 5284.00000   43.14460   95.07820   19.45180    0.20450
 5284.50000   49.64740   94.86850   19.79750    0.19150
 5285.00000   51.19250   94.65870   19.90710    0.18140
 5285.50000   50.06330   94.44890   21.08590    0.17390
 5286.00000   49.62620   94.32310   21.82620    0.17890
 5286.50000   49.21700   94.45670   22.53940    0.18540
 5287.00000   49.02790   94.61680   22.83770    0.19530
 5287.50000   49.33360   94.88380   22.70380    0.19570
 5288.00000   49.32880   95.15070   23.08460    0.18970
 5288.50000   49.45730   95.25750   23.43010    0.19610
 5289.00000   49.82660   95.53570   23.15790    0.21790
 5289.50000   50.44290   95.80670   23.73040    0.24390
 5290.00000   50.93550   96.07770   24.30780    0.24490
 5290.50000   51.40430   96.34880   24.10180    0.23690
 5291.00000   51.77150   96.61990   24.08920    0.22840
 5291.50000   52.14120   96.87420   24.07670    0.23590
 5292.00000   52.73650   97.06200   25.18270    0.23660
 5292.50000   53.32730   97.06230   25.28230    0.24360
 5293.00000   53.86430   97.19580   24.60870    0.24010
 5293.50000   54.24230   97.32930   23.72180    0.23830
 5294.00000   54.20100   97.43480   25.03520    0.22870
 5294.50000   53.99200   97.42850   25.31270    0.22230
 5295.00000   53.33710   97.42210   25.35830    0.21610
 5295.50000   52.55300   97.41580   25.08280    0.20900
 5296.00000   53.06130   97.17820   25.01660    0.21360
 5296.50000   53.09140   97.04020   24.60950    0.23260
 5297.00000   52.97770   97.05180   23.90450    0.25990
 5297.50000   53.19780   97.06340   23.61200    0.27310
 5298.00000   53.01920   97.07510   24.42710    0.27560
 5298.50000   52.42300   97.08670   24.15850    0.27150
 5299.00000   52.13710   97.14070   23.41790    0.25670
 5299.50000   51.89430   97.19480   22.62810    0.24190
 5300.00000   51.84980   97.24880   22.75430    0.23450
 5300.50000   51.84980   97.35670   23.15790    0.22680
 5301.00000   52.01660   97.23590   23.43010    0.23640
 5301.50000   52.15750   97.36090   23.03760    0.23120
 5302.00000   52.27290   97.42060   23.82180    0.24480
 5302.50000   52.24960   97.38210   23.07030    0.23150
 5303.00000   52.15010   97.34370   22.87940    0.23240
 5303.50000   52.03600   97.16540   23.37340    0.23630
 5304.00000   51.97680   97.02950   24.18650    0.23830
 5304.50000   51.89010   96.91280   24.63460    0.23950
 5305.00000   51.75690   96.70080   24.27140    0.23610
 5305.50000   51.50220   96.52150   24.09160    0.23610
 5306.00000   51.02600   96.34230   24.29540    0.23510
 5306.50000   50.70660   96.19500   24.34650    0.23170
 5307.00000   50.65290   96.09490   24.39750    0.22670
 5307.50000   50.64580   95.99160   24.64110    0.21900
 5308.00000   50.59740   95.83040   24.88310    0.21050
 5308.50000   50.45880   95.58260   25.03350    0.20280
 5309.00000   52.07070   95.39180   25.44810    0.19610
 5309.50000   55.25160   95.27730   25.85190    0.19190
 5310.00000   55.90320   95.12490   25.81460    0.20030
 5310.50000   55.84960   94.97340   26.19420    0.19770
 5311.00000   55.75400   94.82320   26.47260    0.19430
 5311.50000   55.58450   94.67310   25.77140    0.19140
 5312.00000   55.31080   94.52290   25.67560    0.19340
 5312.50000   54.76690   94.41060   25.96920    0.18850
 5313.00000   53.90390   94.35490   27.26290    0.18590
 5313.50000   53.27040   94.16130   28.60690    0.18560
 5314.00000   53.02070   93.87570   28.90960    0.18020
 5314.50000   52.43170   93.55910   28.43390    0.17170
 5315.00000   52.25450   94.11440   27.24460    0.17050
 5315.50000   52.26490   94.11150   26.05540    0.18060
 5316.00000   52.27550   93.86940   25.27700    0.19020
 5316.50000   52.16020   94.11150   24.12650    0.19540
 5317.00000   52.12700   94.27010   22.97610    0.19790
 5317.50000   51.90330   94.33270   22.01770    0.20040
 5318.00000   51.94600   94.39530   23.77700    0.20930
 5318.50000   51.74000   94.45790   25.95240    0.22110
 5319.00000   50.78880   94.52040   27.05300    0.21230
 5319.50000   50.27100   94.56370   26.63960    0.19900
 5320.00000   49.89940   94.60220   26.71720    0.19540
 5320.50000   49.83840   94.63300   27.07350    0.20170
 5321.00000   49.25960   94.63300   27.42620    0.19310
 5321.50000   47.77170   94.63300   27.36580    0.17910
 5322.00000   49.30020   94.63300   27.23160    0.16860
 5322.50000   49.76120   94.63300   26.08100    0.16640
 5323.00000   49.93450   94.59940   25.59610    0.17160
 5323.50000   49.94120   94.55740   25.63470    0.17340
 5324.00000   49.97460   94.51540   26.66650    0.17680
 5324.50000   49.99520   94.47340   27.24460    0.17960
 5325.00000   50.39470   94.47840   26.92210    0.18450
 5325.50000   50.39600   94.63400   26.40460    0.18000
 5326.00000   50.39730   94.63910   25.78730    0.18190
 5326.50000   50.42430   94.64410   26.06980    0.18010
 5327.00000   50.52180   94.64920   25.58320    0.18150
 5327.50000   50.27160   94.69820   25.23510    0.18070
 5328.00000   50.14710   94.91330   24.94560    0.17820
 5328.50000   49.95920   94.98560   24.82280    0.17860
 5329.00000   50.34460   94.85960   25.30710    0.17640
 5329.50000   50.34420   94.90350   25.59880    0.17850
 5330.00000   50.20900   94.94750   26.15410    0.17900
 5330.50000   50.07390   94.99130   25.59710    0.17930
 5331.00000   49.93880   94.98780   24.69880    0.17660
 5331.50000   49.43350   94.82530   24.76020    0.17370
 5332.00000   49.11240   94.78570   25.42830    0.17220
 5332.50000   51.39940   94.74610   27.97970    0.16720
 5333.00000   52.15010   94.67550   29.85450    0.16240
 5333.50000   52.25030   94.62340   29.63470    0.15620
 5334.00000   47.84550   94.59930   26.87500    0.15350
 5334.50000   52.35040   94.57540   23.89770    0.15350
 5335.00000   50.48170   94.56170   21.03880    0.15700
 5335.50000   45.81000   94.56340   21.28970    0.16170
 5336.00000   44.70270   94.56520   22.28720    0.16450
 5336.50000   49.94780   94.56690   23.93610    0.15810
 5337.00000   51.39940   94.56870   24.98340    0.15810
 5337.50000   50.89880   94.57040   25.85870    0.16260
 5338.00000   50.79720   94.57220   26.88620    0.16590
 5338.50000   50.79520   94.57390   26.92250    0.16310
 5339.00000   49.62830   94.57570   26.25000    0.15870
 5339.50000   46.78350   94.57750   25.44800    0.15680
 5340.00000   47.43630   94.57920   25.27700    0.15300
 5340.50000   47.72510   94.58100   26.01180    0.15490
 5341.00000   47.83450   94.56120   26.48570    0.14900
 5341.50000   50.29820   94.50920   27.49460    0.14140
 5342.00000   48.73710   94.45740   27.45590    0.13660
 5342.50000   50.14210   94.40540   26.89540    0.13980
 5343.00000   50.84210   94.35340   26.38900    0.14400
 5343.50000   50.65130   94.23250   25.88260    0.13980
 5344.00000   49.46210   94.33270   26.55680    0.13510
