~Version ---------------------------------------------------
VERS.   2.0 : CWLS log ASCII Standard -VERSION 2.0
WRAP.    NO : One line per depth step
DLM . SPACE : Column Data Section Delimiter
~Well ------------------------------------------------------
STRT .F                3700.0 : START DEPTH
STOP .F                9806.0 : STOP DEPTH
STEP .F                   0.5 : STEP
NULL .               -9999.25 : NULL VALUE
COMP .                        : COMPANY
WELL .                        : WELL
FLD  .                        : FIELD
LOC  .                        : LOCATION
PROV .                        : PROVINCE
CNTY .                        : COUNTY
STAT .                        : STATE
CTRY .                        : COUNTRY
SRVC .                        : SERVICE COMPANY
DATE .                        : DATE
UWI  .                        : UNIQUE WELL ID
API  .                        : API NUMBER
SLAT .WGS84 2.648271728876999 : SURFACE LATITUDE
SLON .WGS84 7.341687217178006 : SURFACE LONGITUDE
DATUM.F                   nan : DEPTH DATUM ELEV
~Curve Information -----------------------------------------
DEPT    .F     : 
DTCO    .US/F  : DELTA-T COMPRESSIONAL
DTSM    .US/F  : DELTA-T SHEAR
HSGR    .GAPI  : HNGS STANDARD GAMMA RAY
TNPH_LIM.DEC   : THERMAL NEUTRON POROSITY (RATIO METHOD) (LIMESTONE)
~Params ----------------------------------------------------
~Other -----------------------------------------------------
~ASCII -----------------------------------------------------
# ...
 7704.00000   52.73690   95.14090   33.76640    0.19310
 7704.50000   52.41750   95.20980   34.77850    0.17890
 7705.00000   52.64360   95.15020   35.59970    0.16130
 7705.50000   52.49040   94.86920   34.79200    0.15120
 7706.00000   52.05400   94.32270   33.51210    0.14820
 7706.50000   51.82010   93.98080   31.62470    0.15410
 7707.00000   51.26930   93.81060   30.27040    0.14970
 7707.50000   50.91840   93.67560   29.86530    0.14050
 7708.00000   50.63890   93.31840   29.86820    0.13210
 7708.50000   50.15090   92.68070   29.87100    0.13520
 7709.00000   49.81650   92.28450   29.87390    0.13760
 7709.50000   49.31130   91.88830   30.98880    0.13300
 7710.00000   49.09250   91.76980   31.82770    0.12590
 7710.50000   48.94670   91.86990   32.08820    0.12860
 7711.00000   48.72180   92.03360   31.13880    0.13400
 7711.50000   48.54620   92.29250   29.81450    0.13770
 7712.00000   48.40170   92.55140   28.99740    0.13990
 7712.50000   48.25190   92.81030   29.36110    0.13920
 7713.00000   48.03800   93.06920   30.75300    0.13840
 7713.50000   47.97210   93.32810   30.44970    0.13500
 7714.00000   47.93380   93.42990   30.21080    0.13730
 7714.50000   48.12260   93.42680   29.86740    0.13280
 7715.00000   48.12510   93.42380   29.85500    0.13470
 7715.50000   48.05070   93.42070   29.45140    0.14370
 7716.00000   48.10740   93.41760   30.12060    0.15060
 7716.50000   48.04510   93.41460   28.35550    0.15460
 7717.00000   47.99560   93.41150   27.67160    0.14510
 7717.50000   47.99560   93.17390   27.30530    0.14770
 7718.00000   47.90520   92.95120   27.09330    0.14750
 7718.50000   47.83770   92.79100   26.14870    0.14130
 7719.00000   47.75540   92.68000   25.20420    0.13200
 7719.50000   47.75970   92.55260   24.82280    0.12130
 7720.00000   47.76370   92.26130   24.82280    0.12020
 7720.50000   47.52360   91.92910   25.03350    0.11670
 7721.00000   46.91580   91.74650   25.23690    0.11310
 7721.50000   46.71990   91.60130   25.22080    0.10920
 7722.00000   46.43480   91.45610   24.89210    0.11120
 7722.50000   46.92000   91.25640   24.44410    0.11500
 7723.00000   47.36910   91.50440   25.65110    0.11760
 7723.50000   47.99020   91.67720   27.31760    0.11890
 7724.00000   47.99440   91.85010   28.59180    0.11680
 7724.50000   47.85150   92.02290   28.24480    0.11700
 7725.00000   47.65880   92.19580   28.00110    0.11840
 7725.50000   48.29970   92.50700   27.24080    0.12470
 7726.00000   49.65080   92.85280   27.18830    0.13190
 7726.50000   49.95550   93.19880   26.92080    0.13130
 7727.00000   50.21590   93.36530   27.06290    0.12250
 7727.50000   50.25370   93.53190   26.37100    0.11110
 7728.00000   50.28580   93.65390   26.17860    0.10740
 7728.50000   50.44220   93.70890   25.59710    0.11200
 7729.00000   50.67520   94.00500   25.88240    0.12110
 7729.50000   50.94670   94.36150   27.03400    0.11980
 7730.00000   51.09980   94.47650   28.62430    0.11720
 7730.50000   50.69840   94.23250   29.34950    0.11980
 7731.00000   50.10750   94.03230   27.87630    0.12810
 7731.50000   49.93850   94.14670   26.40310    0.14020
 7732.00000   49.74280   94.23250   25.01250    0.13820
 7732.50000   49.50560   94.23250   24.86190    0.14160
 7733.00000   49.43690   93.97770   23.95580    0.14630
 7733.50000   49.28700   93.65920   23.66960    0.14370
 7734.00000   48.88180   93.65110   23.63410    0.14100
 7734.50000   48.79940   93.68370   23.69100    0.13940
 7735.00000   48.79760   93.71610   23.72610    0.14640
 7735.50000   48.93310   93.74860   23.77390    0.15460
 7736.00000   49.27440   93.78120   25.82050    0.16150
 7736.50000   49.33340   93.58760   27.08380    0.15180
 7737.00000   48.93860   93.33770   27.24460    0.14100
 7737.50000   48.66740   93.08780   24.86920    0.13520
 7738.00000   48.42710   92.83780   23.61200    0.13270
 7738.50000   48.18250   92.58790   23.82270    0.12980
 7739.00000   48.05250   92.45440   24.30950    0.12490
 7739.50000   48.18990   92.32100   23.52270    0.12950
 7740.00000   48.48690   92.32100   22.86830    0.12700
 7740.50000   48.55150   92.32100   23.03840    0.13090
 7741.00000   48.56350   92.58790   23.72380    0.14530
 7741.50000   48.63540   92.72130   24.02950    0.16250
 7742.00000   48.60600   92.92160   24.08530    0.17280
 7742.50000   48.52990   93.08840   24.23930    0.16930
 7743.00000   48.28290   93.25530   24.64110    0.16140
 7743.50000   47.67720   92.98830   22.45750    0.14680
 7744.00000   47.23510   92.85480   19.65090    0.13640
 7744.50000   46.84430   92.44440   16.64810    0.13250
 7745.00000   46.49570   91.94750   15.89250    0.13000
 7745.50000   46.14720   91.46140   16.75780    0.12110
 7746.00000   45.99870   90.97520   17.69840    0.11150
 7746.50000   45.89340   90.63100   17.69060    0.10710
 7747.00000   46.07890   90.49130   18.36830    0.10400
 7747.50000   46.23720   90.42490   19.45450    0.10370
 7748.00000   46.17790   90.35860   20.61820    0.10420
 7748.50000   46.25380   89.95170   21.70460    0.10570
 7749.00000   46.52400   88.85050   21.67470    0.10960
 7749.50000   46.42040   89.91840   21.59990    0.11380
 7750.00000   46.42100   90.43320   21.31290    0.11810
 7750.50000   46.54400   90.58570   21.14800    0.11390
 7751.00000   46.93130   91.16410   20.86770    0.10670
 7751.50000   47.58350   91.43060   20.43340    0.09600
 7752.00000   47.69340   91.65080   19.76770    0.08890
 7752.50000   48.14930   91.87100   20.14370    0.08760
 7753.00000   48.94820   92.09120   20.59920    0.09290
 7753.50000   49.49610   92.16420   21.00830    0.09900
 7754.00000   49.03280   91.83330   20.93540    0.10580
 7754.50000   49.04330   92.02310   20.44390    0.11360
 7755.00000   48.96030   91.83700   19.62300    0.12140
 7755.50000   49.13980   92.02130   19.21910    0.12300
 7756.00000   48.91210   92.06890   19.19570    0.12150
 7756.50000   48.69610   92.11640   19.17250    0.12190
 7757.00000   49.54730   92.16380   18.93500    0.12190
 7757.50000   49.70990   92.21140   19.38510    0.12080
 7758.00000   51.52440   92.25910   20.56870    0.12050
 7758.50000   52.15010   92.30700   21.33230    0.12130
 7759.00000   44.90230   92.35490   21.35210    0.12560
 7759.50000   43.24050   92.59050   22.13970    0.12290
 7760.00000   45.81900   92.28110   23.23950    0.11680
 7760.50000   49.04210   91.70320   25.06460    0.11060
 7761.00000   49.45170   91.31410   26.34590    0.10710
 7761.50000   48.88840   91.21820   27.96110    0.10870
 7762.00000   48.89310   91.16250   29.04160    0.10630
 7762.50000   49.36450   91.10690   29.52920    0.10540
 7763.00000   49.06240   91.05130   29.83770    0.10720
 7763.50000   48.35180   90.98620   30.24020    0.11190
 7764.00000   47.59830   90.98620   30.85470    0.10930
 7764.50000   47.78660   90.98620   31.72420    0.09880
 7765.00000   47.86510   91.31380   32.08850    0.09130
 7765.50000   48.00050   91.79920   31.39220    0.09390
 7766.00000   48.08600   92.18750   30.57480    0.10080
 7766.50000   48.13920   92.32100   29.91770    0.10520
 7767.00000   47.98560   92.45440   29.90100    0.10730
 7767.50000   47.54320   92.34860   30.56430    0.10850
 7768.00000   47.24400   92.24270   31.29700    0.11100
 7768.50000   47.19890   92.13690   30.60220    0.11240
 7769.00000   47.15060   92.03120   29.79640    0.11190
 7769.50000   46.93030   91.82990   28.82310    0.11250
 7770.00000   46.72320   91.93000   29.25300    0.11020
 7770.50000   46.64590   92.03010   29.09670    0.10850
 7771.00000   46.64190   91.99320   28.58730    0.10680
 7771.50000   46.63800   91.95630   28.03060    0.10690
 7772.00000   46.63400   91.88210   27.43390    0.10650
 7772.50000   46.63010   91.91010   27.72940    0.11010
 7773.00000   46.62610   92.22340   28.29000    0.11220
 7773.50000   46.53670   91.87300   28.98120    0.11380
 7774.00000   46.38820   91.65940   28.66090    0.11080
 7774.50000   46.28910   91.48020   28.12020    0.11080
 7775.00000   46.25810   91.30100   27.99920    0.11080
