~Version ---------------------------------------------------
VERS.   2.0 : CWLS log ASCII Standard -VERSION 2.0
WRAP.    NO : One line per depth step
DLM . SPACE : Column Data Section Delimiter
~Well ------------------------------------------------------
STRT .F                3700.0 : START DEPTH
STOP .F                9806.0 : STOP DEPTH
STEP .F                   0.5 : STEP
NULL .               -9999.25 : NULL VALUE
COMP .                        : COMPANY
WELL .                        : WELL
FLD  .                        : FIELD
LOC  .                        : LOCATION
PROV .                        : PROVINCE
CNTY .                        : COUNTY
STAT .                        : STATE
CTRY .                        : COUNTRY
SRVC .                        : SERVICE COMPANY
DATE .                        : DATE
UWI  .                        : UNIQUE WELL ID
API  .                        : API NUMBER
SLAT .WGS84 2.648271728876999 : SURFACE LATITUDE
SLON .WGS84 7.341687217178006 : SURFACE LONGITUDE
DATUM.F                   nan : DEPTH DATUM ELEV
~Curve Information -----------------------------------------
DEPT    .F     : 
DTCO    .US/F  : DELTA-T COMPRESSIONAL
DTSM    .US/F  : DELTA-T SHEAR
HSGR    .GAPI  : HNGS STANDARD GAMMA RAY
TNPH_LIM.DEC   : THERMAL NEUTRON POROSITY (RATIO METHOD) (LIMESTONE)
~Params ----------------------------------------------------
~Other -----------------------------------------------------
~ASCII -----------------------------------------------------
# ...
 8490.50000   48.93650   92.65950   22.48150    0.12760
 8491.00000   48.83990   92.39560   22.36500    0.13260
 8491.50000   48.68640   92.22670   22.08390    0.12510
 8492.00000   48.67020   92.16160   21.92160    0.12360
 8492.50000   48.55980   92.07410   21.39920    0.12160
 8493.00000   48.65280   92.29360   21.34810    0.12440
 8493.50000   48.77640   92.55470   21.82580    0.12610
 8494.00000   48.79650   92.73570   21.94690    0.13030
 8494.50000   48.79650   92.77790   20.62490    0.12990
 8495.00000   48.79650   92.81570   19.66120    0.12710
 8495.50000   48.81340   92.85340   19.25290    0.12250
 8496.00000   48.89800   92.86980   19.25290    0.12430
 8496.50000   49.04330   92.85420   19.25290    0.12960
 8497.00000   48.95320   93.03120   19.61610    0.13580
 8497.50000   48.83660   93.04570   20.02670    0.14070
 8498.00000   48.79650   93.06010   20.13450    0.13680
 8498.50000   48.79650   92.90830   20.02720    0.12790
 8499.00000   48.71630   92.84440   20.16090    0.11960
 8499.50000   48.79650   93.03120   20.06070    0.11590
 8500.00000   48.69640   93.01760   19.32330    0.11440
 8500.50000   48.64900   92.94940   19.24790    0.11470
 8501.00000   48.65250   92.88130   19.50690    0.11500
 8501.50000   48.65590   92.81320   20.35740    0.11850
 8502.00000   48.65930   92.74510   21.31120    0.11700
 8502.50000   48.66270   92.67700   20.87610    0.12280
 8503.00000   48.66620   92.60880   20.73370    0.13110
 8503.50000   48.66960   92.54080   20.13070    0.13950
 8504.00000   48.67300   92.35750   19.97920    0.14640
 8504.50000   48.55630   92.21220   19.97920    0.14770
 8505.00000   48.55920   92.16660   18.91320    0.14650
 8505.50000   48.56200   92.13480   18.01160    0.14200
 8506.00000   48.56490   92.15810   17.72850    0.13790
 8506.50000   48.44330   92.18140   18.32230    0.13450
 8507.00000   48.39600   92.20470   18.90000    0.13140
 8507.50000   48.39600   92.22780   18.15230    0.13210
 8508.00000   48.30570   92.25110   17.88530    0.13370
 8508.50000   48.23800   92.27440   17.55750    0.13660
 8509.00000   48.15930   92.29770   16.91090    0.13940
 8509.50000   48.23860   92.32090   16.18080    0.14180
 8510.00000   48.30520   92.32090   15.58980    0.13880
 8510.50000   48.58870   92.18750   16.59920    0.13480
 8511.00000   48.63920   92.05400   17.39170    0.13040
 8511.50000   48.62730   91.86700   18.08240    0.12910
 8512.00000   48.41840   91.65350   17.37880    0.13220
 8512.50000   48.28940   91.50380   17.07970    0.13040
 8513.00000   48.11770   91.48360   16.80880    0.12130
 8513.50000   47.90540   91.46340   15.78720    0.11050
 8514.00000   47.80030   91.44320   15.89250    0.10670
 8514.50000   47.63950   91.42300   15.89250    0.10830
 8515.00000   47.52550   91.40270   15.53740    0.11250
 8515.50000   47.35660   91.38650   15.46150    0.11830
 8516.00000   47.29290   91.25310   15.35250    0.12330
 8516.50000   47.66940   91.14380   15.48890    0.13190
 8517.00000   47.96040   90.96190   15.84770    0.14250
 8517.50000   48.13410   90.71920   15.62340    0.15630
 8518.00000   48.30170   90.65240   15.39910    0.16220
 8518.50000   48.40580   90.58570   15.17490    0.16040
 8519.00000   48.54270   90.64680   14.95070    0.15260
 8519.50000   48.56340   90.72330   14.72640    0.14570
 8520.00000   48.66850   90.79970   15.11500    0.14060
 8520.50000   48.64230   90.87620   15.65690    0.13540
 8521.00000   48.55630   90.95260   16.19870    0.12780
 8521.50000   48.53000   91.02900   16.21790    0.12400
 8522.00000   48.38790   90.60400   16.18500    0.12580
 8522.50000   48.29590   91.00180   16.16310    0.12820
 8523.00000   48.36260   90.78470   16.16560    0.12580
 8523.50000   48.37650   90.83880   15.43840    0.12550
 8524.00000   48.31030   91.23950   14.96490    0.12630
 8524.50000   48.15230   91.02900   14.05480    0.12790
 8525.00000   48.04370   91.38770   13.59900    0.13360
 8525.50000   47.95250   91.58900   13.84550    0.12580
 8526.00000   47.73650   91.02050   14.57200    0.12210
 8526.50000   47.47690   90.45220   15.43840    0.12010
 8527.00000   47.21450   90.67470   16.37230    0.11710
 8527.50000   46.96460   90.51580   15.89390    0.11300
 8528.00000   47.10760   90.26160   15.80790    0.10800
 8528.50000   47.29920   90.00730   15.15080    0.10260
 8529.00000   47.43820   89.75310   16.35410    0.09810
 8529.50000   47.36510   89.65140   17.03340    0.09830
 8530.00000   47.47650   89.65140   16.75350    0.10140
 8530.50000   47.34140   89.51790   16.16020    0.10530
 8531.00000   46.89560   89.39350   15.92670    0.10250
 8531.50000   46.54400   89.41610   15.25920    0.10210
 8532.00000   46.39730   89.43860   15.78660    0.10250
 8532.50000   46.28940   89.46120   15.44860    0.10820
 8533.00000   46.15720   89.48380   14.76910    0.11190
 8533.50000   46.27350   89.50640   14.08980    0.11010
 8534.00000   46.44980   89.65390   13.41040    0.10960
 8534.50000   46.89550   89.91830   12.58160    0.11240
 8535.00000   47.34140   90.10010   12.81020    0.12000
 8535.50000   47.43380   90.24300   13.85130    0.12400
 8536.00000   47.44780   90.38580   15.47760    0.12460
 8536.50000   47.46180   90.52850   16.19520    0.12490
 8537.00000   47.56470   90.58570   15.90550    0.13040
 8537.50000   47.90230   90.71130   15.61600    0.13610
 8538.00000   48.53520   91.02530   15.82290    0.13840
 8538.50000   49.00160   91.33930   14.75560    0.13700
 8539.00000   48.95670   91.65330   14.64140    0.13690
 8539.50000   48.94820   91.96730   14.10660    0.14150
 8540.00000   48.91770   92.13460   14.54800    0.14790
 8540.50000   48.87310   92.63150   15.30430    0.15380
 8541.00000   49.11870   93.19330   15.22660    0.15760
 8541.50000   49.32740   93.49070   14.74080    0.15970
 8542.00000   49.32740   93.71340   14.11730    0.15940
 8542.50000   49.32740   94.10520   14.19000    0.15970
 8543.00000   49.32740   93.93960   13.82350    0.15910
 8543.50000   49.32740   93.89520   14.28130    0.15970
 8544.00000   49.22780   93.85080   14.77600    0.15940
 8544.50000   49.48020   94.30890   15.22500    0.15990
 8545.00000   49.97380   94.42440   14.76500    0.16170
 8545.50000   50.49420   94.42280   14.10660    0.16290
 8546.00000   50.56390   94.42120   14.11370    0.16170
 8546.50000   50.44770   94.41960   14.55970    0.15960
 8547.00000   50.39750   94.41800   15.07420    0.16160
 8547.50000   50.32560   94.41640   14.44510    0.15930
 8548.00000   49.94200   94.41480   14.12410    0.15770
 8548.50000   49.76810   94.41320   14.10500    0.15160
 8549.00000   49.76400   94.25150   13.68690    0.14650
 8549.50000   49.75990   93.98310   13.72420    0.14810
 8550.00000   49.80940   93.71460   14.11370    0.15300
 8550.50000   50.03310   93.44610   14.55970    0.16300
 8551.00000   50.29800   93.30660   15.04650    0.15790
 8551.50000   50.52830   93.68280   14.23770    0.15750
 8552.00000   50.32850   94.13760   14.11370    0.15330
 8552.50000   51.37220   94.26590   14.64820    0.15770
 8553.00000   52.11680   94.30750   14.39770    0.16110
 8553.50000   52.23530   94.36120   13.94660    0.16640
 8554.00000   52.19550   94.43270   13.30460    0.16740
 8554.50000   49.81750   94.50420   13.14230    0.16520
 8555.00000   50.32930   94.59820   13.84800    0.16310
 8555.50000   50.75660   94.46840   14.62630    0.15720
 8556.00000   50.91980   94.33860   14.74000    0.15530
 8556.50000   50.85220   94.09590   14.43580    0.15880
 8557.00000   50.93870   94.16200   14.40530    0.16420
 8557.50000   50.96490   93.96150   14.37470    0.17460
 8558.00000   51.08030   93.82670   14.34420    0.17200
 8558.50000   50.95890   93.69720   14.31360    0.17470
 8559.00000   50.75190   93.62980   14.28310    0.16380
 8559.50000   49.95660   93.38040   12.74190    0.15800
 8560.00000   49.51080   93.13100   12.25970    0.15790
 8560.50000   49.35360   92.99650   12.63410    0.15880
 8561.00000   49.24040   92.90460   13.81480    0.16170
 8561.50000   48.94670   92.67640   14.64810    0.15300
