~Version ---------------------------------------------------
VERS.   2.0 : CWLS log ASCII Standard -VERSION 2.0
WRAP.    NO : One line per depth step
DLM . SPACE : Column Data Section Delimiter
~Well ------------------------------------------------------
STRT .F                3700.0 : START DEPTH
STOP .F                9806.0 : STOP DEPTH
STEP .F                   0.5 : STEP
NULL .               -9999.25 : NULL VALUE
COMP .                        : COMPANY
WELL .                        : WELL
FLD  .                        : FIELD
LOC  .                        : LOCATION
PROV .                        : PROVINCE
CNTY .                        : COUNTY
STAT .                        : STATE
CTRY .                        : COUNTRY
SRVC .                        : SERVICE COMPANY
DATE .                        : DATE
UWI  .                        : UNIQUE WELL ID
API  .                        : API NUMBER
SLAT .WGS84 2.648271728876999 : SURFACE LATITUDE
SLON .WGS84 7.341687217178006 : SURFACE LONGITUDE
DATUM.F                   nan : DEPTH DATUM ELEV
~Curve Information -----------------------------------------
DEPT    .F     : 
DTCO    .US/F  : DELTA-T COMPRESSIONAL
DTSM    .US/F  : DELTA-T SHEAR
HSGR    .GAPI  : HNGS STANDARD GAMMA RAY
TNPH_LIM.DEC   : THERMAL NEUTRON POROSITY (RATIO METHOD) (LIMESTONE)
~Params ----------------------------------------------------
~Other -----------------------------------------------------
~ASCII -----------------------------------------------------
# ...
 8133.00000   48.79650   91.53620   32.52250    0.12960
 8133.50000   48.69640   91.76070   32.20950    0.12210
 8134.00000   48.78830   91.98520   32.08820    0.11830
 8134.50000   48.93310   92.09690   31.16860    0.11760
 8135.00000   48.84150   92.32830   30.10230    0.12280
 8135.50000   48.62580   92.65830   30.14410    0.11730
 8136.00000   47.99980   92.98830   31.41780    0.11660
 8136.50000   47.88110   92.98830   32.95530    0.11910
 8137.00000   48.07380   92.85480   33.44700    0.11780
 8137.50000   48.33900   92.61010   33.34040    0.11370
 8138.00000   48.19020   92.30420   33.20290    0.11270
 8138.50000   48.01340   91.99830   33.17840    0.11600
 8139.00000   47.73250   91.69250   33.45050    0.11800
 8139.50000   47.16760   91.38650   33.82890    0.12020
 8140.00000   46.96950   91.25310   34.81460    0.11840
 8140.50000   46.69840   91.03610   34.62050    0.11930
 8141.00000   46.55110   91.19060   33.43960    0.11780
 8141.50000   46.42170   91.23770   30.97750    0.11430
 8142.00000   46.42090   91.31900   30.13540    0.11130
 8142.50000   46.53740   91.68390   31.01200    0.11180
 8143.00000   46.65070   91.87280   31.88870    0.11500
 8143.50000   46.77430   91.94430   32.97940    0.11780
 8144.00000   46.79430   92.01580   32.13840    0.11430
 8144.50000   46.81810   92.04200   31.92670    0.11790
 8145.00000   46.93680   92.05400   30.41220    0.12240
 8145.50000   47.02490   91.79690   30.14190    0.12780
 8146.00000   47.02490   91.47560   29.87160    0.12120
 8146.50000   47.02490   91.15420   30.12020    0.11430
 8147.00000   47.02490   90.83290   30.12020    0.10920
 8147.50000   46.95450   90.51160   29.35900    0.11160
 8148.00000   46.93010   90.31870   28.40730    0.11340
 8148.50000   47.07520   90.18530   27.98470    0.11500
 8149.00000   47.25090   90.51050   27.19090    0.10890
 8149.50000   47.43940   90.91690   26.48760    0.10330
 8150.00000   47.48210   91.32340   26.18490    0.10130
 8150.50000   47.60390   91.72980   26.76170    0.10610
 8151.00000   47.73530   91.72980   27.24460    0.11090
 8151.50000   47.76140   91.81430   28.36220    0.11330
 8152.00000   47.86770   92.02530   28.63140    0.11100
 8152.50000   47.83990   92.23640   28.60690    0.11450
 8153.00000   47.81210   92.70350   28.64470    0.11130
 8153.50000   47.78430   92.91390   28.98040    0.10950
 8154.00000   47.75640   93.01510   28.78250    0.11090
 8154.50000   47.84010   93.12170   28.48270    0.11950
 8155.00000   47.99790   93.31560   28.45560    0.12740
 8155.50000   48.12860   93.53080   27.23250    0.12290
 8156.00000   48.14100   93.74600   25.86740    0.11490
 8156.50000   48.15340   93.79270   25.29080    0.11080
 8157.00000   48.23700   93.65910   25.22560    0.11100
 8157.50000   48.18440   93.83040   25.25130    0.10930
 8158.00000   48.19530   93.82210   25.27700    0.10950
 8158.50000   48.17760   93.81380   25.92770    0.11190
 8159.00000   48.15990   93.80550   27.66830    0.11440
 8159.50000   48.04570   93.79730   28.60690    0.11680
 8160.00000   48.07430   93.78910   29.12600    0.11820
 8160.50000   48.23510   93.78080   28.34890    0.11670
 8161.00000   48.39600   93.77250   28.74760    0.11370
 8161.50000   48.42650   93.76420   29.20110    0.11630
 8162.00000   48.49120   93.75590   29.25070    0.11880
 8162.50000   48.65200   93.74760   28.96040    0.12030
 8163.00000   48.81640   93.73930   28.89900    0.12430
 8163.50000   49.13350   93.73110   27.66230    0.13300
 8164.00000   49.21290   93.72280   27.05580    0.14370
 8164.50000   49.54120   93.71450   27.41150    0.14510
 8165.00000   49.36720   93.78100   27.98320    0.14590
 8165.50000   49.43090   93.69190   28.75880    0.14900
 8166.00000   49.38140   93.28560   28.95430    0.15030
 8166.50000   49.44370   93.35030   29.69570    0.14750
 8167.00000   49.35360   93.45310   31.65520    0.14600
 8167.50000   49.21720   93.48880   33.81970    0.14470
 8168.00000   49.16150   93.52460   36.03500    0.14760
 8168.50000   49.17410   93.56040   35.14370    0.14800
 8169.00000   49.33170   93.59610   35.24860    0.15560
 8169.50000   49.66890   93.63190   36.32940    0.16390
 8170.00000   49.89640   93.72500   38.52080    0.16970
 8170.50000   49.94650   94.10700   40.30890    0.17400
 8171.00000   49.94760   94.41470   41.32130    0.17520
 8171.50000   49.94860   94.42560   42.61280    0.18220
 8172.00000   49.97910   94.06460   43.88210    0.18600
 8172.50000   49.95760   94.10520   44.44950    0.17500
 8173.00000   49.87160   93.73830   44.31820    0.15710
 8173.50000   49.73390   93.37140   43.01490    0.14440
 8174.00000   49.53880   93.00450   41.68190    0.14290
 8174.50000   49.25870   92.88510   40.22950    0.14310
 8175.00000   49.12720   92.75570   38.77710    0.14410
 8175.50000   48.96850   92.49040   38.28350    0.15130
 8176.00000   49.15280   92.47860   36.86130    0.15720
 8176.50000   49.33700   92.36250   32.55610    0.16170
 8177.00000   49.32900   92.23030   28.88180    0.16800
 8177.50000   49.23300   92.23030   26.15400    0.17020
 8178.00000   49.17370   92.23030   25.19900    0.16790
 8178.50000   49.09020   92.23030   24.97430    0.16040
 8179.00000   48.95680   92.23030   25.93050    0.16340
 8179.50000   48.93050   91.94030   27.77930    0.14920
 8180.00000   48.78290   91.65020   29.43950    0.13460
 8180.50000   48.59640   91.36020   29.34420    0.12570
 8181.00000   48.56730   90.81070   28.63780    0.12290
 8181.50000   48.20730   90.67530   26.52160    0.12080
 8182.00000   48.01420   90.45090   25.11250    0.11660
 8182.50000   48.13220   89.99250   23.15790    0.12000
 8183.00000   48.04370   89.63450   22.59190    0.11430
 8183.50000   47.99560   89.64390   22.07400    0.11660
 8184.00000   47.98170   89.65370   21.66200    0.11750
 8184.50000   47.84780   89.66540   22.25000    0.12320
 8185.00000   47.45720   89.67700   23.43040    0.11690
 8185.50000   47.11260   89.68870   24.74010    0.10920
 8186.00000   46.94380   89.70050   25.78860    0.10290
 8186.50000   46.59740   89.71220   26.78140    0.10210
 8187.00000   46.44030   89.72390   27.41580    0.10650
 8187.50000   46.34110   89.73570   29.20060    0.11440
 8188.00000   46.07730   89.74740   29.53990    0.12450
 8188.50000   46.13000   89.75910   28.55330    0.13780
 8189.00000   45.98070   89.77080   26.99240    0.14960
 8189.50000   45.75330   89.78260   25.22620    0.14870
 8190.00000   45.83420   89.78490   24.21740    0.14210
 8190.50000   46.27790   89.99840   23.08220    0.13910
 8191.00000   46.65840   90.31870   22.01910    0.13730
 8191.50000   46.94450   90.58570   21.17700    0.13300
 8192.00000   47.10820   90.76550   21.08080    0.12660
 8192.50000   47.31010   90.94510   21.32340    0.12140
 8193.00000   47.57590   91.12480   21.94690    0.12420
 8193.50000   47.86880   91.30440   22.94900    0.12880
 8194.00000   48.00580   91.48420   23.39150    0.13230
 8194.50000   48.23400   91.65350   22.60830    0.13630
 8195.00000   48.26020   91.82040   22.40100    0.13970
 8195.50000   48.67970   91.98720   22.74180    0.14770
 8196.00000   49.73360   92.15410   23.97910    0.15510
 8196.50000   49.94970   92.32090   23.54960    0.15400
 8197.00000   49.56570   92.58790   23.43090    0.16050
 8197.50000   49.83900   92.69240   22.85520    0.14830
 8198.00000   49.96690   92.79500   23.13730    0.15080
 8198.50000   50.23180   92.89760   21.95420    0.13930
 8199.00000   50.38080   92.95550   20.50090    0.12960
 8199.50000   50.27910   92.98370   20.61230    0.12420
 8200.00000   49.83480   92.96240   21.73770    0.13090
 8200.50000   49.67060   92.85320   23.91490    0.14530
 8201.00000   49.67000   92.90890   24.82300    0.15980
 8201.50000   49.73790   92.99730   25.90750    0.16840
 8202.00000   49.71370   93.10770   26.14400    0.16600
 8202.50000   49.50660   93.32760   25.96020    0.16510
 8203.00000   49.31160   93.23140   25.61790    0.16940
 8203.50000   49.40370   93.39600   25.27620    0.17950
 8204.00000   51.74550   93.86720   25.81250    0.17940
