~Version ---------------------------------------------------
VERS.   2.0 : CWLS log ASCII Standard -VERSION 2.0
WRAP.    NO : One line per depth step
DLM . SPACE : Column Data Section Delimiter
~Well ------------------------------------------------------
STRT .F                3700.0 : START DEPTH
STOP .F                9806.0 : STOP DEPTH
STEP .F                   0.5 : STEP
NULL .               -9999.25 : NULL VALUE
COMP .                        : COMPANY
WELL .                        : WELL
FLD  .                        : FIELD
LOC  .                        : LOCATION
PROV .                        : PROVINCE
CNTY .                        : COUNTY
STAT .                        : STATE
CTRY .                        : COUNTRY
SRVC .                        : SERVICE COMPANY
DATE .                        : DATE
UWI  .                        : UNIQUE WELL ID
API  .                        : API NUMBER
SLAT .WGS84 2.648271728876999 : SURFACE LATITUDE
SLON .WGS84 7.341687217178006 : SURFACE LONGITUDE
DATUM.F                   nan : DEPTH DATUM ELEV
~Curve Information -----------------------------------------
DEPT    .F     : 
DTCO    .US/F  : DELTA-T COMPRESSIONAL
DTSM    .US/F  : DELTA-T SHEAR
HSGR    .GAPI  : HNGS STANDARD GAMMA RAY
TNPH_LIM.DEC   : THERMAL NEUTRON POROSITY (RATIO METHOD) (LIMESTONE)
~Params ----------------------------------------------------
~Other -----------------------------------------------------
~ASCII -----------------------------------------------------
# ...
 4129.00000   58.03980  110.65060   25.62320    0.09230
 4129.50000   50.29820  108.83490   22.41020    0.06890
 4130.00000   50.39830  107.93770   20.33280    0.05000
 4130.50000   59.15320  105.30620   19.56070    0.03120
 4131.00000   55.94590  101.06270   18.13240    0.01680
 4131.50000   52.35040   98.90920   15.11740    0.00310
 4132.00000   51.61210   98.48950   12.20780   -0.00760
 4132.50000   51.23350   98.05460   10.32170   -0.01440
 4133.00000   50.75210   96.15340    9.04040   -0.01700
 4133.50000   50.78870   95.36420    8.36390   -0.01850
 4134.00000   50.72890   95.08620    8.32440   -0.01940
 4134.50000   50.36950   94.34910    8.74160   -0.01960
 4135.00000   50.01500   93.71690    8.75870   -0.01890
 4135.50000   49.87550   93.72790    8.36100   -0.01810
 4136.00000   49.73110   93.96760    8.51450   -0.01760
 4136.50000   49.56510   94.20740    8.91470   -0.01760
 4137.00000   49.62180   94.35460    9.26270   -0.01730
 4137.50000   49.38150   94.50180    9.17320   -0.01640
 4138.00000   48.88750   94.59010    8.89230   -0.01510
 4138.50000   48.54170   95.39110    9.16910   -0.01310
 4139.00000   47.90710   96.72570    9.24320   -0.01000
 4139.50000   50.30810   99.91090   10.59480   -0.00400
 4140.00000   54.79030  105.15790   13.01660    0.00780
 4140.50000   61.05250  110.40510   19.95400    0.05920
 4141.00000   67.00720  114.35420   29.38190    0.11670
 4141.50000   72.96180  116.68210   40.82530    0.14740
 4142.00000   77.96120  120.85170   49.85300    0.17630
 4142.50000   79.64090  133.36520   52.42980    0.23430
 4143.00000   69.22450  138.23710   51.77470    0.22370
 4143.50000   70.83670  125.91670   49.90860    0.18420
 4144.00000   76.77660  120.80590   46.16490    0.14890
 4144.50000   64.52870  117.89650   37.37060    0.11110
 4145.00000   63.81270  114.90210   27.39930    0.06350
 4145.50000   61.95340  113.68720   18.27000    0.03290
 4146.00000   61.31730  112.26970   14.66440    0.01390
 4146.50000   61.72980  111.71830   18.77880    0.02200
 4147.00000   61.36000  111.82430   26.50470    0.08320
 4147.50000   61.46020  111.40410   36.00680    0.15620
 4148.00000   57.49990  110.42550   43.10170    0.20940
 4148.50000   49.71180  108.20260   43.55290    0.20130
 4149.00000   47.32670  105.97970   39.90740    0.19220
 4149.50000   48.11870  104.46740   32.67620    0.17560
 4150.00000   48.26970   98.94140   25.44490    0.15450
 4150.50000   49.02100   95.25750   20.19110    0.13060
 4151.00000   48.69070   94.18140   18.01460    0.11230
 4151.50000   48.08010   93.05510   18.46940    0.10800
 4152.00000   47.57230   91.92900   18.82740    0.10890
 4152.50000   47.58980   90.98630   18.01160    0.10550
 4153.00000   46.81910   90.98630   18.31430    0.09860
 4153.50000   47.27600   91.89390   18.05260    0.09650
 4154.00000   47.42850   92.58800   19.34200    0.10210
 4154.50000   47.95990   93.12170   20.46750    0.11650
 4155.00000   49.03250   94.91050   22.05160    0.13000
 4155.50000   49.33410   96.64580   23.63550    0.13690
 4156.00000   49.73960   97.12620   25.93820    0.13500
 4156.50000   51.87320   97.79360   29.02430    0.13240
 4157.00000   54.69010  101.53090   33.45830    0.12700
 4157.50000   56.36810  105.87540   37.77950    0.13270
 4158.00000   58.26040  108.41450   39.99470    0.14480
 4158.50000   60.40400  109.99950   37.07660    0.15620
 4159.00000   62.17940  111.77010   33.94060    0.12350
 4159.50000   62.69670  113.09180   33.95150    0.09260
 4160.00000   62.83460  113.49850   36.70910    0.08390
 4160.50000   62.93400  114.46720   39.84380    0.09300
 4161.00000   61.91470  114.97490   41.78870    0.10820
 4161.50000   61.07650  115.03620   40.68180    0.12330
 4162.00000   60.96310  115.00470   39.54980    0.13150
 4162.50000   61.05980  114.97320   39.35360    0.13300
 4163.00000   61.74410  114.76190   39.50380    0.11970
 4163.50000   62.13720  114.50560   39.28370    0.11180
 4164.00000   61.90590  114.28770   37.38760    0.10520
 4164.50000   61.19320  113.45460   36.17500    0.09930
 4165.00000   60.35470  112.62150   32.46710    0.09270
 4165.50000   60.24620  111.78840   27.31060    0.08180
 4166.00000   58.91910  111.32640   22.44650    0.06820
 4166.50000   53.80190  110.94910   21.40280    0.05740
 4167.00000   58.25560  110.32770   22.12560    0.06350
 4167.50000   59.95850  110.07750   22.63520    0.07230
 4168.00000   59.95850  110.12040   21.53990    0.06340
 4168.50000   59.78330  110.22860   20.38950    0.05300
 4169.00000   56.77680  110.65040   21.49220    0.04710
 4169.50000   63.51240  112.99990   23.30670    0.06730
 4170.00000   58.22760  113.19200   24.59580    0.08850
 4170.50000   59.31090  114.11100   25.73100    0.11170
 4171.00000   62.27820  115.70210   28.62630    0.13010
 4171.50000   66.26820  117.49760   32.99790    0.15800
 4172.00000   68.75800  122.56540   36.77670    0.18980
 4172.50000   69.87810  138.37050   39.35710    0.20930
 4173.00000   70.49730  138.53740   40.71590    0.21330
 4173.50000   71.50860  138.70420   41.58620    0.20660
 4174.00000   72.46540  138.87110   42.63830    0.19910
 4174.50000   73.34050  139.03800   43.71680    0.19640
 4175.00000   73.37190  139.20480   44.33790    0.19440
 4175.50000   72.81230  139.30500   43.34300    0.18240
 4176.00000   74.30720  139.03800   42.32880    0.17190
 4176.50000   72.61180  139.03800   41.86750    0.16860
 4177.00000   70.31710  138.77100   39.80780    0.14450
 4177.50000   68.81810  137.83680   35.98250    0.11360
 4178.00000   66.65580  127.03940   31.22830    0.09160
 4178.50000   63.61250  119.42530   26.64300    0.07590
 4179.00000   63.11190  117.13140   22.73290    0.04490
 4179.50000   60.36290  114.75450   18.65980    0.01920
 4180.00000   58.71110  112.05610   14.70210    0.00120
 4180.50000   57.33360  108.97030   13.39270    0.00520
 4181.00000   56.92630  108.02510   16.06980    0.03670
 4181.50000   57.83920  107.49090   22.21380    0.09260
 4182.00000   57.91610  108.65910   26.66820    0.14310
 4182.50000   58.06550  109.68120   26.65680    0.11310
 4183.00000   58.83200  108.85680   22.68260    0.05840
 4183.50000   57.78270  109.63820   18.21800    0.02880
 4184.00000   57.84780  109.81220   15.04260    0.01470
 4184.50000   57.35920  109.81280   14.01680    0.01630
 4185.00000   54.42280  109.15590   13.60230    0.02370
 4185.50000   54.88570  108.26120   13.16800    0.03080
 4186.00000   55.46650  107.07840   13.20840    0.03210
 4186.50000   55.11750  104.74390   13.34130    0.03200
 4187.00000   54.51460  103.81430   13.77340    0.03200
 4187.50000   53.91860  103.14810   14.45560    0.03120
 4188.00000   53.64150  102.65740   14.49210    0.03030
 4188.50000   53.45760  102.24820   14.63510    0.02640
 4189.00000   53.24370  102.40280   16.47730    0.02300
 4189.50000   53.20130  102.38190   20.62340    0.02800
 4190.00000   53.16020  102.23400   23.56890    0.04000
 4190.50000   52.70960  102.44640   21.36200    0.04190
 4191.00000   51.84100  102.82700   17.09530    0.02570
 4191.50000   52.33430  103.22030   12.55770    0.00720
 4192.00000   52.38340  103.61370   10.29210    0.00210
 4192.50000   53.32390  106.21610   12.81480    0.01470
 4193.00000   55.49190  111.00790   17.86020    0.04180
 4193.50000   57.83760  111.00790   25.46060    0.06330
 4194.00000   60.03790  112.11300   32.20740    0.07770
 4194.50000   62.00880  114.87570   35.89600    0.10930
 4195.00000   62.41120  115.78450   35.89320    0.12790
 4195.50000   62.16090  115.40710   31.85760    0.08570
 4196.00000   61.66040  114.49730   25.33220    0.04470
 4196.50000   49.80940  113.26570   19.78990    0.01330
 4197.00000   44.99250  112.03420   15.89740   -0.00920
 4197.50000   46.54740  109.33930   12.54230   -0.01710
 4198.00000   49.01970  105.66870   10.09230   -0.01530
 4198.50000   54.59020  103.80000    8.83900   -0.00770
 4199.00000   57.85300  104.06700    9.37020    0.00420
 4199.50000   58.91610  104.86790   12.46370    0.01590
 4200.00000   60.12400  106.77480   15.85760    0.02520
