~Version ---------------------------------------------------
VERS.   2.0 : CWLS log ASCII Standard -VERSION 2.0
WRAP.    NO : One line per depth step
DLM . SPACE : Column Data Section Delimiter
~Well ------------------------------------------------------
STRT .F                3700.0 : START DEPTH
STOP .F                9806.0 : STOP DEPTH
STEP .F                   0.5 : STEP
NULL .               -9999.25 : NULL VALUE
COMP .                        : COMPANY
WELL .                        : WELL
FLD  .                        : FIELD
LOC  .                        : LOCATION
PROV .                        : PROVINCE
CNTY .                        : COUNTY
STAT .                        : STATE
CTRY .                        : COUNTRY
SRVC .                        : SERVICE COMPANY
DATE .                        : DATE
UWI  .                        : UNIQUE WELL ID
API  .                        : API NUMBER
SLAT .WGS84 2.648271728876999 : SURFACE LATITUDE
SLON .WGS84 7.341687217178006 : SURFACE LONGITUDE
DATUM.F                   nan : DEPTH DATUM ELEV
~Curve Information -----------------------------------------
DEPT    .F     : 
DTCO    .US/F  : DELTA-T COMPRESSIONAL
DTSM    .US/F  : DELTA-T SHEAR
HSGR    .GAPI  : HNGS STANDARD GAMMA RAY
TNPH_LIM.DEC   : THERMAL NEUTRON POROSITY (RATIO METHOD) (LIMESTONE)
~Params ----------------------------------------------------
~Other -----------------------------------------------------
~ASCII -----------------------------------------------------
# ...
 6488.50000   53.04410   96.55650   22.85520    0.20690
 6489.00000   53.04210   96.63510   23.24990    0.20470
 6489.50000   53.04020   96.63510   23.76330    0.20220
 6490.00000   53.01070   96.61090   24.50570    0.20080
 6490.50000   52.94450   96.48940   24.50880    0.19240
 6491.00000   52.85440   96.36790   24.36630    0.18560
 6491.50000   52.93740   96.24640   23.86070    0.18030
 6492.00000   52.79510   96.12490   23.67100    0.17770
 6492.50000   52.69420   95.83430   22.85520    0.17050
 6493.00000   52.56410   95.61180   23.15790    0.17010
 6493.50000   52.64560   95.43800   22.25130    0.17360
 6494.00000   52.58490   95.51340   21.06090    0.17920
 6494.50000   52.64710   95.80700   20.16640    0.17360
 6495.00000   52.55410   95.63410   20.28580    0.16660
 6495.50000   52.53330   95.80090   20.71630    0.16030
 6496.00000   52.39460   95.74420   20.45740    0.15510
 6496.50000   52.29370   95.59400   20.40290    0.15120
 6497.00000   52.15660   95.44380   20.10060    0.14740
 6497.50000   52.02030   95.29380   20.56450    0.14800
 6498.00000   51.93810   95.23360   20.74850    0.14690
 6498.50000   52.17440   95.23360   22.31020    0.14710
 6499.00000   52.74020   95.23360   22.79840    0.14320
 6499.50000   52.57070   95.23360   23.08790    0.14900
 6500.00000   52.72580   95.25440   22.72060    0.15600
 6500.50000   52.80080   95.35820   22.38430    0.16470
 6501.00000   52.58760   95.46200   21.52430    0.16470
 6501.50000   52.35740   95.79400   20.31520    0.17250
 6502.00000   52.63270   95.63020   19.44380    0.17470
 6502.50000   52.99550   95.77570   19.74230    0.17350
 6503.00000   52.94990   95.92130   20.68210    0.17400
 6503.50000   52.47880   96.06700   21.33090    0.17780
 6504.00000   52.49590   96.21260   20.84960    0.18240
 6504.50000   53.03910   96.50410   19.90360    0.18430
 6505.00000   53.05900   96.66130   19.26280    0.18730
 6505.50000   52.15600   96.70490   20.24320    0.19280
 6506.00000   51.58820   96.74840   21.49260    0.19640
 6506.50000   51.59950   96.79190   21.64950    0.18700
 6507.00000   51.47730   96.83540   21.03880    0.17320
 6507.50000   51.65290   96.84030   20.49200    0.16690
 6508.00000   52.40670   96.87580   20.48830    0.16350
 6508.50000   52.79560   97.03420   20.72850    0.15930
 6509.00000   52.93740   96.92480   21.53630    0.15620
 6509.50000   52.86690   96.81550   22.24960    0.14650
 6510.00000   53.16970   96.71970   22.55250    0.14750
 6510.50000   53.41580   96.44190   21.69030    0.14810
 6511.00000   53.50990   96.82140   20.62560    0.15580
 6511.50000   53.75180   96.58460   20.09970    0.15620
 6512.00000   53.87640   96.45600   20.66040    0.15700
 6512.50000   53.86210   96.76040   22.56260    0.15920
 6513.00000   53.84770   96.64210   23.78310    0.16170
 6513.50000   53.83340   96.82140   23.80960    0.16230
 6514.00000   53.63460   96.51730   22.63350    0.16490
 6514.50000   53.36260   96.61030   22.21930    0.16760
 6515.00000   52.97460   96.70320   22.40100    0.16250
 6515.50000   53.03650   96.79610   22.40100    0.15290
 6516.00000   53.01070   96.74900   22.21200    0.14660
 6516.50000   52.93740   96.58210   21.91820    0.15000
 6517.00000   52.43290   96.28520   21.35730    0.14630
 6517.50000   51.59420   95.89890   20.12000    0.13880
 6518.00000   50.98880   96.04190   18.28960    0.13130
 6518.50000   50.69850   95.74950   17.21690    0.12620
 6519.00000   50.41540   95.31960   16.42720    0.12220
 6519.50000   49.86440   95.17230   16.00410    0.12440
 6520.00000   49.50420   95.08730   15.90710    0.12620
 6520.50000   49.44020   94.96920   15.92360    0.12620
 6521.00000   48.88740   94.85110   16.03660    0.12350
 6521.50000   48.32780   94.73310   16.14620    0.12660
 6522.00000   47.90620   94.80890   16.30630    0.13150
 6522.50000   47.84170   94.93930   16.46650    0.13270
 6523.00000   47.83540   94.98770   16.97170    0.13230
 6523.50000   47.65030   94.95270   17.36500    0.12410
 6524.00000   47.70700   94.58410   16.39030    0.12110
 6524.50000   47.58510   94.38470   15.42420    0.11860
 6525.00000   47.09590   94.22310   14.84530    0.11090
 6525.50000   46.85800   93.94930   14.43500    0.11380
 6526.00000   47.12760   93.71510   13.99050    0.12110
 6526.50000   47.81470   93.38000   13.59140    0.13670
 6527.00000   48.58930   93.34170   13.19840    0.13180
 6527.50000   48.66600   93.30320   12.86530    0.12260
 6528.00000   48.73770   93.26470   13.40960    0.11530
 6528.50000   48.69990   93.40390   13.20370    0.11660
 6529.00000   48.97010   93.43170   13.41130    0.12190
 6529.50000   48.71980   93.29400   13.76680    0.12220
 6530.00000   48.58060   93.15620   13.92480    0.12420
 6530.50000   48.63930   93.01840   13.92480    0.12730
 6531.00000   48.35450   92.88070   13.29050    0.12980
 6531.50000   47.99120   92.74300   13.19220    0.12500
 6532.00000   47.80210   92.53540   13.25270    0.12090
 6532.50000   48.65920   92.28120   12.96260    0.12250
 6533.00000   49.03440   92.18590   13.49510    0.12650
 6533.50000   49.05250   92.13020   13.77340    0.12890
 6534.00000   49.07060   92.07470   14.11370    0.12900
 6534.50000   48.94670   92.03010   14.43690    0.13120
 6535.00000   48.67320   92.03010   13.49170    0.13520
 6535.50000   48.23260   92.20300   12.78410    0.13560
 6536.00000   48.48560   92.37580   12.94090    0.13640
 6536.50000   48.55800   92.54850   13.29860    0.13770
 6537.00000   48.64280   92.72140   13.51620    0.14130
 6537.50000   48.41420   92.67150   13.73400    0.13660
 6538.00000   47.96890   92.42250   13.95160    0.13150
 6538.50000   48.56790   92.17360   14.13550    0.12710
 6539.00000   48.96420   91.92460   14.43480    0.13390
 6539.50000   48.48880   91.67560   14.46540    0.14150
 6540.00000   48.99740   91.70090   14.84800    0.14930
 6540.50000   49.83510   91.77470   14.11990    0.15350
 6541.00000   50.25770   92.08790   14.32470    0.15910
 6541.50000   50.52650   92.54360   13.85420    0.15740
 6542.00000   50.44110   93.03490   13.42310    0.15310
 6542.50000   50.78400   93.40450   12.71390    0.14640
 6543.00000   50.66210   93.13790   12.97970    0.15140
 6543.50000   50.70660   93.12360   13.70060    0.15780
 6544.00000   50.99660   93.27770   14.11370    0.16350
 6544.50000   51.48580   93.43170   14.61810    0.16790
 6545.00000   51.67080   93.58370   13.96210    0.17500
 6545.50000   52.07550   93.73550   12.67400    0.18070
 6546.00000   52.39460   93.88750   12.35090    0.17840
 6546.50000   52.63530   94.30120   12.86570    0.17660
 6547.00000   52.35740   94.23950   13.37380    0.17640
 6547.50000   52.46680   94.56040   13.20230    0.18650
 6548.00000   52.26500   94.88790   14.24890    0.18420
 6548.50000   52.66140   94.99340   14.47460    0.18190
 6549.00000   52.68960   94.79320   14.40710    0.17480
 6549.50000   52.25300   94.56150   14.08680    0.17240
 6550.00000   51.38200   94.17580   14.88950    0.17070
 6550.50000   51.19910   93.74420   14.51670    0.16270
 6551.00000   51.07690   93.58390   14.46830    0.15310
 6551.50000   51.04020   93.42360   14.42000    0.15060
 6552.00000   50.97530   93.17930   14.04510    0.15220
 6552.50000   50.71130   93.02770   13.88260    0.15380
 6553.00000   50.66160   92.87580   13.53000    0.15180
 6553.50000   50.77870   92.50490   13.74290    0.15110
 6554.00000   50.81680   92.51640   13.92480    0.15750
 6554.50000   50.93520   92.64330   13.92480    0.16190
 6555.00000   50.82590   92.70590   13.60760    0.16820
 6555.50000   50.79870   92.85970   13.52400    0.17250
 6556.00000   50.79870   93.03120   13.85620    0.17840
 6556.50000   50.79870   92.86430   13.95660    0.18130
 6557.00000   50.72900   92.92630   14.06550    0.18430
 6557.50000   50.55840   92.98840   13.01660    0.18180
 6558.00000   50.56110   93.05050   13.13040    0.17860
 6558.50000   50.56380   92.85830   12.80880    0.17690
 6559.00000   50.56650   93.03120   12.71390    0.18510
 6559.50000   50.56920   93.03410   12.70530    0.19020
