~Version ---------------------------------------------------
VERS.   2.0 : CWLS log ASCII Standard -VERSION 2.0
WRAP.    NO : One line per depth step
DLM . SPACE : Column Data Section Delimiter
~Well ------------------------------------------------------
STRT .F                3700.0 : START DEPTH
STOP .F                9806.0 : STOP DEPTH
STEP .F                   0.5 : STEP
NULL .               -9999.25 : NULL VALUE
COMP .                        : COMPANY
WELL .                        : WELL
FLD  .                        : FIELD
LOC  .                        : LOCATION
PROV .                        : PROVINCE
CNTY .                        : COUNTY
STAT .                        : STATE
CTRY .                        : COUNTRY
SRVC .                        : SERVICE COMPANY
DATE .                        : DATE
UWI  .                        : UNIQUE WELL ID
API  .                        : API NUMBER
SLAT .WGS84 2.648271728876999 : SURFACE LATITUDE
SLON .WGS84 7.341687217178006 : SURFACE LONGITUDE
DATUM.F                   nan : DEPTH DATUM ELEV
~Curve Information -----------------------------------------
DEPT    .F     : 
DTCO    .US/F  : DELTA-T COMPRESSIONAL
DTSM    .US/F  : DELTA-T SHEAR
HSGR    .GAPI  : HNGS STANDARD GAMMA RAY
TNPH_LIM.DEC   : THERMAL NEUTRON POROSITY (RATIO METHOD) (LIMESTONE)
~Params ----------------------------------------------------
~Other -----------------------------------------------------
~ASCII -----------------------------------------------------
# ...
 6917.50000   44.19150   92.69710   23.04610    0.11040
 6918.00000   46.14200   92.27240   24.29040    0.11370
 6918.50000   46.73610   92.02940   25.41240    0.11050
 6919.00000   46.10410   91.86480   25.64960    0.10270
 6919.50000   46.08360   91.74940   26.89500    0.09870
 6920.00000   45.79380   91.55670   28.15280    0.09850
 6920.50000   45.87550   91.39550   29.74150    0.10320
 6921.00000   46.13750   91.31030   31.35320    0.11010
 6921.50000   46.57540   91.26920   31.77100    0.11250
 6922.00000   47.08960   91.22800   31.68620    0.11080
 6922.50000   47.19320   91.18680   31.93680    0.10950
 6923.00000   47.19420   91.14570   32.66960    0.11170
 6923.50000   47.02070   91.03610   33.16770    0.10950
 6924.00000   46.53710   91.28390   33.89660    0.10770
 6924.50000   47.42190   90.88270   34.62560    0.11290
 6925.00000   46.77910   90.48140   33.47980    0.11850
 6925.50000   47.27600   90.87260   31.56890    0.11960
 6926.00000   47.34140   91.02720   30.76530    0.11660
 6926.50000   47.21250   91.02400   30.93290    0.11740
 6927.00000   46.56770   90.84130   29.95060    0.12250
 6927.50000   46.64070   89.95570   27.88600    0.12540
 6928.00000   46.60390   89.93830   26.23300    0.11420
 6928.50000   46.54450   89.90070   25.04480    0.10160
 6929.00000   46.53830   89.83260   24.38700    0.09390
 6929.50000   46.53220   89.69030   23.40750    0.09110
 6930.00000   46.52610   89.66690   22.10860    0.09270
 6930.50000   46.55290   89.63480   20.24780    0.09440
 6931.00000   45.70860   89.60270   17.64960    0.09380
 6931.50000   44.59110   89.44390   16.15570    0.09230
 6932.00000   44.34560   89.46700   15.21980    0.09350
 6932.50000   45.45250   89.57450   15.49880    0.09510
 6933.00000   45.74320   89.43220   18.01430    0.09590
 6933.50000   45.46230   89.53070   21.46490    0.10320
 6934.00000   44.36550   89.62920   24.15050    0.11110
 6934.50000   44.14540   89.72770   24.44410    0.11530
 6935.00000   44.42460   89.16040   25.92380    0.09820
 6935.50000   45.18050   88.70160   28.31410    0.09350
 6936.00000   45.33350   88.31970   29.15040    0.09570
 6936.50000   45.32610   88.05300   27.09890    0.09770
 6937.00000   45.21030   88.22610   25.13190    0.09080
 6937.50000   44.96670   88.24050   24.11130    0.08300
 6938.00000   45.26800   88.25500   24.04070    0.08550
 6938.50000   45.24750   88.15310   23.40020    0.08700
 6939.00000   45.83530   88.52770   23.72710    0.09010
 6939.50000   46.25820   89.25930   25.78110    0.08990
 6940.00000   46.30150   90.22890   29.77880    0.08960
 6940.50000   45.99470   90.81000   34.53200    0.08850
 6941.00000   45.86290   89.47670   38.91230    0.08800
 6941.50000   45.99350   88.54040   41.11530    0.08680
 6942.00000   45.90180   88.92580   41.05320    0.08690
 6942.50000   45.76690   89.39990   41.29100    0.08840
 6943.00000   45.02090   89.11370   41.52900    0.09110
 6943.50000   44.17190   88.34260   40.51410    0.09010
 6944.00000   43.97730   87.59540   39.49620    0.08720
 6944.50000   43.98600   86.94470   37.26590    0.08400
 6945.00000   43.99480   86.42420   35.72090    0.08130
 6945.50000   44.00350   86.42420   34.23260    0.07980
 6946.00000   44.01220   86.32190   31.93680    0.07960
 6946.50000   44.13150   85.81930   29.89180    0.08050
 6947.00000   44.12350   85.51350   29.42710    0.07710
 6947.50000   44.11730   85.22290   29.59980    0.07330
 6948.00000   44.42720   85.27630   30.16440    0.07090
 6948.50000   44.65090   85.10480   29.83360    0.06930
 6949.00000   44.64000   84.74940   28.03160    0.06790
 6949.50000   44.39880   84.96970   25.98280    0.06770
 6950.00000   44.17940   84.86820   25.19410    0.06330
 6950.50000   43.98130   84.76660   25.21370    0.05990
 6951.00000   43.50440   84.66510   24.65570    0.06070
 6951.50000   43.42470   84.56360   24.06600    0.06150
 6952.00000   43.22820   85.01030   23.05480    0.06240
 6952.50000   43.10040   85.33970   22.40990    0.06080
 6953.00000   43.00030   85.42310   21.97580    0.06290
 6953.50000   43.04040   85.14660   21.37200    0.06150
 6954.00000   44.33340   84.45540   21.37910    0.06310
 6954.50000   45.62640   84.17890   21.65870    0.06200
 6955.00000   46.18370   84.42270   22.19800    0.05480
 6955.50000   46.24370   84.66650   21.67010    0.05770
 6956.00000   46.26570   84.91020   21.25590    0.06070
 6956.50000   46.14010   85.15400   20.73610    0.05940
 6957.00000   45.70100   85.39780   19.99450    0.06020
 6957.50000   45.34280   85.41370   20.02970    0.06120
 6958.00000   45.08250   86.36790   20.13070    0.07300
 6958.50000   45.15740   86.64400   20.87370    0.08270
 6959.00000   45.23240   86.75060   21.64940    0.08990
 6959.50000   45.30740   87.00160   21.67520    0.08650
 6960.00000   45.42510   87.28300   21.83980    0.08560
 6960.50000   45.73030   87.56600   22.55980    0.09470
 6961.00000   46.26120   82.49710   23.75270    0.10690
 6961.50000   45.61490   76.89100   24.97430    0.11730
 6962.00000   46.62700   75.16920   25.50640    0.11800
 6962.50000   48.00620   76.70420   25.54300    0.11870
 6963.00000   46.51240   93.52230   25.57970    0.12240
 6963.50000   46.15520   94.14520   26.53880    0.11930
 6964.00000   46.44390   94.36760   26.24060    0.11440
 6964.50000   52.57500   94.59010   26.94190    0.11050
 6965.00000   52.91680   94.63300   30.49890    0.10920
 6965.50000   52.67190   94.69180   38.44550    0.10780
 6966.00000   52.68010   94.98550   44.74200    0.11090
 6966.50000   53.13890   95.27930   47.78550    0.12750
 6967.00000   54.90410   95.68770   47.05990    0.14850
 6967.50000   56.69950   97.33260   46.09170    0.16340
 6968.00000   48.59120  100.25010   45.50440    0.16160
 6968.50000   46.42690  101.12570   44.91400    0.16210
 6969.00000   45.72260  101.36520   44.96710    0.15610
 6969.50000   45.12600  101.14650   44.65660    0.14610
 6970.00000   46.31190  100.81330   44.29780    0.13790
 6970.50000   46.54630  100.48010   43.25290    0.13180
 6971.00000   44.81040  100.22520   42.57330    0.13230
 6971.50000   43.90950  100.28370   43.54920    0.13510
 6972.00000   43.45650  100.67980   44.75080    0.13800
 6972.50000   44.04870  102.03810   45.95230    0.14090
 6973.00000   44.36780  102.40800   47.21430    0.14990
 6973.50000   44.39170  102.24120   46.92450    0.15520
 6974.00000   44.21000  102.55680   46.12050    0.16370
 6974.50000   43.30080  103.30810   46.15230    0.16370
 6975.00000   44.01830  103.12300   46.28530    0.16200
 6975.50000   45.12570  102.93780   47.84720    0.15880
 6976.00000   45.99340  102.75270   48.29570    0.15170
 6976.50000   46.13760  102.66840   48.75850    0.14420
 6977.00000   46.04660  102.73540   49.50080    0.13460
 6977.50000   45.54890  102.97770   50.35650    0.13730
 6978.00000   45.96160  102.99680   51.42630    0.13810
 6978.50000   46.55850  103.22810   51.32950    0.13310
 6979.00000   47.03810  103.52910   50.68760    0.12720
 6979.50000   47.53120  103.81570   50.30440    0.12950
 6980.00000   48.09570  103.60690   50.25170    0.13480
 6980.50000   48.50190  103.84290   50.90810    0.13890
 6981.00000   48.83240  104.23320   50.47300    0.14710
 6981.50000   49.20570  104.96590   50.36000    0.15150
 6982.00000   50.03460  105.69860   50.05780    0.15020
 6982.50000   50.52760  105.93690   49.81810    0.13950
 6983.00000   51.06470  106.36090   51.01310    0.14340
 6983.50000   51.46350  106.45100   52.48110    0.14630
 6984.00000   51.69760  106.45770   52.42570    0.15040
 6984.50000   51.76660  106.46450   51.25240    0.14940
 6985.00000   51.97890  106.53480   50.65340    0.14750
 6985.50000   52.13600  105.84960   49.49080    0.14810
 6986.00000   52.16380  104.50690   46.86720    0.14540
 6986.50000   52.03990  103.16420   44.53830    0.14220
 6987.00000   51.50820  101.82160   42.16810    0.14380
 6987.50000   50.66670  100.47890   40.56260    0.14610
 6988.00000   50.13700   99.13620   39.14850    0.14680
 6988.50000   49.95280   97.79360   37.89750    0.14380
