~Version ---------------------------------------------------
VERS.   2.0 : CWLS log ASCII Standard -VERSION 2.0
WRAP.    NO : One line per depth step
DLM . SPACE : Column Data Section Delimiter
~Well ------------------------------------------------------
STRT .F                3700.0 : START DEPTH
STOP .F                9806.0 : STOP DEPTH
STEP .F                   0.5 : STEP
NULL .               -9999.25 : NULL VALUE
COMP .                        : COMPANY
WELL .                        : WELL
FLD  .                        : FIELD
LOC  .                        : LOCATION
PROV .                        : PROVINCE
CNTY .                        : COUNTY
STAT .                        : STATE
CTRY .                        : COUNTRY
SRVC .                        : SERVICE COMPANY
DATE .                        : DATE
UWI  .                        : UNIQUE WELL ID
API  .                        : API NUMBER
SLAT .WGS84 2.648271728876999 : SURFACE LATITUDE
SLON .WGS84 7.341687217178006 : SURFACE LONGITUDE
DATUM.F                   nan : DEPTH DATUM ELEV
~Curve Information -----------------------------------------
DEPT    .F     : 
DTCO    .US/F  : DELTA-T COMPRESSIONAL
DTSM    .US/F  : DELTA-T SHEAR
HSGR    .GAPI  : HNGS STANDARD GAMMA RAY
TNPH_LIM.DEC   : THERMAL NEUTRON POROSITY (RATIO METHOD) (LIMESTONE)
~Params ----------------------------------------------------
~Other -----------------------------------------------------
~ASCII -----------------------------------------------------
# ...
 4486.50000   54.73620   98.06050   13.16890   -0.00660
 4487.00000   52.69970   98.46090   13.92480    0.00020
 4487.50000   48.89660   99.22260   17.26550    0.01140
 4488.00000   55.60830  100.00780   21.86330    0.03150
 4488.50000   57.94130  100.79290   27.22100    0.05810
 4489.00000   57.05490  101.83130   31.27460    0.08430
 4489.50000   55.97880  103.24940   32.46270    0.06390
 4490.00000   53.95960  103.39970   29.49080    0.02980
 4490.50000   46.48910  102.93250   24.97390    0.01010
 4491.00000   51.84980  102.35180   20.15120   -0.00450
 4491.50000   51.76030  101.11720   15.12470   -0.00670
 4492.00000   51.79880   99.88250   12.68650   -0.00360
 4492.50000   51.73100   98.64780   12.27500   -0.00380
 4493.00000   52.43920   97.50160   13.07010   -0.00370
 4493.50000   51.44440   96.70900   13.78430   -0.00290
 4494.00000   51.40630   95.89600   13.90530   -0.00300
 4494.50000   51.34570   95.34880   12.52890   -0.00290
 4495.00000   50.90000   95.03350   11.95700    0.00120
 4495.50000   50.55850   94.76720   13.76410    0.01150
 4496.00000   50.53410   94.74850   16.11700    0.02580
 4496.50000   50.56690   94.72980   17.53300    0.02560
 4497.00000   49.97630   94.71100   17.69950    0.01780
 4497.50000   49.98260   94.69240   17.05540    0.00880
 4498.00000   51.51530   94.67370   14.75500    0.00210
 4498.50000   50.36970   94.65500   12.98470   -0.00260
 4499.00000   51.23940   94.78930   11.91910   -0.00650
 4499.50000   52.46720   95.53580   12.43870   -0.00580
 4500.00000   53.66290   95.90620   14.22750    0.00300
 4500.50000   52.80550   96.01490   16.49790    0.02290
 4501.00000   51.36760   96.50930   18.76840    0.04300
 4501.50000   53.26180   96.91360   21.03880    0.05010
 4502.00000   53.88930   97.13130   21.35780    0.04860
 4502.50000   53.70010   97.34900   20.62870    0.04820
 4503.00000   52.72650   97.46220   20.13070    0.04770
 4503.50000   52.23960   97.50570   21.17800    0.04950
 4504.00000   51.98640   97.57740   23.53200    0.05380
 4504.50000   51.43800   97.69090   25.88610    0.05610
 4505.00000   51.03870   97.76140   27.14750    0.05760
 4505.50000   51.28380   97.80310   25.29870    0.06050
 4506.00000   51.41860   97.84990   23.76380    0.06320
 4506.50000   51.92750   97.91760   24.30400    0.06440
 4507.00000   53.26390   98.17900   25.27700    0.06830
 4507.50000   52.65590   98.62210   28.06670    0.07590
 4508.00000   53.42720   99.79230   30.27190    0.08360
 4508.50000   54.05260  100.53290   31.94700    0.07760
 4509.00000   54.61380  100.61580   31.33890    0.06430
 4509.50000   54.93230  100.48730   29.45980    0.04880
 4510.00000   55.27660  100.80520   27.37600    0.03710
 4510.50000   55.06490  100.70300   25.41990    0.03120
 4511.00000   54.84510  100.98380   23.90540    0.02820
 4511.50000   54.39720  100.93790   22.77180    0.02570
 4512.00000   53.86470  100.64170   22.20380    0.02080
 4512.50000   53.75660   99.68960   21.93050    0.01560
 4513.00000   53.74470   99.29010   21.17030    0.01150
 4513.50000   53.73280   98.82660   20.07070    0.00890
 4514.00000   53.49290   98.36300   19.44650    0.01010
 4514.50000   52.89470   97.83240   19.64130    0.01280
 4515.00000   52.64260   97.44310   19.89300    0.01210
 4515.50000   52.55060   97.35080   17.99030    0.00740
 4516.00000   52.41170   97.07880   15.09560    0.00130
 4516.50000   52.50680   96.76200   12.46220   -0.00390
 4517.00000   53.03860   96.57510   11.68480   -0.00730
 4517.50000   53.32960   96.44200   12.66850   -0.00880
 4518.00000   53.38920   96.88890   14.13730   -0.00600
 4518.50000   54.50630   97.33590   15.65760   -0.00010
 4519.00000   55.05330   97.53130   17.15700    0.00650
 4519.50000   54.90310   97.72670   19.86370    0.02100
 4520.00000   54.55280   97.98680   22.95230    0.03360
 4520.50000   55.00320   98.34430   26.82710    0.03940
 4521.00000   55.70580   98.63160   28.51370    0.03660
 4521.50000   56.56740   98.63810   26.32740    0.03220
 4522.00000   56.59900   98.64460   23.81130    0.02990
 4522.50000   55.85410   98.65110   22.01950    0.02870
 4523.00000   53.05410   98.65760   20.94820    0.02970
 4523.50000   51.86950   98.99190   18.61190    0.02830
 4524.00000   51.92140   98.66040   16.53670    0.02570
 4524.50000   52.38630   98.48610   15.36440    0.02580
 4525.00000   52.64360   98.12800   15.06830    0.03230
 4525.50000   52.35390   97.76980   17.12640    0.04980
 4526.00000   52.34100   97.64880   18.95580    0.06840
 4526.50000   52.17840   97.40890   20.06360    0.08570
 4527.00000   51.41710   97.05050   20.47190    0.09950
 4527.50000   51.04900   96.84910   20.06780    0.10520
 4528.00000   51.07890   96.88330   19.79660    0.10220
 4528.50000   51.41880   96.39750   19.62190    0.09590
 4529.00000   51.11700   95.20860   19.90060    0.08880
 4529.50000   50.19110   94.35120   21.67780    0.07910
 4530.00000   49.74260   93.60090   23.45500    0.07060
 4530.50000   49.52160   92.39540   25.29520    0.06290
 4531.00000   49.36070   91.40300   25.16980    0.05390
 4531.50000   49.61550   90.75050   21.65110    0.04120
 4532.00000   49.69140   90.52480   18.42820    0.03010
 4532.50000   49.51820   90.52670   15.79250    0.02590
 4533.00000   48.82520   90.02570   15.81140    0.03300
 4533.50000   48.74320   89.65400   18.23230    0.04630
 4534.00000   48.65900   89.85260   20.98010    0.05720
 4534.50000   48.32610   89.66690   22.36010    0.05540
 4535.00000   48.24560   89.61920   22.12390    0.05260
 4535.50000   48.22810   89.36920   19.57040    0.05020
 4536.00000   48.02850   89.08200   16.11660    0.04930
 4536.50000   47.78220   88.79480   13.84630    0.04690
 4537.00000   47.58520   88.50760   12.84000    0.04640
 4537.50000   46.81300   88.45020   12.93890    0.04570
 4538.00000   45.65960   88.58370   13.96260    0.04900
 4538.50000   45.70540   89.27150   15.18510    0.05380
 4539.00000   45.94550   89.96460   17.11280    0.05910
 4539.50000   50.14800   90.65760   19.89840    0.06760
 4540.00000   48.66100   91.35060   22.63990    0.07990
 4540.50000   48.63620   92.04370   25.49160    0.09520
 4541.00000   51.16760   92.50990   27.69880    0.10340
 4541.50000   49.99640   92.82470   29.76280    0.10270
 4542.00000   50.04210   93.13960   31.82680    0.10510
 4542.50000   50.76950   93.45440   32.39100    0.10570
 4543.00000   51.19600   93.76920   32.82100    0.10760
 4543.50000   51.29300   93.82700   33.51760    0.10400
 4544.00000   50.72750   93.80100   34.21420    0.09900
 4544.50000   50.44180   93.69730   31.02870    0.08820
 4545.00000   50.20660   93.25530   27.29510    0.07740
 4545.50000   49.54890   92.66410   25.27700    0.06730
 4546.00000   48.57290   92.09210   23.85570    0.06170
 4546.50000   49.41180   91.52010   20.88740    0.05310
 4547.00000   49.89770   90.48090   20.07010    0.04010
 4547.50000   49.79760   89.57520   18.23840    0.02650
 4548.00000   46.40400   88.85060   16.34550    0.01510
 4548.50000   45.38620   88.98420   14.61220    0.00910
 4549.00000   45.35410   89.48470   13.51820    0.00670
 4549.50000   45.53600   89.98520   12.86530    0.00850
 4550.00000   45.45880   90.38550   13.75970    0.01010
 4550.50000   46.22280   90.98620   16.68370    0.01610
 4551.00000   48.30830   92.00190   19.60770    0.02240
 4551.50000   53.18550   93.07550   23.66070    0.02830
 4552.00000   50.73390   94.14900   24.91680    0.02980
 4552.50000   53.40150   95.22260   25.33880    0.02870
 4553.00000   53.21960   96.29620   25.04420    0.03020
 4553.50000   52.30980   96.72570   24.95300    0.02990
 4554.00000   51.89840   96.72570   23.51080    0.02850
 4554.50000   50.04270   96.05840   20.49590    0.02690
 4555.00000   49.34650   95.16860   17.81370    0.02940
 4555.50000   49.29380   94.99060   16.72260    0.03530
 4556.00000   48.99720   94.99060   18.86960    0.04260
 4556.50000   48.89070   93.97990   20.88150    0.04870
 4557.00000   48.03090   91.78710   21.03880    0.04600
 4557.50000   47.28480   89.59420   18.67630    0.03770
