~Version ---------------------------------------------------
VERS.   2.0 : CWLS log ASCII Standard -VERSION 2.0
WRAP.    NO : One line per depth step
DLM . SPACE : Column Data Section Delimiter
~Well ------------------------------------------------------
STRT .F                3700.0 : START DEPTH
STOP .F                9806.0 : STOP DEPTH
STEP .F                   0.5 : STEP
NULL .               -9999.25 : NULL VALUE
COMP .                        : COMPANY
WELL .                        : WELL
FLD  .                        : FIELD
LOC  .                        : LOCATION
PROV .                        : PROVINCE
CNTY .                        : COUNTY
STAT .                        : STATE
CTRY .                        : COUNTRY
SRVC .                        : SERVICE COMPANY
DATE .                        : DATE
UWI  .                        : UNIQUE WELL ID
API  .                        : API NUMBER
SLAT .WGS84 2.648271728876999 : SURFACE LATITUDE
SLON .WGS84 7.341687217178006 : SURFACE LONGITUDE
DATUM.F                   nan : DEPTH DATUM ELEV
~Curve Information -----------------------------------------
DEPT    .F     : 
DTCO    .US/F  : DELTA-T COMPRESSIONAL
DTSM    .US/F  : DELTA-T SHEAR
HSGR    .GAPI  : HNGS STANDARD GAMMA RAY
TNPH_LIM.DEC   : THERMAL NEUTRON POROSITY (RATIO METHOD) (LIMESTONE)
~Params ----------------------------------------------------
~Other -----------------------------------------------------
~ASCII -----------------------------------------------------
# ...
 6131.00000   51.83970   96.23760   26.74950    0.19300
 6131.50000   51.85660   96.24120   26.24790    0.19510
 6132.00000   51.87340   96.24490   26.00350    0.19790
 6132.50000   51.74970   96.24850   25.31910    0.20510
 6133.00000   51.50090   96.25210   25.66110    0.21270
 6133.50000   51.08290   96.30000   26.03380    0.20870
 6134.00000   50.40000   96.44450   26.10600    0.20040
 6134.50000   50.38500   96.46760   26.09880    0.20170
 6135.00000   50.96650   96.42700   26.45360    0.20600
 6135.50000   51.22410   96.13200   26.24730    0.20990
 6136.00000   51.30020   95.83700   26.02670    0.20950
 6136.50000   51.38220   96.02750   24.66310    0.21000
 6137.00000   50.61050   96.10400   24.46730    0.20440
 6137.50000   50.53130   96.21800   25.16640    0.20850
 6138.00000   51.42140   96.35710   26.22380    0.21290
 6138.50000   51.74310   96.57080   26.14700    0.21030
 6139.00000   51.84280   96.80320   26.03380    0.20570
 6139.50000   51.64760   97.03560   26.03380    0.20370
 6140.00000   51.59950   97.03820   25.76310    0.21140
 6140.50000   51.65210   97.04080   25.85190    0.21590
 6141.00000   51.95410   97.04330   25.63900    0.22450
 6141.50000   52.22370   97.04590   26.15460    0.21480
 6142.00000   52.27210   97.04850   25.75060    0.20970
 6142.50000   52.16020   97.05110   26.19920    0.20890
 6143.00000   52.16530   97.05370   26.47400    0.21760
 6143.50000   52.17040   97.10080   26.50180    0.22410
 6144.00000   52.30580   97.31590   26.52940    0.21860
 6144.50000   52.38460   97.39600   26.65580    0.21730
 6145.00000   52.40040   97.19580   26.78350    0.21620
 6145.50000   52.53040   97.03680   26.03710    0.21400
 6146.00000   52.41550   97.04290   24.59320    0.21150
 6146.50000   52.44050   97.04900   23.71310    0.20790
 6147.00000   52.64060   97.05520   23.61910    0.21180
 6147.50000   52.63680   97.06130   24.40440    0.21010
 6148.00000   52.63300   97.06740   24.13430    0.21920
 6148.50000   52.47770   96.87200   23.70400    0.21950
 6149.00000   52.47550   96.62630   23.01560    0.21590
 6149.50000   52.85090   96.35660   24.09680    0.21650
 6150.00000   53.42250   96.23860   24.91200    0.22400
 6150.50000   53.60160   96.23220   25.28730    0.22530
 6151.00000   53.53200   96.22590   24.29540    0.21400
 6151.50000   53.47120   96.21960   23.86770    0.21140
 6152.00000   53.61230   96.21330   23.76330    0.21970
 6152.50000   54.04570   96.09870   24.33410    0.23520
 6153.00000   54.59770   96.03770   24.42810    0.24780
 6153.50000   54.42740   96.03090   24.64110    0.24240
 6154.00000   54.19900   96.02400   24.54240    0.22400
 6154.50000   54.15050   96.01710   23.66740    0.20540
 6155.00000   54.13770   95.87930   23.64220    0.19690
 6155.50000   54.05220   95.76710   23.61700    0.19440
 6156.00000   47.61400   95.55610   23.76330    0.19110
 6156.50000   47.29160   95.26090   23.10690    0.19010
 6157.00000   47.63640   95.43380   22.82550    0.19730
 6157.50000   47.84200   95.44540   22.50150    0.20720
 6158.00000   47.80520   95.50580   22.92220    0.20910
 6158.50000   47.75200   95.76160   23.17430    0.21720
 6159.00000   47.83850   95.81770   23.94790    0.21240
 6159.50000   47.65880   95.82410   24.38530    0.21050
 6160.00000   47.72950   95.83050   24.98140    0.21080
 6160.50000   47.26600   95.79420   25.70250    0.21120
 6161.00000   46.67140   95.59400   25.57970    0.21100
 6161.50000   46.90500   95.45350   24.20680    0.21160
 6162.00000   51.54940   95.55180   21.83580    0.21920
 6162.50000   46.35100   95.65010   20.47550    0.21530
 6163.00000   47.71060   95.74840   20.89880    0.20670
 6163.50000   50.16540   95.84670   21.71250    0.19650
 6164.00000   49.83900   95.94500   22.52620    0.20540
 6164.50000   46.64280   96.04330   23.20480    0.21610
 6165.00000   46.93890   96.31370   23.61200    0.22850
 6165.50000   47.62570   96.45310   23.61200    0.22970
 6166.00000   47.68560   96.59260   23.80750    0.22430
 6166.50000   47.75560   96.82840   24.48880    0.21730
 6167.00000   47.85210   96.67380   23.77110    0.21040
 6167.50000   48.14580   96.53400   22.70380    0.21110
 6168.00000   48.41360   96.28600   22.88060    0.21060
 6168.50000   49.01750   96.03790   23.63180    0.21050
 6169.00000   48.99310   95.78990   24.05080    0.20860
 6169.50000   48.62800   95.54180   23.39100    0.20900
 6170.00000   48.23220   95.42330   22.58260    0.21420
 6170.50000   47.99590   95.39120   22.05290    0.21460
 6171.00000   47.69620   95.35900   21.40290    0.21750
 6171.50000   47.46470   95.26860   20.59500    0.20640
 6172.00000   47.47110   95.17820   20.14090    0.21050
 6172.50000   47.35500   95.08770   19.97920    0.20300
 6173.00000   47.36190   95.07340   20.48380    0.21090
 6173.50000   47.43950   95.14900   21.00830    0.21220
 6174.00000   47.48210   95.18750   21.19020    0.20860
 6174.50000   47.59520   95.22590   21.70500    0.19590
 6175.00000   47.52560   95.24820   21.45910    0.18620
 6175.50000   47.51420   95.26650   21.12600    0.19340
 6176.00000   47.69860   95.28470   21.00120    0.19380
 6176.50000   47.73350   95.03350   20.74010    0.19120
 6177.00000   47.72920   94.76540   20.73610    0.18510
 6177.50000   47.72490   94.59720   20.05670    0.17740
 6178.00000   47.61390   94.49540   19.05960    0.17530
 6178.50000   47.73880   94.39370   18.45500    0.17220
 6179.00000   47.84040   94.22310   17.98650    0.17500
 6179.50000   47.86510   93.94930   18.24430    0.17160
 6180.00000   47.93100   93.82690   17.80230    0.16470
 6180.50000   47.88900   93.71840   17.24530    0.15610
 6181.00000   47.75550   93.47940   17.09270    0.14980
 6181.50000   47.75970   93.34880   16.02730    0.14650
 6182.00000   47.76380   93.14730   15.46430    0.14590
 6182.50000   47.64250   92.92140   15.19290    0.14280
 6183.00000   47.59520   92.80240   14.92150    0.14540
 6183.50000   47.59520   92.75480   14.73530    0.14230
 6184.00000   47.59520   92.70710   15.25520    0.14040
 6184.50000   47.59520   92.65940   15.06770    0.13680
 6185.00000   47.73060   92.63700   14.88010    0.13620
 6185.50000   48.40730   92.65270   16.13130    0.13910
 6186.00000   48.55110   92.66830   15.47520    0.13720
 6186.50000   48.56170   92.68390   14.79550    0.13530
 6187.00000   48.65290   92.69950   15.12800    0.13630
 6187.50000   48.82990   92.71510   16.38100    0.13460
 6188.00000   49.15060   92.62360   17.04240    0.12810
 6188.50000   49.91990   92.82410   16.80060    0.12090
 6189.00000   49.47320   92.66950   16.32450    0.11640
 6189.50000   50.10280   92.63090   15.97870    0.11690
 6190.00000   50.36870   92.49920   15.63280    0.11920
 6190.50000   50.38300   92.36740   15.28710    0.11830
 6191.00000   50.32850   92.23570   16.19520    0.11650
 6191.50000   50.00530   92.11190   17.10330    0.11600
 6192.00000   49.94450   92.06160   16.85510    0.11410
 6192.50000   49.93010   91.83700   16.44130    0.11330
 6193.00000   49.66850   91.99160   15.93640    0.11800
 6193.50000   49.67390   92.03550   15.43590    0.12400
 6194.00000   49.70570   92.04230   14.99090    0.12900
 6194.50000   49.88270   92.04900   14.74050    0.12850
 6195.00000   50.29910   92.23040   14.93680    0.12600
 6195.50000   50.64500   92.26240   15.13310    0.12380
 6196.00000   50.63880   92.29430   15.32930    0.12390
 6196.50000   50.63260   92.32620   15.52560    0.12600
 6197.00000   50.56200   92.35820   15.72190    0.12780
 6197.50000   50.63490   92.59060   15.91820    0.13290
 6198.00000   50.46880   92.36550   16.87640    0.13350
 6198.50000   50.52480   92.20340   17.13830    0.13340
 6199.00000   50.02730   92.10370   17.66930    0.12870
 6199.50000   50.01090   91.87560   17.97130    0.12860
 6200.00000   50.67310   91.82800   17.74040    0.13340
 6200.50000   51.74660   91.82550   17.74930    0.13930
 6201.00000   52.05670   91.82290   17.65010    0.14220
 6201.50000   51.35390   91.36970   17.60480    0.13400
 6202.00000   50.98360   91.45440   17.80980    0.12200
