~Version ---------------------------------------------------
VERS.   2.0 : CWLS log ASCII Standard -VERSION 2.0
WRAP.    NO : One line per depth step
DLM . SPACE : Column Data Section Delimiter
~Well ------------------------------------------------------
STRT .F                3700.0 : START DEPTH
STOP .F                9806.0 : STOP DEPTH
STEP .F                   0.5 : STEP
NULL .               -9999.25 : NULL VALUE
COMP .                        : COMPANY
WELL .                        : WELL
FLD  .                        : FIELD
LOC  .                        : LOCATION
PROV .                        : PROVINCE
CNTY .                        : COUNTY
STAT .                        : STATE
CTRY .                        : COUNTRY
SRVC .                        : SERVICE COMPANY
DATE .                        : DATE
UWI  .                        : UNIQUE WELL ID
API  .                        : API NUMBER
SLAT .WGS84 2.648271728876999 : SURFACE LATITUDE
SLON .WGS84 7.341687217178006 : SURFACE LONGITUDE
DATUM.F                   nan : DEPTH DATUM ELEV
~Curve Information -----------------------------------------
DEPT    .F     : 
DTCO    .US/F  : DELTA-T COMPRESSIONAL
DTSM    .US/F  : DELTA-T SHEAR
HSGR    .GAPI  : HNGS STANDARD GAMMA RAY
TNPH_LIM.DEC   : THERMAL NEUTRON POROSITY (RATIO METHOD) (LIMESTONE)
~Params ----------------------------------------------------
~Other -----------------------------------------------------
~ASCII -----------------------------------------------------
# ...
 5702.00000   53.09070   96.23950   22.70790    0.20490
 5702.50000   54.53970   96.18580   21.03220    0.20090
 5703.00000   55.35360   96.11960   20.95000    0.20710
 5703.50000   55.43890   96.03450   21.93830    0.20130
 5704.00000   55.44710   96.01970   22.40110    0.19920
 5704.50000   55.39680   96.00510   23.15020    0.19410
 5705.00000   54.75810   95.99030   23.78320    0.18980
 5705.50000   54.21040   95.97560   24.75800    0.18640
 5706.00000   53.95590   95.82350   24.38740    0.18350
 5706.50000   54.33590   95.58000   24.23400    0.18470
 5707.00000   54.69400   95.43380   24.35660    0.18660
 5707.50000   54.94550   95.35480   24.37940    0.18680
 5708.00000   54.56760   95.22310   25.25810    0.18130
 5708.50000   54.64500   95.09140   25.87320    0.17410
 5709.00000   54.13490   94.95960   26.03380    0.16460
 5709.50000   53.62480   94.76290   25.08250    0.16900
 5710.00000   53.38930   94.62690   24.63380    0.16700
 5710.50000   53.09530   94.52380   24.34000    0.16740
 5711.00000   52.24400   94.37270   23.89310    0.16490
 5711.50000   51.28630   94.25760   23.63930    0.16830
 5712.00000   51.46670   94.13250   23.66730    0.16610
 5712.50000   51.21820   93.97550   22.94620    0.17000
 5713.00000   51.24920   93.69160   22.24970    0.17250
 5713.50000   51.35760   93.46400   21.09210    0.18200
 5714.00000   50.88860   93.46240   21.09400    0.17920
 5714.50000   50.37190   93.46070   21.14800    0.17650
 5715.00000   49.95630   93.45900   20.43340    0.16900
 5715.50000   49.78330   93.45730   20.41740    0.16660
 5716.00000   49.73780   93.45560   20.13980    0.16250
 5716.50000   49.65970   93.45400   21.34620    0.16510
 5717.00000   49.89670   93.45230   24.06600    0.16100
 5717.50000   50.21770   93.73440   28.25260    0.16760
 5718.00000   50.40850   94.08730   31.47630    0.17270
 5718.50000   50.63670   94.29010   30.03720    0.16870
 5719.00000   50.64130   94.35700   26.52210    0.15440
 5719.50000   50.55580   94.37020   22.61920    0.14030
 5720.00000   49.94980   94.38350   20.02360    0.13280
 5720.50000   49.93320   94.39670   18.94780    0.12910
 5721.00000   49.78280   94.40990   18.93420    0.12540
 5721.50000   49.75870   94.23250   18.81220    0.12090
 5722.00000   49.76820   94.26640   18.21500    0.12300
 5722.50000   49.77770   94.30020   17.88560    0.12780
 5723.00000   49.86370   94.42580   18.24780    0.13330
 5723.50000   49.96200   94.23250   19.51100    0.13560
 5724.00000   50.12300   94.33270   19.98630    0.13210
 5724.50000   50.49470   94.43280   19.85610    0.13030
 5725.00000   50.64690   94.47980   19.28510    0.12530
 5725.50000   50.66820   94.52690   18.77350    0.12580
 5726.00000   50.76830   94.61410   19.27830    0.12690
 5726.50000   50.79870   94.71130   19.07220    0.12930
 5727.00000   50.61270   94.80860   19.07000    0.12820
 5727.50000   49.83620   94.89940   19.05410    0.12850
 5728.00000   49.75460   95.23030   19.05190    0.13040
 5728.50000   49.75910   95.04050   19.53810    0.13320
 5729.00000   49.76350   95.10690   18.70390    0.13570
 5729.50000   49.76800   95.19360   18.41540    0.13850
 5730.00000   49.91750   95.29380   18.19850    0.14280
 5730.50000   50.25640   95.39380   18.23410    0.14650
 5731.00000   50.39830   95.43730   18.16150    0.15000
 5731.50000   50.41160   95.58770   20.61930    0.15290
 5732.00000   50.55520   95.95460   21.89420    0.15850
 5732.50000   51.00580   96.32160   22.48960    0.16250
 5733.00000   51.45640   96.68860   22.66020    0.15900
 5733.50000   51.93940   96.78290   22.79520    0.15430
 5734.00000   51.68080   96.63140   22.18340    0.15160
 5734.50000   51.08650   96.38350   22.16460    0.14400
 5735.00000   50.64130   96.19500   21.69270    0.13570
 5735.50000   50.35970   96.11180   22.39120    0.13300
 5736.00000   50.54450   96.09290   21.78750    0.13720
 5736.50000   50.75740   95.81150   20.93720    0.14090
 5737.00000   50.84050   95.51970   21.28950    0.14340
 5737.50000   50.93520   95.44810   21.85280    0.13890
 5738.00000   50.81730   95.37670   21.11550    0.13390
 5738.50000   50.95230   95.33370   20.47290    0.13540
 5739.00000   51.34570   95.29260   19.97900    0.13930
 5739.50000   51.43630   95.25140   20.51650    0.14450
 5740.00000   51.38870   95.21020   20.24000    0.15160
 5740.50000   51.04090   95.16910   20.44370    0.15870
 5741.00000   50.95740   95.07820   19.43320    0.16530
 5741.50000   51.04880   94.95450   18.02070    0.15340
 5742.00000   51.53070   94.72210   16.79710    0.14410
 5742.50000   51.90090   94.46260   16.58350    0.13480
 5743.00000   52.24320   94.20310   16.79300    0.13280
 5743.50000   52.04190   93.94360   17.16010    0.13620
 5744.00000   51.54470   93.93640   19.71440    0.14120
 5744.50000   51.68780   94.09750   20.41510    0.14970
 5745.00000   51.72660   94.25860   19.86740    0.15930
 5745.50000   51.62760   94.32310   18.63420    0.17080
 5746.00000   51.95030   94.32980   18.27440    0.17450
 5746.50000   51.81880   94.34100   18.71790    0.16870
 5747.00000   51.84750   94.35220   18.38990    0.17290
 5747.50000   52.01760   94.36340   17.50710    0.17090
 5748.00000   52.76050   94.32280   16.80060    0.16380
 5748.50000   51.60390   94.24760   17.76930    0.15070
 5749.00000   50.66820   94.15250   19.43440    0.14690
 5749.50000   49.95400   93.91240   20.63520    0.15510
 5750.00000   48.84370   93.83020   21.11450    0.16440
 5750.50000   48.80160   93.79610   19.74950    0.17220
 5751.00000   48.94320   93.78930   18.54350    0.17400
 5751.50000   48.96390   93.95610   18.86630    0.17530
 5752.00000   49.00780   94.05620   20.20000    0.17340
 5752.50000   48.65410   94.16340   21.87460    0.17350
 5753.00000   48.33530   94.29740   22.85520    0.18070
 5753.50000   49.62100   94.43130   22.76640    0.18970
 5754.00000   51.05240   94.56530   22.00820    0.19770
 5754.50000   51.34270   94.69920   21.05540    0.19310
 5755.00000   51.21240   94.83320   20.13070    0.18090
 5755.50000   50.60390   95.01840   20.12000    0.16860
 5756.00000   50.91420   95.23340   19.58150    0.16310
 5756.50000   51.92990   95.49110   19.96260    0.16820
 5757.00000   52.26980   95.63410   19.31610    0.16580
 5757.50000   52.25560   95.77710   19.86280    0.16150
 5758.00000   51.79970   95.94770   20.13070    0.15740
 5758.50000   52.30030   95.84590   20.80830    0.16050
 5759.00000   47.14560   95.68990   20.79540    0.16120
 5759.50000   45.77360   95.53400   21.54990    0.15760
 5760.00000   46.11210   95.34630   21.91860    0.16700
 5760.50000   46.69130   95.26700   21.88890    0.17120
 5761.00000   46.92340   95.43380   21.41140    0.16120
 5761.50000   47.04470   95.31830   21.77800    0.15650
 5762.00000   49.55520   95.20280   21.97560    0.15300
 5762.50000   49.95100   95.08290   21.66940    0.15740
 5763.00000   49.74750   94.95630   21.32180    0.16040
 5763.50000   49.72110   94.82960   20.73610    0.16210
 5764.00000   50.35200   94.70300   20.77870    0.16180
 5764.50000   49.97510   94.69570   21.00830    0.16580
 5765.00000   50.11200   94.68850   21.19020    0.17030
 5765.50000   51.58630   94.68110   21.19020    0.17640
 5766.00000   50.68760   94.67380   21.37910    0.17310
 5766.50000   48.56970   94.66640   21.64880    0.17190
 5767.00000   45.89660   94.65910   21.87700    0.18520
 5767.50000   46.91820   94.69820   20.92820    0.19840
 5768.00000   47.80330   94.93830   20.68720    0.20360
 5768.50000   47.22110   95.20100   20.73610    0.19720
 5769.00000   45.04460   95.33970   21.71770    0.19430
 5769.50000   43.67780   95.47850   22.40110    0.19420
 5770.00000   43.06440   95.61830   22.21200    0.19370
 5770.50000   43.92930   95.96080   21.94690    0.19550
 5771.00000   44.33260   96.23680   22.24970    0.19320
 5771.50000   44.95450   96.24730   22.92550    0.19790
 5772.00000   45.14100   96.30300   23.74550    0.20140
 5772.50000   45.89340   96.54020   24.04630    0.19040
 5773.00000   46.89450   96.55860   23.74360    0.17660
