~Version ---------------------------------------------------
VERS.   2.0 : CWLS log ASCII Standard -VERSION 2.0
WRAP.    NO : One line per depth step
DLM . SPACE : Column Data Section Delimiter
~Well ------------------------------------------------------
STRT .F                3700.0 : START DEPTH
STOP .F                9806.0 : STOP DEPTH
STEP .F                   0.5 : STEP
NULL .               -9999.25 : NULL VALUE
COMP .                        : COMPANY
WELL .                        : WELL
FLD  .                        : FIELD
LOC  .                        : LOCATION
PROV .                        : PROVINCE
CNTY .                        : COUNTY
STAT .                        : STATE
CTRY .                        : COUNTRY
SRVC .                        : SERVICE COMPANY
DATE .                        : DATE
UWI  .                        : UNIQUE WELL ID
API  .                        : API NUMBER
SLAT .WGS84 2.648271728876999 : SURFACE LATITUDE
SLON .WGS84 7.341687217178006 : SURFACE LONGITUDE
DATUM.F                   nan : DEPTH DATUM ELEV
~Curve Information -----------------------------------------
DEPT    .F     : 
DTCO    .US/F  : DELTA-T COMPRESSIONAL
DTSM    .US/F  : DELTA-T SHEAR
HSGR    .GAPI  : HNGS STANDARD GAMMA RAY
TNPH_LIM.DEC   : THERMAL NEUTRON POROSITY (RATIO METHOD) (LIMESTONE)
~Params ----------------------------------------------------
~Other -----------------------------------------------------
~ASCII -----------------------------------------------------
# ...
 9277.00000   48.34060   90.17200   27.63840    0.13800
 9277.50000   48.37680   90.07970   28.57040    0.13440
 9278.00000   48.39610   89.88260   28.91960    0.13260
 9278.50000   48.39610   89.95300   29.18900    0.13480
 9279.00000   48.39610   90.24510   29.89920    0.13260
 9279.50000   48.39610   90.44320   30.72600    0.13980
 9280.00000   48.30570   90.30100   30.71920    0.13570
 9280.50000   48.24360   90.45780   30.71240    0.13340
 9281.00000   48.23280   90.64330   30.20740    0.13260
 9281.50000   48.15590   90.59410   29.37740    0.13030
 9282.00000   48.16350   90.54500   28.92640    0.12990
 9282.50000   48.03560   90.49580   28.10740    0.12680
 9283.00000   47.64780   90.44670   27.69730    0.12910
 9283.50000   47.15360   90.39750   26.75680    0.13060
 9284.00000   47.00430   90.34830   26.67620    0.12370
 9284.50000   46.94930   90.45240   27.36030    0.12120
 9285.00000   46.95060   90.45240   27.09330    0.11850
 9285.50000   46.95190   90.45240   25.92870    0.12440
 9286.00000   46.95330   90.61920   25.98830    0.12250
 9286.50000   46.95460   90.71920   27.62490    0.12400
 9287.00000   47.19120   90.85270   28.94820    0.12040
 9287.50000   47.23810   91.03970   29.85920    0.12420
 9288.00000   47.46080   91.17310   31.00100    0.12910
 9288.50000   47.57160   91.30660   31.18620    0.13220
 9289.00000   47.59520   91.44000   30.37460    0.13010
 9289.50000   47.59520   91.52020   28.81580    0.12940
 9290.00000   47.57150   91.38670   27.76260    0.12780
 9290.50000   47.35800   91.33330   27.35180    0.13000
 9291.00000   47.21370   91.19980   27.24460    0.13150
 9291.50000   47.07070   91.11970   27.24460    0.13160
 9292.00000   46.81600   91.25320   27.24460    0.13170
 9292.50000   46.69420   91.10300   27.24460    0.13320
 9293.00000   46.89440   90.72760   26.64820    0.13640
 9293.50000   46.93440   90.35230   27.40970    0.13260
 9294.00000   46.93440   90.05190   28.59180    0.13660
 9294.50000   46.93440   90.18540   28.53690    0.13240
 9295.00000   46.87430   90.49680   27.09330    0.13190
 9295.50000   46.63090   90.71920   25.10010    0.13820
 9296.00000   46.95510   90.85270   24.98630    0.14740
 9296.50000   46.85620   90.81810   26.05890    0.14440
 9297.00000   46.93100   90.73130   27.27330    0.13200
 9297.50000   46.85800   90.64460   28.11780    0.11750
 9298.00000   47.02410   90.55790   28.45560    0.11220
 9298.50000   46.94450   90.47120   28.06610    0.11650
 9299.00000   46.82830   90.38440   28.28430    0.12140
 9299.50000   46.68950   90.29770   28.60690    0.12190
 9300.00000   46.64420   90.24310   28.94330    0.12170
 9300.50000   46.64600   90.31770   28.27070    0.12500
 9301.00000   46.65490   90.39210   27.75170    0.12250
 9301.50000   46.66390   90.46670   26.99060    0.12480
 9302.00000   46.76390   90.54110   26.83980    0.11800
 9302.50000   46.83440   90.71920   26.49330    0.11660
 9303.00000   46.91950   90.71920   25.88260    0.11990
 9303.50000   46.93810   90.92590   25.50410    0.12440
 9304.00000   46.92750   91.02920   25.61870    0.12760
 9304.50000   47.07680   91.02920   25.31920    0.12460
 9305.00000   47.30790   91.02920   25.39060    0.13010
 9305.50000   47.78510   91.14690   26.17620    0.13690
 9306.00000   48.21350   91.26470   26.98260    0.14360
 9306.50000   48.60920   91.38250   27.45550    0.13940
 9307.00000   48.91100   91.42950   28.39100    0.14660
 9307.50000   48.96310   91.42950   29.40280    0.15400
 9308.00000   49.10240   91.48390   29.00220    0.14590
 9308.50000   49.18120   91.75560   27.95070    0.13160
 9309.00000   49.19700   92.02730   27.94230    0.11880
 9309.50000   49.09210   92.23750   27.92740    0.12510
 9310.00000   49.00640   92.32020   27.41540    0.13740
 9310.50000   48.95450   92.68510   26.04390    0.15030
 9311.00000   48.96070   92.90610   26.12720    0.15900
 9311.50000   48.96680   93.10280   26.47020    0.16100
 9312.00000   49.10990   93.34650   26.68070    0.15670
 9312.50000   49.31900   93.63370   27.38620    0.15280
 9313.00000   49.62230   93.92110   27.70500    0.15240
 9313.50000   49.50130   94.42580   28.12430    0.15740
 9314.00000   50.12970   94.30280   27.60900    0.15940
 9314.50000   50.01640   94.14240   27.78750    0.16150
 9315.00000   49.81250   93.98200   27.00500    0.16170
 9315.50000   49.20150   93.89840   26.89040    0.16260
 9316.00000   48.98100   94.04810   25.96850    0.16270
 9316.50000   49.03710   94.12670   25.08240    0.16330
 9317.00000   49.04810   94.32320   25.27720    0.16660
 9317.50000   49.10290   94.19640   26.12790    0.16260
 9318.00000   49.29890   93.87950   26.68030    0.15490
 9318.50000   49.36380   93.56050   27.44480    0.14320
 9319.00000   49.43470   93.35670   28.88420    0.13610
 9319.50000   49.43680   93.16000   30.08760    0.13590
 9320.00000   49.34660   92.90550   29.35550    0.13950
 9320.50000   49.00680   92.27700   27.93990    0.13800
 9321.00000   48.94320   91.64830   28.15960    0.13780
 9321.50000   48.70420   91.25470   29.70670    0.13970
 9322.00000   48.58060   91.01770   31.26710    0.13380
 9322.50000   48.63440   91.21390   33.21930    0.13460
 9323.00000   48.63420   91.51850   35.55320    0.14090
 9323.50000   48.63410   91.82290   37.88710    0.14730
 9324.00000   48.60610   91.78420   39.09310    0.14470
 9324.50000   48.56170   91.74540   39.35360    0.14780
 9325.00000   48.73290   91.60120   38.70870    0.15090
 9325.50000   48.44120   91.41340   37.16890    0.15230
 9326.00000   48.30570   91.18850   36.82170    0.15040
 9326.50000   48.24150   90.97870   36.11770    0.15290
 9327.00000   48.14930   90.76900   36.66630    0.14560
 9327.50000   48.14110   90.55920   35.31950    0.13420
 9328.00000   48.13270   90.34940   34.51000    0.12270
 9328.50000   48.12440   90.13970   35.00440    0.11850
 9329.00000   47.91820   89.92990   35.53910    0.12110
 9329.50000   47.64230   89.72020   35.32170    0.12550
 9330.00000   47.59520   89.51030   34.41420    0.12790
 9330.50000   47.62260   89.11760   34.32830    0.12410
 9331.00000   47.73180   88.91220   33.43990    0.12310
 9331.50000   47.65620   88.70690   32.54240    0.12040
 9332.00000   47.68560   88.58370   31.75620    0.11790
 9332.50000   47.74850   88.58370   32.06070    0.11670
 9333.00000   47.76030   88.62580   32.20920    0.11730
 9333.50000   47.87530   88.80060   30.91780    0.11910
 9334.00000   47.99910   88.72580   30.38400    0.10950
 9334.50000   48.13230   88.65150   30.14560    0.10540
 9335.00000   48.12280   88.77670   29.90730    0.10680
 9335.50000   48.47280   88.76020   28.90730    0.10650
 9336.00000   48.55110   88.64920   27.77440    0.10710
 9336.50000   48.56170   88.53820   27.98320    0.10510
 9337.00000   48.65290   88.42730   28.75290    0.10960
 9337.50000   48.80650   88.31640   28.26740    0.11640
 9338.00000   48.88690   88.20540   27.49470    0.12170
 9338.50000   48.93000   88.18320   26.86590    0.12650
 9339.00000   48.85010   88.33000   27.35650    0.12770
 9339.50000   48.94170   88.57480   27.65840    0.13420
 9340.00000   48.89840   88.81950   27.43340    0.13310
 9340.50000   48.68000   89.06420   27.44470    0.13010
 9341.00000   48.42190   89.30890   28.44840    0.12370
 9341.50000   48.14580   89.55360   29.57290    0.12670
 9342.00000   48.02940   89.65140   30.49120    0.13270
 9342.50000   47.99570   89.65140   30.78760    0.13870
 9343.00000   48.03050   89.65140   33.45050    0.14410
 9343.50000   48.18190   89.65140   32.54240    0.13910
 9344.00000   48.36150   90.05190   34.05590    0.13670
 9344.50000   48.53970   90.58580   35.32180    0.13710
 9345.00000   48.65290   91.11970   35.59710    0.14670
 9345.50000   48.77650   90.85270   35.87230    0.15120
 9346.00000   48.81470   90.58580   35.87230    0.14920
 9346.50000   48.94670   90.96710   35.87230    0.14570
 9347.00000   49.00870   91.11970   35.87230    0.14930
 9347.50000   48.79650   91.18610   34.35860    0.14370
 9348.00000   48.52910   90.92580   34.50350    0.14600
