~Version ---------------------------------------------------
VERS.   2.0 : CWLS log ASCII Standard -VERSION 2.0
WRAP.    NO : One line per depth step
DLM . SPACE : Column Data Section Delimiter
~Well ------------------------------------------------------
STRT .F                3700.0 : START DEPTH
STOP .F                9806.0 : STOP DEPTH
STEP .F                   0.5 : STEP
NULL .               -9999.25 : NULL VALUE
COMP .                        : COMPANY
WELL .                        : WELL
FLD  .                        : FIELD
LOC  .                        : LOCATION
PROV .                        : PROVINCE
CNTY .                        : COUNTY
STAT .                        : STATE
CTRY .                        : COUNTRY
SRVC .                        : SERVICE COMPANY
DATE .                        : DATE
UWI  .                        : UNIQUE WELL ID
API  .                        : API NUMBER
SLAT .WGS84 2.648271728876999 : SURFACE LATITUDE
SLON .WGS84 7.341687217178006 : SURFACE LONGITUDE
DATUM.F                   nan : DEPTH DATUM ELEV
~Curve Information -----------------------------------------
DEPT    .F     : 
DTCO    .US/F  : DELTA-T COMPRESSIONAL
DTSM    .US/F  : DELTA-T SHEAR
HSGR    .GAPI  : HNGS STANDARD GAMMA RAY
TNPH_LIM.DEC   : THERMAL NEUTRON POROSITY (RATIO METHOD) (LIMESTONE)
~Params ----------------------------------------------------
~Other -----------------------------------------------------
~ASCII -----------------------------------------------------
# ...
 7275.00000   48.26200   96.11100   33.62040    0.18820
 7275.50000   48.41250   96.23710   34.31760    0.17790
 7276.00000   48.59880   96.36320   33.65160    0.17610
 7276.50000   48.67080   96.70050   32.63850    0.18790
 7277.00000   48.77550   96.91040   31.62050    0.19320
 7277.50000   48.77210   96.99590   30.23000    0.19580
 7278.00000   48.76100   97.11510   28.68780    0.18450
 7278.50000   48.79650   97.40880   26.72630    0.17770
 7279.00000   48.67430   97.14220   25.14710    0.17250
 7279.50000   48.66600   97.03110   24.17590    0.17010
 7280.00000   48.79990   96.98130   23.73230    0.16870
 7280.50000   48.94670   96.76170   23.61200    0.16440
 7281.00000   49.23900   96.54210   23.87780    0.16270
 7281.50000   49.74620   96.32250   24.60790    0.16470
 7282.00000   49.83090   96.30230   25.40960    0.16660
 7282.50000   49.84020   96.50780   25.27700    0.16740
 7283.00000   49.86360   96.16970   24.54430    0.17330
 7283.50000   49.94360   95.94940   24.04620    0.17450
 7284.00000   49.97780   95.66880   23.30920    0.16920
 7284.50000   49.97500   95.70700   22.31670    0.16870
 7285.00000   49.96580   95.36890   20.38290    0.16600
 7285.50000   49.95660   95.24360   21.28940    0.16540
 7286.00000   49.99260   95.26030   22.13300    0.16190
 7286.50000   49.95100   95.27700   22.94650    0.16560
 7287.00000   49.95120   95.29360   22.62240    0.17170
 7287.50000   49.95140   95.31030   22.59730    0.17470
 7288.00000   49.95470   95.32700   22.84080    0.17630
 7288.50000   49.96260   95.08230   22.83350    0.17380
 7289.00000   49.89880   94.96200   22.82620    0.16600
 7289.50000   49.84760   94.75480   22.47930    0.16960
 7290.00000   49.80620   94.62770   22.37440    0.17610
 7290.50000   49.75440   94.52380   22.08910    0.17880
 7291.00000   49.82820   94.40910   22.55610    0.17540
 7291.50000   50.04790   94.36960   22.55250    0.17560
 7292.00000   49.77810   94.38030   22.96240    0.17650
 7292.50000   49.95990   94.46620   22.37650    0.17890
 7293.00000   50.69150   94.55220   22.48250    0.17100
 7293.50000   50.59460   94.63820   22.47410    0.16980
 7294.00000   50.05290   94.72420   22.55250    0.16390
 7294.50000   49.97720   94.90660   21.89600    0.16330
 7295.00000   50.54490   95.23360   21.64420    0.16100
 7295.50000   50.63730   95.16860   22.20130    0.16340
 7296.00000   50.65130   95.02630   22.96050    0.16640
 7296.50000   50.66530   95.22660   23.42380    0.16920
 7297.00000   50.81530   95.04050   22.79360    0.17460
 7297.50000   51.21960   95.19500   23.35970    0.18020
 7298.00000   51.46050   95.31370   23.89520    0.18480
 7298.50000   50.10640   95.41380   24.40590    0.18910
 7299.00000   49.65070   95.46170   25.16830    0.19510
 7299.50000   49.96890   95.49660   26.28780    0.20000
 7300.00000   51.07090   95.47910   27.57760    0.19110
 7300.50000   51.90550   95.42830   27.65760    0.18270
 7301.00000   52.46000   95.42130   26.84990    0.17310
 7301.50000   52.05850   95.41440   26.80120    0.17660
 7302.00000   51.90950   95.36510   27.66350    0.17400
 7302.50000   51.84630   95.23970   28.19380    0.17360
 7303.00000   51.46840   95.25490   27.79600    0.17820
 7303.50000   51.16610   95.27020   26.76610    0.18520
 7304.00000   51.52570   95.28540   26.70420    0.18740
 7304.50000   51.71130   95.04050   25.95510    0.18680
 7305.00000   51.12350   95.03800   25.73100    0.18690
 7305.50000   50.86480   95.03560   26.37730    0.19290
 7306.00000   51.14340   95.03320   27.42330    0.19630
 7306.50000   51.19910   95.03080   27.88080    0.19690
 7307.00000   51.11690   95.02820   27.70940    0.19240
 7307.50000   50.85410   94.91480   27.64780    0.19290
 7308.00000   50.94630   94.35680   28.16640    0.19470
 7308.50000   51.68490   94.25830   28.07670    0.20350
 7309.00000   52.12990   94.27470   29.11390    0.20720
 7309.50000   52.03300   94.29100   30.29910    0.20910
 7310.00000   52.00000   94.34020   32.22580    0.20510
 7310.50000   52.00000   94.41150   33.41470    0.20410
 7311.00000   51.84030   94.38060   33.26410    0.20500
 7311.50000   51.61030   94.32420   32.90080    0.20900
 7312.00000   51.38030   94.26780   31.90960    0.20150
 7312.50000   51.43970   94.21140   31.90650    0.19510
 7313.00000   51.45070   94.15500   32.08820    0.18660
 7313.50000   51.50550   94.06610   32.29890    0.19490
 7314.00000   51.70140   93.95580   32.51930    0.19200
 7314.50000   51.75360   93.67670   32.53170    0.19430
 7315.00000   51.77280   93.14470   30.72600    0.19820
 7315.50000   52.09920   93.04520   30.32380    0.19830
 7316.00000   52.49310   93.09960   29.96410    0.19810
 7316.50000   52.74720   93.33680   29.86420    0.19100
 7317.00000   52.45270   93.39560   29.89360    0.19320
 7317.50000   51.82870   93.30560   30.13390    0.18760
 7318.00000   52.60450   93.21560   30.77980    0.18460
 7318.50000   51.97670   93.35360   31.10320    0.18690
 7319.00000   52.53260   93.35280   31.91710    0.19190
 7319.50000   53.34890   93.15560   32.33390    0.19920
 7320.00000   52.84070   93.12880   32.71700    0.20670
 7320.50000   52.77590   93.35740   33.11490    0.21130
 7321.00000   52.80080   93.58620   33.44010    0.21270
 7321.50000   52.81380   93.71470   33.38080    0.21490
 7322.00000   53.10430   93.81610   32.57050    0.21860
 7322.50000   54.29640   93.94450   31.37710    0.21830
 7323.00000   54.43030   94.22370   29.99400    0.21650
 7323.50000   54.30320   94.34410   29.81800    0.21550
 7324.00000   50.59640   94.46440   29.16030    0.22070
 7324.50000   53.51980   94.58480   29.55910    0.21720
 7325.00000   52.25710   94.83260   29.80880    0.22270
 7325.50000   50.84840   95.16540   29.85680    0.22710
 7326.00000   50.16850   95.13270   29.90470    0.24120
 7326.50000   51.44930   95.03210   29.29310    0.23490
 7327.00000   53.42300   95.02550   30.21510    0.22890
 7327.50000   54.59140   95.01880   30.66410    0.22690
 7328.00000   54.72240   94.98770   31.07890    0.23530
 7328.50000   54.23130   94.85890   32.29660    0.24110
 7329.00000   55.08110   94.98630   33.23780    0.23600
 7329.50000   54.15160   94.90570   34.56430    0.22820
 7330.00000   50.56680   94.75710   34.98470    0.22010
 7330.50000   48.03310   94.60850   35.20330    0.21220
 7331.00000   45.24890   94.45990   34.65800    0.20530
 7331.50000   43.98350   94.64100   34.72100    0.21050
 7332.00000   43.49650   94.68090   35.17190    0.21610
 7332.50000   43.85570   94.72100   35.83680    0.22130
 7333.00000   45.34270   94.99520   35.84220    0.21620
 7333.50000   48.68390   95.26940   35.49380    0.22470
 7334.00000   50.34640   95.43380   34.95410    0.23480
 7334.50000   49.57280   95.40220   34.72100    0.24280
 7335.00000   49.17740   95.32290   35.55770    0.23820
 7335.50000   49.57710   95.24370   37.08670    0.23030
 7336.00000   50.63890   95.16440   37.11830    0.22540
 7336.50000   55.09580   95.08520   37.67520    0.22470
 7337.00000   57.83840   95.22660   37.55810    0.22080
 7337.50000   58.24310   95.07200   37.90880    0.21440
 7338.00000   57.79710   94.93330   37.90370    0.21950
 7338.50000   57.23400   94.73420   38.93070    0.21820
 7339.00000   56.84760   94.23950   38.14650    0.21580
 7339.50000   56.80510   94.25040   37.67860    0.20850
 7340.00000   56.80510   94.26120   38.51350    0.20970
 7340.50000   56.80510   94.27200   39.60910    0.21480
 7341.00000   56.80510   94.28290   39.30960    0.21110
 7341.50000   56.68000   94.29370   38.63790    0.20500
 7342.00000   56.51540   94.30450   39.59440    0.20250
 7342.50000   55.11520   94.31530   40.77690    0.20710
 7343.00000   49.89770   94.42580   41.01860    0.21680
 7343.50000   55.01400   94.23950   40.04600    0.21610
 7344.00000   54.90310   94.60050   39.48010    0.21740
 7344.50000   54.03580   94.57310   39.29300    0.20390
 7345.00000   52.62560   95.19960   38.70260    0.19470
 7345.50000   48.69640   95.38210   37.92070    0.18590
 7346.00000   46.52090   95.56450   37.13860    0.19060
