~Version ---------------------------------------------------
VERS.   2.0 : CWLS log ASCII Standard -VERSION 2.0
WRAP.    NO : One line per depth step
DLM . SPACE : Column Data Section Delimiter
~Well ------------------------------------------------------
STRT .F                  836.0 : START DEPTH
STOP .F                 8477.0 : STOP DEPTH
STEP .F                    0.5 : STEP
NULL .                -9999.25 : NULL VALUE
COMP .                         : COMPANY
WELL .                         : WELL
FLD  .                         : FIELD
LOC  .                         : LOCATION
PROV .                         : PROVINCE
CNTY .                         : COUNTY
STAT .                         : STATE
CTRY .                         : COUNTRY
SRVC .                         : SERVICE COMPANY
DATE .                         : DATE
UWI  .                         : UNIQUE WELL ID
API  .                         : API NUMBER
SLAT .WGS84    5.1065078621168 : SURFACE LATITUDE
SLON .WGS84 2.1785651349902793 : SURFACE LONGITUDE
DATUM.F                  994.6 : DEPTH DATUM ELEV
~Curve Information -----------------------------------------
DEPT   .F     : 1 MEASURED DEPTH
GRR    .GAPI  : GAMMA RAY FROM RESISTIVITY LOG
ILD    .OHMM  : INDUCTION DEEP RESISTIVITY
SPR    .MV    : SPONTANEOUS POTENTIAL FROM RESISTIVITY LOG
ILM    .OHMM  : INDUCTION MEDIUM RESISTIVITY
SFLU   .OHMM  : SHALLOW FOCUSED RESISTIVITY (UNAVERAGED)
SFLA   .OHMM  : SPHERICALLY FOCUSED LOG RESISTIVITY AVERAGED OVER 2.5 FT
CILD   .MMHO  : INDUCTION DEEP CONDUCTIVITY
NPHI_LS.DEC   : NEUTRON POROSITY LIMESTONE
DTCO   .US/F  : DELTA-T COMPRESSIONAL
DTSM   .US/F  : DELTA-T SHEAR
~Params ----------------------------------------------------
~Other -----------------------------------------------------
~ASCII -----------------------------------------------------
# ...
 3872.00000   99.59530    3.90730  -15.19140   -9999.25   -9999.25    2.95330  255.98060   -9999.25   -9999.25   -9999.25
 3872.50000   99.00160    3.90300  -15.72350   -9999.25   -9999.25    2.93170  256.26160   -9999.25   -9999.25   -9999.25
 3873.00000  100.94620    3.84410  -16.28880   -9999.25   -9999.25    2.92560  260.20100   -9999.25   -9999.25   -9999.25
 3873.50000  103.26020    3.75980  -17.06060   -9999.25   -9999.25    2.95670  266.01720   -9999.25   -9999.25   -9999.25
 3874.00000  104.78820    3.70740  -18.21160   -9999.25   -9999.25    2.96430  269.78660   -9999.25   -9999.25   -9999.25
 3874.50000  104.93670    3.73310  -19.36270   -9999.25   -9999.25    2.96610  267.93540   -9999.25   -9999.25   -9999.25
 3875.00000  104.56260    3.83880  -20.51370   -9999.25   -9999.25    2.98010  260.55960   -9999.25   -9999.25   -9999.25
 3875.50000  101.22560    3.97650  -21.64380   -9999.25   -9999.25    3.01430  251.53090   -9999.25   -9999.25   -9999.25
 3876.00000   96.48480    4.09490  -22.53800   -9999.25   -9999.25    3.04860  244.25000   -9999.25   -9999.25   -9999.25
 3876.50000   91.74410    4.03870  -23.07380   -9999.25   -9999.25    3.08460  247.64270   -9999.25   -9999.25   -9999.25
 3877.00000   90.45720    3.89410  -23.54650   -9999.25   -9999.25    3.12090  256.83890   -9999.25   -9999.25   -9999.25
 3877.50000   89.94290    3.73540  -23.94310   -9999.25   -9999.25    3.09970  267.74910   -9999.25   -9999.25   -9999.25
 3878.00000   88.10900    3.61550  -24.25130   -9999.25   -9999.25    3.02850  276.64350   -9999.25   -9999.25   -9999.25
 3878.50000   86.56170    3.62770  -24.70220   -9999.25   -9999.25    2.95720  275.73150   -9999.25   -9999.25   -9999.25
 3879.00000   89.38480    3.70220  -25.42980   -9999.25   -9999.25    2.92840  270.17130   -9999.25   -9999.25   -9999.25
 3879.50000   91.42630    3.78820  -26.08540   -9999.25   -9999.25    2.90500  264.03560   -9999.25   -9999.25   -9999.25
 3880.00000   89.98530    3.85440  -25.78330   -9999.25   -9999.25    2.91310  259.49120   -9999.25   -9999.25   -9999.25
 3880.50000   86.26480    3.81570  -23.77420   -9999.25   -9999.25    2.97860  261.56380   -9999.25   -9999.25   -9999.25
 3881.00000   84.36440    3.76620  -21.68680   -9999.25   -9999.25    3.01730  267.15460   -9999.25   -9999.25   -9999.25
 3881.50000   83.68530    3.72040  -20.25930   -9999.25   -9999.25    3.04480  266.66820   -9999.25   -9999.25   -9999.25
 3882.00000   83.12800    3.80220  -19.48740   -9999.25   -9999.25    3.14660  260.90050   -9999.25   -9999.25   -9999.25
 3882.50000   83.50170    3.93780  -18.61370   -9999.25   -9999.25    3.24840  254.00560   -9999.25   -9999.25   -9999.25
 3883.00000   85.58310    4.05170  -17.62430   -9999.25   -9999.25    3.27810  246.86340   -9999.25   -9999.25   -9999.25
 3883.50000   89.22250    4.14220  -16.54450   -9999.25   -9999.25    3.25110  241.44690   -9999.25   -9999.25   -9999.25
 3884.00000   91.99800    4.13120  -15.39840   -9999.25   -9999.25    3.20420  242.08310   -9999.25   -9999.25   -9999.25
 3884.50000   92.23240    4.03400  -14.25240   -9999.25   -9999.25    3.14830  247.93220   -9999.25   -9999.25   -9999.25
 3885.00000   92.48760    3.91230  -13.76680   -9999.25   -9999.25    3.10320  255.64230   -9999.25   -9999.25   -9999.25
 3885.50000   94.18840    3.80840  -13.62950   -9999.25   -9999.25    3.06040  262.61950   -9999.25   -9999.25   -9999.25
 3886.00000   97.05380    3.73300  -13.77420   -9999.25   -9999.25    3.01900  267.92820   -9999.25   -9999.25   -9999.25
 3886.50000   96.88070    3.69470  -13.39970   -9999.25   -9999.25    2.97810  270.71240   -9999.25   -9999.25   -9999.25
 3887.00000   93.57460    3.66810  -13.37740   -9999.25   -9999.25    2.94410  272.67650   -9999.25   -9999.25   -9999.25
 3887.50000   90.31610    3.65410  -13.50820   -9999.25   -9999.25    2.91510  273.72280   -9999.25   -9999.25   -9999.25
 3888.00000   92.69860    3.64220  -13.66430   -9999.25   -9999.25    2.88390  274.61760   -9999.25   -9999.25   -9999.25
 3888.50000   98.28670    3.61600  -13.75650   -9999.25   -9999.25    2.82950  276.60440   -9999.25   -9999.25   -9999.25
 3889.00000  103.72200    3.54440  -13.70650   -9999.25   -9999.25    2.77510  282.17160   -9999.25   -9999.25   -9999.25
 3889.50000  109.28480    3.41730  -13.40510   -9999.25   -9999.25    2.72070  292.67880   -9999.25   -9999.25   -9999.25
 3890.00000  117.42670    3.29890  -13.10960   -9999.25   -9999.25    2.66630  303.18590   -9999.25   -9999.25   -9999.25
 3890.50000  125.56850    3.28320  -12.79970   -9999.25   -9999.25    2.61190  304.64630   -9999.25   -9999.25   -9999.25
 3891.00000  126.70020    3.30790  -12.44240   -9999.25   -9999.25    2.56390  302.37810   -9999.25   -9999.25   -9999.25
 3891.50000  118.26360    3.33490  -11.61100   -9999.25   -9999.25    2.52810  299.92830   -9999.25   -9999.25   -9999.25
 3892.00000  108.62990    3.35920  -10.77920   -9999.25   -9999.25    2.52680  297.74300   -9999.25   -9999.25   -9999.25
 3892.50000  105.32080    3.36030  -10.18870   -9999.25   -9999.25    2.58380  297.65360   -9999.25   -9999.25   -9999.25
 3893.00000  103.62190    3.32310  -10.07360   -9999.25   -9999.25    2.66730  297.56430   -9999.25   -9999.25   -9999.25
 3893.50000  102.69220    3.27560  -10.17270   -9999.25   -9999.25    2.76380  295.87940   -9999.25   -9999.25   -9999.25
 3894.00000  103.44340    3.22810  -10.38000   -9999.25   -9999.25    2.83480  288.83840   -9999.25   -9999.25   -9999.25
 3894.50000  104.99080    3.26240  -10.36410   -9999.25   -9999.25    2.87690  280.40800   -9999.25   -9999.25   -9999.25
 3895.00000  104.75010    3.28460   -9.94290   -9999.25   -9999.25    2.89150  275.84380   -9999.25   -9999.25   -9999.25
 3895.50000  105.26920    3.29420   -9.52170   -9999.25   -9999.25    2.89670  280.97880   -9999.25   -9999.25   -9999.25
 3896.00000  109.21640    3.23960   -9.10050   -9999.25   -9999.25    2.81290  290.63870   -9999.25   -9999.25   -9999.25
 3896.50000  114.91220    3.18500   -8.86770   -9999.25   -9999.25    2.64020  306.40830   -9999.25   -9999.25   -9999.25
 3897.00000  114.45200    3.12120   -8.86870   -9999.25   -9999.25    2.49440  320.45370   -9999.25   -9999.25   -9999.25
 3897.50000  111.63290    3.01900   -8.87110   -9999.25   -9999.25    2.38170  331.30940   -9999.25   -9999.25   -9999.25
 3898.00000  108.49980    2.99240   -9.61690   -9999.25   -9999.25    2.33610  334.28740   -9999.25   -9999.25   -9999.25
 3898.50000  102.91940    3.03570  -10.08520   -9999.25   -9999.25    2.30240  329.49570   -9999.25   -9999.25   -9999.25
 3899.00000   97.50920    3.08990  -10.31990   -9999.25   -9999.25    2.32920  323.71700   -9999.25   -9999.25   -9999.25
 3899.50000   93.48600    3.15120  -10.55460   -9999.25   -9999.25    2.39550  317.48150   -9999.25   -9999.25   -9999.25
 3900.00000   90.51500    3.24760  -10.78930   -9999.25   -9999.25    2.55130  308.19230   -9999.25   -9999.25   -9999.25
 3900.50000   87.41410    3.33650  -11.02400   -9999.25   -9999.25    2.70710  300.01790   -9999.25   -9999.25   -9999.25
 3901.00000   84.00780    3.42540  -11.25880   -9999.25   -9999.25    2.85900  291.95630   -9999.25   -9999.25   -9999.25
 3901.50000   80.60140    3.49970  -11.38090   -9999.25   -9999.25    3.02440  278.71040   -9999.25   -9999.25   -9999.25
 3902.00000   81.00610    3.57400  -11.56720   -9999.25   -9999.25    3.11730  264.41730   -9999.25   -9999.25   -9999.25
 3902.50000   84.06480    3.64830  -11.75400   -9999.25   -9999.25    3.18460  260.22260   -9999.25   -9999.25   -9999.25
 3903.00000   89.60230    3.70070  -11.70260   -9999.25   -9999.25    3.22840  260.75650   -9999.25   -9999.25   -9999.25
 3903.50000   92.53360    3.68680  -10.96060   -9999.25   -9999.25    3.25750  263.18380   -9999.25   -9999.25   -9999.25
 3904.00000   93.16850    3.67300   -9.61470   -9999.25   -9999.25    3.22860  266.92270   -9999.25   -9999.25   -9999.25
 3904.50000   94.30710    3.65920   -7.78220   -9999.25   -9999.25    3.19630  269.74220   -9999.25   -9999.25   -9999.25
