~Version ---------------------------------------------------
VERS.   2.0 : CWLS log ASCII Standard -VERSION 2.0
WRAP.    NO : One line per depth step
DLM . SPACE : Column Data Section Delimiter
~Well ------------------------------------------------------
STRT .F                  836.0 : START DEPTH
STOP .F                 8477.0 : STOP DEPTH
STEP .F                    0.5 : STEP
NULL .                -9999.25 : NULL VALUE
COMP .                         : COMPANY
WELL .                         : WELL
FLD  .                         : FIELD
LOC  .                         : LOCATION
PROV .                         : PROVINCE
CNTY .                         : COUNTY
STAT .                         : STATE
CTRY .                         : COUNTRY
SRVC .                         : SERVICE COMPANY
DATE .                         : DATE
UWI  .                         : UNIQUE WELL ID
API  .                         : API NUMBER
SLAT .WGS84    5.1065078621168 : SURFACE LATITUDE
SLON .WGS84 2.1785651349902793 : SURFACE LONGITUDE
DATUM.F                  994.6 : DEPTH DATUM ELEV
~Curve Information -----------------------------------------
DEPT   .F     : 1 MEASURED DEPTH
GRR    .GAPI  : GAMMA RAY FROM RESISTIVITY LOG
ILD    .OHMM  : INDUCTION DEEP RESISTIVITY
SPR    .MV    : SPONTANEOUS POTENTIAL FROM RESISTIVITY LOG
ILM    .OHMM  : INDUCTION MEDIUM RESISTIVITY
SFLU   .OHMM  : SHALLOW FOCUSED RESISTIVITY (UNAVERAGED)
SFLA   .OHMM  : SPHERICALLY FOCUSED LOG RESISTIVITY AVERAGED OVER 2.5 FT
CILD   .MMHO  : INDUCTION DEEP CONDUCTIVITY
NPHI_LS.DEC   : NEUTRON POROSITY LIMESTONE
DTCO   .US/F  : DELTA-T COMPRESSIONAL
DTSM   .US/F  : DELTA-T SHEAR
~Params ----------------------------------------------------
~Other -----------------------------------------------------
~ASCII -----------------------------------------------------
# ...
 2816.00000   44.31490    1.00220  -46.04340   -9999.25   -9999.25    3.31710  999.13920   -9999.25   -9999.25   -9999.25
 2816.50000   41.84790    1.03120  -45.79490   -9999.25   -9999.25    3.40880  971.27410   -9999.25   -9999.25   -9999.25
 2817.00000   40.84360    1.10510  -45.53430   -9999.25   -9999.25    3.55210  906.40290   -9999.25   -9999.25   -9999.25
 2817.50000   40.33210    1.23080  -44.31970   -9999.25   -9999.25    3.69530  813.63960   -9999.25   -9999.25   -9999.25
 2818.00000   38.24800    1.36330  -42.40440   -9999.25   -9999.25    3.83860  734.60600   -9999.25   -9999.25   -9999.25
 2818.50000   38.36660    1.49040  -40.13500   -9999.25   -9999.25    3.98190  672.39010   -9999.25   -9999.25   -9999.25
 2819.00000   46.87670    1.65190  -37.51090   -9999.25   -9999.25    4.05820  606.19000   -9999.25   -9999.25   -9999.25
 2819.50000   60.44350    1.85590  -31.83090   -9999.25   -9999.25    3.71360  539.33910   -9999.25   -9999.25   -9999.25
 2820.00000   67.45660    2.10810  -26.15090   -9999.25   -9999.25    3.30340  474.82320   -9999.25   -9999.25   -9999.25
 2820.50000   67.25270    2.35740  -20.17150   -9999.25   -9999.25    2.90160  424.58880   -9999.25   -9999.25   -9999.25
 2821.00000   66.93760    2.60760  -13.23110   -9999.25   -9999.25    2.51340  383.72580   -9999.25   -9999.25   -9999.25
 2821.50000   66.80810    2.80570   -8.49880   -9999.25   -9999.25    2.37780  356.42990   -9999.25   -9999.25   -9999.25
 2822.00000   67.08550    2.82180   -5.34860   -9999.25   -9999.25    2.36870  354.57130   -9999.25   -9999.25   -9999.25
 2822.50000   68.44220    2.78870   -3.80540   -9999.25   -9999.25    2.36540  358.78040   -9999.25   -9999.25   -9999.25
 2823.00000   70.52590    2.79010   -2.96770   -9999.25   -9999.25    2.36210  358.60530   -9999.25   -9999.25   -9999.25
 2823.50000   74.30850    2.85890   -2.13010   -9999.25   -9999.25    2.38480  349.97770   -9999.25   -9999.25   -9999.25
 2824.00000   76.31190    2.97260   -1.27150   -9999.25   -9999.25    2.51490  336.59380   -9999.25   -9999.25   -9999.25
 2824.50000   77.65750    3.11060   -0.30780   -9999.25   -9999.25    2.60210  321.65410   -9999.25   -9999.25   -9999.25
 2825.00000   79.40120    3.25450    0.67030   -9999.25   -9999.25    2.60580  307.63550   -9999.25   -9999.25   -9999.25
 2825.50000   82.24950    3.36820    1.64830   -9999.25   -9999.25    2.61360  297.05960   -9999.25   -9999.25   -9999.25
 2826.00000   87.44380    3.48330    2.29050   -9999.25   -9999.25    2.64120  287.23070   -9999.25   -9999.25   -9999.25
 2826.50000   95.06020    3.58860    2.49910   -9999.25   -9999.25    2.69350  278.86840   -9999.25   -9999.25   -9999.25
 2827.00000  102.68720    3.70280    2.69330   -9999.25   -9999.25    2.75000  270.17470   -9999.25   -9999.25   -9999.25
 2827.50000  106.97160    3.81610    2.88760   -9999.25   -9999.25    2.77760  261.96720   -9999.25   -9999.25   -9999.25
 2828.00000  102.54880    3.85870    3.08280   -9999.25   -9999.25    2.79350  259.14800   -9999.25   -9999.25   -9999.25
 2828.50000   99.89990    3.85540    3.30820   -9999.25   -9999.25    2.77320  259.48120   -9999.25   -9999.25   -9999.25
 2829.00000   98.44510    3.81840    3.53250   -9999.25   -9999.25    2.70860  262.00640   -9999.25   -9999.25   -9999.25
 2829.50000   96.82460    3.71960    3.75680   -9999.25   -9999.25    2.60730  268.97580   -9999.25   -9999.25   -9999.25
 2830.00000   94.67500    3.59860    3.76760   -9999.25   -9999.25    2.50960  278.01630   -9999.25   -9999.25   -9999.25
 2830.50000   88.05740    3.45310    3.41530   -9999.25   -9999.25    2.43200  290.26390   -9999.25   -9999.25   -9999.25
 2831.00000   80.22420    3.28250    3.16190   -9999.25   -9999.25    2.36690  303.62960   -9999.25   -9999.25   -9999.25
 2831.50000   85.62800    3.11180    2.90850   -9999.25   -9999.25    2.31610  319.65730   -9999.25   -9999.25   -9999.25
 2832.00000   93.53900    2.94120    3.06650   -9999.25   -9999.25    2.26410  339.92450   -9999.25   -9999.25   -9999.25
 2832.50000   94.64820    2.81480    3.43180   -9999.25   -9999.25    2.20430  355.28150   -9999.25   -9999.25   -9999.25
 2833.00000   90.86160    2.72830    4.31880   -9999.25   -9999.25    2.14940  366.74640   -9999.25   -9999.25   -9999.25
 2833.50000   87.57310    2.70000    5.00600   -9999.25   -9999.25    2.12020  370.57990   -9999.25   -9999.25   -9999.25
 2834.00000   88.92710    2.69220    5.33830   -9999.25   -9999.25    2.10190  371.65110   -9999.25   -9999.25   -9999.25
 2834.50000   93.54080    2.69430    5.33660   -9999.25   -9999.25    2.09200  371.39160   -9999.25   -9999.25   -9999.25
 2835.00000   94.76690    2.71930    5.18270   -9999.25   -9999.25    2.08200  367.93210   -9999.25   -9999.25   -9999.25
 2835.50000   91.34660    2.78000    5.02880   -9999.25   -9999.25    2.13590  360.12840   -9999.25   -9999.25   -9999.25
 2836.00000   87.17030    2.87690    4.90800   -9999.25   -9999.25    2.22830  346.10720   -9999.25   -9999.25   -9999.25
 2836.50000   81.30310    3.00660    5.09960   -9999.25   -9999.25    2.30940  332.73460   -9999.25   -9999.25   -9999.25
 2837.00000   75.51990    3.18040    5.34500   -9999.25   -9999.25    2.39060  314.56790   -9999.25   -9999.25   -9999.25
 2837.50000   75.49190    3.35090    5.64520   -9999.25   -9999.25    2.47300  298.55450   -9999.25   -9999.25   -9999.25
 2838.00000   80.67070    3.49190    5.94530   -9999.25   -9999.25    2.56170  286.34490   -9999.25   -9999.25   -9999.25
 2838.50000   86.21030    3.58430    6.23860   -9999.25   -9999.25    2.64060  279.11060   -9999.25   -9999.25   -9999.25
 2839.00000   91.74990    3.68440    6.37470   -9999.25   -9999.25    2.68400  271.47730   -9999.25   -9999.25   -9999.25
 2839.50000   94.63270    3.71780    6.02880   -9999.25   -9999.25    2.66410  269.08410   -9999.25   -9999.25   -9999.25
 2840.00000   92.85110    3.71120    5.56720   -9999.25   -9999.25    2.62180  269.57540   -9999.25   -9999.25   -9999.25
 2840.50000   89.35600    3.61900    5.11050   -9999.25   -9999.25    2.57750  276.48360   -9999.25   -9999.25   -9999.25
 2841.00000   85.86090    3.53180    4.71570   -9999.25   -9999.25    2.53000  283.28670   -9999.25   -9999.25   -9999.25
 2841.50000   82.56500    3.45120    4.31580   -9999.25   -9999.25    2.50270  289.89640   -9999.25   -9999.25   -9999.25
 2842.00000   83.13340    3.40180    3.88420   -9999.25   -9999.25    2.50490  294.11310   -9999.25   -9999.25   -9999.25
 2842.50000   89.79130    3.35880    3.45240   -9999.25   -9999.25    2.52090  297.87030   -9999.25   -9999.25   -9999.25
 2843.00000   95.72620    3.32830    3.01390   -9999.25   -9999.25    2.54160  300.60260   -9999.25   -9999.25   -9999.25
 2843.50000   95.64720    3.29550    2.51870   -9999.25   -9999.25    2.56240  303.59830   -9999.25   -9999.25   -9999.25
 2844.00000   92.30660    3.26810    1.97730   -9999.25   -9999.25    2.58290  306.13740   -9999.25   -9999.25   -9999.25
 2844.50000   90.09440    3.26500    1.84700   -9999.25   -9999.25    2.59030  306.42620   -9999.25   -9999.25   -9999.25
 2845.00000   89.44060    3.27950    1.81420   -9999.25   -9999.25    2.59770  305.23730   -9999.25   -9999.25   -9999.25
 2845.50000   89.33000    3.37470    1.93100   -9999.25   -9999.25    2.61520  296.43950   -9999.25   -9999.25   -9999.25
 2846.00000   89.21940    3.47440    2.27880   -9999.25   -9999.25    2.65500  287.89940   -9999.25   -9999.25   -9999.25
 2846.50000   86.75930    3.55370    2.67030   -9999.25   -9999.25    2.68790  281.51250   -9999.25   -9999.25   -9999.25
 2847.00000   86.81550    3.62030    2.67480   -9999.25   -9999.25    2.71920  276.32240   -9999.25   -9999.25   -9999.25
 2847.50000   92.39320    3.64990    2.31080   -9999.25   -9999.25    2.74020  274.09840   -9999.25   -9999.25   -9999.25
 2848.00000   97.97100    3.64770    1.65580   -9999.25   -9999.25    2.75850  274.26740   -9999.25   -9999.25   -9999.25
 2848.50000  103.54880    3.62580    1.19030   -9999.25   -9999.25    2.76930  275.87440   -9999.25   -9999.25   -9999.25
