~Version ---------------------------------------------------
VERS.   2.0 : CWLS log ASCII Standard -VERSION 2.0
WRAP.    NO : One line per depth step
DLM . SPACE : Column Data Section Delimiter
~Well ------------------------------------------------------
STRT .F                  836.0 : START DEPTH
STOP .F                 8477.0 : STOP DEPTH
STEP .F                    0.5 : STEP
NULL .                -9999.25 : NULL VALUE
COMP .                         : COMPANY
WELL .                         : WELL
FLD  .                         : FIELD
LOC  .                         : LOCATION
PROV .                         : PROVINCE
CNTY .                         : COUNTY
STAT .                         : STATE
CTRY .                         : COUNTRY
SRVC .                         : SERVICE COMPANY
DATE .                         : DATE
UWI  .                         : UNIQUE WELL ID
API  .                         : API NUMBER
SLAT .WGS84    5.1065078621168 : SURFACE LATITUDE
SLON .WGS84 2.1785651349902793 : SURFACE LONGITUDE
DATUM.F                  994.6 : DEPTH DATUM ELEV
~Curve Information -----------------------------------------
DEPT   .F     : 1 MEASURED DEPTH
GRR    .GAPI  : GAMMA RAY FROM RESISTIVITY LOG
ILD    .OHMM  : INDUCTION DEEP RESISTIVITY
SPR    .MV    : SPONTANEOUS POTENTIAL FROM RESISTIVITY LOG
ILM    .OHMM  : INDUCTION MEDIUM RESISTIVITY
SFLU   .OHMM  : SHALLOW FOCUSED RESISTIVITY (UNAVERAGED)
SFLA   .OHMM  : SPHERICALLY FOCUSED LOG RESISTIVITY AVERAGED OVER 2.5 FT
CILD   .MMHO  : INDUCTION DEEP CONDUCTIVITY
NPHI_LS.DEC   : NEUTRON POROSITY LIMESTONE
DTCO   .US/F  : DELTA-T COMPRESSIONAL
DTSM   .US/F  : DELTA-T SHEAR
~Params ----------------------------------------------------
~Other -----------------------------------------------------
~ASCII -----------------------------------------------------
# ...
 5423.00000   69.21420    7.22680   -5.87200   -9999.25   -9999.25    6.99860  138.33100   -9999.25   -9999.25   -9999.25
 5423.50000   75.92180    6.93790   -6.74410   -9999.25   -9999.25    6.76830  144.09460   -9999.25   -9999.25   -9999.25
 5424.00000   80.00190    6.74440   -7.35020   -9999.25   -9999.25    6.40030  148.25300   -9999.25   -9999.25   -9999.25
 5424.50000   80.55630    6.47710   -7.61330   -9999.25   -9999.25    6.03620  154.33100   -9999.25   -9999.25   -9999.25
 5425.00000   80.95740    5.99370   -7.26050   -9999.25   -9999.25    5.71150  166.76650   -9999.25   -9999.25   -9999.25
 5425.50000   81.08480    5.50770   -6.36210   -9999.25   -9999.25    5.46730  181.48860   -9999.25   -9999.25   -9999.25
 5426.00000   81.49880    5.18160   -4.94230   -9999.25   -9999.25    5.32860  192.95040   -9999.25   -9999.25   -9999.25
 5426.50000   84.03400    4.99840   -3.61540   -9999.25   -9999.25    5.34800  200.03500   -9999.25   -9999.25   -9999.25
 5427.00000   87.88250    4.90850   -1.75550   -9999.25   -9999.25    5.33340  203.71080   -9999.25   -9999.25   -9999.25
 5427.50000   90.19450    4.85020   -0.29870   -9999.25   -9999.25    5.34220  206.17240   -9999.25   -9999.25   -9999.25
 5428.00000   85.28000    4.83290    0.71900   -9999.25   -9999.25    5.23100  206.90710   -9999.25   -9999.25   -9999.25
 5428.50000   80.35890    4.84410    1.73670   -9999.25   -9999.25    5.04190  206.44590   -9999.25   -9999.25   -9999.25
 5429.00000   75.43790    4.89390    2.75440   -9999.25   -9999.25    4.85280  204.35080   -9999.25   -9999.25   -9999.25
 5429.50000   70.51690    4.95980    3.75330   -9999.25   -9999.25    4.70650  201.63890   -9999.25   -9999.25   -9999.25
 5430.00000   69.17110    5.04400    4.56610   -9999.25   -9999.25    4.70220  198.26730   -9999.25   -9999.25   -9999.25
 5430.50000   70.39030    5.13150    5.01270   -9999.25   -9999.25    4.78460  194.89580   -9999.25   -9999.25   -9999.25
 5431.00000   73.31110    5.22170    4.35190   -9999.25   -9999.25    4.85560  191.52420   -9999.25   -9999.25   -9999.25
 5431.50000   75.21230    5.33410    3.02680   -9999.25   -9999.25    4.92660  187.49400   -9999.25   -9999.25   -9999.25
 5432.00000   76.66120    5.41210    1.49850   -9999.25   -9999.25    4.97380  184.76960   -9999.25   -9999.25   -9999.25
 5432.50000   77.00400    5.42230    0.12630   -9999.25   -9999.25    4.97170  184.42250   -9999.25   -9999.25   -9999.25
 5433.00000   76.94560    5.36770   -0.39660   -9999.25   -9999.25    4.95970  186.23570   -9999.25   -9999.25   -9999.25
 5433.50000   77.42840    5.16400   -0.91020   -9999.25   -9999.25    4.91820  193.62070   -9999.25   -9999.25   -9999.25
 5434.00000   82.05530    5.00050   -0.77650   -9999.25   -9999.25    4.78820  199.96530   -9999.25   -9999.25   -9999.25
 5434.50000   84.13330    4.92110   -0.11740   -9999.25   -9999.25    4.54190  203.19260   -9999.25   -9999.25   -9999.25
 5435.00000   80.08440    4.76110    0.54170   -9999.25   -9999.25    4.38650  210.01820   -9999.25   -9999.25   -9999.25
 5435.50000   75.92140    4.65080    1.75660   -9999.25   -9999.25    4.32300  215.00320   -9999.25   -9999.25   -9999.25
 5436.00000   76.49130    4.56410    2.93410   -9999.25   -9999.25    4.25950  219.06870   -9999.25   -9999.25   -9999.25
 5436.50000   81.40800    4.37960    3.70760   -9999.25   -9999.25    4.16810  228.27110   -9999.25   -9999.25   -9999.25
 5437.00000   85.16400    4.22290    3.85050   -9999.25   -9999.25    4.05020  236.70850   -9999.25   -9999.25   -9999.25
 5437.50000   85.87740    4.10820    3.71250   -9999.25   -9999.25    3.95130  243.39490   -9999.25   -9999.25   -9999.25
 5438.00000   86.70560    4.03360    3.57450   -9999.25   -9999.25    3.87890  248.63360   -9999.25   -9999.25   -9999.25
 5438.50000   90.02040    4.00810    3.43660   -9999.25   -9999.25    3.81160  249.85610   -9999.25   -9999.25   -9999.25
 5439.00000   93.80160    3.98260    3.30940   -9999.25   -9999.25    3.74610  249.07300   -9999.25   -9999.25   -9999.25
 5439.50000   95.08660    4.00330    2.72490   -9999.25   -9999.25    3.68070  238.59530   -9999.25   -9999.25   -9999.25
 5440.00000   87.72020    4.10930    1.70310   -9999.25   -9999.25    3.73020  221.48160   -9999.25   -9999.25   -9999.25
 5440.50000   79.34680    4.44690    0.89790   -9999.25   -9999.25    4.08200  207.61270   -9999.25   -9999.25   -9999.25
 5441.00000   70.54210    4.81580    0.60620   -9999.25   -9999.25    4.59260  199.71280   -9999.25   -9999.25   -9999.25
 5441.50000   72.84680    5.18470    0.32360   -9999.25   -9999.25    5.10330  191.06970   -9999.25   -9999.25   -9999.25
 5442.00000   76.90100    5.51460    0.04100   -9999.25   -9999.25    5.60940  181.72660   -9999.25   -9999.25   -9999.25
 5442.50000   80.94030    5.81430   -0.30250   -9999.25   -9999.25    5.72170  171.88140   -9999.25   -9999.25   -9999.25
 5443.00000   82.48970    5.97080   -0.74070   -9999.25   -9999.25    5.69410  164.36700   -9999.25   -9999.25   -9999.25
 5443.50000   82.69370    5.95930   -1.20620   -9999.25   -9999.25    5.53640  163.89600   -9999.25   -9999.25   -9999.25
 5444.00000   82.39600    5.79910   -0.79050   -9999.25   -9999.25    5.21180  171.45730   -9999.25   -9999.25   -9999.25
 5444.50000   80.30990    5.48790   -0.44740   -9999.25   -9999.25    4.86980  180.12570   -9999.25   -9999.25   -9999.25
 5445.00000   77.60340    5.19400    0.03870   -9999.25   -9999.25    4.55490  192.52960   -9999.25   -9999.25   -9999.25
 5445.50000   74.04250    4.96580    0.94520   -9999.25   -9999.25    4.36180  201.37440   -9999.25   -9999.25   -9999.25
 5446.00000   72.10540    4.78370    1.62600   -9999.25   -9999.25    4.26650  209.04790   -9999.25   -9999.25   -9999.25
 5446.50000   72.10650    4.68990    2.24260   -9999.25   -9999.25    4.21850  213.22300   -9999.25   -9999.25   -9999.25
 5447.00000   73.71970    4.65950    2.30790   -9999.25   -9999.25    4.22880  214.61230   -9999.25   -9999.25   -9999.25
 5447.50000   77.41690    4.68290    2.36160   -9999.25   -9999.25    4.27100  213.53730   -9999.25   -9999.25   -9999.25
 5448.00000   81.47210    4.74620    2.42250   -9999.25   -9999.25    4.31310  210.69120   -9999.25   -9999.25   -9999.25
 5448.50000   84.94710    4.81970    1.68220   -9999.25   -9999.25    4.35520  207.46210   -9999.25   -9999.25   -9999.25
 5449.00000   87.77520    4.87760    1.05580   -9999.25   -9999.25    4.39730  205.01770   -9999.25   -9999.25   -9999.25
 5449.50000   89.89320    4.86680    0.42950   -9999.25   -9999.25    4.40840  205.47380   -9999.25   -9999.25   -9999.25
 5450.00000   89.89230    4.84450   -0.19690   -9999.25   -9999.25    4.40810  206.37330   -9999.25   -9999.25   -9999.25
 5450.50000   87.37720    4.82310   -0.72290   -9999.25   -9999.25    4.38180  207.27280   -9999.25   -9999.25   -9999.25
 5451.00000   84.27180    4.79990   -0.76240   -9999.25   -9999.25    4.35290  208.27320   -9999.25   -9999.25   -9999.25
 5451.50000   81.11060    4.77570   -0.60320   -9999.25   -9999.25    4.32400  209.32680   -9999.25   -9999.25   -9999.25
 5452.00000   77.87850    4.74350   -0.28790   -9999.25   -9999.25    4.29500  210.74530   -9999.25   -9999.25   -9999.25
 5452.50000   75.62070    4.69550    0.57690   -9999.25   -9999.25    4.26610  212.89780   -9999.25   -9999.25   -9999.25
 5453.00000   76.61660    4.66250    1.63310   -9999.25   -9999.25    4.24040  215.58200   -9999.25   -9999.25   -9999.25
 5453.50000   79.02310    4.63120    2.25720   -9999.25   -9999.25    4.22700  217.89690   -9999.25   -9999.25   -9999.25
 5454.00000   78.06150    4.59990    2.19310   -9999.25   -9999.25    4.21360  217.94110   -9999.25   -9999.25   -9999.25
 5454.50000   76.69740    4.56860    1.93890   -9999.25   -9999.25    4.20020  217.37920   -9999.25   -9999.25   -9999.25
 5455.00000   77.15820    4.53730    1.66740   -9999.25   -9999.25    4.18680  216.19400   -9999.25   -9999.25   -9999.25
 5455.50000   79.01650    4.50600    1.36030   -9999.25   -9999.25    4.17340  215.26090   -9999.25   -9999.25   -9999.25
