~Version ---------------------------------------------------
VERS.   2.0 : CWLS log ASCII Standard -VERSION 2.0
WRAP.    NO : One line per depth step
DLM . SPACE : Column Data Section Delimiter
~Well ------------------------------------------------------
STRT .F                  836.0 : START DEPTH
STOP .F                 8477.0 : STOP DEPTH
STEP .F                    0.5 : STEP
NULL .                -9999.25 : NULL VALUE
COMP .                         : COMPANY
WELL .                         : WELL
FLD  .                         : FIELD
LOC  .                         : LOCATION
PROV .                         : PROVINCE
CNTY .                         : COUNTY
STAT .                         : STATE
CTRY .                         : COUNTRY
SRVC .                         : SERVICE COMPANY
DATE .                         : DATE
UWI  .                         : UNIQUE WELL ID
API  .                         : API NUMBER
SLAT .WGS84    5.1065078621168 : SURFACE LATITUDE
SLON .WGS84 2.1785651349902793 : SURFACE LONGITUDE
DATUM.F                  994.6 : DEPTH DATUM ELEV
~Curve Information -----------------------------------------
DEPT   .F     : 1 MEASURED DEPTH
GRR    .GAPI  : GAMMA RAY FROM RESISTIVITY LOG
ILD    .OHMM  : INDUCTION DEEP RESISTIVITY
SPR    .MV    : SPONTANEOUS POTENTIAL FROM RESISTIVITY LOG
ILM    .OHMM  : INDUCTION MEDIUM RESISTIVITY
SFLU   .OHMM  : SHALLOW FOCUSED RESISTIVITY (UNAVERAGED)
SFLA   .OHMM  : SPHERICALLY FOCUSED LOG RESISTIVITY AVERAGED OVER 2.5 FT
CILD   .MMHO  : INDUCTION DEEP CONDUCTIVITY
NPHI_LS.DEC   : NEUTRON POROSITY LIMESTONE
DTCO   .US/F  : DELTA-T COMPRESSIONAL
DTSM   .US/F  : DELTA-T SHEAR
~Params ----------------------------------------------------
~Other -----------------------------------------------------
~ASCII -----------------------------------------------------
# ...
 7271.00000   94.69290    7.34840    2.79100    7.29870    6.96890   -9999.25   -9999.25    0.35720   60.89560  135.19750
 7271.50000   93.92100    7.38590    2.78610    7.25660    6.94270   -9999.25   -9999.25    0.35200   63.57200  141.74120
 7272.00000   94.45280    7.32770    2.85230    7.19200    7.00320   -9999.25   -9999.25    0.35530   66.62930  148.60000
 7272.50000   97.57710    7.18960    2.79730    7.01740    7.03660   -9999.25   -9999.25    0.36170   70.07310  155.56490
 7273.00000  100.17010    7.08280    2.78270    6.70890    6.94570   -9999.25   -9999.25    0.36810   72.84460  162.94440
 7273.50000  103.36810    6.97760    2.77250    6.25330    6.76350   -9999.25   -9999.25    0.38720   75.63150  169.00720
 7274.00000  106.03160    6.86240    2.76870    5.92870    6.60420   -9999.25   -9999.25    0.41010   77.33540  172.66920
 7274.50000  104.60470    6.70830    2.76500    5.78000    6.55310   -9999.25   -9999.25    0.45070   77.50980  173.14450
 7275.00000   98.59090    6.55760    2.76120    5.75380    6.46640   -9999.25   -9999.25    0.47410   77.18980  172.20440
 7275.50000   92.38480    6.41040    3.47240    5.72600    6.29070   -9999.25   -9999.25    0.47610   76.65170  170.80460
 7276.00000   90.96530    6.26830    4.32220    5.62130    6.11980   -9999.25   -9999.25    0.47560   76.13560  169.40490
 7276.50000   95.09190    6.12360    4.78870    5.46380    5.95350   -9999.25   -9999.25    0.47450   75.49140  169.02700
 7277.00000  100.12200    5.98230    4.96740    5.31070    5.79370   -9999.25   -9999.25    0.48460   75.28690  168.82740
 7277.50000  104.03180    5.84740    4.93200    5.22340    5.68970   -9999.25   -9999.25    0.50260   75.82030  164.66060
 7278.00000  102.62700    5.72150    4.75350    5.24380    5.58770   -9999.25   -9999.25    0.51890   75.63120  151.58650
 7278.50000   98.49640    5.59840    5.09390    5.28660    5.53080   -9999.25   -9999.25    0.53110   73.50420  136.41140
 7279.00000   98.95110    5.46890    5.67040    5.03580    5.40090   -9999.25   -9999.25    0.53230   71.82020  129.78020
 7279.50000  104.18980    5.42430    6.16190    4.79130    5.22350   -9999.25   -9999.25    0.52270   70.83510  130.02370
 7280.00000  110.29740    5.52170    6.55040    4.63630    5.05280   -9999.25   -9999.25    0.50860   70.01550  134.55970
 7280.50000  111.37210    5.75010    6.78600    4.69580    4.94330   -9999.25   -9999.25    0.46510   69.29160  140.94440
 7281.00000  104.54470    5.98800    5.99950    5.25280    5.01080   -9999.25   -9999.25    0.42560   69.11300  149.30470
 7281.50000   95.04210    6.23580    5.07160    6.05550    5.37010   -9999.25   -9999.25    0.38480   69.38640  154.73560
 7282.00000   89.70290    6.51820    2.93060    6.79930    5.92850   -9999.25   -9999.25    0.35030   69.98460  156.93820
 7282.50000   91.18040    6.82750    1.03380    6.65210    6.72770   -9999.25   -9999.25    0.33460   70.62620  158.32730
 7283.00000   93.98360    7.15140   -0.82000    6.15300    7.50710   -9999.25   -9999.25    0.34610   71.29550  159.44760
 7283.50000   94.63940    7.34060   -1.49200    5.92880    7.51680   -9999.25   -9999.25    0.37290   71.96700  160.89480
 7284.00000   95.21350    7.18930   -1.86520    5.95200    7.20220   -9999.25   -9999.25    0.39840   73.28800  163.55740
 7284.50000   95.70460    6.98900   -2.43780    5.95270    6.92480   -9999.25   -9999.25    0.41590   75.00330  168.24120
 7285.00000   95.66990    6.77950   -2.45220    5.91770    6.62640   -9999.25   -9999.25    0.42960   77.49200  172.74680
 7285.50000   95.24300    6.46600   -2.11950    5.85050    6.23690   -9999.25   -9999.25    0.43870   78.66140  176.25560
 7286.00000   95.78510    6.21770   -0.84130    5.78410    5.88950   -9999.25   -9999.25    0.44810   78.30480  175.25990
 7286.50000   97.80030    6.03580    0.14410    5.69710    5.61980   -9999.25   -9999.25    0.45830   77.51860  174.22700
 7287.00000   99.96130    5.94530    1.33610    5.60820    5.50190   -9999.25   -9999.25    0.46730   77.14690  174.19140
 7287.50000  100.02660    5.92170    2.43740    5.48970    5.39320   -9999.25   -9999.25    0.46690   77.14470  174.46420
 7288.00000   96.45800    5.84890    2.69660    5.37500    5.46910   -9999.25   -9999.25    0.45320   77.80410  175.13060
 7288.50000   91.21680    5.77920    2.51230    5.28460    5.66890   -9999.25   -9999.25    0.43820   78.58610  175.54450
 7289.00000   89.22540    5.81380    1.88420    5.18920    5.72190   -9999.25   -9999.25    0.42400   78.11270  174.55840
 7289.50000   90.10280    5.84840    1.68120    5.05820    5.72850   -9999.25   -9999.25    0.41110   76.67840  172.56730
 7290.00000   91.59750    5.86310    3.02530    4.98600    5.50980   -9999.25   -9999.25    0.41300   74.73240  169.31400
 7290.50000   93.48190    5.83390    4.46820    5.01540    5.35170   -9999.25   -9999.25    0.43490   74.36890  166.83190
 7291.00000   98.87520    5.72400    5.80060    5.08420    5.25980   -9999.25   -9999.25    0.45950   75.81770  168.78360
 7291.50000  105.41320    5.55750    5.95420    5.12880    5.22720   -9999.25   -9999.25    0.48270   78.27820  171.56640
 7292.00000  106.38400    5.39110    5.65980    4.94050    5.24300   -9999.25   -9999.25    0.50470   80.66610  173.15090
 7292.50000  101.78480    5.25590    5.31920    4.77780    5.05800   -9999.25   -9999.25    0.52330   80.92650  172.93700
 7293.00000   95.56670    5.13140    4.97860    4.69640    4.97240   -9999.25   -9999.25    0.53490   80.63920  169.65750
 7293.50000   91.33120    5.07520    4.94590    4.64470    4.96980   -9999.25   -9999.25    0.53190   79.87720  163.32210
 7294.00000   89.35130    4.99720    5.11000    4.58820    4.84270   -9999.25   -9999.25    0.52060   78.14710  155.78250
 7294.50000   87.78630    4.91610    4.85310    4.47860    4.70850   -9999.25   -9999.25    0.50690   76.82990  148.23600
 7295.00000   86.51570    4.85380    4.74940    4.40080    4.62640   -9999.25   -9999.25    0.49890   76.91060  140.74360
 7295.50000   84.50020    4.84840    4.79740    4.39620    4.61190   -9999.25   -9999.25    0.49190   77.45290  137.16310
 7296.00000   84.25660    4.86300    4.86570    4.42770    4.63780   -9999.25   -9999.25    0.48800   78.14640  140.57690
 7296.50000   88.34530    4.87240    4.92100    4.45050    4.72730   -9999.25   -9999.25    0.48530   80.78600  148.85090
 7297.00000   93.84060    4.82860    4.76950    4.44710    4.64540   -9999.25   -9999.25    0.48330   84.00510  154.24750
 7297.50000   98.25120    4.72000    3.74410    4.44370    4.58490   -9999.25   -9999.25    0.46190   85.11310  155.15420
 7298.00000  100.65050    4.61380    2.71870    4.44030    4.51040   -9999.25   -9999.25    0.43010   85.02910  150.31780
 7298.50000  105.31290    4.54760    1.52420    4.43170    4.41800   -9999.25   -9999.25    0.41440   84.87590  146.62030
 7299.00000  111.63270    4.47400    0.13890    4.40590    4.36080   -9999.25   -9999.25    0.41570   86.07380  145.14190
 7299.50000  113.97760    4.50250   -1.48470    4.40500    4.34150   -9999.25   -9999.25    0.41600   88.42050  145.62000
 7300.00000  111.98960    4.83720   -4.37280    4.91590    4.36240   -9999.25   -9999.25    0.39080   90.34010  144.94220
 7300.50000  103.64910    5.34250   -7.59050    5.63790    4.39330   -9999.25   -9999.25    0.30820   89.17580  140.93000
 7301.00000   92.81990    5.40410  -12.50080    6.44420    4.81940   -9999.25   -9999.25    0.22550   83.28560  128.80620
 7301.50000   77.79370    5.17860  -16.75500    6.89010    6.05560   -9999.25   -9999.25    0.14130   74.54300  112.86030
 7302.00000   61.08040    4.81880  -22.59790    6.15110    7.72620   -9999.25   -9999.25    0.12450   70.03580  104.43010
 7302.50000   49.50430    4.54700  -29.34530    5.05900    7.28030   -9999.25   -9999.25    0.13730   66.66440  109.12110
 7303.00000   49.22460    4.24220  -35.44920    4.42630    5.60480   -9999.25   -9999.25    0.15160   66.85180  115.49080
 7303.50000   52.52160    3.91910  -39.89360    3.87270    4.23900   -9999.25   -9999.25    0.15150   68.09400  116.61010
