~Version ---------------------------------------------------
VERS.   2.0 : CWLS log ASCII Standard -VERSION 2.0
WRAP.    NO : One line per depth step
DLM . SPACE : Column Data Section Delimiter
~Well ------------------------------------------------------
STRT .F                  836.0 : START DEPTH
STOP .F                 8477.0 : STOP DEPTH
STEP .F                    0.5 : STEP
NULL .                -9999.25 : NULL VALUE
COMP .                         : COMPANY
WELL .                         : WELL
FLD  .                         : FIELD
LOC  .                         : LOCATION
PROV .                         : PROVINCE
CNTY .                         : COUNTY
STAT .                         : STATE
CTRY .                         : COUNTRY
SRVC .                         : SERVICE COMPANY
DATE .                         : DATE
UWI  .                         : UNIQUE WELL ID
API  .                         : API NUMBER
SLAT .WGS84    5.1065078621168 : SURFACE LATITUDE
SLON .WGS84 2.1785651349902793 : SURFACE LONGITUDE
DATUM.F                  994.6 : DEPTH DATUM ELEV
~Curve Information -----------------------------------------
DEPT   .F     : 1 MEASURED DEPTH
GRR    .GAPI  : GAMMA RAY FROM RESISTIVITY LOG
ILD    .OHMM  : INDUCTION DEEP RESISTIVITY
SPR    .MV    : SPONTANEOUS POTENTIAL FROM RESISTIVITY LOG
ILM    .OHMM  : INDUCTION MEDIUM RESISTIVITY
SFLU   .OHMM  : SHALLOW FOCUSED RESISTIVITY (UNAVERAGED)
SFLA   .OHMM  : SPHERICALLY FOCUSED LOG RESISTIVITY AVERAGED OVER 2.5 FT
CILD   .MMHO  : INDUCTION DEEP CONDUCTIVITY
NPHI_LS.DEC   : NEUTRON POROSITY LIMESTONE
DTCO   .US/F  : DELTA-T COMPRESSIONAL
DTSM   .US/F  : DELTA-T SHEAR
~Params ----------------------------------------------------
~Other -----------------------------------------------------
~ASCII -----------------------------------------------------
# ...
 7700.00000   33.00110    3.20850  -82.42360    5.00510   18.75950   -9999.25   -9999.25    0.11430   67.27070  107.24330
 7700.50000   34.14680    3.25400  -82.77570    4.98690   18.53270   -9999.25   -9999.25    0.11560   67.00000  104.17090
 7701.00000   34.00590    3.30050  -82.97450    4.96340   18.77310   -9999.25   -9999.25    0.11100   66.39750  102.87520
 7701.50000   33.65060    3.34770  -83.05140    4.94280   19.55600   -9999.25   -9999.25    0.10570   65.75910  103.09330
 7702.00000   33.04130    3.40070  -83.63140    4.98110   20.40610   -9999.25   -9999.25    0.10090   64.84290  103.23660
 7702.50000   32.42350    3.48050  -84.00350    5.16070   20.77120   -9999.25   -9999.25    0.09940   63.70770  102.07840
 7703.00000   31.87140    3.58990  -83.52350    5.29750   21.16710   -9999.25   -9999.25    0.09560   62.26950   99.23220
 7703.50000   31.27700    3.71530  -82.79890    5.58380   21.96720   -9999.25   -9999.25    0.09060   60.94860   97.67670
 7704.00000   30.12080    3.86480  -81.76710    5.96420   23.57350   -9999.25   -9999.25    0.08790   59.06040   97.01450
 7704.50000   28.38550    3.92260  -80.35120    6.26080   24.89770   -9999.25   -9999.25    0.08920   57.01700   96.41070
 7705.00000   27.26320    3.89100  -78.17560    6.42290   24.91600   -9999.25   -9999.25    0.09570   55.20680   93.47520
 7705.50000   30.72560    3.80940  -75.05040    6.36720   24.26540   -9999.25   -9999.25    0.11440   55.65680   90.10420
 7706.00000   41.48330    3.72250  -71.27680    5.62670   19.54750   -9999.25   -9999.25    0.14060   63.62890   97.09400
 7706.50000   56.86050    3.64250  -67.42250    5.16010   13.14130   -9999.25   -9999.25    0.16440   76.63850  114.14450
 7707.00000   66.32770    3.56630  -64.32740    4.97840    7.72610   -9999.25   -9999.25    0.16720   81.90610  124.53110
 7707.50000   67.01430    3.44220  -62.59040    5.01900    6.11850   -9999.25   -9999.25    0.15440   80.74010  125.97070
 7708.00000   58.38860    3.32240  -63.93530    5.29760    7.43910   -9999.25   -9999.25    0.13600   78.97140  124.90350
 7708.50000   43.84330    3.20930  -68.20350    5.15390   11.11750   -9999.25   -9999.25    0.12290   75.37420  121.63180
 7709.00000   33.16330    3.10550  -73.51470    5.02450   16.04110   -9999.25   -9999.25    0.11190   72.07880  116.54110
 7709.50000   27.65040    3.07360  -80.16740    4.97560   19.00210   -9999.25   -9999.25    0.10540   70.05430  114.86620
 7710.00000   27.43760    3.04230  -85.14020    4.92710   19.88150   -9999.25   -9999.25    0.09760   67.65840  114.13700
 7710.50000   27.22180    3.02530  -88.50280    4.87030   20.77710   -9999.25   -9999.25    0.09030   66.27230  113.41730
 7711.00000   25.61020    3.01420  -91.54140    4.80970   21.27070   -9999.25   -9999.25    0.08870   65.35310  109.08420
 7711.50000   24.48560    3.00410  -92.85310    4.74900   21.02370   -9999.25   -9999.25    0.09260   64.72230  107.29470
 7712.00000   24.59770    2.98570  -93.68480    4.68900   20.00540   -9999.25   -9999.25    0.09680   64.31880  108.36670
 7712.50000   25.30720    2.96730  -94.51280    4.65970   18.99310   -9999.25   -9999.25    0.10020   64.11950  108.06140
 7713.00000   25.90100    2.97120  -95.13490    4.64470   18.77250   -9999.25   -9999.25    0.09870   63.62100  106.97920
 7713.50000   26.80460    3.00760  -94.83030    4.75110   19.00180   -9999.25   -9999.25    0.09330   63.33120  104.24590
 7714.00000   27.58150    3.08690  -93.87870    4.89260   19.82640   -9999.25   -9999.25    0.09180   62.53340  101.06260
 7714.50000   28.22910    3.17710  -91.91010    5.03820   20.55780   -9999.25   -9999.25    0.09010   62.09160  100.46760
 7715.00000   28.80580    3.34610  -89.68510    5.16570   20.66810   -9999.25   -9999.25    0.08610   61.90750  104.72630
 7715.50000   29.17070    3.50350  -86.91950    5.30540   20.59710   -9999.25   -9999.25    0.08060   61.44640  110.93550
 7716.00000   28.13140    3.63190  -84.15870    5.53010   20.92140   -9999.25   -9999.25    0.07680   59.35200  115.79150
 7716.50000   25.74510    3.76050  -81.46480    5.76440   22.01040   -9999.25   -9999.25    0.08390   56.29990  113.33410
 7717.00000   26.59350    3.89370  -78.52370    5.82030   22.14640   -9999.25   -9999.25    0.09420   54.51660  114.03000
 7717.50000   31.94560    4.03150  -74.90300    5.85830   18.91270   -9999.25   -9999.25    0.10460   59.09380  125.44930
 7718.00000   36.90630    4.20080  -70.37380    5.93810   14.60030   -9999.25   -9999.25    0.11200   67.33350  141.28950
 7718.50000   41.43040    4.40560  -64.44550    6.09280   11.44530   -9999.25   -9999.25    0.11440   73.66850  149.41180
 7719.00000   49.05510    4.60800  -60.71380    6.28950   10.31670   -9999.25   -9999.25    0.11410   76.16800  153.47740
 7719.50000   56.25210    4.80380  -58.57300    6.64530    9.77760   -9999.25   -9999.25    0.10320   75.92970  152.49840
 7720.00000   54.52220    4.97850  -57.26600    7.95610   11.06140   -9999.25   -9999.25    0.07870   74.42550  148.29650
 7720.50000   39.99310    5.07650  -58.76250    8.69320   16.51250   -9999.25   -9999.25    0.06250   72.02050  144.71100
 7721.00000   26.78760    5.06380  -61.51370    9.20370   30.31460   -9999.25   -9999.25    0.05710   68.17870  141.31940
 7721.50000   22.20560    4.98440  -64.74220    8.63370   45.36320   -9999.25   -9999.25    0.06310   63.67570  136.87520
 7722.00000   22.92580    4.90570  -67.97080    8.11030   49.59570   -9999.25   -9999.25    0.07200   62.36740  134.87710
 7722.50000   27.50230    4.75630  -70.15030    7.64550   40.92700   -9999.25   -9999.25    0.08810   62.09550  133.04610
 7723.00000   36.83450    4.61140  -71.35060    7.22450   33.43910   -9999.25   -9999.25    0.10630   62.56380  129.35370
 7723.50000   45.87340    4.47100  -72.42180    6.85640   27.95940   -9999.25   -9999.25    0.10770   62.99000  122.52040
 7724.00000   48.67280    4.32560  -73.35020    6.61870   24.52320   -9999.25   -9999.25    0.09480   62.28380  111.97290
 7724.50000   40.25440    4.18130  -74.08330    6.47840   23.59680   -9999.25   -9999.25    0.08290   61.10140  100.61210
 7725.00000   30.35860    4.15780  -74.19830    6.52460   24.24080   -9999.25   -9999.25    0.07070   60.43740   96.24820
 7725.50000   24.15430    4.14670  -74.27910    6.78660   25.84590   -9999.25   -9999.25    0.06370   59.78310   94.50740
 7726.00000   22.73390    4.13570  -73.38100    6.91350   27.36360   -9999.25   -9999.25    0.05870   58.88380   93.76820
 7726.50000   22.04620    4.12480  -72.33440    7.04290   28.67980   -9999.25   -9999.25    0.05880   56.15400   93.12280
 7727.00000   22.31650    4.08450  -69.58720    6.99580   29.02620   -9999.25   -9999.25    0.06300   51.70930   92.18340
 7727.50000   25.12570    4.04180  -66.18550    6.55430   27.58270   -9999.25   -9999.25    0.08590   48.03330   91.22660
 7728.00000   31.39330    4.05940  -62.60620    5.90200   20.08000   -9999.25   -9999.25    0.13250   47.50770   90.29210
 7728.50000   37.52810    4.12890  -59.02690    5.59970   12.58350   -9999.25   -9999.25    0.17040   48.03450   89.73490
 7729.00000   40.98370    4.19950  -55.53500    5.84850    8.45620   -9999.25   -9999.25    0.16190   49.71470   89.94170
 7729.50000   41.20250    4.30670  -53.52590    6.12970    9.22990   -9999.25   -9999.25    0.13460   53.00340   90.21060
 7730.00000   39.05200    4.44660  -53.79910    6.39580   13.84330   -9999.25   -9999.25    0.10050   54.80940   88.72500
 7730.50000   33.29830    4.59130  -54.62680    6.67700   21.18860   -9999.25   -9999.25    0.07400   56.08070   87.05430
 7731.00000   29.85310    4.89690  -55.21260    6.97540   28.04170   -9999.25   -9999.25    0.06280   58.69670   89.59020
 7731.50000   34.52140    5.27300  -55.50660    7.21090   33.67520   -9999.25   -9999.25    0.07920   62.14210   92.55600
 7732.00000   45.95710    5.67800  -52.90970    7.29010   35.02530   -9999.25   -9999.25    0.10610   64.75360   94.32750
 7732.50000   61.04790    6.13290  -49.81930    7.39220   26.98180   -9999.25   -9999.25    0.13300   65.48380   94.81520
