~Version ---------------------------------------------------
VERS.   2.0 : CWLS log ASCII Standard -VERSION 2.0
WRAP.    NO : One line per depth step
DLM . SPACE : Column Data Section Delimiter
~Well ------------------------------------------------------
STRT .F                  836.0 : START DEPTH
STOP .F                 8477.0 : STOP DEPTH
STEP .F                    0.5 : STEP
NULL .                -9999.25 : NULL VALUE
COMP .                         : COMPANY
WELL .                         : WELL
FLD  .                         : FIELD
LOC  .                         : LOCATION
PROV .                         : PROVINCE
CNTY .                         : COUNTY
STAT .                         : STATE
CTRY .                         : COUNTRY
SRVC .                         : SERVICE COMPANY
DATE .                         : DATE
UWI  .                         : UNIQUE WELL ID
API  .                         : API NUMBER
SLAT .WGS84    5.1065078621168 : SURFACE LATITUDE
SLON .WGS84 2.1785651349902793 : SURFACE LONGITUDE
DATUM.F                  994.6 : DEPTH DATUM ELEV
~Curve Information -----------------------------------------
DEPT   .F     : 1 MEASURED DEPTH
GRR    .GAPI  : GAMMA RAY FROM RESISTIVITY LOG
ILD    .OHMM  : INDUCTION DEEP RESISTIVITY
SPR    .MV    : SPONTANEOUS POTENTIAL FROM RESISTIVITY LOG
ILM    .OHMM  : INDUCTION MEDIUM RESISTIVITY
SFLU   .OHMM  : SHALLOW FOCUSED RESISTIVITY (UNAVERAGED)
SFLA   .OHMM  : SPHERICALLY FOCUSED LOG RESISTIVITY AVERAGED OVER 2.5 FT
CILD   .MMHO  : INDUCTION DEEP CONDUCTIVITY
NPHI_LS.DEC   : NEUTRON POROSITY LIMESTONE
DTCO   .US/F  : DELTA-T COMPRESSIONAL
DTSM   .US/F  : DELTA-T SHEAR
~Params ----------------------------------------------------
~Other -----------------------------------------------------
~ASCII -----------------------------------------------------
# ...
  869.00000   51.63950    2.45600   -6.68140   -9999.25   -9999.25    2.76510  401.27610   -9999.25   -9999.25   -9999.25
  869.50000   54.20550    2.51040   -5.61410   -9999.25   -9999.25    2.68820  398.27560   -9999.25   -9999.25   -9999.25
  870.00000   58.09320    2.53840   -5.47280   -9999.25   -9999.25    2.61120  393.87730   -9999.25   -9999.25   -9999.25
  870.50000   56.21970    2.57570   -5.42200   -9999.25   -9999.25    2.55470  388.19100   -9999.25   -9999.25   -9999.25
  871.00000   55.07200    2.65500   -5.37120   -9999.25   -9999.25    2.53700  376.62010   -9999.25   -9999.25   -9999.25
  871.50000   56.92030    2.74870   -5.06130   -9999.25   -9999.25    2.58050  363.79060   -9999.25   -9999.25   -9999.25
  872.00000   61.63970    2.84450   -4.22650   -9999.25   -9999.25    2.64160  351.51150   -9999.25   -9999.25   -9999.25
  872.50000   69.01920    2.95470   -1.69730   -9999.25   -9999.25    2.70880  338.35390   -9999.25   -9999.25   -9999.25
  873.00000   77.60410    3.04200   -0.21600   -9999.25   -9999.25    2.78890  328.72710   -9999.25   -9999.25   -9999.25
  873.50000   83.62010    3.10560    0.44620   -9999.25   -9999.25    2.86900  320.90080   -9999.25   -9999.25   -9999.25
  874.00000   87.90240    3.12990    0.76850   -9999.25   -9999.25    2.94350  313.15000   -9999.25   -9999.25   -9999.25
  874.50000   91.64950    3.15430    0.88310   -9999.25   -9999.25    2.85250  307.11230   -9999.25   -9999.25   -9999.25
  875.00000   90.97540    3.17870    1.03530   -9999.25   -9999.25    2.71120  302.52870   -9999.25   -9999.25   -9999.25
  875.50000   85.28630    3.20300    1.52280   -9999.25   -9999.25    2.56990  300.46160   -9999.25   -9999.25   -9999.25
  876.00000   77.14360    3.22740    2.26270   -9999.25   -9999.25    2.51290  300.75900   -9999.25   -9999.25   -9999.25
  876.50000   73.66490    3.25170    3.06080   -9999.25   -9999.25    2.48850  302.31520   -9999.25   -9999.25   -9999.25
  877.00000   70.46470    3.27610    3.85900   -9999.25   -9999.25    2.48750  304.59830   -9999.25   -9999.25   -9999.25
  877.50000   69.82000    3.30050    4.65720   -9999.25   -9999.25    2.48250  306.89390   -9999.25   -9999.25   -9999.25
  878.00000   68.79600    3.32480    5.44340   -9999.25   -9999.25    2.47600  308.53850   -9999.25   -9999.25   -9999.25
  878.50000   68.11590    3.34920    6.04510   -9999.25   -9999.25    2.46950  306.48950   -9999.25   -9999.25   -9999.25
  879.00000   69.38810    3.37350    6.30140   -9999.25   -9999.25    2.46310  300.38070   -9999.25   -9999.25   -9999.25
  879.50000   69.97550    3.39790    6.58410   -9999.25   -9999.25    2.45660  294.88750   -9999.25   -9999.25   -9999.25
  880.00000   69.96950    3.44600    7.81870   -9999.25   -9999.25    2.45010  290.14490   -9999.25   -9999.25   -9999.25
  880.50000   70.34570    3.45990    9.26200   -9999.25   -9999.25    2.44360  288.97360   -9999.25   -9999.25   -9999.25
  881.00000   72.25840    3.44610   10.70530   -9999.25   -9999.25    2.42750  290.12380   -9999.25   -9999.25   -9999.25
  881.50000   75.50570    3.43160   12.17570   -9999.25   -9999.25    2.40100  291.35240   -9999.25   -9999.25   -9999.25
  882.00000   78.15070    3.39810   13.17270   -9999.25   -9999.25    2.37460  292.90590   -9999.25   -9999.25   -9999.25
  882.50000   79.30710    3.34160   13.48060   -9999.25   -9999.25    2.36740  295.86670   -9999.25   -9999.25   -9999.25
  883.00000   78.64920    3.28520   13.56800   -9999.25   -9999.25    2.37550  299.20660   -9999.25   -9999.25   -9999.25
  883.50000   75.97940    3.22870   13.32950   -9999.25   -9999.25    2.37430  300.58820   -9999.25   -9999.25   -9999.25
  884.00000   70.26040    3.17220   13.07160   -9999.25   -9999.25    2.34700  299.37230   -9999.25   -9999.25   -9999.25
  884.50000   65.84860    3.14990   12.77010   -9999.25   -9999.25    2.31930  297.25670   -9999.25   -9999.25   -9999.25
  885.00000   63.62480    3.18610   13.14540   -9999.25   -9999.25    2.27260  294.35820   -9999.25   -9999.25   -9999.25
  885.50000   63.72060    3.22230   13.10460   -9999.25   -9999.25    2.30450  292.23830   -9999.25   -9999.25   -9999.25
  886.00000   64.88220    3.25840   13.28830   -9999.25   -9999.25    2.39240  290.26270   -9999.25   -9999.25   -9999.25
  886.50000   68.61660    3.29460   13.50090   -9999.25   -9999.25    2.34780  287.84110   -9999.25   -9999.25   -9999.25
  887.00000   72.72860    3.33270   13.71350   -9999.25   -9999.25    2.37990  282.75030   -9999.25   -9999.25   -9999.25
  887.50000   72.33670    3.42900   13.92610   -9999.25   -9999.25    2.39910  274.32360   -9999.25   -9999.25   -9999.25
  888.00000   69.17270    3.52540   14.13880   -9999.25   -9999.25    2.41730  265.89130   -9999.25   -9999.25   -9999.25
  888.50000   67.44890    3.62180   14.35140   -9999.25   -9999.25    2.43540  260.48100   -9999.25   -9999.25   -9999.25
  889.00000   70.46520    3.71820   14.56400   -9999.25   -9999.25    2.44470  259.79180   -9999.25   -9999.25   -9999.25
  889.50000   72.95010    3.73710   14.79080   -9999.25   -9999.25    2.44470  260.81150   -9999.25   -9999.25   -9999.25
  890.00000   70.97980    3.71490   15.02310   -9999.25   -9999.25    2.41610  266.15550   -9999.25   -9999.25   -9999.25
  890.50000   66.52530    3.65910   15.19740   -9999.25   -9999.25    2.37400  270.01650   -9999.25   -9999.25   -9999.25
  891.00000   62.99940    3.60320   15.36560   -9999.25   -9999.25    2.33870  276.05570   -9999.25   -9999.25   -9999.25
  891.50000   61.84670    3.54050   15.60440   -9999.25   -9999.25    2.31400  281.72200   -9999.25   -9999.25   -9999.25
  892.00000   61.28550    3.47440   16.20320   -9999.25   -9999.25    2.28940  287.16060   -9999.25   -9999.25   -9999.25
  892.50000   60.10440    3.40840   17.74850   -9999.25   -9999.25    2.28570  292.97760   -9999.25   -9999.25   -9999.25
  893.00000   59.34010    3.34240   19.46910   -9999.25   -9999.25    2.28670  297.49070   -9999.25   -9999.25   -9999.25
  893.50000   59.09080    3.27640   20.98670   -9999.25   -9999.25    2.27500  298.81510   -9999.25   -9999.25   -9999.25
  894.00000   58.84150    3.21040   21.82260   -9999.25   -9999.25    2.24280  300.42700   -9999.25   -9999.25   -9999.25
  894.50000   57.14370    3.20350   21.91900   -9999.25   -9999.25    2.20920  302.53050   -9999.25   -9999.25   -9999.25
  895.00000   52.78720    3.19970   21.98000   -9999.25   -9999.25    2.17520  304.10920   -9999.25   -9999.25   -9999.25
  895.50000   48.10680    3.19580   21.91080   -9999.25   -9999.25    2.15720  305.08830   -9999.25   -9999.25   -9999.25
  896.00000   49.12790    3.19200   21.84160   -9999.25   -9999.25    2.13930  305.94430   -9999.25   -9999.25   -9999.25
  896.50000   54.07630    3.18820   21.85240   -9999.25   -9999.25    2.13160  306.83620   -9999.25   -9999.25   -9999.25
  897.00000   59.02480    3.18440   22.04910   -9999.25   -9999.25    2.12430  309.38130   -9999.25   -9999.25   -9999.25
  897.50000   63.25890    3.17930   22.27780   -9999.25   -9999.25    2.10560  314.49540   -9999.25   -9999.25   -9999.25
  898.00000   63.21230    3.08660   22.50650   -9999.25   -9999.25    2.07090  320.88400   -9999.25   -9999.25   -9999.25
  898.50000   58.05470    2.95690   22.73530   -9999.25   -9999.25    2.02290  329.22780   -9999.25   -9999.25   -9999.25
  899.00000   53.50980    2.86750   22.96400   -9999.25   -9999.25    1.99870  341.01530   -9999.25   -9999.25   -9999.25
  899.50000   52.71030    2.85550   23.19270   -9999.25   -9999.25    1.97870  352.68950   -9999.25   -9999.25   -9999.25
  900.00000   52.00240    2.82100   23.30650   -9999.25   -9999.25    1.94820  361.34460   -9999.25   -9999.25   -9999.25
  900.50000   49.52870    2.78640   23.38020   -9999.25   -9999.25    1.91610  361.90330   -9999.25   -9999.25   -9999.25
  901.00000   43.72990    2.75190   23.45400   -9999.25   -9999.25    1.87860  358.02160   -9999.25   -9999.25   -9999.25
  901.50000   44.00380    2.73850   23.37700   -9999.25   -9999.25    1.88450  351.23230   -9999.25   -9999.25   -9999.25
