~Version ---------------------------------------------------
VERS.   2.0 : CWLS log ASCII Standard -VERSION 2.0
WRAP.    NO : One line per depth step
DLM . SPACE : Column Data Section Delimiter
~Well ------------------------------------------------------
STRT .F                  836.0 : START DEPTH
STOP .F                 8477.0 : STOP DEPTH
STEP .F                    0.5 : STEP
NULL .                -9999.25 : NULL VALUE
COMP .                         : COMPANY
WELL .                         : WELL
FLD  .                         : FIELD
LOC  .                         : LOCATION
PROV .                         : PROVINCE
CNTY .                         : COUNTY
STAT .                         : STATE
CTRY .                         : COUNTRY
SRVC .                         : SERVICE COMPANY
DATE .                         : DATE
UWI  .                         : UNIQUE WELL ID
API  .                         : API NUMBER
SLAT .WGS84    5.1065078621168 : SURFACE LATITUDE
SLON .WGS84 2.1785651349902793 : SURFACE LONGITUDE
DATUM.F                  994.6 : DEPTH DATUM ELEV
~Curve Information -----------------------------------------
DEPT   .F     : 1 MEASURED DEPTH
GRR    .GAPI  : GAMMA RAY FROM RESISTIVITY LOG
ILD    .OHMM  : INDUCTION DEEP RESISTIVITY
SPR    .MV    : SPONTANEOUS POTENTIAL FROM RESISTIVITY LOG
ILM    .OHMM  : INDUCTION MEDIUM RESISTIVITY
SFLU   .OHMM  : SHALLOW FOCUSED RESISTIVITY (UNAVERAGED)
SFLA   .OHMM  : SPHERICALLY FOCUSED LOG RESISTIVITY AVERAGED OVER 2.5 FT
CILD   .MMHO  : INDUCTION DEEP CONDUCTIVITY
NPHI_LS.DEC   : NEUTRON POROSITY LIMESTONE
DTCO   .US/F  : DELTA-T COMPRESSIONAL
DTSM   .US/F  : DELTA-T SHEAR
~Params ----------------------------------------------------
~Other -----------------------------------------------------
~ASCII -----------------------------------------------------
# ...
 8162.00000   82.80760    2.14030  -13.25640    1.95440    2.58710   -9999.25   -9999.25    0.49450   51.21820  101.89870
 8162.50000   81.10000    2.13830  -12.98900    1.92080    2.53460   -9999.25   -9999.25    0.49610   51.21400  101.02500
 8163.00000   81.79400    2.13570  -12.64610    1.89340    2.47710   -9999.25   -9999.25    0.49080   51.20740   99.26980
 8163.50000   85.24940    2.12500  -12.16640    1.88930    2.42090   -9999.25   -9999.25    0.48830   51.13340   98.42360
 8164.00000   85.68830    2.11390  -11.75300    1.95070    2.39990   -9999.25   -9999.25    0.50820   51.21820   99.14980
 8164.50000   81.47770    2.10500  -11.78180    1.96350    2.42700   -9999.25   -9999.25    0.53080   51.22530   99.90250
 8165.00000   76.33820    2.09850  -11.53380    1.95570    2.46890   -9999.25   -9999.25    0.53290   51.25280  100.85390
 8165.50000   73.84770    2.09210  -11.14510    1.95220    2.50580   -9999.25   -9999.25    0.53210   51.60830  101.82230
 8166.00000   74.98780    2.09500  -10.75650    1.95360    2.53160   -9999.25   -9999.25    0.53080   52.62710  102.90610
 8166.50000   76.42180    2.10310  -10.68150    1.95660    2.54920   -9999.25   -9999.25    0.52800   53.54880  104.11540
 8167.00000   76.31740    2.10940  -10.63320    1.96320    2.54570   -9999.25   -9999.25    0.52120   53.88570  103.77940
 8167.50000   75.78560    2.11440  -10.93780    1.96990    2.52800   -9999.25   -9999.25    0.51530   54.06880  100.93760
 8168.00000   75.22400    2.14040  -11.65750    1.97500    2.51680   -9999.25   -9999.25    0.51920   53.86800   99.09310
 8168.50000   76.32710    2.18010  -11.90890    1.97820    2.51390   -9999.25   -9999.25    0.52210   53.67040  100.42740
 8169.00000   82.03320    2.22150  -11.83240    1.98130    2.52170   -9999.25   -9999.25    0.50100   52.79720  103.12050
 8169.50000   89.63200    2.25000  -11.75580    1.98450    2.58980   -9999.25   -9999.25    0.47410   50.65030  102.89640
 8170.00000   98.04090    2.27500  -11.67930    1.98680    2.76700   -9999.25   -9999.25    0.47290   49.63910  103.31020
 8170.50000  102.74500    2.31580  -11.72810    2.03060    3.12250   -9999.25   -9999.25    0.48360   51.15310  106.88580
 8171.00000  100.58380    2.41240  -11.97840    2.12970    3.47900   -9999.25   -9999.25    0.48220   53.50820  111.51240
 8171.50000   96.57820    2.70060  -12.22860    2.35240    3.38400   -9999.25   -9999.25    0.46230   55.54460  115.91420
 8172.00000   95.06420    2.99280  -12.47450    2.75830    3.13590   -9999.25   -9999.25    0.43940   53.93190  111.82100
 8172.50000  100.13970    3.31770  -12.40290    3.19310    3.23810   -9999.25   -9999.25    0.43010   50.78250  105.76080
 8173.00000  107.25820    3.67780  -11.78590    3.85670    3.94940   -9999.25   -9999.25    0.42960   48.95550  101.71360
 8173.50000  111.16130    4.07690  -10.27600    4.79770    5.15720   -9999.25   -9999.25    0.42600   48.14180   99.58200
 8174.00000  108.18040    5.01040   -8.50090    5.91540    6.83740   -9999.25   -9999.25    0.41140   47.42940   98.41610
 8174.50000   -9999.25    6.53890   -7.15330    7.13590    8.86500   -9999.25   -9999.25    0.39970   46.03840   95.99730
 8175.00000   -9999.25    8.64380   -6.49870    8.71570   11.67210   -9999.25   -9999.25    0.39960   45.50330   93.72080
 8175.50000   -9999.25   10.98900   -5.84750   10.64520   15.10290   -9999.25   -9999.25    0.40100   49.98860   90.59890
 8176.00000   -9999.25   12.77540   -5.16920   12.96140   18.20250   -9999.25   -9999.25    0.39770   59.60430   87.35290
 8176.50000   -9999.25   12.35720   -4.57080   12.92610   20.59140   -9999.25   -9999.25    0.38520   70.22750   84.48670
 8177.00000   -9999.25    9.77980   -6.33930   10.52530   21.11720   -9999.25   -9999.25    0.38030   70.51000   82.63670
 8177.50000   -9999.25    7.34700   -8.55000    6.74920   18.03450   -9999.25   -9999.25    0.39170   70.49020   82.37130
 8178.00000   -9999.25    5.57700  -10.75330    4.57230   10.55310   -9999.25   -9999.25    0.42520   70.47040   83.01130
 8178.50000   -9999.25    4.23350  -12.86130    3.21130    5.19300   -9999.25   -9999.25    0.46850   70.45060   84.67370
 8179.00000   -9999.25    3.57820  -14.22550    2.50510    2.56630   -9999.25   -9999.25    0.50830   70.43080   86.04290
 8179.50000   -9999.25    3.12520  -15.36080    2.17330    2.21630   -9999.25   -9999.25    0.53320   70.41100   89.85200
 8180.00000   -9999.25    2.81380  -15.66790    1.99020    2.22050   -9999.25   -9999.25    0.51970   70.39130  102.01380
 8180.50000   -9999.25    2.54690  -15.26970    1.96710    2.37190   -9999.25   -9999.25    0.50560   70.37150  107.77470
 8181.00000   -9999.25    2.35490  -14.90410    2.00850    2.64040   -9999.25   -9999.25    0.48400   70.35170  108.00790
 8181.50000   -9999.25    2.32280  -14.57770    2.05900    3.04640   -9999.25   -9999.25    0.47630   70.52210  108.52740
 8182.00000   -9999.25    2.30010  -14.25940    2.11070    3.33270   -9999.25   -9999.25    0.48750   71.22380  109.32620
 8182.50000   -9999.25    2.27770  -13.94100    2.12290    3.54540   -9999.25   -9999.25    0.51130   72.11800  110.12510
 8183.00000   -9999.25    2.26910  -14.21460    2.07210    3.45910   -9999.25   -9999.25    0.53500   71.92220  109.90950
 8183.50000   -9999.25    2.28020  -13.75610    1.97210    3.09910   -9999.25   -9999.25    0.55090   70.59560  108.53120
 8184.00000   -9999.25    2.31240  -13.16940    1.87680    2.73230   -9999.25   -9999.25    0.56480   69.81280  106.22660
 8184.50000   -9999.25    2.34300  -12.45960    1.84440    2.41020   -9999.25   -9999.25    0.56710   70.79550  108.15600
 8185.00000   -9999.25    2.36680  -11.87070    1.92310    2.28370   -9999.25   -9999.25    0.55320   70.19550  105.46790
 8185.50000   -9999.25    2.39140  -11.44780    2.03300    2.29570   -9999.25   -9999.25    0.54010   63.65330   96.82170
 8186.00000   -9999.25    2.41870  -11.16210    2.19680    2.51680   -9999.25   -9999.25    0.52920   62.28660   95.35360
 8186.50000   -9999.25    2.44630  -11.13050    2.37850    2.86050   -9999.25   -9999.25    0.52470   65.28720   98.27730
 8187.00000   -9999.25    2.50610  -11.71520    2.55770    3.29970   -9999.25   -9999.25    0.52130   65.60420  100.17780
 8187.50000   -9999.25    2.56870  -12.63200    2.45310    3.73330   -9999.25   -9999.25    0.51380   65.12050   99.08420
 8188.00000   -9999.25    2.64120  -13.47200    2.25070    3.72310   -9999.25   -9999.25    0.50480   66.48960  101.39980
 8188.50000   -9999.25    2.71880  -14.31210    2.13160    3.37240   -9999.25   -9999.25    0.50460   68.66790  104.66590
 8189.00000   -9999.25    2.78370  -15.07790    2.15470    3.04420   -9999.25   -9999.25    0.50670   68.99690  104.97900
 8189.50000   -9999.25    2.74740  -15.91290    2.19670    2.82010   -9999.25   -9999.25    0.50870   68.68500  104.73730
 8190.00000   -9999.25    2.63050  -16.71060    2.23950    2.75860   -9999.25   -9999.25    0.51000   68.02720  103.50770
 8190.50000   -9999.25    2.48260  -16.71130    2.26030    2.78380   -9999.25   -9999.25    0.52780   67.11500  101.41050
 8191.00000   -9999.25    2.34490  -15.94640    2.24110    2.84720   -9999.25   -9999.25    0.54990   67.08530   99.97700
 8191.50000   -9999.25    2.31090  -14.77010    2.19200    2.95440   -9999.25   -9999.25    0.56840   67.23890  100.03670
 8192.00000   -9999.25    2.38700  -13.13410    2.11240    2.99950   -9999.25   -9999.25    0.57920   67.27480  101.07630
 8192.50000   -9999.25    2.48680  -11.91720    2.00480    2.92140   -9999.25   -9999.25    0.57030   67.29280  103.61350
 8193.00000   -9999.25    2.54120  -11.41130    1.98200    2.77580   -9999.25   -9999.25    0.55300   67.28750  105.70350
 8193.50000   -9999.25    2.53210  -11.61770    2.04490    2.61410   -9999.25   -9999.25    0.52430   67.28220  106.38570
 8194.00000   -9999.25    2.46670  -11.82410    2.14840    2.64240   -9999.25   -9999.25    0.50410   67.27680  106.41730
 8194.50000   -9999.25    2.43520  -11.94830    2.19320    3.08160   -9999.25   -9999.25    0.51170   67.28950  106.18800
