~Version ---------------------------------------------------
VERS.   2.0 : CWLS log ASCII Standard -VERSION 2.0
WRAP.    NO : One line per depth step
DLM . SPACE : Column Data Section Delimiter
~Well ------------------------------------------------------
STRT .F                  836.0 : START DEPTH
STOP .F                 8477.0 : STOP DEPTH
STEP .F                    0.5 : STEP
NULL .                -9999.25 : NULL VALUE
COMP .                         : COMPANY
WELL .                         : WELL
FLD  .                         : FIELD
LOC  .                         : LOCATION
PROV .                         : PROVINCE
CNTY .                         : COUNTY
STAT .                         : STATE
CTRY .                         : COUNTRY
SRVC .                         : SERVICE COMPANY
DATE .                         : DATE
UWI  .                         : UNIQUE WELL ID
API  .                         : API NUMBER
SLAT .WGS84    5.1065078621168 : SURFACE LATITUDE
SLON .WGS84 2.1785651349902793 : SURFACE LONGITUDE
DATUM.F                  994.6 : DEPTH DATUM ELEV
~Curve Information -----------------------------------------
DEPT   .F     : 1 MEASURED DEPTH
GRR    .GAPI  : GAMMA RAY FROM RESISTIVITY LOG
ILD    .OHMM  : INDUCTION DEEP RESISTIVITY
SPR    .MV    : SPONTANEOUS POTENTIAL FROM RESISTIVITY LOG
ILM    .OHMM  : INDUCTION MEDIUM RESISTIVITY
SFLU   .OHMM  : SHALLOW FOCUSED RESISTIVITY (UNAVERAGED)
SFLA   .OHMM  : SPHERICALLY FOCUSED LOG RESISTIVITY AVERAGED OVER 2.5 FT
CILD   .MMHO  : INDUCTION DEEP CONDUCTIVITY
NPHI_LS.DEC   : NEUTRON POROSITY LIMESTONE
DTCO   .US/F  : DELTA-T COMPRESSIONAL
DTSM   .US/F  : DELTA-T SHEAR
~Params ----------------------------------------------------
~Other -----------------------------------------------------
~ASCII -----------------------------------------------------
# ...
 4499.00000   87.04250    4.39100   -6.76780   -9999.25   -9999.25    3.20640  227.65870   -9999.25   -9999.25   -9999.25
 4499.50000   85.04810    4.41460   -6.78770   -9999.25   -9999.25    3.18680  226.43710   -9999.25   -9999.25   -9999.25
 4500.00000   82.56630    4.40390   -6.80760   -9999.25   -9999.25    3.18950  226.99320   -9999.25   -9999.25   -9999.25
 4500.50000   80.77730    4.37060   -6.82760   -9999.25   -9999.25    3.19210  228.78950   -9999.25   -9999.25   -9999.25
 4501.00000   82.88040    4.33580   -7.03180   -9999.25   -9999.25    3.13640  230.61750   -9999.25   -9999.25   -9999.25
 4501.50000   88.65260    4.29630   -7.89880   -9999.25   -9999.25    3.04560  232.74270   -9999.25   -9999.25   -9999.25
 4502.00000   93.53510    4.24650   -9.79530   -9999.25   -9999.25    2.95530  235.46760   -9999.25   -9999.25   -9999.25
 4502.50000   96.20590    4.19740  -11.69180   -9999.25   -9999.25    2.88900  238.22290   -9999.25   -9999.25   -9999.25
 4503.00000   98.04870    4.12210  -12.85300   -9999.25   -9999.25    2.87410  242.58930   -9999.25   -9999.25   -9999.25
 4503.50000  100.40030    4.03160  -14.49900   -9999.25   -9999.25    2.85920  248.01750   -9999.25   -9999.25   -9999.25
 4504.00000  103.52800    3.94890  -14.82120   -9999.25   -9999.25    2.84430  253.20970   -9999.25   -9999.25   -9999.25
 4504.50000  104.21770    3.85750  -14.95230   -9999.25   -9999.25    2.83760  259.20550   -9999.25   -9999.25   -9999.25
 4505.00000  104.43420    3.79520  -15.14630   -9999.25   -9999.25    2.82580  263.47380   -9999.25   -9999.25   -9999.25
 4505.50000  104.28620    3.75320  -15.66280   -9999.25   -9999.25    2.79160  266.43430   -9999.25   -9999.25   -9999.25
 4506.00000  102.70060    3.72280  -16.90570   -9999.25   -9999.25    2.75620  268.60560   -9999.25   -9999.25   -9999.25
 4506.50000   95.46620    3.69620  -18.82000   -9999.25   -9999.25    2.70770  270.56380   -9999.25   -9999.25   -9999.25
 4507.00000   89.51110    3.70180  -20.44370   -9999.25   -9999.25    2.69720  270.13790   -9999.25   -9999.25   -9999.25
 4507.50000   88.61360    3.67280  -21.75950   -9999.25   -9999.25    2.69020  269.62880   -9999.25   -9999.25   -9999.25
 4508.00000   90.06620    3.64340  -21.71560   -9999.25   -9999.25    2.69400  270.39450   -9999.25   -9999.25   -9999.25
 4508.50000   90.88750    3.61410  -20.62950   -9999.25   -9999.25    2.74470  276.07460   -9999.25   -9999.25   -9999.25
 4509.00000   89.94980    3.58480  -19.16530   -9999.25   -9999.25    2.83100  281.90850   -9999.25   -9999.25   -9999.25
 4509.50000   88.67330    3.55540  -17.70100   -9999.25   -9999.25    2.93040  280.39790   -9999.25   -9999.25   -9999.25
 4510.00000   88.15230    3.59340  -16.25320   -9999.25   -9999.25    3.02970  267.60750   -9999.25   -9999.25   -9999.25
 4510.50000   90.82780    3.73050  -14.92790   -9999.25   -9999.25    3.12900  256.63580   -9999.25   -9999.25   -9999.25
 4511.00000   94.04280    3.68270  -14.20050   -9999.25   -9999.25    3.22010  262.56420   -9999.25   -9999.25   -9999.25
 4511.50000   96.84590    3.65980  -14.26300   -9999.25   -9999.25    3.30230  272.04130   -9999.25   -9999.25   -9999.25
 4512.00000   95.97770    3.63690  -14.37760   -9999.25   -9999.25    3.38270  281.51830   -9999.25   -9999.25   -9999.25
 4512.50000   94.21690    3.61410  -15.12360   -9999.25   -9999.25    3.45400  285.35180   -9999.25   -9999.25   -9999.25
 4513.00000   89.54100    3.61280  -16.98190   -9999.25   -9999.25    3.51020  274.97240   -9999.25   -9999.25   -9999.25
 4513.50000   85.04720    3.66660  -18.41280   -9999.25   -9999.25    3.55220  256.46770   -9999.25   -9999.25   -9999.25
 4514.00000   79.22130    3.80680  -20.67910   -9999.25   -9999.25    3.59410  247.98800   -9999.25   -9999.25   -9999.25
 4514.50000   73.19540    4.01360  -21.28540   -9999.25   -9999.25    3.71180  235.48920   -9999.25   -9999.25   -9999.25
 4515.00000   68.35410    4.32450  -21.51460   -9999.25   -9999.25    4.00210  225.10260   -9999.25   -9999.25   -9999.25
 4515.50000   66.20960    5.04310  -21.39200   -9999.25   -9999.25    4.56820  194.71580   -9999.25   -9999.25   -9999.25
 4516.00000   63.85360    5.79150  -20.99220   -9999.25   -9999.25    5.20310  172.45110   -9999.25   -9999.25   -9999.25
 4516.50000   60.25900    6.29870  -20.69150   -9999.25   -9999.25    5.83810  150.46980   -9999.25   -9999.25   -9999.25
 4517.00000   59.26230    6.08140  -20.52830   -9999.25   -9999.25    6.42170  156.80300   -9999.25   -9999.25   -9999.25
 4517.50000   67.74610    5.74280  -20.36510   -9999.25   -9999.25    6.37260  170.13400   -9999.25   -9999.25   -9999.25
 4518.00000   73.33180    5.40410  -20.20180   -9999.25   -9999.25    5.90290  182.11070   -9999.25   -9999.25   -9999.25
 4518.50000   75.78010    5.10840  -20.03860   -9999.25   -9999.25    5.32810  185.61760   -9999.25   -9999.25   -9999.25
 4519.00000   75.26920    5.06300  -19.94760   -9999.25   -9999.25    4.75320  186.23930   -9999.25   -9999.25   -9999.25
 4519.50000   75.11640    5.06300  -19.88560   -9999.25   -9999.25    4.35560  187.18160   -9999.25   -9999.25   -9999.25
 4520.00000   74.87760    5.09370  -19.82360   -9999.25   -9999.25    4.31410  195.18390   -9999.25   -9999.25   -9999.25
 4520.50000   74.55870    4.99070  -19.76160   -9999.25   -9999.25    4.29560  212.59520   -9999.25   -9999.25   -9999.25
 4521.00000   71.62640    4.78100  -19.69960   -9999.25   -9999.25    4.27220  228.91350   -9999.25   -9999.25   -9999.25
 4521.50000   69.44690    4.47730  -19.63760   -9999.25   -9999.25    4.23690  236.02210   -9999.25   -9999.25   -9999.25
 4522.00000   71.67830    4.27590  -19.01430   -9999.25   -9999.25    4.16150  236.64930   -9999.25   -9999.25   -9999.25
 4522.50000   78.45920    4.17840  -18.18690   -9999.25   -9999.25    3.83680  236.74770   -9999.25   -9999.25   -9999.25
 4523.00000   82.99480    4.08090  -17.29100   -9999.25   -9999.25    3.35000  238.85790   -9999.25   -9999.25   -9999.25
 4523.50000   84.57510    3.98340  -16.26760   -9999.25   -9999.25    2.90860  250.01090   -9999.25   -9999.25   -9999.25
 4524.00000   85.09200    3.69460  -14.56700   -9999.25   -9999.25    2.67570  271.48520   -9999.25   -9999.25   -9999.25
 4524.50000   85.73230    3.35990  -13.66190   -9999.25   -9999.25    2.51800  298.19320   -9999.25   -9999.25   -9999.25
 4525.00000   88.04710    3.14880  -13.82260   -9999.25   -9999.25    2.35760  317.19710   -9999.25   -9999.25   -9999.25
 4525.50000   92.80910    3.01840  -14.34260   -9999.25   -9999.25    2.25250  331.23110   -9999.25   -9999.25   -9999.25
 4526.00000   96.72650    2.95320  -15.87920   -9999.25   -9999.25    2.14900  338.61240   -9999.25   -9999.25   -9999.25
 4526.50000  100.01130    2.91110  -16.55850   -9999.25   -9999.25    2.09390  343.50700   -9999.25   -9999.25   -9999.25
 4527.00000   97.16310    2.86820  -17.09840   -9999.25   -9999.25    2.05480  348.63010   -9999.25   -9999.25   -9999.25
 4527.50000   90.87480    2.77870  -17.63830   -9999.25   -9999.25    2.02130  358.71600   -9999.25   -9999.25   -9999.25
 4528.00000   88.23880    2.62390  -18.17830   -9999.25   -9999.25    1.99910  373.80160   -9999.25   -9999.25   -9999.25
 4528.50000   91.54580    2.46920  -18.71820   -9999.25   -9999.25    2.01640  390.25720   -9999.25   -9999.25   -9999.25
 4529.00000   95.47810    2.31440  -19.51300   -9999.25   -9999.25    2.04120  409.34610   -9999.25   -9999.25   -9999.25
 4529.50000   95.41590    2.23390  -20.34260   -9999.25   -9999.25    2.06600  423.33550   -9999.25   -9999.25   -9999.25
 4530.00000   91.95300    2.18060  -21.57330   -9999.25   -9999.25    2.09090  435.28620   -9999.25   -9999.25   -9999.25
 4530.50000   87.32920    2.18060  -24.01540   -9999.25   -9999.25    2.11570  435.38340   -9999.25   -9999.25   -9999.25
 4531.00000   83.53900    2.20680  -26.25890   -9999.25   -9999.25    2.14060  419.73260   -9999.25   -9999.25   -9999.25
 4531.50000   80.12770    2.35660  -28.42660   -9999.25   -9999.25    2.14730  399.21380   -9999.25   -9999.25   -9999.25
