~Version ---------------------------------------------------
VERS.   2.0 : CWLS log ASCII Standard -VERSION 2.0
WRAP.    NO : One line per depth step
DLM . SPACE : Column Data Section Delimiter
~Well ------------------------------------------------------
STRT .F                  836.0 : START DEPTH
STOP .F                 8477.0 : STOP DEPTH
STEP .F                    0.5 : STEP
NULL .                -9999.25 : NULL VALUE
COMP .                         : COMPANY
WELL .                         : WELL
FLD  .                         : FIELD
LOC  .                         : LOCATION
PROV .                         : PROVINCE
CNTY .                         : COUNTY
STAT .                         : STATE
CTRY .                         : COUNTRY
SRVC .                         : SERVICE COMPANY
DATE .                         : DATE
UWI  .                         : UNIQUE WELL ID
API  .                         : API NUMBER
SLAT .WGS84    5.1065078621168 : SURFACE LATITUDE
SLON .WGS84 2.1785651349902793 : SURFACE LONGITUDE
DATUM.F                  994.6 : DEPTH DATUM ELEV
~Curve Information -----------------------------------------
DEPT   .F     : 1 MEASURED DEPTH
GRR    .GAPI  : GAMMA RAY FROM RESISTIVITY LOG
ILD    .OHMM  : INDUCTION DEEP RESISTIVITY
SPR    .MV    : SPONTANEOUS POTENTIAL FROM RESISTIVITY LOG
ILM    .OHMM  : INDUCTION MEDIUM RESISTIVITY
SFLU   .OHMM  : SHALLOW FOCUSED RESISTIVITY (UNAVERAGED)
SFLA   .OHMM  : SPHERICALLY FOCUSED LOG RESISTIVITY AVERAGED OVER 2.5 FT
CILD   .MMHO  : INDUCTION DEEP CONDUCTIVITY
NPHI_LS.DEC   : NEUTRON POROSITY LIMESTONE
DTCO   .US/F  : DELTA-T COMPRESSIONAL
DTSM   .US/F  : DELTA-T SHEAR
~Params ----------------------------------------------------
~Other -----------------------------------------------------
~ASCII -----------------------------------------------------
# ...
 1859.00000   83.25440    3.00300  -16.28040   -9999.25   -9999.25    2.65930  333.10230   -9999.25   -9999.25   -9999.25
 1859.50000   79.92310    2.91140  -16.39530   -9999.25   -9999.25    2.61910  343.45940   -9999.25   -9999.25   -9999.25
 1860.00000   80.17350    2.81950  -17.16950   -9999.25   -9999.25    2.59970  354.65270   -9999.25   -9999.25   -9999.25
 1860.50000   80.67540    2.75270  -18.26150   -9999.25   -9999.25    2.53710  367.17040   -9999.25   -9999.25   -9999.25
 1861.00000   81.17650    2.69590  -19.82730   -9999.25   -9999.25    2.46170  377.01690   -9999.25   -9999.25   -9999.25
 1861.50000   81.93960    2.63910  -21.79800   -9999.25   -9999.25    2.39760  383.37680   -9999.25   -9999.25   -9999.25
 1862.00000   84.82410    2.58220  -23.82090   -9999.25   -9999.25    2.34610  386.10130   -9999.25   -9999.25   -9999.25
 1862.50000   86.89430    2.53260  -25.59790   -9999.25   -9999.25    2.36920  386.36760   -9999.25   -9999.25   -9999.25
 1863.00000   84.49860    2.53260  -26.67600   -9999.25   -9999.25    2.41620  385.97630   -9999.25   -9999.25   -9999.25
 1863.50000   81.75690    2.53260  -25.58570   -9999.25   -9999.25    2.45270  381.19240   -9999.25   -9999.25   -9999.25
 1864.00000   79.21940    2.53250  -23.27560   -9999.25   -9999.25    2.46250  370.65710   -9999.25   -9999.25   -9999.25
 1864.50000   79.25020    2.57680  -21.04240   -9999.25   -9999.25    2.47230  361.99850   -9999.25   -9999.25   -9999.25
 1865.00000   82.75120    2.65220  -17.84860   -9999.25   -9999.25    2.48210  355.18550   -9999.25   -9999.25   -9999.25
 1865.50000   88.03010    2.72760  -15.35430   -9999.25   -9999.25    2.49190  347.34260   -9999.25   -9999.25   -9999.25
 1866.00000   94.25630    2.80290  -13.07710   -9999.25   -9999.25    2.50160  339.46510   -9999.25   -9999.25   -9999.25
 1866.50000   94.40050    2.87830  -10.49730   -9999.25   -9999.25    2.51140  333.15670   -9999.25   -9999.25   -9999.25
 1867.00000   89.57880    2.95360   -8.31220   -9999.25   -9999.25    2.52120  328.37980   -9999.25   -9999.25   -9999.25
 1867.50000   84.75710    3.02900   -6.33650   -9999.25   -9999.25    2.53100  324.50850   -9999.25   -9999.25   -9999.25
 1868.00000   83.29620    3.10430   -3.88690   -9999.25   -9999.25    2.53780  322.15980   -9999.25   -9999.25   -9999.25
 1868.50000   87.54720    3.17970   -1.47110   -9999.25   -9999.25    2.53940  320.00690   -9999.25   -9999.25   -9999.25
 1869.00000   93.81590    3.25500    0.61830   -9999.25   -9999.25    2.57000  311.47280   -9999.25   -9999.25   -9999.25
 1869.50000   97.63760    3.33040    1.45760   -9999.25   -9999.25    2.60850  302.08170   -9999.25   -9999.25   -9999.25
 1870.00000   96.93690    3.40200    2.18900   -9999.25   -9999.25    2.64590  293.87260   -9999.25   -9999.25   -9999.25
 1870.50000   95.59520    3.45200    2.92050   -9999.25   -9999.25    2.67200  289.60500   -9999.25   -9999.25   -9999.25
 1871.00000   95.70820    3.48990    3.18450   -9999.25   -9999.25    2.69820  286.47550   -9999.25   -9999.25   -9999.25
 1871.50000   97.77140    3.50780    3.35330   -9999.25   -9999.25    2.70450  285.01330   -9999.25   -9999.25   -9999.25
 1872.00000   99.83460    3.52860    3.45030   -9999.25   -9999.25    2.69330  283.33270   -9999.25   -9999.25   -9999.25
 1872.50000   98.35870    3.54180    3.51630   -9999.25   -9999.25    2.68220  282.27940   -9999.25   -9999.25   -9999.25
 1873.00000   96.49960    3.55330    3.50870   -9999.25   -9999.25    2.67010  281.36370   -9999.25   -9999.25   -9999.25
 1873.50000   95.86980    3.57100    3.43810   -9999.25   -9999.25    2.65320  279.96580   -9999.25   -9999.25   -9999.25
 1874.00000   95.37190    3.59280    3.19400   -9999.25   -9999.25    2.63820  278.26550   -9999.25   -9999.25   -9999.25
 1874.50000   92.99460    3.61800    2.28040   -9999.25   -9999.25    2.64470  276.32360   -9999.25   -9999.25   -9999.25
 1875.00000   87.94300    3.64650    1.43130   -9999.25   -9999.25    2.67700  274.17340   -9999.25   -9999.25   -9999.25
 1875.50000   85.95130    3.65880    0.66720   -9999.25   -9999.25    2.73200  273.25630   -9999.25   -9999.25   -9999.25
 1876.00000   88.57960    3.66670    1.32350   -9999.25   -9999.25    2.78850  272.67160   -9999.25   -9999.25   -9999.25
 1876.50000   92.99210    3.67240    1.93270   -9999.25   -9999.25    2.84410  272.24410   -9999.25   -9999.25   -9999.25
 1877.00000   97.47320    3.68520    1.72760   -9999.25   -9999.25    2.88880  271.29540   -9999.25   -9999.25   -9999.25
 1877.50000   99.57030    3.72000    1.00030   -9999.25   -9999.25    2.93360  268.75610   -9999.25   -9999.25   -9999.25
 1878.00000   97.21840    3.75430    0.27290   -9999.25   -9999.25    2.97830  266.30220   -9999.25   -9999.25   -9999.25
 1878.50000   93.14380    3.76000   -0.45440   -9999.25   -9999.25    3.02310  265.91300   -9999.25   -9999.25   -9999.25
 1879.00000   86.87000    3.71470   -1.96050   -9999.25   -9999.25    3.04990  269.18270   -9999.25   -9999.25   -9999.25
 1879.50000   81.72830    3.64110   -4.12790   -9999.25   -9999.25    3.03840  274.61690   -9999.25   -9999.25   -9999.25
 1880.00000   82.35010    3.57060   -6.29530   -9999.25   -9999.25    3.02690  280.05110   -9999.25   -9999.25   -9999.25
 1880.50000   84.32770    3.51930   -8.03530   -9999.25   -9999.25    2.99780  284.09710   -9999.25   -9999.25   -9999.25
 1881.00000   86.64710    3.51710   -8.91330   -9999.25   -9999.25    2.97700  284.26610   -9999.25   -9999.25   -9999.25
 1881.50000   87.61140    3.51850   -9.07940   -9999.25   -9999.25    2.96280  284.15360   -9999.25   -9999.25   -9999.25
 1882.00000   88.23970    3.51990   -8.50480   -9999.25   -9999.25    2.97920  284.04110   -9999.25   -9999.25   -9999.25
 1882.50000   88.64860    3.52130   -7.44610   -9999.25   -9999.25    2.99890  283.92860   -9999.25   -9999.25   -9999.25
 1883.00000   88.89140    3.52270   -5.39630   -9999.25   -9999.25    3.02750  283.81620   -9999.25   -9999.25   -9999.25
 1883.50000   88.73670    3.52260   -4.62950   -9999.25   -9999.25    3.04730  283.82480   -9999.25   -9999.25   -9999.25
 1884.00000   87.79630    3.51970   -4.93670   -9999.25   -9999.25    3.06380  283.99880   -9999.25   -9999.25   -9999.25
 1884.50000   87.26310    3.49880   -5.24390   -9999.25   -9999.25    3.07610  285.76010   -9999.25   -9999.25   -9999.25
 1885.00000   85.70790    3.42100   -5.55110   -9999.25   -9999.25    3.02830  292.07400   -9999.25   -9999.25   -9999.25
 1885.50000   80.87930    3.30660   -6.74450   -9999.25   -9999.25    2.90930  302.44100   -9999.25   -9999.25   -9999.25
 1886.00000   76.44370    3.14020   -9.66420   -9999.25   -9999.25    2.79030  318.41420   -9999.25   -9999.25   -9999.25
 1886.50000   77.43330    3.01470  -12.22400   -9999.25   -9999.25    2.67130  331.67090   -9999.25   -9999.25   -9999.25
 1887.00000   79.40600    2.90520  -15.36430   -9999.25   -9999.25    2.55230  344.19110   -9999.25   -9999.25   -9999.25
 1887.50000   80.05110    2.85080  -17.12750   -9999.25   -9999.25    2.49320  350.71180   -9999.25   -9999.25   -9999.25
 1888.00000   80.61440    2.83610  -18.26860   -9999.25   -9999.25    2.47960  352.51380   -9999.25   -9999.25   -9999.25
 1888.50000   81.60570    2.84470  -18.38470   -9999.25   -9999.25    2.51050  351.44200   -9999.25   -9999.25   -9999.25
 1889.00000   84.58910    2.85950  -18.31230   -9999.25   -9999.25    2.59470  349.61470   -9999.25   -9999.25   -9999.25
 1889.50000   89.69990    2.88300  -17.73490   -9999.25   -9999.25    2.67890  346.76160   -9999.25   -9999.25   -9999.25
 1890.00000   94.03720    2.92250  -17.12750   -9999.25   -9999.25    2.76310  342.06960   -9999.25   -9999.25   -9999.25
 1890.50000   93.81160    2.93780  -16.52000   -9999.25   -9999.25    2.76150  340.24590   -9999.25   -9999.25   -9999.25
 1891.00000   89.77380    2.92250  -15.91260   -9999.25   -9999.25    2.70360  342.04240   -9999.25   -9999.25   -9999.25
 1891.50000   84.87600    2.86660  -15.87070   -9999.25   -9999.25    2.64570  349.21310   -9999.25   -9999.25   -9999.25
