~Version ---------------------------------------------------
VERS.   2.0 : CWLS log ASCII Standard -VERSION 2.0
WRAP.    NO : One line per depth step
DLM . SPACE : Column Data Section Delimiter
~Well ------------------------------------------------------
STRT .F                  836.0 : START DEPTH
STOP .F                 8477.0 : STOP DEPTH
STEP .F                    0.5 : STEP
NULL .                -9999.25 : NULL VALUE
COMP .                         : COMPANY
WELL .                         : WELL
FLD  .                         : FIELD
LOC  .                         : LOCATION
PROV .                         : PROVINCE
CNTY .                         : COUNTY
STAT .                         : STATE
CTRY .                         : COUNTRY
SRVC .                         : SERVICE COMPANY
DATE .                         : DATE
UWI  .                         : UNIQUE WELL ID
API  .                         : API NUMBER
SLAT .WGS84    5.1065078621168 : SURFACE LATITUDE
SLON .WGS84 2.1785651349902793 : SURFACE LONGITUDE
DATUM.F                  994.6 : DEPTH DATUM ELEV
~Curve Information -----------------------------------------
DEPT   .F     : 1 MEASURED DEPTH
GRR    .GAPI  : GAMMA RAY FROM RESISTIVITY LOG
ILD    .OHMM  : INDUCTION DEEP RESISTIVITY
SPR    .MV    : SPONTANEOUS POTENTIAL FROM RESISTIVITY LOG
ILM    .OHMM  : INDUCTION MEDIUM RESISTIVITY
SFLU   .OHMM  : SHALLOW FOCUSED RESISTIVITY (UNAVERAGED)
SFLA   .OHMM  : SPHERICALLY FOCUSED LOG RESISTIVITY AVERAGED OVER 2.5 FT
CILD   .MMHO  : INDUCTION DEEP CONDUCTIVITY
NPHI_LS.DEC   : NEUTRON POROSITY LIMESTONE
DTCO   .US/F  : DELTA-T COMPRESSIONAL
DTSM   .US/F  : DELTA-T SHEAR
~Params ----------------------------------------------------
~Other -----------------------------------------------------
~ASCII -----------------------------------------------------
# ...
 4961.00000  107.17260    3.31630   -3.90610   -9999.25   -9999.25    2.39580  301.51590   -9999.25   -9999.25   -9999.25
 4961.50000   98.62880    3.40470   -3.94180   -9999.25   -9999.25    2.41580  293.69520   -9999.25   -9999.25   -9999.25
 4962.00000   93.16970    3.50480   -3.39040   -9999.25   -9999.25    2.48610  285.33320   -9999.25   -9999.25   -9999.25
 4962.50000   92.60830    3.59570   -3.10540   -9999.25   -9999.25    2.55850  278.34470   -9999.25   -9999.25   -9999.25
 4963.00000   93.75590    3.72760   -2.78970   -9999.25   -9999.25    2.63100  268.22830   -9999.25   -9999.25   -9999.25
 4963.50000   91.58250    3.83570   -2.20790   -9999.25   -9999.25    2.70340  260.70180   -9999.25   -9999.25   -9999.25
 4964.00000   89.40810    3.96020   -2.08850   -9999.25   -9999.25    2.79220  252.46190   -9999.25   -9999.25   -9999.25
 4964.50000   90.29090    4.03540   -2.47430   -9999.25   -9999.25    2.86350  247.78470   -9999.25   -9999.25   -9999.25
 4965.00000   92.05190    4.08730   -1.99850   -9999.25   -9999.25    2.88310  244.62570   -9999.25   -9999.25   -9999.25
 4965.50000   92.44000    4.11900   -1.50600   -9999.25   -9999.25    2.90270  242.71180   -9999.25   -9999.25   -9999.25
 4966.00000   92.31150    4.12250   -0.89170   -9999.25   -9999.25    2.92070  242.53040   -9999.25   -9999.25   -9999.25
 4966.50000   89.88670    4.11280   -0.27740   -9999.25   -9999.25    2.93070  243.08660   -9999.25   -9999.25   -9999.25
 4967.00000   83.50010    4.07380    0.33690   -9999.25   -9999.25    2.94070  245.41860   -9999.25   -9999.25   -9999.25
 4967.50000   79.56530    4.09650    0.86410   -9999.25   -9999.25    2.97140  244.08040   -9999.25   -9999.25   -9999.25
 4968.00000   83.27500    4.17260    0.91980   -9999.25   -9999.25    3.00690  239.67970   -9999.25   -9999.25   -9999.25
 4968.50000   86.25930    4.28580    0.32260   -9999.25   -9999.25    3.07410  233.32590   -9999.25   -9999.25   -9999.25
 4969.00000   83.90610    4.42220   -0.49270   -9999.25   -9999.25    3.34460  226.14140   -9999.25   -9999.25   -9999.25
 4969.50000   80.88030    4.52890   -1.30810   -9999.25   -9999.25    3.48730  220.78250   -9999.25   -9999.25   -9999.25
 4970.00000   81.38620    4.56610   -2.12180   -9999.25   -9999.25    3.49320  218.98570   -9999.25   -9999.25   -9999.25
 4970.50000   83.16190    4.60380   -2.70190   -9999.25   -9999.25    3.49920  217.18880   -9999.25   -9999.25   -9999.25
 4971.00000   80.85790    4.65200   -3.20560   -9999.25   -9999.25    3.51310  214.95490   -9999.25   -9999.25   -9999.25
 4971.50000   78.79490    4.76030   -3.71140   -9999.25   -9999.25    3.54520  210.07230   -9999.25   -9999.25   -9999.25
 4972.00000   79.29610    4.94290   -4.45250   -9999.25   -9999.25    3.57740  202.30020   -9999.25   -9999.25   -9999.25
 4972.50000   82.76940    5.03790   -4.67380   -9999.25   -9999.25    3.60960  198.48660   -9999.25   -9999.25   -9999.25
 4973.00000   85.16670    5.12420   -4.43020   -9999.25   -9999.25    3.70530  195.13960   -9999.25   -9999.25   -9999.25
 4973.50000   83.96170    5.19140   -4.08540   -9999.25   -9999.25    3.80730  192.61490   -9999.25   -9999.25   -9999.25
 4974.00000   82.59530    5.20220   -3.67380   -9999.25   -9999.25    3.91140  192.20270   -9999.25   -9999.25   -9999.25
 4974.50000   81.22880    5.18750   -3.02660   -9999.25   -9999.25    4.03110  192.52190   -9999.25   -9999.25   -9999.25
 4975.00000   80.37930    5.09970   -1.80560   -9999.25   -9999.25    4.04570  192.98530   -9999.25   -9999.25   -9999.25
 4975.50000   81.68530    5.01190   -0.51730   -9999.25   -9999.25    4.00550  193.54030   -9999.25   -9999.25   -9999.25
 4976.00000   83.57360    4.92410    0.66980   -9999.25   -9999.25    3.92630  195.43320   -9999.25   -9999.25   -9999.25
 4976.50000   85.46190    4.83630    1.85680   -9999.25   -9999.25    3.79900  203.68880   -9999.25   -9999.25   -9999.25
 4977.00000   86.35100    4.65950    2.98240   -9999.25   -9999.25    3.68390  214.80020   -9999.25   -9999.25   -9999.25
 4977.50000   84.26530    4.50230    3.96830   -9999.25   -9999.25    3.57140  222.05600   -9999.25   -9999.25   -9999.25
 4978.00000   81.28200    4.45480    4.92260   -9999.25   -9999.25    3.50360  224.46800   -9999.25   -9999.25   -9999.25
 4978.50000   79.04460    4.54240    5.83500   -9999.25   -9999.25    3.51430  220.18040   -9999.25   -9999.25   -9999.25
 4979.00000   76.89170    4.74880    6.24980   -9999.25   -9999.25    3.59860  210.60790   -9999.25   -9999.25   -9999.25
 4979.50000   73.65890    5.00920    6.61960   -9999.25   -9999.25    3.82280  199.56660   -9999.25   -9999.25   -9999.25
 4980.00000   70.02560    5.04520    6.26030   -9999.25   -9999.25    4.00930  198.17130   -9999.25   -9999.25   -9999.25
 4980.50000   69.09020    4.94090    5.55790   -9999.25   -9999.25    4.11780  202.35690   -9999.25   -9999.25   -9999.25
 4981.00000   72.75880    4.84310    5.00080   -9999.25   -9999.25    4.17480  206.54260   -9999.25   -9999.25   -9999.25
 4981.50000   79.30810    4.81620    4.48920   -9999.25   -9999.25    4.14110  207.60890   -9999.25   -9999.25   -9999.25
 4982.00000   85.22180    4.84420    4.15030   -9999.25   -9999.25    4.01990  206.44730   -9999.25   -9999.25   -9999.25
 4982.50000   88.03010    4.93960    3.08690   -9999.25   -9999.25    3.88290  202.43530   -9999.25   -9999.25   -9999.25
 4983.00000   81.93270    5.02620    1.60320   -9999.25   -9999.25    3.81630  198.94510   -9999.25   -9999.25   -9999.25
 4983.50000   75.79680    5.19330   -0.05090   -9999.25   -9999.25    3.84500  192.56020   -9999.25   -9999.25   -9999.25
 4984.00000   72.38960    5.36170   -1.69570   -9999.25   -9999.25    3.89530  186.49720   -9999.25   -9999.25   -9999.25
 4984.50000   69.36700    5.50940   -3.41550   -9999.25   -9999.25    4.01470  181.48730   -9999.25   -9999.25   -9999.25
 4985.00000   66.10600    5.31270   -5.17710   -9999.25   -9999.25    4.17650  188.17610   -9999.25   -9999.25   -9999.25
 4985.50000   62.75910    5.00210   -5.79230   -9999.25   -9999.25    4.21350  199.86030   -9999.25   -9999.25   -9999.25
 4986.00000   62.30950    4.79050   -6.39680   -9999.25   -9999.25    4.11280  208.78140   -9999.25   -9999.25   -9999.25
 4986.50000   66.13390    4.62370   -7.42800   -9999.25   -9999.25    3.87510  216.37230   -9999.25   -9999.25   -9999.25
 4987.00000   73.35420    4.58990   -7.74950   -9999.25   -9999.25    3.51840  217.83310   -9999.25   -9999.25   -9999.25
 4987.50000   79.44180    4.57430   -7.92950   -9999.25   -9999.25    3.22460  218.45020   -9999.25   -9999.25   -9999.25
 4988.00000   84.45770    4.46640   -7.99360   -9999.25   -9999.25    3.04410  223.54160   -9999.25   -9999.25   -9999.25
 4988.50000   87.72510    4.23120   -7.87620   -9999.25   -9999.25    3.00930  236.24410   -9999.25   -9999.25   -9999.25
 4989.00000   84.09400    4.01200   -6.97330   -9999.25   -9999.25    3.00640  249.19330   -9999.25   -9999.25   -9999.25
 4989.50000   79.40600    3.90220   -5.91790   -9999.25   -9999.25    3.13470  256.26370   -9999.25   -9999.25   -9999.25
 4990.00000   75.74380    3.90170   -4.86250   -9999.25   -9999.25    3.21120  256.30510   -9999.25   -9999.25   -9999.25
 4990.50000   75.68030    3.98670   -3.83110   -9999.25   -9999.25    3.22450  251.49980   -9999.25   -9999.25   -9999.25
 4991.00000   77.54670    4.11350   -2.92490   -9999.25   -9999.25    3.22440  242.50130   -9999.25   -9999.25   -9999.25
 4991.50000   79.70980    4.24030   -2.36730   -9999.25   -9999.25    3.21560  233.50280   -9999.25   -9999.25   -9999.25
 4992.00000   85.73200    4.34590   -2.29230   -9999.25   -9999.25    3.17780  224.70150   -9999.25   -9999.25   -9999.25
 4992.50000   93.83180    4.29170   -2.52000   -9999.25   -9999.25    3.13990  229.07420   -9999.25   -9999.25   -9999.25
 4993.00000   99.32750    4.13300   -2.82710   -9999.25   -9999.25    3.10380  238.43280   -9999.25   -9999.25   -9999.25
 4993.50000  101.54500    3.97980   -3.62770   -9999.25   -9999.25    3.13820  250.90780   -9999.25   -9999.25   -9999.25
