~Version ---------------------------------------------------
VERS.   2.0 : CWLS log ASCII Standard -VERSION 2.0
WRAP.    NO : One line per depth step
DLM . SPACE : Column Data Section Delimiter
~Well ------------------------------------------------------
STRT .F                  836.0 : START DEPTH
STOP .F                 8477.0 : STOP DEPTH
STEP .F                    0.5 : STEP
NULL .                -9999.25 : NULL VALUE
COMP .                         : COMPANY
WELL .                         : WELL
FLD  .                         : FIELD
LOC  .                         : LOCATION
PROV .                         : PROVINCE
CNTY .                         : COUNTY
STAT .                         : STATE
CTRY .                         : COUNTRY
SRVC .                         : SERVICE COMPANY
DATE .                         : DATE
UWI  .                         : UNIQUE WELL ID
API  .                         : API NUMBER
SLAT .WGS84    5.1065078621168 : SURFACE LATITUDE
SLON .WGS84 2.1785651349902793 : SURFACE LONGITUDE
DATUM.F                  994.6 : DEPTH DATUM ELEV
~Curve Information -----------------------------------------
DEPT   .F     : 1 MEASURED DEPTH
GRR    .GAPI  : GAMMA RAY FROM RESISTIVITY LOG
ILD    .OHMM  : INDUCTION DEEP RESISTIVITY
SPR    .MV    : SPONTANEOUS POTENTIAL FROM RESISTIVITY LOG
ILM    .OHMM  : INDUCTION MEDIUM RESISTIVITY
SFLU   .OHMM  : SHALLOW FOCUSED RESISTIVITY (UNAVERAGED)
SFLA   .OHMM  : SPHERICALLY FOCUSED LOG RESISTIVITY AVERAGED OVER 2.5 FT
CILD   .MMHO  : INDUCTION DEEP CONDUCTIVITY
NPHI_LS.DEC   : NEUTRON POROSITY LIMESTONE
DTCO   .US/F  : DELTA-T COMPRESSIONAL
DTSM   .US/F  : DELTA-T SHEAR
~Params ----------------------------------------------------
~Other -----------------------------------------------------
~ASCII -----------------------------------------------------
# ...
 1331.00000   81.66000    3.73470   11.28300   -9999.25   -9999.25    3.03660  267.23380   -9999.25   -9999.25   -9999.25
 1331.50000   85.33830    3.74330   10.92880   -9999.25   -9999.25    3.03300  267.03830   -9999.25   -9999.25   -9999.25
 1332.00000   88.83510    3.74300   10.65620   -9999.25   -9999.25    3.02270  267.05820   -9999.25   -9999.25   -9999.25
 1332.50000   88.90860    3.73310   10.62310   -9999.25   -9999.25    2.99600  267.76440   -9999.25   -9999.25   -9999.25
 1333.00000   87.83940    3.71320   10.59010   -9999.25   -9999.25    2.96940  269.19630   -9999.25   -9999.25   -9999.25
 1333.50000   88.43310    3.67980   10.55700   -9999.25   -9999.25    2.94270  271.15530   -9999.25   -9999.25   -9999.25
 1334.00000   90.13630    3.64440   10.52390   -9999.25   -9999.25    2.91610  273.01900   -9999.25   -9999.25   -9999.25
 1334.50000   93.29740    3.60890   10.49090   -9999.25   -9999.25    2.88090  274.20540   -9999.25   -9999.25   -9999.25
 1335.00000   95.59090    3.57340    9.94250   -9999.25   -9999.25    2.85780  276.01720   -9999.25   -9999.25   -9999.25
 1335.50000   98.61490    3.53800    8.79320   -9999.25   -9999.25    2.83800  278.56450   -9999.25   -9999.25   -9999.25
 1336.00000   99.39740    3.50250    7.29500   -9999.25   -9999.25    2.81820  281.87580   -9999.25   -9999.25   -9999.25
 1336.50000   96.51650    3.46710    4.61740   -9999.25   -9999.25    2.78170  285.25390   -9999.25   -9999.25   -9999.25
 1337.00000   90.31990    3.42870   -0.10790   -9999.25   -9999.25    2.68610  291.39150   -9999.25   -9999.25   -9999.25
 1337.50000   83.88590    3.27490   -3.74310   -9999.25   -9999.25    2.58680  302.46750   -9999.25   -9999.25   -9999.25
 1338.00000   78.27620    3.11710   -6.68670   -9999.25   -9999.25    2.48750  320.39040   -9999.25   -9999.25   -9999.25
 1338.50000   73.60660    2.95930   -9.08580   -9999.25   -9999.25    2.38820  334.93470   -9999.25   -9999.25   -9999.25
 1339.00000   71.37340    2.80650  -10.76700   -9999.25   -9999.25    2.28890  358.20810   -9999.25   -9999.25   -9999.25
 1339.50000   75.08170    2.65850  -12.97560   -9999.25   -9999.25    2.18960  377.16300   -9999.25   -9999.25   -9999.25
 1340.00000   75.67340    2.51050  -15.66430   -9999.25   -9999.25    2.09030  395.96290   -9999.25   -9999.25   -9999.25
 1340.50000   73.40200    2.36250  -17.97740   -9999.25   -9999.25    2.01840  413.58620   -9999.25   -9999.25   -9999.25
 1341.00000   74.02980    2.21440  -19.09080   -9999.25   -9999.25    1.99250  415.99460   -9999.25   -9999.25   -9999.25
 1341.50000   76.68690    2.16340  -19.28880   -9999.25   -9999.25    1.99200  415.14800   -9999.25   -9999.25   -9999.25
 1342.00000   81.56380    2.16290  -18.99700   -9999.25   -9999.25    2.00220  406.10820   -9999.25   -9999.25   -9999.25
 1342.50000   85.90660    2.16660  -16.90730   -9999.25   -9999.25    2.10130  391.02130   -9999.25   -9999.25   -9999.25
 1343.00000   82.71890    2.40390  -13.65760   -9999.25   -9999.25    2.20030  373.73450   -9999.25   -9999.25   -9999.25
 1343.50000   79.10940    2.64130   -9.76690   -9999.25   -9999.25    2.29940  350.66800   -9999.25   -9999.25   -9999.25
 1344.00000   75.75750    2.87870   -6.00570   -9999.25   -9999.25    2.39840  333.18560   -9999.25   -9999.25   -9999.25
 1344.50000   73.86610    2.98840   -3.38560   -9999.25   -9999.25    2.46690  318.68120   -9999.25   -9999.25   -9999.25
 1345.00000   74.61700    3.09270   -1.00000   -9999.25   -9999.25    2.51390  305.82120   -9999.25   -9999.25   -9999.25
 1345.50000   78.61360    3.19710    0.13510   -9999.25   -9999.25    2.55170  299.52140   -9999.25   -9999.25   -9999.25
 1346.00000   85.40180    3.30150    1.07910   -9999.25   -9999.25    2.58110  294.42400   -9999.25   -9999.25   -9999.25
 1346.50000   90.57920    3.32170    1.94390   -9999.25   -9999.25    2.61430  291.35330   -9999.25   -9999.25   -9999.25
 1347.00000   91.33820    3.33260    2.80870   -9999.25   -9999.25    2.64820  288.76480   -9999.25   -9999.25   -9999.25
 1347.50000   87.37020    3.34350    3.49460   -9999.25   -9999.25    2.68200  287.60260   -9999.25   -9999.25   -9999.25
 1348.00000   85.37630    3.35240    3.78280   -9999.25   -9999.25    2.71730  287.10220   -9999.25   -9999.25   -9999.25
 1348.50000   86.94330    3.36000    3.78150   -9999.25   -9999.25    2.75410  286.95320   -9999.25   -9999.25   -9999.25
 1349.00000   87.23430    3.36750    3.78020   -9999.25   -9999.25    2.78180  287.56270   -9999.25   -9999.25   -9999.25
 1349.50000   83.15290    3.37510    3.80620   -9999.25   -9999.25    2.78240  288.16640   -9999.25   -9999.25   -9999.25
 1350.00000   78.95500    3.38270    4.20600   -9999.25   -9999.25    2.78100  288.21980   -9999.25   -9999.25   -9999.25
 1350.50000   80.23280    3.39030    4.83070   -9999.25   -9999.25    2.77890  288.27320   -9999.25   -9999.25   -9999.25
 1351.00000   81.15200    3.39790    6.03690   -9999.25   -9999.25    2.75410  287.82050   -9999.25   -9999.25   -9999.25
 1351.50000   79.86510    3.40550    7.24750   -9999.25   -9999.25    2.81620  286.40130   -9999.25   -9999.25   -9999.25
 1352.00000   78.91150    3.41310    8.45820   -9999.25   -9999.25    2.87050  285.96570   -9999.25   -9999.25   -9999.25
 1352.50000   79.03540    3.42070    8.69780   -9999.25   -9999.25    2.91560  285.97440   -9999.25   -9999.25   -9999.25
 1353.00000   79.51060    3.42830    8.81830   -9999.25   -9999.25    2.93630  286.86190   -9999.25   -9999.25   -9999.25
 1353.50000   80.32290    3.43580    8.10540   -9999.25   -9999.25    2.95700  288.33360   -9999.25   -9999.25   -9999.25
 1354.00000   81.19550    3.43530    7.54120   -9999.25   -9999.25    2.96630  289.08670   -9999.25   -9999.25   -9999.25
 1354.50000   82.93780    3.43410    7.25840   -9999.25   -9999.25    2.92840  289.39950   -9999.25   -9999.25   -9999.25
 1355.00000   84.86230    3.43300    7.37000   -9999.25   -9999.25    2.86140  289.50490   -9999.25   -9999.25   -9999.25
 1355.50000   84.44250    3.43180    7.63890   -9999.25   -9999.25    2.81290  289.99940   -9999.25   -9999.25   -9999.25
 1356.00000   81.94920    3.43070    7.77170   -9999.25   -9999.25    2.77860  290.73280   -9999.25   -9999.25   -9999.25
 1356.50000   79.97140    3.42950    7.65110   -9999.25   -9999.25    2.76750  291.42730   -9999.25   -9999.25   -9999.25
 1357.00000   80.91810    3.42840    7.25620   -9999.25   -9999.25    2.79560  291.66620   -9999.25   -9999.25   -9999.25
 1357.50000   82.12290    3.42720    6.76760   -9999.25   -9999.25    2.82850  291.90510   -9999.25   -9999.25   -9999.25
 1358.00000   82.69870    3.42440    5.75890   -9999.25   -9999.25    2.85110  292.14400   -9999.25   -9999.25   -9999.25
 1358.50000   79.89080    3.39350    4.47260   -9999.25   -9999.25    2.86400  294.83190   -9999.25   -9999.25   -9999.25
 1359.00000   78.37640    3.35460    3.18620   -9999.25   -9999.25    2.86630  298.27160   -9999.25   -9999.25   -9999.25
 1359.50000   79.86260    3.27150    1.83910   -9999.25   -9999.25    2.80440  309.17610   -9999.25   -9999.25   -9999.25
 1360.00000   84.85690    3.16290   -0.09860   -9999.25   -9999.25    2.70470  316.97820   -9999.25   -9999.25   -9999.25
 1360.50000   81.28820    3.05440   -2.73130   -9999.25   -9999.25    2.65260  328.80340   -9999.25   -9999.25   -9999.25
 1361.00000   73.55000    2.96470   -5.86300   -9999.25   -9999.25    2.60050  333.90380   -9999.25   -9999.25   -9999.25
 1361.50000   67.36180    2.90390   -8.18980   -9999.25   -9999.25    2.54830  339.66030   -9999.25   -9999.25   -9999.25
 1362.00000   64.07040    2.84320  -10.01180   -9999.25   -9999.25    2.49620  346.41500   -9999.25   -9999.25   -9999.25
 1362.50000   70.01730    2.78250  -10.73010   -9999.25   -9999.25    2.46450  350.88750   -9999.25   -9999.25   -9999.25
 1363.00000   69.29390    2.72170  -10.83320   -9999.25   -9999.25    2.45200  355.18240   -9999.25   -9999.25   -9999.25
 1363.50000   68.11180    2.68940  -10.63930   -9999.25   -9999.25    2.44100  356.83730   -9999.25   -9999.25   -9999.25
