~Version ---------------------------------------------------
VERS.   2.0 : CWLS log ASCII Standard -VERSION 2.0
WRAP.    NO : One line per depth step
DLM . SPACE : Column Data Section Delimiter
~Well ------------------------------------------------------
STRT .F                  836.0 : START DEPTH
STOP .F                 8477.0 : STOP DEPTH
STEP .F                    0.5 : STEP
NULL .                -9999.25 : NULL VALUE
COMP .                         : COMPANY
WELL .                         : WELL
FLD  .                         : FIELD
LOC  .                         : LOCATION
PROV .                         : PROVINCE
CNTY .                         : COUNTY
STAT .                         : STATE
CTRY .                         : COUNTRY
SRVC .                         : SERVICE COMPANY
DATE .                         : DATE
UWI  .                         : UNIQUE WELL ID
API  .                         : API NUMBER
SLAT .WGS84    5.1065078621168 : SURFACE LATITUDE
SLON .WGS84 2.1785651349902793 : SURFACE LONGITUDE
DATUM.F                  994.6 : DEPTH DATUM ELEV
~Curve Information -----------------------------------------
DEPT   .F     : 1 MEASURED DEPTH
GRR    .GAPI  : GAMMA RAY FROM RESISTIVITY LOG
ILD    .OHMM  : INDUCTION DEEP RESISTIVITY
SPR    .MV    : SPONTANEOUS POTENTIAL FROM RESISTIVITY LOG
ILM    .OHMM  : INDUCTION MEDIUM RESISTIVITY
SFLU   .OHMM  : SHALLOW FOCUSED RESISTIVITY (UNAVERAGED)
SFLA   .OHMM  : SPHERICALLY FOCUSED LOG RESISTIVITY AVERAGED OVER 2.5 FT
CILD   .MMHO  : INDUCTION DEEP CONDUCTIVITY
NPHI_LS.DEC   : NEUTRON POROSITY LIMESTONE
DTCO   .US/F  : DELTA-T COMPRESSIONAL
DTSM   .US/F  : DELTA-T SHEAR
~Params ----------------------------------------------------
~Other -----------------------------------------------------
~ASCII -----------------------------------------------------
# ...
 2321.00000   71.68290    3.61350   -8.31820   -9999.25   -9999.25    3.14870  267.74140   -9999.25   -9999.25   -9999.25
 2321.50000   67.35490    3.52270  -11.08550   -9999.25   -9999.25    3.04930  273.74600   -9999.25   -9999.25   -9999.25
 2322.00000   68.99170    3.43190  -11.54310   -9999.25   -9999.25    2.94550  278.62730   -9999.25   -9999.25   -9999.25
 2322.50000   74.15370    3.34110  -11.60480   -9999.25   -9999.25    2.92270  284.23800   -9999.25   -9999.25   -9999.25
 2323.00000   78.85220    3.25020  -11.15630   -9999.25   -9999.25    2.89980  291.07790   -9999.25   -9999.25   -9999.25
 2323.50000   85.23960    3.15940  -10.26730   -9999.25   -9999.25    2.87700  301.13420   -9999.25   -9999.25   -9999.25
 2324.00000   89.51150    3.06860   -9.37840   -9999.25   -9999.25    2.84860  309.16070   -9999.25   -9999.25   -9999.25
 2324.50000   92.68980    2.97780   -8.48940   -9999.25   -9999.25    2.81730  313.65590   -9999.25   -9999.25   -9999.25
 2325.00000   93.91390    2.88700   -7.47020   -9999.25   -9999.25    2.78870  314.16050   -9999.25   -9999.25   -9999.25
 2325.50000   94.12450    2.87320   -5.90950   -9999.25   -9999.25    2.76000  314.19520   -9999.25   -9999.25   -9999.25
 2326.00000   96.12360    2.87320   -4.66560   -9999.25   -9999.25    2.73130  314.34390   -9999.25   -9999.25   -9999.25
 2326.50000  102.45900    2.88240   -3.35130   -9999.25   -9999.25    2.70270  315.67650   -9999.25   -9999.25   -9999.25
 2327.00000  108.78480    2.95610   -1.77630   -9999.25   -9999.25    2.67400  316.86520   -9999.25   -9999.25   -9999.25
 2327.50000  108.21720    3.02980   -0.09980   -9999.25   -9999.25    2.68370  315.85530   -9999.25   -9999.25   -9999.25
 2328.00000  104.39770    3.10360    1.34470   -9999.25   -9999.25    2.70570  312.47160   -9999.25   -9999.25   -9999.25
 2328.50000  101.10990    3.17730    2.77710   -9999.25   -9999.25    2.72770  307.70760   -9999.25   -9999.25   -9999.25
 2329.00000   97.60580    3.25100    3.43420   -9999.25   -9999.25    2.77280  302.33060   -9999.25   -9999.25   -9999.25
 2329.50000   93.96170    3.32470    3.31940   -9999.25   -9999.25    2.86080  299.06740   -9999.25   -9999.25   -9999.25
 2330.00000   91.38570    3.39550    2.95900   -9999.25   -9999.25    2.93470  294.50660   -9999.25   -9999.25   -9999.25
 2330.50000   88.82680    3.46210    2.59850   -9999.25   -9999.25    3.00080  288.83690   -9999.25   -9999.25   -9999.25
 2331.00000   87.86770    3.48900    2.61360   -9999.25   -9999.25    3.04180  283.16730   -9999.25   -9999.25   -9999.25
 2331.50000   87.69240    3.46080    3.75040   -9999.25   -9999.25    3.03430  281.79780   -9999.25   -9999.25   -9999.25
 2332.00000   87.00650    3.43250    5.26200   -9999.25   -9999.25    2.95960  282.41500   -9999.25   -9999.25   -9999.25
 2332.50000   86.57070    3.40430    6.77370   -9999.25   -9999.25    2.88490  285.57750   -9999.25   -9999.25   -9999.25
 2333.00000   86.91770    3.37610    8.47580   -9999.25   -9999.25    2.81500  289.95040   -9999.25   -9999.25   -9999.25
 2333.50000   87.84070    3.34780   10.66170   -9999.25   -9999.25    2.75190  294.32340   -9999.25   -9999.25   -9999.25
 2334.00000   90.14530    3.31960   12.47860   -9999.25   -9999.25    2.68890  298.56120   -9999.25   -9999.25   -9999.25
 2334.50000   96.36130    3.29040   13.69290   -9999.25   -9999.25    2.64810  302.67330   -9999.25   -9999.25   -9999.25
 2335.00000  103.09610    3.25980   14.81040   -9999.25   -9999.25    2.61990  306.78550   -9999.25   -9999.25   -9999.25
 2335.50000  101.07790    3.22920   15.72930   -9999.25   -9999.25    2.60560  311.00190   -9999.25   -9999.25   -9999.25
 2336.00000   97.02640    3.19860   16.30140   -9999.25   -9999.25    2.60140  312.85520   -9999.25   -9999.25   -9999.25
 2336.50000   94.10820    3.18660   16.97260   -9999.25   -9999.25    2.60720  313.82080   -9999.25   -9999.25   -9999.25
 2337.00000   96.45880    3.18380   17.32580   -9999.25   -9999.25    2.61400  314.09810   -9999.25   -9999.25   -9999.25
 2337.50000   97.65830    3.19520   17.53640   -9999.25   -9999.25    2.62090  312.98570   -9999.25   -9999.25   -9999.25
 2338.00000   96.30710    3.20810   17.52290   -9999.25   -9999.25    2.62400  311.72620   -9999.25   -9999.25   -9999.25
 2338.50000   95.30260    3.23830   17.39900   -9999.25   -9999.25    2.61080  308.81420   -9999.25   -9999.25   -9999.25
 2339.00000   96.69590    3.26830   17.37740   -9999.25   -9999.25    2.60130  305.98430   -9999.25   -9999.25   -9999.25
 2339.50000  100.15210    3.30170   17.74240   -9999.25   -9999.25    2.63020  302.88340   -9999.25   -9999.25   -9999.25
 2340.00000  100.27490    3.34840   18.10730   -9999.25   -9999.25    2.66180  298.65890   -9999.25   -9999.25   -9999.25
 2340.50000   96.38420    3.39430   18.47220   -9999.25   -9999.25    2.71090  294.62450   -9999.25   -9999.25   -9999.25
 2341.00000   92.36720    3.44350   18.83720   -9999.25   -9999.25    2.76000  290.41040   -9999.25   -9999.25   -9999.25
 2341.50000   91.56220    3.49190   19.20210   -9999.25   -9999.25    2.80920  286.38550   -9999.25   -9999.25   -9999.25
 2342.00000   90.96540    3.54430   19.19540   -9999.25   -9999.25    2.85830  282.15380   -9999.25   -9999.25   -9999.25
 2342.50000   87.70060    3.57180   18.72820   -9999.25   -9999.25    2.90740  279.98210   -9999.25   -9999.25   -9999.25
 2343.00000   83.52000    3.58590   18.24520   -9999.25   -9999.25    2.95610  278.88020   -9999.25   -9999.25   -9999.25
 2343.50000   85.44510    3.60280   17.98960   -9999.25   -9999.25    3.00310  277.57190   -9999.25   -9999.25   -9999.25
 2344.00000   90.78910    3.63820   17.85740   -9999.25   -9999.25    3.05000  274.86820   -9999.25   -9999.25   -9999.25
 2344.50000   96.13310    3.68030   17.64790   -9999.25   -9999.25    3.09880  271.73080   -9999.25   -9999.25   -9999.25
 2345.00000   96.21820    3.74110   17.38060   -9999.25   -9999.25    3.14900  267.30890   -9999.25   -9999.25   -9999.25
 2345.50000   92.31420    3.79810   17.05360   -9999.25   -9999.25    3.19120  263.29230   -9999.25   -9999.25   -9999.25
 2346.00000   87.22810    3.83160   16.81220   -9999.25   -9999.25    3.20360  260.99370   -9999.25   -9999.25   -9999.25
 2346.50000   82.62410    3.85590   16.52900   -9999.25   -9999.25    3.23460  259.34570   -9999.25   -9999.25   -9999.25
 2347.00000   76.23650    3.87390   15.75200   -9999.25   -9999.25    3.27350  258.14070   -9999.25   -9999.25   -9999.25
 2347.50000   70.37830    3.89050   15.06360   -9999.25   -9999.25    3.28650  257.04070   -9999.25   -9999.25   -9999.25
 2348.00000   66.96330    3.89780   14.55120   -9999.25   -9999.25    3.29630  256.55760   -9999.25   -9999.25   -9999.25
 2348.50000   68.87200    3.90160   13.98710   -9999.25   -9999.25    3.29210  256.30640   -9999.25   -9999.25   -9999.25
 2349.00000   72.60160    3.90720   13.36180   -9999.25   -9999.25    3.28770  255.94310   -9999.25   -9999.25   -9999.25
 2349.50000   75.26250    3.91760   13.17510   -9999.25   -9999.25    3.28570  255.25990   -9999.25   -9999.25   -9999.25
 2350.00000   77.92330    3.93390   13.54510   -9999.25   -9999.25    3.29180  254.39280   -9999.25   -9999.25   -9999.25
 2350.50000   79.02920    3.94750   13.91510   -9999.25   -9999.25    3.29790  253.52570   -9999.25   -9999.25   -9999.25
 2351.00000   79.30620    3.96180   14.26280   -9999.25   -9999.25    3.31880  252.60590   -9999.25   -9999.25   -9999.25
 2351.50000   79.03420    3.98040   13.92760   -9999.25   -9999.25    3.34010  251.43040   -9999.25   -9999.25   -9999.25
 2352.00000   77.12600    3.99600   13.59250   -9999.25   -9999.25    3.34930  250.44490   -9999.25   -9999.25   -9999.25
 2352.50000   74.52780    4.01180   13.25730   -9999.25   -9999.25    3.35840  249.45930   -9999.25   -9999.25   -9999.25
 2353.00000   74.83340    4.01520   12.92220   -9999.25   -9999.25    3.36900  249.27020   -9999.25   -9999.25   -9999.25
 2353.50000   78.12360    3.99140   12.58700   -9999.25   -9999.25    3.37430  250.75540   -9999.25   -9999.25   -9999.25
