~Version ---------------------------------------------------
VERS.   2.0 : CWLS log ASCII Standard -VERSION 2.0
WRAP.    NO : One line per depth step
DLM . SPACE : Column Data Section Delimiter
~Well ------------------------------------------------------
STRT .F                  836.0 : START DEPTH
STOP .F                 8477.0 : STOP DEPTH
STEP .F                    0.5 : STEP
NULL .                -9999.25 : NULL VALUE
COMP .                         : COMPANY
WELL .                         : WELL
FLD  .                         : FIELD
LOC  .                         : LOCATION
PROV .                         : PROVINCE
CNTY .                         : COUNTY
STAT .                         : STATE
CTRY .                         : COUNTRY
SRVC .                         : SERVICE COMPANY
DATE .                         : DATE
UWI  .                         : UNIQUE WELL ID
API  .                         : API NUMBER
SLAT .WGS84    5.1065078621168 : SURFACE LATITUDE
SLON .WGS84 2.1785651349902793 : SURFACE LONGITUDE
DATUM.F                  994.6 : DEPTH DATUM ELEV
~Curve Information -----------------------------------------
DEPT   .F     : 1 MEASURED DEPTH
GRR    .GAPI  : GAMMA RAY FROM RESISTIVITY LOG
ILD    .OHMM  : INDUCTION DEEP RESISTIVITY
SPR    .MV    : SPONTANEOUS POTENTIAL FROM RESISTIVITY LOG
ILM    .OHMM  : INDUCTION MEDIUM RESISTIVITY
SFLU   .OHMM  : SHALLOW FOCUSED RESISTIVITY (UNAVERAGED)
SFLA   .OHMM  : SPHERICALLY FOCUSED LOG RESISTIVITY AVERAGED OVER 2.5 FT
CILD   .MMHO  : INDUCTION DEEP CONDUCTIVITY
NPHI_LS.DEC   : NEUTRON POROSITY LIMESTONE
DTCO   .US/F  : DELTA-T COMPRESSIONAL
DTSM   .US/F  : DELTA-T SHEAR
~Params ----------------------------------------------------
~Other -----------------------------------------------------
~ASCII -----------------------------------------------------
# ...
 3377.00000   40.87990    1.41910  -45.38670   -9999.25   -9999.25    7.29470  651.03470   -9999.25   -9999.25   -9999.25
 3377.50000   41.26360    1.38260  -44.05320   -9999.25   -9999.25    7.88980  656.11460   -9999.25   -9999.25   -9999.25
 3378.00000   41.34030    1.34610  -42.75370   -9999.25   -9999.25    8.19160  670.67810   -9999.25   -9999.25   -9999.25
 3378.50000   41.61210    1.30970  -42.37710   -9999.25   -9999.25    8.18590  690.41410   -9999.25   -9999.25   -9999.25
 3379.00000   43.96150    1.27320  -42.00050   -9999.25   -9999.25    7.48840  723.22620   -9999.25   -9999.25   -9999.25
 3379.50000   47.16990    1.23670  -41.62390   -9999.25   -9999.25    6.51780  762.14540   -9999.25   -9999.25   -9999.25
 3380.00000   48.87970    1.20020  -41.24730   -9999.25   -9999.25    5.80800  801.06470   -9999.25   -9999.25   -9999.25
 3380.50000   48.92260    1.16380  -40.87080   -9999.25   -9999.25    5.09830  839.98390   -9999.25   -9999.25   -9999.25
 3381.00000   48.71120    1.11950  -41.43080   -9999.25   -9999.25    4.65090  878.90320   -9999.25   -9999.25   -9999.25
 3381.50000   48.54960    1.05800  -42.80840   -9999.25   -9999.25    4.34940  943.94600   -9999.25   -9999.25   -9999.25
 3382.00000   48.41260    1.03340  -44.87410   -9999.25   -9999.25    4.33830  966.13590   -9999.25   -9999.25   -9999.25
 3382.50000   48.36990    1.01230  -47.76830   -9999.25   -9999.25    4.48870  986.37630   -9999.25   -9999.25   -9999.25
 3383.00000   47.75350    1.00310  -49.53540   -9999.25   -9999.25    4.64990  995.37010   -9999.25   -9999.25   -9999.25
 3383.50000   45.02840    1.00040  -51.25600   -9999.25   -9999.25    4.75100  998.09120   -9999.25   -9999.25   -9999.25
 3384.00000   41.51380    1.00460  -51.74260   -9999.25   -9999.25    4.77020  994.01040   -9999.25   -9999.25   -9999.25
 3384.50000   38.52370    1.02010  -51.81020   -9999.25   -9999.25    4.78940  978.87480   -9999.25   -9999.25   -9999.25
 3385.00000   39.23770    1.03720  -51.80620   -9999.25   -9999.25    4.80850  962.84330   -9999.25   -9999.25   -9999.25
 3385.50000   46.31600    1.06050  -51.94830   -9999.25   -9999.25    4.82770  941.67160   -9999.25   -9999.25   -9999.25
 3386.00000   53.39430    1.08490  -50.90320   -9999.25   -9999.25    4.84680  920.50000   -9999.25   -9999.25   -9999.25
 3386.50000   60.47260    1.11050  -49.37750   -9999.25   -9999.25    4.86600  899.32840   -9999.25   -9999.25   -9999.25
 3387.00000   63.56470    1.12510  -47.85180   -9999.25   -9999.25    4.84800  887.58570   -9999.25   -9999.25   -9999.25
 3387.50000   55.07600    1.12890  -47.97310   -9999.25   -9999.25    4.80460  884.65290   -9999.25   -9999.25   -9999.25
 3388.00000   46.53990    1.11920  -49.81710   -9999.25   -9999.25    4.96150  891.82520   -9999.25   -9999.25   -9999.25
 3388.50000   40.50080    1.07760  -53.29870   -9999.25   -9999.25    5.11350  924.44870   -9999.25   -9999.25   -9999.25
 3389.00000   35.44710    1.04130  -57.10530   -9999.25   -9999.25    5.25970  954.03020   -9999.25   -9999.25   -9999.25
 3389.50000   30.39530    0.99630  -60.14790   -9999.25   -9999.25    5.40590  983.12620   -9999.25   -9999.25   -9999.25
 3390.00000   28.15950    0.95130  -63.03030   -9999.25   -9999.25    5.55220  999.36800   -9999.25   -9999.25   -9999.25
 3390.50000   28.15390    0.90630  -64.53960   -9999.25   -9999.25    5.54410  999.73570   -9999.25   -9999.25   -9999.25
 3391.00000   29.45140    0.88030  -64.85900   -9999.25   -9999.25    5.39880  999.82320   -9999.25   -9999.25   -9999.25
 3391.50000   32.35930    0.87450  -64.83650   -9999.25   -9999.25    5.18190  999.91080   -9999.25   -9999.25   -9999.25
 3392.00000   33.63260    0.86870  -64.81390   -9999.25   -9999.25    5.01390  999.99840   -9999.25   -9999.25   -9999.25
 3392.50000   31.48890    0.86290  -64.66510   -9999.25   -9999.25    4.87130 1000.08600   -9999.25   -9999.25   -9999.25
 3393.00000   27.99870    0.85720  -64.20390   -9999.25   -9999.25    4.81090 1000.17360   -9999.25   -9999.25   -9999.25
 3393.50000   27.74710    0.85140  -63.70600   -9999.25   -9999.25    4.80850 1000.26110   -9999.25   -9999.25   -9999.25
 3394.00000   29.51100    0.84560  -63.33900   -9999.25   -9999.25    4.88790 1000.34870   -9999.25   -9999.25   -9999.25
 3394.50000   31.37690    0.88900  -63.43220   -9999.25   -9999.25    5.16260 1000.43630   -9999.25   -9999.25   -9999.25
 3395.00000   29.95060    0.95170  -63.81800   -9999.25   -9999.25    5.56240 1000.08690   -9999.25   -9999.25   -9999.25
 3395.50000   27.13950    1.01440  -64.07870   -9999.25   -9999.25    6.06090  969.53230   -9999.25   -9999.25   -9999.25
 3396.00000   24.90480    1.07710  -64.14180   -9999.25   -9999.25    6.55940  923.27210   -9999.25   -9999.25   -9999.25
 3396.50000   24.86860    1.14630  -63.93570   -9999.25   -9999.25    6.63900  872.70190   -9999.25   -9999.25   -9999.25
 3397.00000   26.10660    1.19210  -63.52840   -9999.25   -9999.25    6.59140  837.93350   -9999.25   -9999.25   -9999.25
 3397.50000   29.62880    1.23890  -63.14150   -9999.25   -9999.25    6.57580  806.30400   -9999.25   -9999.25   -9999.25
 3398.00000   34.15550    1.28950  -62.87350   -9999.25   -9999.25    6.55860  774.67440   -9999.25   -9999.25   -9999.25
 3398.50000   38.68220    1.34220  -62.77120   -9999.25   -9999.25    6.52920  743.71030   -9999.25   -9999.25   -9999.25
 3399.00000   40.41270    1.36450  -62.95210   -9999.25   -9999.25    6.49970  732.12180   -9999.25   -9999.25   -9999.25
 3399.50000   35.04410    1.38640  -63.45640   -9999.25   -9999.25    6.47030  720.53320   -9999.25   -9999.25   -9999.25
 3400.00000   29.27760    1.40690  -64.04280   -9999.25   -9999.25    6.55470  708.94460   -9999.25   -9999.25   -9999.25
 3400.50000   23.51110    1.41570  -64.72050   -9999.25   -9999.25    6.82130  704.15750   -9999.25   -9999.25   -9999.25
 3401.00000   22.73830    1.41890  -65.39830   -9999.25   -9999.25    7.10750  702.57150   -9999.25   -9999.25   -9999.25
 3401.50000   28.89490    1.42690  -66.07600   -9999.25   -9999.25    7.39360  701.04590   -9999.25   -9999.25   -9999.25
 3402.00000   33.32890    1.42840  -66.75370   -9999.25   -9999.25    7.64560  700.32960   -9999.25   -9999.25   -9999.25
 3402.50000   32.08270    1.42820  -67.14880   -9999.25   -9999.25    7.80080  700.45120   -9999.25   -9999.25   -9999.25
 3403.00000   29.63100    1.42180  -67.14900   -9999.25   -9999.25    7.80100  703.61280   -9999.25   -9999.25   -9999.25
 3403.50000   27.17940    1.40810  -67.10580   -9999.25   -9999.25    7.63670  710.51320   -9999.25   -9999.25   -9999.25
 3404.00000   26.15410    1.39390  -66.02430   -9999.25   -9999.25    7.25670  717.71090   -9999.25   -9999.25   -9999.25
 3404.50000   26.30210    1.37430  -64.47600   -9999.25   -9999.25    6.84910  724.63670   -9999.25   -9999.25   -9999.25
 3405.00000   30.10340    1.35250  -62.65880   -9999.25   -9999.25    6.10740  729.49490   -9999.25   -9999.25   -9999.25
 3405.50000   32.93420    1.33070  -60.75650   -9999.25   -9999.25    5.29600  728.45300   -9999.25   -9999.25   -9999.25
 3406.00000   39.52850    1.30900  -56.47450   -9999.25   -9999.25    4.53070  721.95090   -9999.25   -9999.25   -9999.25
 3406.50000   50.88600    1.28720  -50.08480   -9999.25   -9999.25    3.84600  700.89980   -9999.25   -9999.25   -9999.25
 3407.00000   74.47500    1.31370  -43.69500   -9999.25   -9999.25    3.27240  674.82450   -9999.25   -9999.25   -9999.25
 3407.50000   87.35140    1.38040  -37.21720   -9999.25   -9999.25    2.78610  645.99840   -9999.25   -9999.25   -9999.25
 3408.00000   99.07900    1.50480  -30.62760   -9999.25   -9999.25    2.52390  608.46640   -9999.25   -9999.25   -9999.25
 3408.50000  108.51260    1.65150  -24.03810   -9999.25   -9999.25    2.34590  571.59640   -9999.25   -9999.25   -9999.25
 3409.00000  106.65810    1.85770  -17.44850   -9999.25   -9999.25    2.28470  534.72640   -9999.25   -9999.25   -9999.25
 3409.50000  101.47220    2.06380  -11.92270   -9999.25   -9999.25    2.29200  497.85640   -9999.25   -9999.25   -9999.25
