~Version ---------------------------------------------------
VERS.   2.0 : CWLS log ASCII Standard -VERSION 2.0
WRAP.    NO : One line per depth step
DLM . SPACE : Column Data Section Delimiter
~Well ------------------------------------------------------
STRT .F                  836.0 : START DEPTH
STOP .F                 8477.0 : STOP DEPTH
STEP .F                    0.5 : STEP
NULL .                -9999.25 : NULL VALUE
COMP .                         : COMPANY
WELL .                         : WELL
FLD  .                         : FIELD
LOC  .                         : LOCATION
PROV .                         : PROVINCE
CNTY .                         : COUNTY
STAT .                         : STATE
CTRY .                         : COUNTRY
SRVC .                         : SERVICE COMPANY
DATE .                         : DATE
UWI  .                         : UNIQUE WELL ID
API  .                         : API NUMBER
SLAT .WGS84    5.1065078621168 : SURFACE LATITUDE
SLON .WGS84 2.1785651349902793 : SURFACE LONGITUDE
DATUM.F                  994.6 : DEPTH DATUM ELEV
~Curve Information -----------------------------------------
DEPT   .F     : 1 MEASURED DEPTH
GRR    .GAPI  : GAMMA RAY FROM RESISTIVITY LOG
ILD    .OHMM  : INDUCTION DEEP RESISTIVITY
SPR    .MV    : SPONTANEOUS POTENTIAL FROM RESISTIVITY LOG
ILM    .OHMM  : INDUCTION MEDIUM RESISTIVITY
SFLU   .OHMM  : SHALLOW FOCUSED RESISTIVITY (UNAVERAGED)
SFLA   .OHMM  : SPHERICALLY FOCUSED LOG RESISTIVITY AVERAGED OVER 2.5 FT
CILD   .MMHO  : INDUCTION DEEP CONDUCTIVITY
NPHI_LS.DEC   : NEUTRON POROSITY LIMESTONE
DTCO   .US/F  : DELTA-T COMPRESSIONAL
DTSM   .US/F  : DELTA-T SHEAR
~Params ----------------------------------------------------
~Other -----------------------------------------------------
~ASCII -----------------------------------------------------
# ...
 6347.00000   72.10900    6.34290  -17.07390   -9999.25   -9999.25    6.10040  157.67070   -9999.25   -9999.25   -9999.25
 6347.50000   69.41340    6.29000  -17.48950   -9999.25   -9999.25    6.00850  158.99600   -9999.25   -9999.25   -9999.25
 6348.00000   66.99240    6.23530  -17.87940   -9999.25   -9999.25    5.93210  160.39170   -9999.25   -9999.25   -9999.25
 6348.50000   67.90990    6.19520  -18.09140   -9999.25   -9999.25    5.93770  161.43230   -9999.25   -9999.25   -9999.25
 6349.00000   72.66010    6.18450  -18.19220   -9999.25   -9999.25    5.96360  161.71300   -9999.25   -9999.25   -9999.25
 6349.50000   78.41300    6.18410  -18.23960   -9999.25   -9999.25    5.98910  161.72490   -9999.25   -9999.25   -9999.25
 6350.00000   84.22880    6.20590  -18.06440   -9999.25   -9999.25    5.98170  161.14250   -9999.25   -9999.25   -9999.25
 6350.50000   85.46720    6.22320  -17.88910   -9999.25   -9999.25    5.97430  160.56020   -9999.25   -9999.25   -9999.25
 6351.00000   82.39780    6.21890  -17.47230   -9999.25   -9999.25    5.97470  160.26140   -9999.25   -9999.25   -9999.25
 6351.50000   78.22800    6.21460  -16.95070   -9999.25   -9999.25    5.96830  160.42220   -9999.25   -9999.25   -9999.25
 6352.00000   74.05820    6.21040  -16.61080   -9999.25   -9999.25    5.96090  160.85260   -9999.25   -9999.25   -9999.25
 6352.50000   69.88840    6.20610  -17.35580   -9999.25   -9999.25    5.95350  161.13420   -9999.25   -9999.25   -9999.25
 6353.00000   68.43540    6.20180  -18.65670   -9999.25   -9999.25    5.94610  161.24510   -9999.25   -9999.25   -9999.25
 6353.50000   71.26360    6.20220  -19.95760   -9999.25   -9999.25    5.93870  161.23520   -9999.25   -9999.25   -9999.25
 6354.00000   74.77790    6.20280  -21.25410   -9999.25   -9999.25    5.88370  161.21930   -9999.25   -9999.25   -9999.25
 6354.50000   76.05050    6.19220  -22.33230   -9999.25   -9999.25    5.88200  161.49420   -9999.25   -9999.25   -9999.25
 6355.00000   74.60290    6.16090  -22.85330   -9999.25   -9999.25    5.87240  162.31400   -9999.25   -9999.25   -9999.25
 6355.50000   71.87260    6.11920  -23.04660   -9999.25   -9999.25    5.85680  163.42100   -9999.25   -9999.25   -9999.25
 6356.00000   68.99440    6.08070  -23.07870   -9999.25   -9999.25    5.84130  164.45580   -9999.25   -9999.25   -9999.25
 6356.50000   68.44400    6.04300  -22.68800   -9999.25   -9999.25    5.82580  165.49070   -9999.25   -9999.25   -9999.25
 6357.00000   71.14720    6.00000  -22.50260   -9999.25   -9999.25    5.81030  166.67680   -9999.25   -9999.25   -9999.25
 6357.50000   72.00330    5.94820  -22.52810   -9999.25   -9999.25    5.78870  168.12700   -9999.25   -9999.25   -9999.25
 6358.00000   69.21280    5.89730  -23.14900   -9999.25   -9999.25    5.74950  169.57720   -9999.25   -9999.25   -9999.25
 6358.50000   66.94120    5.84650  -23.80380   -9999.25   -9999.25    5.67030  171.05270   -9999.25   -9999.25   -9999.25
 6359.00000   67.22270    5.79310  -24.30250   -9999.25   -9999.25    5.52920  172.60730   -9999.25   -9999.25   -9999.25
 6359.50000   68.92250    5.70940  -24.65770   -9999.25   -9999.25    5.38800  175.15270   -9999.25   -9999.25   -9999.25
 6360.00000   70.21730    5.61550  -25.23160   -9999.25   -9999.25    5.24690  178.08680   -9999.25   -9999.25   -9999.25
 6360.50000   70.53040    5.49280  -25.80980   -9999.25   -9999.25    5.15990  182.06690   -9999.25   -9999.25   -9999.25
 6361.00000   70.62050    5.36880  -26.67330   -9999.25   -9999.25    5.08620  186.27010   -9999.25   -9999.25   -9999.25
 6361.50000   70.93830    5.26570  -27.70390   -9999.25   -9999.25    4.99030  189.91820   -9999.25   -9999.25   -9999.25
 6362.00000   70.33540    5.10940  -28.85000   -9999.25   -9999.25    4.84970  195.73400   -9999.25   -9999.25   -9999.25
 6362.50000   68.22100    4.96490  -30.26970   -9999.25   -9999.25    4.70910  201.45790   -9999.25   -9999.25   -9999.25
 6363.00000   63.27270    4.80560  -31.68950   -9999.25   -9999.25    4.56850  208.08900   -9999.25   -9999.25   -9999.25
 6363.50000   59.20420    4.59650  -33.49790   -9999.25   -9999.25    4.42790  217.56860   -9999.25   -9999.25   -9999.25
 6364.00000   59.48530    4.41450  -36.78250   -9999.25   -9999.25    4.28730  226.53780   -9999.25   -9999.25   -9999.25
 6364.50000   62.32010    4.28330  -39.96130   -9999.25   -9999.25    4.14670  233.48830   -9999.25   -9999.25   -9999.25
 6365.00000   66.87910    4.15640  -41.52370   -9999.25   -9999.25    4.00610  240.64270   -9999.25   -9999.25   -9999.25
 6365.50000   71.97890    4.08300  -42.80140   -9999.25   -9999.25    3.88500  244.93990   -9999.25   -9999.25   -9999.25
 6366.00000   76.12520    4.02940  -43.19490   -9999.25   -9999.25    3.78870  248.19790   -9999.25   -9999.25   -9999.25
 6366.50000   77.74150    3.98460  -42.98320   -9999.25   -9999.25    3.69230  250.91490   -9999.25   -9999.25   -9999.25
 6367.00000   76.89800    3.87490  -42.80300   -9999.25   -9999.25    3.58530  258.08930   -9999.25   -9999.25   -9999.25
 6367.50000   75.73580    3.74480  -42.98420   -9999.25   -9999.25    3.47490  266.90820   -9999.25   -9999.25   -9999.25
 6368.00000   74.56880    3.51500  -43.16720   -9999.25   -9999.25    3.36440  284.52880   -9999.25   -9999.25   -9999.25
 6368.50000   71.56960    3.34060  -43.45050   -9999.25   -9999.25    3.25400  299.37650   -9999.25   -9999.25   -9999.25
 6369.00000   64.87160    3.21680  -44.65630   -9999.25   -9999.25    3.12560  310.90130   -9999.25   -9999.25   -9999.25
 6369.50000   59.09730    3.07920  -46.40760   -9999.25   -9999.25    2.98210  324.89790   -9999.25   -9999.25   -9999.25
 6370.00000   55.17090    2.91830  -48.15880   -9999.25   -9999.25    2.83850  342.70690   -9999.25   -9999.25   -9999.25
 6370.50000   51.58470    2.80350  -49.91000   -9999.25   -9999.25    2.69500  356.75690   -9999.25   -9999.25   -9999.25
 6371.00000   50.21480    2.69060  -51.66420   -9999.25   -9999.25    2.63170  371.70690   -9999.25   -9999.25   -9999.25
 6371.50000   50.01700    2.62060  -53.21980   -9999.25   -9999.25    2.63300  381.64070   -9999.25   -9999.25   -9999.25
 6372.00000   49.88100    2.56450  -53.98270   -9999.25   -9999.25    2.63420  389.99060   -9999.25   -9999.25   -9999.25
 6372.50000   49.60230    2.51700  -54.15200   -9999.25   -9999.25    2.66000  397.35220   -9999.25   -9999.25   -9999.25
 6373.00000   50.05370    2.48880  -54.03390   -9999.25   -9999.25    2.73950  401.89870   -9999.25   -9999.25   -9999.25
 6373.50000   51.92850    2.50940  -53.42270   -9999.25   -9999.25    2.84750  398.56940   -9999.25   -9999.25   -9999.25
 6374.00000   55.13310    2.56180  -52.81870   -9999.25   -9999.25    2.95540  390.43090   -9999.25   -9999.25   -9999.25
 6374.50000   56.43610    2.64060  -51.92150   -9999.25   -9999.25    3.06340  378.77940   -9999.25   -9999.25   -9999.25
 6375.00000   54.61650    2.68580  -51.66600   -9999.25   -9999.25    3.27360  372.31380   -9999.25   -9999.25   -9999.25
 6375.50000   52.79680    2.65700  -51.65630   -9999.25   -9999.25    3.42640  376.42360   -9999.25   -9999.25   -9999.25
 6376.00000   50.97710    2.59280  -52.00000   -9999.25   -9999.25    3.53480  385.76200   -9999.25   -9999.25   -9999.25
 6376.50000   49.51990    2.54880  -52.53010   -9999.25   -9999.25    3.54230  392.39400   -9999.25   -9999.25   -9999.25
 6377.00000   49.87520    2.50800  -53.47040   -9999.25   -9999.25    3.48960  398.79140   -9999.25   -9999.25   -9999.25
 6377.50000   51.75780    2.46960  -54.50910   -9999.25   -9999.25    3.39840  404.89510   -9999.25   -9999.25   -9999.25
 6378.00000   54.48530    2.35560  -55.42750   -9999.25   -9999.25    3.27740  424.64430   -9999.25   -9999.25   -9999.25
 6378.50000   55.72470    2.28290  -55.98300   -9999.25   -9999.25    3.01960  438.11470   -9999.25   -9999.25   -9999.25
 6379.00000   56.21890    2.21480  -56.07300   -9999.25   -9999.25    2.76180  451.58500   -9999.25   -9999.25   -9999.25
 6379.50000   57.27080    2.23380  -56.06980   -9999.25   -9999.25    2.50400  447.80840   -9999.25   -9999.25   -9999.25
