~Version ---------------------------------------------------
VERS.   2.0 : CWLS log ASCII Standard -VERSION 2.0
WRAP.    NO : One line per depth step
DLM . SPACE : Column Data Section Delimiter
~Well ------------------------------------------------------
STRT .F                  836.0 : START DEPTH
STOP .F                 8477.0 : STOP DEPTH
STEP .F                    0.5 : STEP
NULL .                -9999.25 : NULL VALUE
COMP .                         : COMPANY
WELL .                         : WELL
FLD  .                         : FIELD
LOC  .                         : LOCATION
PROV .                         : PROVINCE
CNTY .                         : COUNTY
STAT .                         : STATE
CTRY .                         : COUNTRY
SRVC .                         : SERVICE COMPANY
DATE .                         : DATE
UWI  .                         : UNIQUE WELL ID
API  .                         : API NUMBER
SLAT .WGS84    5.1065078621168 : SURFACE LATITUDE
SLON .WGS84 2.1785651349902793 : SURFACE LONGITUDE
DATUM.F                  994.6 : DEPTH DATUM ELEV
~Curve Information -----------------------------------------
DEPT   .F     : 1 MEASURED DEPTH
GRR    .GAPI  : GAMMA RAY FROM RESISTIVITY LOG
ILD    .OHMM  : INDUCTION DEEP RESISTIVITY
SPR    .MV    : SPONTANEOUS POTENTIAL FROM RESISTIVITY LOG
ILM    .OHMM  : INDUCTION MEDIUM RESISTIVITY
SFLU   .OHMM  : SHALLOW FOCUSED RESISTIVITY (UNAVERAGED)
SFLA   .OHMM  : SPHERICALLY FOCUSED LOG RESISTIVITY AVERAGED OVER 2.5 FT
CILD   .MMHO  : INDUCTION DEEP CONDUCTIVITY
NPHI_LS.DEC   : NEUTRON POROSITY LIMESTONE
DTCO   .US/F  : DELTA-T COMPRESSIONAL
DTSM   .US/F  : DELTA-T SHEAR
~Params ----------------------------------------------------
~Other -----------------------------------------------------
~ASCII -----------------------------------------------------
# ...
 5885.00000   23.39890    1.93130  -66.26540   -9999.25   -9999.25   13.67870  496.30160   -9999.25   -9999.25   -9999.25
 5885.50000   24.94670    2.10690  -64.11980   -9999.25   -9999.25   15.22120  464.36730   -9999.25   -9999.25   -9999.25
 5886.00000   24.92270    2.27970  -60.90210   -9999.25   -9999.25   17.72090  427.12020   -9999.25   -9999.25   -9999.25
 5886.50000   22.94590    2.45240  -58.28910   -9999.25   -9999.25   20.74420  394.15380   -9999.25   -9999.25   -9999.25
 5887.00000   19.34040    2.74720  -53.96290   -9999.25   -9999.25   24.01720  347.74700   -9999.25   -9999.25   -9999.25
 5887.50000   15.73710    3.06710  -48.12430   -9999.25   -9999.25   29.75850  309.28560   -9999.25   -9999.25   -9999.25
 5888.00000   13.68010    3.38710  -42.98130   -9999.25   -9999.25   34.04800  277.03900   -9999.25   -9999.25   -9999.25
 5888.50000   13.50040    3.78400  -37.64070   -9999.25   -9999.25   34.02140  241.66270   -9999.25   -9999.25   -9999.25
 5889.00000   17.31760    4.35160  -31.78110   -9999.25   -9999.25   28.13690  220.89860   -9999.25   -9999.25   -9999.25
 5889.50000   24.62580    4.91930  -26.96480   -9999.25   -9999.25   23.79640  202.81000   -9999.25   -9999.25   -9999.25
 5890.00000   33.67860    5.47660  -19.43740   -9999.25   -9999.25   19.22590  182.64610   -9999.25   -9999.25   -9999.25
 5890.50000   45.95530    5.98120  -11.04840   -9999.25   -9999.25   14.34680  167.33100   -9999.25   -9999.25   -9999.25
 5891.00000   59.52190    6.78080   -3.96170   -9999.25   -9999.25   12.47360  147.67890   -9999.25   -9999.25   -9999.25
 5891.50000   65.81590    7.65350   -0.05980   -9999.25   -9999.25   11.45980  131.36670   -9999.25   -9999.25   -9999.25
 5892.00000   63.14820    8.19130    2.36430   -9999.25   -9999.25   11.50570  122.09240   -9999.25   -9999.25   -9999.25
 5892.50000   59.23750    8.59450    3.76940   -9999.25   -9999.25   12.80950  116.37280   -9999.25   -9999.25   -9999.25
 5893.00000   61.26150    9.16830    4.67710   -9999.25   -9999.25   14.14010  109.09840   -9999.25   -9999.25   -9999.25
 5893.50000   68.04510   10.10230    5.49580   -9999.25   -9999.25   15.05530   99.65570   -9999.25   -9999.25   -9999.25
 5894.00000   74.44910   11.06310    5.93260   -9999.25   -9999.25   14.18140   90.09850   -9999.25   -9999.25   -9999.25
 5894.50000   77.54800   11.11070    6.12630   -9999.25   -9999.25   11.65890   89.90450   -9999.25   -9999.25   -9999.25
 5895.00000   79.86970   10.15670    5.88910   -9999.25   -9999.25    9.78710  102.89620   -9999.25   -9999.25   -9999.25
 5895.50000   82.20950    9.14360    5.53110   -9999.25   -9999.25    8.04820  117.97720   -9999.25   -9999.25   -9999.25
 5896.00000   85.08640    8.13050    5.22230   -9999.25   -9999.25    6.12900  131.34120   -9999.25   -9999.25   -9999.25
 5896.50000   86.64380    7.11750    5.04710   -9999.25   -9999.25    5.24920  148.29630   -9999.25   -9999.25   -9999.25
 5897.00000   85.60380    6.10440    5.36200   -9999.25   -9999.25    4.65580  167.70650   -9999.25   -9999.25   -9999.25
 5897.50000   84.58810    5.32580    6.84740   -9999.25   -9999.25    4.37550  188.17700   -9999.25   -9999.25   -9999.25
 5898.00000   86.51780    4.79020    8.80420   -9999.25   -9999.25    4.27850  208.83450   -9999.25   -9999.25   -9999.25
 5898.50000   88.43870    4.52050   10.50200   -9999.25   -9999.25    4.18140  221.25580   -9999.25   -9999.25   -9999.25
 5899.00000   87.68050    4.39770   11.59270   -9999.25   -9999.25    4.09990  227.42390   -9999.25   -9999.25   -9999.25
 5899.50000   82.96590    4.48480   12.43220   -9999.25   -9999.25    4.10130  223.00360   -9999.25   -9999.25   -9999.25
 5900.00000   77.01410    4.68390   13.27160   -9999.25   -9999.25    4.14550  213.48430   -9999.25   -9999.25   -9999.25
 5900.50000   71.20260    4.90150   14.11110   -9999.25   -9999.25    4.18970  203.96490   -9999.25   -9999.25   -9999.25
 5901.00000   71.74230    5.14180   14.09400   -9999.25   -9999.25    4.23770  194.44560   -9999.25   -9999.25   -9999.25
 5901.50000   75.51250    5.27730   13.79270   -9999.25   -9999.25    4.29450  189.39310   -9999.25   -9999.25   -9999.25
 5902.00000   80.46070    5.24990   13.42270   -9999.25   -9999.25    4.34580  190.23970   -9999.25   -9999.25   -9999.25
 5902.50000   83.34850    5.04260   12.24760   -9999.25   -9999.25    4.35880  198.13020   -9999.25   -9999.25   -9999.25
 5903.00000   84.79240    4.83910   11.15370   -9999.25   -9999.25    4.36740  206.46080   -9999.25   -9999.25   -9999.25
 5903.50000   84.62380    4.65620    9.61860   -9999.25   -9999.25    4.25840  214.79150   -9999.25   -9999.25   -9999.25
 5904.00000   80.73430    4.68760    8.28020   -9999.25   -9999.25    4.12460  213.28470   -9999.25   -9999.25   -9999.25
 5904.50000   76.73000    5.15400    7.46070   -9999.25   -9999.25    4.09050  197.64160   -9999.25   -9999.25   -9999.25
 5905.00000   70.74160    5.63730    6.60050   -9999.25   -9999.25    4.11370  179.03700   -9999.25   -9999.25   -9999.25
 5905.50000   63.70710    5.84610    5.04020   -9999.25   -9999.25    4.37480  162.86510   -9999.25   -9999.25   -9999.25
 5906.00000   56.71940    5.79430    3.47550   -9999.25   -9999.25    4.89760  164.04100   -9999.25   -9999.25   -9999.25
 5906.50000   55.41800    5.40730    2.44600   -9999.25   -9999.25    5.42050  180.18800   -9999.25   -9999.25   -9999.25
 5907.00000   57.26200    4.98280    2.45860   -9999.25   -9999.25    5.68440  198.05130   -9999.25   -9999.25   -9999.25
 5907.50000   63.33620    4.74210    2.47110   -9999.25   -9999.25    5.31600  209.59150   -9999.25   -9999.25   -9999.25
 5908.00000   69.01890    4.83950    2.76590   -9999.25   -9999.25    4.85680  205.10150   -9999.25   -9999.25   -9999.25
 5908.50000   71.79700    4.94940    4.85120   -9999.25   -9999.25    4.39770  202.55620   -9999.25   -9999.25   -9999.25
 5909.00000   74.08080    4.73120    7.41260   -9999.25   -9999.25    3.93850  212.53800   -9999.25   -9999.25   -9999.25
 5909.50000   75.95700    4.40990    9.25440   -9999.25   -9999.25    3.59210  227.30980   -9999.25   -9999.25   -9999.25
 5910.00000   75.95160    4.18600    8.60190   -9999.25   -9999.25    3.55770  237.52420   -9999.25   -9999.25   -9999.25
 5910.50000   69.77420    4.14470    7.17650   -9999.25   -9999.25    3.79990  234.23770   -9999.25   -9999.25   -9999.25
 5911.00000   67.28590    4.66730    5.64080   -9999.25   -9999.25    4.20130  214.14370   -9999.25   -9999.25   -9999.25
 5911.50000   66.81210    5.58720    4.58680   -9999.25   -9999.25    4.60270  179.45800   -9999.25   -9999.25   -9999.25
 5912.00000   66.50800    6.35240    3.93300   -9999.25   -9999.25    5.00410  155.74700   -9999.25   -9999.25   -9999.25
 5912.50000   65.28570    6.92820    2.87980   -9999.25   -9999.25    5.04520  144.33330   -9999.25   -9999.25   -9999.25
 5913.00000   62.93430    7.16590    1.92640   -9999.25   -9999.25    4.99000  139.49760   -9999.25   -9999.25   -9999.25
 5913.50000   62.32050    7.13380    0.98860   -9999.25   -9999.25    4.68660  140.17850   -9999.25   -9999.25   -9999.25
 5914.00000   61.97790    6.81050    0.05070   -9999.25   -9999.25    4.29500  146.84000   -9999.25   -9999.25   -9999.25
 5914.50000   62.11420    6.32240   -0.88720   -9999.25   -9999.25    3.56830  157.97810   -9999.25   -9999.25   -9999.25
 5915.00000   65.18530    5.56780   -1.95580   -9999.25   -9999.25    3.36640  179.64250   -9999.25   -9999.25   -9999.25
 5915.50000   70.48120    4.59620   -2.67840   -9999.25   -9999.25    3.17260  217.57860   -9999.25   -9999.25   -9999.25
 5916.00000   75.60240    4.29770   -2.80310   -9999.25   -9999.25    3.10160  232.67820   -9999.25   -9999.25   -9999.25
 5916.50000   79.44820    4.20970   -2.86400   -9999.25   -9999.25    3.10240  237.55210   -9999.25   -9999.25   -9999.25
 5917.00000   83.32120    4.16600   -2.82080   -9999.25   -9999.25    3.11930  240.03930   -9999.25   -9999.25   -9999.25
 5917.50000   83.65150    4.09840   -3.16400   -9999.25   -9999.25    3.13620  243.99790   -9999.25   -9999.25   -9999.25
