~Version ---------------------------------------------------
VERS.   2.0 : CWLS log ASCII Standard -VERSION 2.0
WRAP.    NO : One line per depth step
DLM . SPACE : Column Data Section Delimiter
~Well ------------------------------------------------------
STRT .F                  836.0 : START DEPTH
STOP .F                 8477.0 : STOP DEPTH
STEP .F                    0.5 : STEP
NULL .                -9999.25 : NULL VALUE
COMP .                         : COMPANY
WELL .                         : WELL
FLD  .                         : FIELD
LOC  .                         : LOCATION
PROV .                         : PROVINCE
CNTY .                         : COUNTY
STAT .                         : STATE
CTRY .                         : COUNTRY
SRVC .                         : SERVICE COMPANY
DATE .                         : DATE
UWI  .                         : UNIQUE WELL ID
API  .                         : API NUMBER
SLAT .WGS84    5.1065078621168 : SURFACE LATITUDE
SLON .WGS84 2.1785651349902793 : SURFACE LONGITUDE
DATUM.F                  994.6 : DEPTH DATUM ELEV
~Curve Information -----------------------------------------
DEPT   .F     : 1 MEASURED DEPTH
GRR    .GAPI  : GAMMA RAY FROM RESISTIVITY LOG
ILD    .OHMM  : INDUCTION DEEP RESISTIVITY
SPR    .MV    : SPONTANEOUS POTENTIAL FROM RESISTIVITY LOG
ILM    .OHMM  : INDUCTION MEDIUM RESISTIVITY
SFLU   .OHMM  : SHALLOW FOCUSED RESISTIVITY (UNAVERAGED)
SFLA   .OHMM  : SPHERICALLY FOCUSED LOG RESISTIVITY AVERAGED OVER 2.5 FT
CILD   .MMHO  : INDUCTION DEEP CONDUCTIVITY
NPHI_LS.DEC   : NEUTRON POROSITY LIMESTONE
DTCO   .US/F  : DELTA-T COMPRESSIONAL
DTSM   .US/F  : DELTA-T SHEAR
~Params ----------------------------------------------------
~Other -----------------------------------------------------
~ASCII -----------------------------------------------------
# ...
 6809.00000   71.33320    6.91320  -11.28360   -9999.25   -9999.25    6.45930  144.64480   -9999.25   -9999.25   -9999.25
 6809.50000   75.45300    6.93900  -11.44000   -9999.25   -9999.25    6.51900  144.10440   -9999.25   -9999.25   -9999.25
 6810.00000   74.93080    7.01220  -11.59650   -9999.25   -9999.25    6.66550  142.60090   -9999.25   -9999.25   -9999.25
 6810.50000   72.01570    7.05870  -11.75300   -9999.25   -9999.25    6.77530  141.66520   -9999.25   -9999.25   -9999.25
 6811.00000   69.10050    6.96320  -11.16940   -9999.25   -9999.25    6.75930  143.82070   -9999.25   -9999.25   -9999.25
 6811.50000   65.91570    6.86210  -10.64290   -9999.25   -9999.25    6.73920  146.13840   -9999.25   -9999.25   -9999.25
 6812.00000   65.01950    6.76110   -9.77910   -9999.25   -9999.25    6.62080  148.45620   -9999.25   -9999.25   -9999.25
 6812.50000   69.67570    6.66000   -9.18200   -9999.25   -9999.25    6.44840  150.63010   -9999.25   -9999.25   -9999.25
 6813.00000   77.93060    6.70360   -8.77170   -9999.25   -9999.25    6.30190  148.49600   -9999.25   -9999.25   -9999.25
 6813.50000   86.15510    6.87430   -8.42900   -9999.25   -9999.25    6.19640  143.57240   -9999.25   -9999.25   -9999.25
 6814.00000   89.83030    6.98330   -8.41050   -9999.25   -9999.25    6.18280  139.26660   -9999.25   -9999.25   -9999.25
 6814.50000   92.50930    6.76560   -8.39200   -9999.25   -9999.25    6.17070  145.57220   -9999.25   -9999.25   -9999.25
 6815.00000   89.84350    6.51290   -8.40830   -9999.25   -9999.25    6.17470  153.34150   -9999.25   -9999.25   -9999.25
 6815.50000   86.71520    6.21370   -8.47600   -9999.25   -9999.25    6.17060  161.11080   -9999.25   -9999.25   -9999.25
 6816.00000   83.14670    6.15180   -8.62770   -9999.25   -9999.25    6.10150  162.55110   -9999.25   -9999.25   -9999.25
 6816.50000   82.40180    6.26530   -8.85350   -9999.25   -9999.25    6.03240  159.59100   -9999.25   -9999.25   -9999.25
 6817.00000   82.53750    6.51140   -9.01760   -9999.25   -9999.25    5.96330  153.56030   -9999.25   -9999.25   -9999.25
 6817.50000   82.67700    6.77760   -9.18180   -9999.25   -9999.25    5.96590  147.52960   -9999.25   -9999.25   -9999.25
 6818.00000   82.39900    7.05640   -9.34600   -9999.25   -9999.25    6.06700  141.49900   -9999.25   -9999.25   -9999.25
 6818.50000   79.74560    7.02800   -9.42150   -9999.25   -9999.25    6.21070  142.07850   -9999.25   -9999.25   -9999.25
 6819.00000   76.59520    6.71110   -9.13280   -9999.25   -9999.25    6.35440  149.02980   -9999.25   -9999.25   -9999.25
 6819.50000   74.89390    6.41160   -8.22640   -9999.25   -9999.25    6.49800  155.98110   -9999.25   -9999.25   -9999.25
 6820.00000   74.14290    6.26820   -6.57690   -9999.25   -9999.25    6.61960  159.52650   -9999.25   -9999.25   -9999.25
 6820.50000   73.93860    6.43480   -4.92750   -9999.25   -9999.25    6.62010  155.39120   -9999.25   -9999.25   -9999.25
 6821.00000   74.21220    6.63820   -4.21860   -9999.25   -9999.25    6.58950  150.62970   -9999.25   -9999.25   -9999.25
 6821.50000   74.85320    6.76690   -3.71830   -9999.25   -9999.25    6.55670  147.66280   -9999.25   -9999.25   -9999.25
 6822.00000   75.49430    6.68200   -3.17060   -9999.25   -9999.25    6.52400  149.65790   -9999.25   -9999.25   -9999.25
 6822.50000   73.74210    6.55520   -2.42520   -9999.25   -9999.25    6.54200  152.55150   -9999.25   -9999.25   -9999.25
 6823.00000   71.13450    6.45060   -1.06120   -9999.25   -9999.25    6.60190  155.02100   -9999.25   -9999.25   -9999.25
 6823.50000   70.34340    6.44790    0.63700   -9999.25   -9999.25    6.78520  155.12710   -9999.25   -9999.25   -9999.25
 6824.00000   76.65270    6.62140    2.37950   -9999.25   -9999.25    7.10670  151.01060   -9999.25   -9999.25   -9999.25
 6824.50000   82.96210    6.88430    2.93260   -9999.25   -9999.25    7.51960  145.36400   -9999.25   -9999.25   -9999.25
 6825.00000   84.71670    7.29460    2.99820   -9999.25   -9999.25    7.93240  137.11900   -9999.25   -9999.25   -9999.25
 6825.50000   80.65970    7.80190    2.95670   -9999.25   -9999.25    8.33300  128.66980   -9999.25   -9999.25   -9999.25
 6826.00000   76.30080    8.30920    2.74140   -9999.25   -9999.25    8.69150  120.35600   -9999.25   -9999.25   -9999.25
 6826.50000   73.00780    8.86200    2.07280   -9999.25   -9999.25    9.05010  112.82730   -9999.25   -9999.25   -9999.25
 6827.00000   70.32410    9.19060    1.38000   -9999.25   -9999.25    9.33380  108.79940   -9999.25   -9999.25   -9999.25
 6827.50000   69.95180    8.99520    0.68730   -9999.25   -9999.25    9.40050  111.17630   -9999.25   -9999.25   -9999.25
 6828.00000   70.35550    8.56250   -0.00610   -9999.25   -9999.25    9.26360  116.79070   -9999.25   -9999.25   -9999.25
 6828.50000   71.61650    8.07320   -0.70000   -9999.25   -9999.25    8.61160  123.88740   -9999.25   -9999.25   -9999.25
 6829.00000   73.24140    7.62500   -1.39390   -9999.25   -9999.25    7.98940  131.33200   -9999.25   -9999.25   -9999.25
 6829.50000   76.18610    7.25130   -1.99020   -9999.25   -9999.25    7.52670  137.81440   -9999.25   -9999.25   -9999.25
 6830.00000   80.12140    6.85990   -2.11160   -9999.25   -9999.25    6.97310  145.84860   -9999.25   -9999.25   -9999.25
 6830.50000   83.00830    6.58330   -1.51420   -9999.25   -9999.25    6.41730  151.90250   -9999.25   -9999.25   -9999.25
 6831.00000   85.05950    6.23770   -0.88630   -9999.25   -9999.25    6.15410  160.32590   -9999.25   -9999.25   -9999.25
 6831.50000   85.14660    5.92600   -0.62930   -9999.25   -9999.25    6.14830  168.74940   -9999.25   -9999.25   -9999.25
 6832.00000   84.91570    5.75890   -0.48090   -9999.25   -9999.25    6.25640  173.64360   -9999.25   -9999.25   -9999.25
 6832.50000   84.26000    5.76430   -0.27700   -9999.25   -9999.25    6.40040  173.46900   -9999.25   -9999.25   -9999.25
 6833.00000   84.05630    5.88770   -0.04680   -9999.25   -9999.25    6.54430  169.84130   -9999.25   -9999.25   -9999.25
 6833.50000   84.15620    6.11000    0.24370   -9999.25   -9999.25    6.63010  163.64780   -9999.25   -9999.25   -9999.25
 6834.00000   84.18980    6.42430    1.27510   -9999.25   -9999.25    6.65100  155.65400   -9999.25   -9999.25   -9999.25
 6834.50000   83.64880    6.59820    2.83420   -9999.25   -9999.25    6.71070  151.59800   -9999.25   -9999.25   -9999.25
 6835.00000   80.14550    6.80490    4.12800   -9999.25   -9999.25    6.82220  146.94960   -9999.25   -9999.25   -9999.25
 6835.50000   77.31760    7.07330    4.57430   -9999.25   -9999.25    7.01890  141.37130   -9999.25   -9999.25   -9999.25
 6836.00000   75.47680    7.46120    4.50260   -9999.25   -9999.25    7.32590  134.01400   -9999.25   -9999.25   -9999.25
 6836.50000   77.33500    7.85340    4.20770   -9999.25   -9999.25    7.62770  127.33550   -9999.25   -9999.25   -9999.25
 6837.00000   76.31120    8.25130    3.64920   -9999.25   -9999.25    8.16190  121.18420   -9999.25   -9999.25   -9999.25
 6837.50000   71.73660    8.48360    2.62490   -9999.25   -9999.25    8.67840  117.86240   -9999.25   -9999.25   -9999.25
 6838.00000   68.73500    8.52940    1.60050   -9999.25   -9999.25    9.17800  117.23820   -9999.25   -9999.25   -9999.25
 6838.50000   71.34960    8.35470    0.57620   -9999.25   -9999.25    9.17850  119.68960   -9999.25   -9999.25   -9999.25
 6839.00000   79.82890    8.10340   -0.39930   -9999.25   -9999.25    8.61730  123.41040   -9999.25   -9999.25   -9999.25
 6839.50000   85.83110    7.79040   -1.15180   -9999.25   -9999.25    7.89910  128.36260   -9999.25   -9999.25   -9999.25
 6840.00000   91.54870    7.37830   -1.81620   -9999.25   -9999.25    7.18080  135.22000   -9999.25   -9999.25   -9999.25
 6840.50000   96.67410    6.78860   -2.41040   -9999.25   -9999.25    6.46260  147.30150   -9999.25   -9999.25   -9999.25
 6841.00000  101.65300    6.32880   -3.00460   -9999.25   -9999.25    5.82080  157.77250   -9999.25   -9999.25   -9999.25
 6841.50000  106.86790    5.51530   -3.54820   -9999.25   -9999.25    5.30160  181.29700   -9999.25   -9999.25   -9999.25
