~Version ---------------------------------------------------
VERS.   2.0 : CWLS log ASCII Standard -VERSION 2.0
WRAP.    NO : One line per depth step
DLM . SPACE : Column Data Section Delimiter
~Well ------------------------------------------------------
STRT .F                 1500.0 : START DEPTH
STOP .F                13292.0 : STOP DEPTH
STEP .F                    0.5 : STEP
NULL .                -9999.25 : NULL VALUE
COMP .                         : COMPANY
WELL .                         : WELL
FLD  .                         : FIELD
LOC  .                         : LOCATION
PROV .                         : PROVINCE
CNTY .                         : COUNTY
STAT .                         : STATE
CTRY .                         : COUNTRY
SRVC .                         : SERVICE COMPANY
DATE .                         : DATE
UWI  .                         : UNIQUE WELL ID
API  .                         : API NUMBER
SLAT .WGS84    5.6112805732106 : SURFACE LATITUDE
SLON .WGS84 2.7222555198844987 : SURFACE LONGITUDE
DATUM.F                    nan : DEPTH DATUM ELEV
~Curve Information -----------------------------------------
DEPT   .F     : 1 MEASURED DEPTH
NPOR_LS.DEC   : NEUTRON POROSITY LIMESTONE
GRD    .GAPI  : GAMMA RAY FROM DENSITY LOG
HCALD  .IN    : HRCC CALIPER CALIBRATED FROM DENSITY LOG
HDRA   .G/C3  : HRDD SPINE AND RIBS DENSITY CORRECTION
DPHZ_LS.DEC   : HGRD STANDARD RESOLUTION DENSITY POROSITY
PEFZ   .B/E   : HRDD STANDARD RESOLUTION FORMATION PHOTOELECTRIC FACTOR
RHOZ   .G/C3  : HRDD STANDARD RESOLUTION FORMATION DENSITY
AE20   .OHMM  : ARRAY INDUCTION RESISTIVITY EVIRONMENTALLY COMPENSATED LOG PROCESSING AE20
AE30   .OHMM  : ARRAY INDUCTION RESISTIVITY EVIRONMENTALLY COMPENSATED LOG PROCESSING AE30
AE90   .OHMM  : ARRAY INDUCTION RESISTIVITY EVIRONMENTALLY COMPENSATED LOG PROCESSING AE90
GRS    .GAPI  : GAMMA RAY FROM SONIC LOG
DTCO   .US/F  : DELTA-T COMPRESSIONAL
DTSM   .US/F  : DELTA-T SHEAR
~Params ----------------------------------------------------
~Other -----------------------------------------------------
~ASCII -----------------------------------------------------
# ...
 12498.00000    0.17490   80.12100    8.82380    0.00160    0.06610    3.57890    2.60060    7.98870    7.55420    6.94990   -9999.25   -9999.25   -9999.25
 12498.50000    0.17140   75.14470    8.81860    0.00150    0.05870    3.59660    2.62790    8.90630    8.53820    8.14780   -9999.25   -9999.25   -9999.25
 12499.00000    0.14240   68.59140    8.81340    0.00150    0.04640    3.63960    2.64520    9.21590    8.76620    8.60780   -9999.25   -9999.25   -9999.25
 12499.50000    0.12380   62.41640    8.80830    0.00150    0.03520    3.68410    2.66470   10.49380    9.75990    8.93220   -9999.25   -9999.25   -9999.25
 12500.00000    0.10640   59.47610    8.80310    0.00150    0.03510    3.71520    2.66290   12.74350   11.21980   10.70630   -9999.25   -9999.25   -9999.25
 12500.50000    0.09970   57.10420    8.79790    0.00150    0.03750    3.74640    2.64800   12.74500   11.71630   11.50460   -9999.25   -9999.25   -9999.25
 12501.00000    0.09970   57.15100    8.79270    0.00090    0.04030    3.80770    2.64040   12.26760   11.66760   11.45200   -9999.25   -9999.25   -9999.25
 12501.50000    0.10260   57.24950    8.78750    0.00030    0.03940    3.86900    2.65170   12.78260   11.54900   11.32960   -9999.25   -9999.25   -9999.25
 12502.00000    0.10160   57.76910    8.78240    0.00290    0.02330    3.93030    2.68660   15.39150   14.25310   13.09820   -9999.25   -9999.25   -9999.25
 12502.50000    0.08980   56.46560    8.77720    0.00660    0.01280    3.97820    2.69420   20.56280   16.39310   15.38410   -9999.25   -9999.25   -9999.25
 12503.00000    0.07390   54.90420    8.77580    0.00860    0.00540    4.05210    2.70330   20.65250   17.46660   15.82280   -9999.25   -9999.25   -9999.25
 12503.50000    0.07100   51.60090    8.77440    0.00520    0.00990    4.15880    2.70250   18.65680   15.42530   14.89740   -9999.25   -9999.25   -9999.25
 12504.00000    0.07100   48.91740    8.77310    0.00240    0.00880    4.20770    2.69860   14.69170   13.68640   12.09020   -9999.25   -9999.25   -9999.25
 12504.50000    0.07020   49.15870    8.77170    0.00070    0.00810    4.19270    2.68870   10.11330    9.05590    8.09220   -9999.25   -9999.25   -9999.25
 12505.00000    0.07130   50.75360    8.77030   -0.00040    0.01220    4.13760    2.67800   12.06190   11.43770   10.28550   -9999.25   -9999.25   -9999.25
 12505.50000    0.08250   52.85450    8.76890    0.00040    0.02020    4.09150    2.66960   14.26710   13.20410   12.45020   -9999.25   -9999.25   -9999.25
 12506.00000    0.08770   52.93010    8.76750    0.00350    0.02520    4.04540    2.67000   17.46450   14.02680   13.65830   -9999.25   -9999.25   -9999.25
 12506.50000    0.08350   53.78410    8.76610    0.00490    0.01680    3.98690    2.67960   16.61450   14.78940   14.38240   -9999.25   -9999.25   -9999.25
 12507.00000    0.07740   55.03320    8.76470    0.00620    0.01490    3.92690    2.68560   17.03750   15.76410   15.04510   -9999.25   -9999.25   -9999.25
 12507.50000    0.07890   55.54430    8.76330    0.00600    0.01480    3.86690    2.68300   17.13380   16.42560   16.12880   -9999.25   -9999.25   -9999.25
 12508.00000    0.08580   55.21170    8.76200    0.00590    0.01790    3.79710    2.67950   16.54340   15.58320   14.19750   -9999.25   -9999.25   -9999.25
 12508.50000    0.09110   56.47420    8.76060    0.00580    0.01980    3.70920    2.67850   13.39490   12.33570   11.84860   -9999.25   -9999.25   -9999.25
 12509.00000    0.09560   59.08840    8.76010    0.00560    0.01920    3.67550    2.67850   11.79540   11.45610   11.03710   -9999.25   -9999.25   -9999.25
 12509.50000    0.09950   61.17240    8.76100    0.00550    0.01820    3.64070    2.67910   10.89470   10.53210   10.09850   -9999.25   -9999.25   -9999.25
 12510.00000    0.10190   62.07110    8.76200    0.00570    0.01720    3.63440    2.68090    9.88010    9.47150    9.03920   -9999.25   -9999.25   -9999.25
 12510.50000    0.10470   62.95390    8.76300    0.00670    0.01660    3.64040    2.68300    8.84570    8.51220    8.19610   -9999.25   -9999.25   -9999.25
 12511.00000    0.11090   63.61190    8.76390    0.00790    0.01580    3.68500    2.68780    8.27890    7.81930    7.52220   -9999.25   -9999.25   -9999.25
 12511.50000    0.11910   64.28140    8.76490    0.00970    0.01410    3.70950    2.69550    7.75180    7.07900    6.76790   -9999.25   -9999.25   -9999.25
 12512.00000    0.12430   65.17550    8.76590    0.01170    0.00790    3.70590    2.70210    7.48500    6.71140    6.50290   -9999.25   -9999.25   -9999.25
 12512.50000    0.12710   65.73570    8.76690    0.01210   -0.00310    3.68070    2.72270    7.52890    7.16710    6.94500   -9999.25   -9999.25   -9999.25
 12513.00000    0.12910   65.44610    8.76780    0.01240   -0.01040    3.65550    2.73070    7.68510    7.46990    7.29830   -9999.25   -9999.25   -9999.25
 12513.50000    0.13190   64.23430    8.76880    0.01210   -0.00950    3.63030    2.72250    7.82190    7.58700    7.44990   -9999.25   -9999.25   -9999.25
 12514.00000    0.13540   62.68900    8.76980    0.01180   -0.00340    3.61480    2.71460    7.87090    7.32820    7.11220   -9999.25   -9999.25   -9999.25
 12514.50000    0.13280   63.01840    8.77070    0.00900   -0.00160    3.60680    2.71130    7.60600    6.95340    6.80340   -9999.25   -9999.25   -9999.25
 12515.00000    0.13000   64.70080    8.77170    0.00640   -0.00340    3.63490    2.71750    7.61280    6.75280    6.63080   -9999.25   -9999.25   -9999.25
 12515.50000    0.12470   64.16290    8.77270    0.00420   -0.00840    3.66240    2.73010    8.73300    7.97770    7.22070   -9999.25   -9999.25   -9999.25
 12516.00000    0.11640   60.81390    8.77360    0.00250   -0.01280    3.71020    2.73410   10.83350    9.93510    9.23960   -9999.25   -9999.25   -9999.25
 12516.50000    0.11000   58.32740    8.77460    0.00180   -0.01350    3.69390    2.73160   13.29290   11.63800   10.62140   -9999.25   -9999.25   -9999.25
 12517.00000    0.10840   59.84410    8.77560    0.00290   -0.00760    3.65910    2.72600   11.22960   10.28460    8.59670   -9999.25   -9999.25   -9999.25
 12517.50000    0.13280   66.31680    8.77650    0.00390    0.00530    3.56190    2.70010    7.18000    5.52080    4.85970   -9999.25   -9999.25   -9999.25
 12518.00000    0.14180   74.57120    8.77730    0.00500    0.02060    3.50090    2.66040    4.84360    4.76270    4.64380   -9999.25   -9999.25   -9999.25
 12518.50000    0.14900   77.63020    8.77650    0.00610    0.03290    3.43990    2.64760    4.97340    4.80780    4.71440   -9999.25   -9999.25   -9999.25
 12519.00000    0.15130   81.97800    8.77560    0.00680    0.04050    3.45650    2.63990    5.15420    4.88900    4.79440   -9999.25   -9999.25   -9999.25
 12519.50000    0.15070   84.02840    8.77470    0.00740    0.04180    3.48310    2.63200    5.70450    4.75530    4.54200   -9999.25   -9999.25   -9999.25
 12520.00000    0.15480   81.95060    8.77390    0.00670    0.04930    3.48740    2.62570    5.69000    4.27070    4.12790   -9999.25   -9999.25   -9999.25
 12520.50000    0.16510   79.12280    8.77300    0.00400    0.05050    3.48840    2.62280    5.29540    4.12990    4.05010   -9999.25   -9999.25   -9999.25
 12521.00000    0.16740   78.12310    8.77210    0.00280    0.04920    3.48350    2.62650    5.44780    5.08360    4.69320   -9999.25   -9999.25   -9999.25
 12521.50000    0.16900   78.79690    8.77130    0.00170    0.04690    3.46150    2.63040    5.71140    5.29700    5.19970   -9999.25   -9999.25   -9999.25
 12522.00000    0.16540   79.73530    8.77040    0.00060    0.04460    3.43870    2.63480    5.75750    5.24670    5.14880   -9999.25   -9999.25   -9999.25
 12522.50000    0.15580   79.36670    8.76950    0.00010    0.04090    3.43810    2.63830    5.91040    5.65670    5.45420   -9999.25   -9999.25   -9999.25
 12523.00000    0.15310   77.99810    8.76870   -0.00040    0.03690    3.44030    2.64910    6.06740    5.71870    5.61530   -9999.25   -9999.25   -9999.25
 12523.50000    0.15200   76.24240    8.76780   -0.00070    0.03580    3.46030    2.65000    6.08420    5.63130    5.50980   -9999.25   -9999.25   -9999.25
