~Version ---------------------------------------------------
VERS.   2.0 : CWLS log ASCII Standard -VERSION 2.0
WRAP.    NO : One line per depth step
DLM . SPACE : Column Data Section Delimiter
~Well ------------------------------------------------------
STRT .F                 1500.0 : START DEPTH
STOP .F                13292.0 : STOP DEPTH
STEP .F                    0.5 : STEP
NULL .                -9999.25 : NULL VALUE
COMP .                         : COMPANY
WELL .                         : WELL
FLD  .                         : FIELD
LOC  .                         : LOCATION
PROV .                         : PROVINCE
CNTY .                         : COUNTY
STAT .                         : STATE
CTRY .                         : COUNTRY
SRVC .                         : SERVICE COMPANY
DATE .                         : DATE
UWI  .                         : UNIQUE WELL ID
API  .                         : API NUMBER
SLAT .WGS84    5.6112805732106 : SURFACE LATITUDE
SLON .WGS84 2.7222555198844987 : SURFACE LONGITUDE
DATUM.F                    nan : DEPTH DATUM ELEV
~Curve Information -----------------------------------------
DEPT   .F     : 1 MEASURED DEPTH
NPOR_LS.DEC   : NEUTRON POROSITY LIMESTONE
GRD    .GAPI  : GAMMA RAY FROM DENSITY LOG
HCALD  .IN    : HRCC CALIPER CALIBRATED FROM DENSITY LOG
HDRA   .G/C3  : HRDD SPINE AND RIBS DENSITY CORRECTION
DPHZ_LS.DEC   : HGRD STANDARD RESOLUTION DENSITY POROSITY
PEFZ   .B/E   : HRDD STANDARD RESOLUTION FORMATION PHOTOELECTRIC FACTOR
RHOZ   .G/C3  : HRDD STANDARD RESOLUTION FORMATION DENSITY
AE20   .OHMM  : ARRAY INDUCTION RESISTIVITY EVIRONMENTALLY COMPENSATED LOG PROCESSING AE20
AE30   .OHMM  : ARRAY INDUCTION RESISTIVITY EVIRONMENTALLY COMPENSATED LOG PROCESSING AE30
AE90   .OHMM  : ARRAY INDUCTION RESISTIVITY EVIRONMENTALLY COMPENSATED LOG PROCESSING AE90
GRS    .GAPI  : GAMMA RAY FROM SONIC LOG
DTCO   .US/F  : DELTA-T COMPRESSIONAL
DTSM   .US/F  : DELTA-T SHEAR
~Params ----------------------------------------------------
~Other -----------------------------------------------------
~ASCII -----------------------------------------------------
# ...
 13252.00000    0.00670   37.39400    8.35210    0.00260    0.00070    4.21480    2.72160  244.46110  271.58040  296.17140   -9999.25   -9999.25   -9999.25
 13252.50000    0.00450   38.47450    8.35200    0.00350   -0.00880    4.08320    2.72900  278.97430  300.36310  347.41720   -9999.25   -9999.25   -9999.25
 13253.00000    0.00500   41.13770    8.35190    0.00550   -0.01260    3.93810    2.73540  285.26690  302.16920  352.41220   -9999.25   -9999.25   -9999.25
 13253.50000    0.00680   42.42050    8.35180    0.00750   -0.01670    3.86680    2.74180  261.72560  277.34760  345.99540   -9999.25   -9999.25   -9999.25
 13254.00000    0.00850   42.42350    8.35140    0.00820   -0.01800    3.83140    2.74060  217.67220  243.51370  288.80700   -9999.25   -9999.25   -9999.25
 13254.50000    0.00870   42.42640    8.35080    0.00790   -0.01360    3.82630    2.73010  202.58480  213.57070  236.21940   -9999.25   -9999.25   -9999.25
 13255.00000    0.00870   43.00040    8.35020    0.00740   -0.00990    3.82640    2.72180  193.29890  202.58260  204.74680   -9999.25   -9999.25   -9999.25
 13255.50000    0.00870   44.07230    8.34950    0.00680   -0.00490    3.82650    2.72350  170.81160  177.55030  198.02340   -9999.25   -9999.25   -9999.25
 13256.00000    0.00840   44.43370    8.34890    0.00590   -0.00590    3.82650    2.72760  143.27720  147.51930  162.74590   -9999.25   -9999.25   -9999.25
 13256.50000    0.00810   43.89920    8.34830    0.00690   -0.01270    3.90380    2.73960  119.70940  127.04930  133.12010   -9999.25   -9999.25   -9999.25
 13257.00000    0.00790   43.94790    8.34770    0.01490   -0.01820    4.01190    2.74870  108.82490  116.24110  118.96650   -9999.25   -9999.25   -9999.25
 13257.50000    0.00780   44.41290    8.34700    0.01600   -0.02260    4.12000    2.74780  120.22770  120.12130  123.99880   -9999.25   -9999.25   -9999.25
 13258.00000    0.00760   44.63880    8.34640    0.01390   -0.02070    4.12550    2.74320  132.71930  139.75890  156.91810   -9999.25   -9999.25   -9999.25
 13258.50000    0.00750   44.32170    8.34580    0.01130   -0.01760    4.09380    2.74020  158.59190  169.65330  188.39540   -9999.25   -9999.25   -9999.25
 13259.00000    0.00750   43.80930    8.34520    0.00880   -0.01670    3.98610    2.73780  189.50820  201.58470  221.53180   -9999.25   -9999.25   -9999.25
 13259.50000    0.00750   43.38530    8.34450    0.00640   -0.01590    3.88030    2.73510  222.36430  229.93190  261.51580   -9999.25   -9999.25   -9999.25
 13260.00000    0.00750   43.02720    8.34390    0.00440   -0.01320    3.80040    2.73090  250.66870  262.26530  310.09680   -9999.25   -9999.25   -9999.25
 13260.50000    0.00750   42.80090    8.34330    0.00320   -0.00850    3.80040    2.72120  282.57590  299.48210  356.02680   -9999.25   -9999.25   -9999.25
 13261.00000    0.00750   43.84600    8.34260    0.00400   -0.00420    3.80050    2.71240  296.52910  343.74100  422.06640   -9999.25   -9999.25   -9999.25
 13261.50000    0.00750   44.74780    8.34200    0.02370   -0.00580    3.81030    2.71970  304.92350  369.06080  486.82240   -9999.25   -9999.25   -9999.25
 13262.00000    0.00750   44.75080    8.34140    0.04790   -0.01030    3.86800    2.72760  313.55560  376.13450  409.05780   -9999.25   -9999.25   -9999.25
 13262.50000    0.00750   44.75370    8.34080    0.06450   -0.01410    3.97740    2.73540  310.56270  342.35750  402.50420   -9999.25   -9999.25   -9999.25
 13263.00000    0.00750   44.62450    8.34010    0.07870   -0.01550    4.15190    2.73700  276.18970  311.00000  390.17120   -9999.25   -9999.25   -9999.25
 13263.50000    0.00750   44.35350    8.33950    0.08290   -0.01180    4.32840    2.72930  286.86460  295.68270  355.86440   -9999.25   -9999.25   -9999.25
 13264.00000    0.00750   44.08220    8.33890    0.08710   -0.00940    4.50500    2.71930  283.10940  290.53940  326.03530   -9999.25   -9999.25   -9999.25
 13264.50000    0.00750   43.86990    8.33580    0.08950   -0.00530    4.70770    2.70530  241.63440  283.19910  304.61200   -9999.25   -9999.25   -9999.25
 13265.00000    0.00750   43.97600    8.31890    0.06780    0.00530    4.89190    2.69070  226.46070  282.25230  305.92570   -9999.25   -9999.25   -9999.25
 13265.50000    0.00770   44.08200    8.30200    0.04680    0.01860    5.07640    2.67870  268.08510  310.47120  353.38980   -9999.25   -9999.25   -9999.25
 13266.00000    0.00820   44.18810    8.28520    0.04530    0.01740    5.27210    2.68680  315.72040  357.25420  461.81480   -9999.25   -9999.25   -9999.25
 13266.50000   -9999.25   -9999.25   -9999.25   -9999.25   -9999.25   -9999.25    2.70150  347.23380  366.48860  493.22070   -9999.25   -9999.25   -9999.25
 13267.00000   -9999.25   -9999.25   -9999.25   -9999.25   -9999.25   -9999.25    2.71340  321.21350  352.00020  416.53050   -9999.25   -9999.25   -9999.25
 13267.50000   -9999.25   -9999.25   -9999.25   -9999.25   -9999.25   -9999.25    2.72050  274.03370  298.48490  351.76490   -9999.25   -9999.25   -9999.25
 13268.00000   -9999.25   -9999.25   -9999.25   -9999.25   -9999.25   -9999.25    2.71340  233.78370  259.99800  301.89420   -9999.25   -9999.25   -9999.25
 13268.50000   -9999.25   -9999.25   -9999.25   -9999.25   -9999.25   -9999.25   -9999.25  205.46840  226.47340  262.31680   -9999.25   -9999.25   -9999.25
 13269.00000   -9999.25   -9999.25   -9999.25   -9999.25   -9999.25   -9999.25   -9999.25  181.61010  206.46910  222.40690   -9999.25   -9999.25   -9999.25
 13269.50000   -9999.25   -9999.25   -9999.25   -9999.25   -9999.25   -9999.25   -9999.25  165.31870  191.11280  196.86000   -9999.25   -9999.25   -9999.25
 13270.00000   -9999.25   -9999.25   -9999.25   -9999.25   -9999.25   -9999.25   -9999.25  163.76180  182.51830  190.38120   -9999.25   -9999.25   -9999.25
 13270.50000   -9999.25   -9999.25   -9999.25   -9999.25   -9999.25   -9999.25   -9999.25  168.67730  183.09310  197.42510   -9999.25   -9999.25   -9999.25
 13271.00000   -9999.25   -9999.25   -9999.25   -9999.25   -9999.25   -9999.25   -9999.25  175.75610  188.64630  210.95980   -9999.25   -9999.25   -9999.25
 13271.50000   -9999.25   -9999.25   -9999.25   -9999.25   -9999.25   -9999.25   -9999.25  177.41820  198.02010  223.80940   -9999.25   -9999.25   -9999.25
 13272.00000   -9999.25   -9999.25   -9999.25   -9999.25   -9999.25   -9999.25   -9999.25  177.11220  201.34880  225.16370   -9999.25   -9999.25   -9999.25
 13272.50000   -9999.25   -9999.25   -9999.25   -9999.25   -9999.25   -9999.25   -9999.25  172.35480  187.83690  203.30250   -9999.25   -9999.25   -9999.25
 13273.00000   -9999.25   -9999.25   -9999.25   -9999.25   -9999.25   -9999.25   -9999.25  158.27040  171.61560  182.67460   -9999.25   -9999.25   -9999.25
 13273.50000   -9999.25   -9999.25   -9999.25   -9999.25   -9999.25   -9999.25   -9999.25  143.38510  157.77640  164.13970   -9999.25   -9999.25   -9999.25
 13274.00000   -9999.25   -9999.25   -9999.25   -9999.25   -9999.25   -9999.25   -9999.25  133.94920  144.64010  146.84790   -9999.25   -9999.25   -9999.25
 13274.50000   -9999.25   -9999.25   -9999.25   -9999.25   -9999.25   -9999.25   -9999.25  130.77260  134.15840  140.05430   -9999.25   -9999.25   -9999.25
 13275.00000   -9999.25   -9999.25   -9999.25   -9999.25   -9999.25   -9999.25   -9999.25  139.11500  138.80700  145.83710   -9999.25   -9999.25   -9999.25
 13275.50000   -9999.25   -9999.25   -9999.25   -9999.25   -9999.25   -9999.25   -9999.25  163.09700  182.79920  205.67340   -9999.25   -9999.25   -9999.25
 13276.00000   -9999.25   -9999.25   -9999.25   -9999.25   -9999.25   -9999.25   -9999.25  221.38510  243.35380  253.41530   -9999.25   -9999.25   -9999.25
 13276.50000   -9999.25   -9999.25   -9999.25   -9999.25   -9999.25   -9999.25   -9999.25  274.62470  282.30690  302.23090   -9999.25   -9999.25   -9999.25
 13277.00000   -9999.25   -9999.25   -9999.25   -9999.25   -9999.25   -9999.25   -9999.25  266.16640  279.22550  319.59330   -9999.25   -9999.25   -9999.25
 13277.50000   -9999.25   -9999.25   -9999.25   -9999.25   -9999.25   -9999.25   -9999.25  243.74330  262.98570  314.02640   -9999.25   -9999.25   -9999.25
