~Version ---------------------------------------------------
VERS.   2.0 : CWLS log ASCII Standard -VERSION 2.0
WRAP.    NO : One line per depth step
DLM . SPACE : Column Data Section Delimiter
~Well ------------------------------------------------------
STRT .F                 1500.0 : START DEPTH
STOP .F                13292.0 : STOP DEPTH
STEP .F                    0.5 : STEP
NULL .                -9999.25 : NULL VALUE
COMP .                         : COMPANY
WELL .                         : WELL
FLD  .                         : FIELD
LOC  .                         : LOCATION
PROV .                         : PROVINCE
CNTY .                         : COUNTY
STAT .                         : STATE
CTRY .                         : COUNTRY
SRVC .                         : SERVICE COMPANY
DATE .                         : DATE
UWI  .                         : UNIQUE WELL ID
API  .                         : API NUMBER
SLAT .WGS84    5.6112805732106 : SURFACE LATITUDE
SLON .WGS84 2.7222555198844987 : SURFACE LONGITUDE
DATUM.F                    nan : DEPTH DATUM ELEV
~Curve Information -----------------------------------------
DEPT   .F     : 1 MEASURED DEPTH
NPOR_LS.DEC   : NEUTRON POROSITY LIMESTONE
GRD    .GAPI  : GAMMA RAY FROM DENSITY LOG
HCALD  .IN    : HRCC CALIPER CALIBRATED FROM DENSITY LOG
HDRA   .G/C3  : HRDD SPINE AND RIBS DENSITY CORRECTION
DPHZ_LS.DEC   : HGRD STANDARD RESOLUTION DENSITY POROSITY
PEFZ   .B/E   : HRDD STANDARD RESOLUTION FORMATION PHOTOELECTRIC FACTOR
RHOZ   .G/C3  : HRDD STANDARD RESOLUTION FORMATION DENSITY
AE20   .OHMM  : ARRAY INDUCTION RESISTIVITY EVIRONMENTALLY COMPENSATED LOG PROCESSING AE20
AE30   .OHMM  : ARRAY INDUCTION RESISTIVITY EVIRONMENTALLY COMPENSATED LOG PROCESSING AE30
AE90   .OHMM  : ARRAY INDUCTION RESISTIVITY EVIRONMENTALLY COMPENSATED LOG PROCESSING AE90
GRS    .GAPI  : GAMMA RAY FROM SONIC LOG
DTCO   .US/F  : DELTA-T COMPRESSIONAL
DTSM   .US/F  : DELTA-T SHEAR
~Params ----------------------------------------------------
~Other -----------------------------------------------------
~ASCII -----------------------------------------------------
# ...
 12628.00000    0.25250  111.10400    9.13110    0.00280    0.08800    3.07230    2.56470    4.35650    4.01160    3.91330   -9999.25   -9999.25   -9999.25
 12628.50000    0.24080  111.37230    9.13120    0.00300    0.09420    3.04720    2.54530    4.15760    3.88710    3.81390   -9999.25   -9999.25   -9999.25
 12629.00000    0.23180  111.00330    9.13120    0.00330    0.09970    3.04770    2.53620    4.48230    4.12390    3.89160   -9999.25   -9999.25   -9999.25
 12629.50000    0.22700  109.31130    9.13120    0.00350    0.10390    3.05380    2.53220    4.91800    4.72990    4.46310   -9999.25   -9999.25   -9999.25
 12630.00000    0.23670  109.94420    9.13120    0.00300    0.10530    3.05990    2.52770    5.09080    4.98650    4.87310   -9999.25   -9999.25   -9999.25
 12630.50000    0.24730  110.86380    9.13130    0.00250    0.10630    3.06730    2.52010    5.24160    5.15330    5.04540   -9999.25   -9999.25   -9999.25
 12631.00000    0.24620  110.32120    9.13130    0.00190    0.11030    3.08260    2.51390    5.29940    5.21010    5.11310   -9999.25   -9999.25   -9999.25
 12631.50000    0.24310  109.29820    9.13620    0.00010    0.11620    3.09780    2.50960    5.37750    5.28470    5.18410   -9999.25   -9999.25   -9999.25
 12632.00000    0.24100  108.37750    9.14920   -0.00380    0.11910    3.11160    2.50680    5.45970    5.36560    5.26330   -9999.25   -9999.25   -9999.25
 12632.50000    0.24060  108.71750    9.16230   -0.00730    0.12010    3.11260    2.50320    5.40400    5.30720    5.20160   -9999.25   -9999.25   -9999.25
 12633.00000    0.24130  109.97280    9.17740   -0.00880    0.12160    3.07300    2.50160    5.28880    5.19390    5.09050   -9999.25   -9999.25   -9999.25
 12633.50000    0.24520  111.68440    9.17810   -0.00490    0.12210    3.02800    2.50330    5.17610    5.08290    4.98170   -9999.25   -9999.25   -9999.25
 12634.00000    0.24900  111.73350    9.16730   -0.00040    0.12050    3.04050    2.50770    4.99520    4.74820    4.48990   -9999.25   -9999.25   -9999.25
 12634.50000    0.25630  111.09010    9.11430    0.00280    0.11780    3.07350    2.51100    4.36140    4.12280    4.00410   -9999.25   -9999.25   -9999.25
 12635.00000    0.26530  110.52810    9.06980    0.00280    0.11630    3.14860    2.53560    5.40380    5.15720    4.89700   -9999.25   -9999.25   -9999.25
 12635.50000    0.25720  106.35180    9.03090    0.00250    0.10270    3.22370    2.56460    6.24830    5.88050    5.54100   -9999.25   -9999.25   -9999.25
 12636.00000    0.24070  101.52380    9.02150    0.00230    0.09010    3.29430    2.58480    7.34780    6.47760    6.24020   -9999.25   -9999.25   -9999.25
 12636.50000    0.20970   96.56090    9.01720    0.00210    0.07000    3.33710    2.59950    7.55780    6.84270    6.30130   -9999.25   -9999.25   -9999.25
 12637.00000    0.19310   98.40440    9.01300    0.00180    0.06690    3.31240    2.59640    6.85960    6.05090    4.96540   -9999.25   -9999.25   -9999.25
 12637.50000    0.20030  105.97740    9.00870    0.00160    0.07350    3.17450    2.58380    5.16420    4.00380    3.51850   -9999.25   -9999.25   -9999.25
 12638.00000    0.24510  114.32990    9.00420    0.00130    0.08520    2.94820    2.55740    4.34220    3.30010    2.62550   -9999.25   -9999.25   -9999.25
 12638.50000    0.27940  123.72460    8.99960    0.00130    0.08970    2.72190    2.55330    3.75810    3.06070    2.82840   -9999.25   -9999.25   -9999.25
 12639.00000    0.31170  128.84970    8.99490    0.00170    0.09250    2.69150    2.55010    3.46090    2.96450    2.74480   -9999.25   -9999.25   -9999.25
 12639.50000    0.32050  128.89060    8.99030    0.00210    0.09410    2.74160    2.55100    3.04990    2.78710    2.07390   -9999.25   -9999.25   -9999.25
 12640.00000    0.28670  117.63390    8.98970    0.00250    0.09110    2.89150    2.56900    4.43150    3.92720    3.38420   -9999.25   -9999.25   -9999.25
 12640.50000    0.25300  107.61030    8.98970    0.00290    0.08530    3.04670    2.58300    5.19640    4.80620    4.56850   -9999.25   -9999.25   -9999.25
 12641.00000    0.23430  101.57520    8.98970    0.00340    0.08010    3.33230    2.58530    5.20840    4.86350    4.73660   -9999.25   -9999.25   -9999.25
 12641.50000    0.22880  101.15620    8.98990    0.00390    0.07260    3.56530    2.57910    4.73460    4.44220    4.14690   -9999.25   -9999.25   -9999.25
 12642.00000    0.22830  106.83590    8.99430    0.00440    0.07630    3.49020    2.57460    4.00290    3.77310    3.53710   -9999.25   -9999.25   -9999.25
 12642.50000    0.25570  112.57140    8.99880    0.00750    0.07830    3.22840    2.59060    3.42360    3.22920    3.02720   -9999.25   -9999.25   -9999.25
 12643.00000    0.26980  111.42380    9.00330    0.01280    0.07030    2.96650    2.60760    3.00270    2.92210    2.83540   -9999.25   -9999.25   -9999.25
 12643.50000    0.27420  111.35210    9.00770    0.01960    0.05880    2.93640    2.61560    2.82740    2.75380    2.67710   -9999.25   -9999.25   -9999.25
 12644.00000    0.28170  114.36200    9.01220    0.02000    0.05800    2.88870    2.57680    2.67630    2.60900    2.49770   -9999.25   -9999.25   -9999.25
 12644.50000    0.30780  119.31230    9.01670    0.01480    0.07930    2.77340    2.56910    2.45300    2.35730    2.28750   -9999.25   -9999.25   -9999.25
 12645.00000    0.31630  122.17710    9.02110    0.00770    0.09320    2.77440    2.55710    3.11100    2.58440    2.27080   -9999.25   -9999.25   -9999.25
 12645.50000    0.28430  121.84130    9.02560    0.00520    0.09070    2.80970    2.55240    4.15940    3.86470    3.51260   -9999.25   -9999.25   -9999.25
 12646.00000    0.26260  120.68280    9.03000    0.00310    0.09040    2.85930    2.54770    4.67390    3.92920    3.60120   -9999.25   -9999.25   -9999.25
 12646.50000    0.26940  119.78940    9.03450    0.00260    0.09460    2.90890    2.54300    3.89440    3.54840    3.32870   -9999.25   -9999.25   -9999.25
 12647.00000    0.27680  116.15160    9.03900    0.00210    0.09870    2.96510    2.54840    3.55780    3.25720    3.17240   -9999.25   -9999.25   -9999.25
 12647.50000    0.26770  107.31990    9.04560    0.00260    0.09420    3.02180    2.57390    4.61130    3.93660    3.39010   -9999.25   -9999.25   -9999.25
 12648.00000    0.23510   99.11510    9.06260    0.00440    0.08100    3.07850    2.58980    7.01250    5.78250    4.97380   -9999.25   -9999.25   -9999.25
 12648.50000    0.23770  102.16090    9.07970    0.00590    0.06990    3.09520    2.59940    6.44940    5.06540    4.69140   -9999.25   -9999.25   -9999.25
 12649.00000    0.25660  108.47480    9.09520    0.00740    0.06620    3.10620    2.59940    5.02210    4.11910    3.76870   -9999.25   -9999.25   -9999.25
 12649.50000    0.26910  117.80470    9.08570    0.00740    0.06740    3.05990    2.59140    4.04080    3.47170    3.19210   -9999.25   -9999.25   -9999.25
 12650.00000    0.27680  129.37970    9.07630    0.00710    0.08050    2.90520    2.52970    3.75070    3.24610    3.06700   -9999.25   -9999.25   -9999.25
 12650.50000    0.28060  134.99760    9.06680    0.00620    0.10070    2.75850    2.48790    3.86920    3.55920    3.22190   -9999.25   -9999.25   -9999.25
 12651.00000    0.28060  140.28650    9.05730    0.00450    0.11950    2.73950    2.48610    4.37960    4.10830    3.79640   -9999.25   -9999.25   -9999.25
 12651.50000    0.27600  144.30550    9.04780    0.00230    0.13210    2.72050    2.50980    5.38120    4.79430    4.61090   -9999.25   -9999.25   -9999.25
 12652.00000    0.26180  141.13840    9.03170    0.00240    0.12540    2.70650    2.51950    5.75130    6.05120    7.12840   -9999.25   -9999.25   -9999.25
 12652.50000    0.25090  131.54550    9.00720    0.00270    0.11170    2.71090    2.53040    4.67920    5.22830    6.03040   -9999.25   -9999.25   -9999.25
 12653.00000    0.24980  123.18000    8.98270    0.00310    0.10380    2.74890    2.53440    4.07600    4.75910    5.14110   -9999.25   -9999.25   -9999.25
 12653.50000    0.25030  116.04370    8.96590    0.00340    0.10220    2.83290    2.59040    4.24790    4.85180    4.97240   -9999.25   -9999.25   -9999.25
