~Version ---------------------------------------------------
VERS.   2.0 : CWLS log ASCII Standard -VERSION 2.0
WRAP.    NO : One line per depth step
DLM . SPACE : Column Data Section Delimiter
~Well ------------------------------------------------------
STRT .F                 1500.0 : START DEPTH
STOP .F                13292.0 : STOP DEPTH
STEP .F                    0.5 : STEP
NULL .                -9999.25 : NULL VALUE
COMP .                         : COMPANY
WELL .                         : WELL
FLD  .                         : FIELD
LOC  .                         : LOCATION
PROV .                         : PROVINCE
CNTY .                         : COUNTY
STAT .                         : STATE
CTRY .                         : COUNTRY
SRVC .                         : SERVICE COMPANY
DATE .                         : DATE
UWI  .                         : UNIQUE WELL ID
API  .                         : API NUMBER
SLAT .WGS84    5.6112805732106 : SURFACE LATITUDE
SLON .WGS84 2.7222555198844987 : SURFACE LONGITUDE
DATUM.F                    nan : DEPTH DATUM ELEV
~Curve Information -----------------------------------------
DEPT   .F     : 1 MEASURED DEPTH
NPOR_LS.DEC   : NEUTRON POROSITY LIMESTONE
GRD    .GAPI  : GAMMA RAY FROM DENSITY LOG
HCALD  .IN    : HRCC CALIPER CALIBRATED FROM DENSITY LOG
HDRA   .G/C3  : HRDD SPINE AND RIBS DENSITY CORRECTION
DPHZ_LS.DEC   : HGRD STANDARD RESOLUTION DENSITY POROSITY
PEFZ   .B/E   : HRDD STANDARD RESOLUTION FORMATION PHOTOELECTRIC FACTOR
RHOZ   .G/C3  : HRDD STANDARD RESOLUTION FORMATION DENSITY
AE20   .OHMM  : ARRAY INDUCTION RESISTIVITY EVIRONMENTALLY COMPENSATED LOG PROCESSING AE20
AE30   .OHMM  : ARRAY INDUCTION RESISTIVITY EVIRONMENTALLY COMPENSATED LOG PROCESSING AE30
AE90   .OHMM  : ARRAY INDUCTION RESISTIVITY EVIRONMENTALLY COMPENSATED LOG PROCESSING AE90
GRS    .GAPI  : GAMMA RAY FROM SONIC LOG
DTCO   .US/F  : DELTA-T COMPRESSIONAL
DTSM   .US/F  : DELTA-T SHEAR
~Params ----------------------------------------------------
~Other -----------------------------------------------------
~ASCII -----------------------------------------------------
# ...
 12758.00000    0.06750   97.17640    8.73400    0.00360    0.03810    2.73620    2.63470   26.60630   25.61150   24.52930   -9999.25   -9999.25   -9999.25
 12758.50000    0.06970  101.02220    8.73810    0.00360    0.04490    2.74460    2.63100   24.06620   23.14830   22.60940   -9999.25   -9999.25   -9999.25
 12759.00000    0.07060  104.39530    8.73320    0.00380    0.04590    2.80010    2.63130   22.89140   22.51680   22.11010   -9999.25   -9999.25   -9999.25
 12759.50000    0.07000  104.64830    8.72470    0.00410    0.04240    2.83070    2.64490   23.72700   23.19980   22.62900   -9999.25   -9999.25   -9999.25
 12760.00000    0.06920  101.75310    8.71620    0.00440    0.03680    2.86090    2.66000   24.78710   24.23630   23.63900   -9999.25   -9999.25   -9999.25
 12760.50000    0.06830   98.70500    8.70770    0.00460    0.03330    2.88600    2.66250   25.23980   24.82680   24.37820   -9999.25   -9999.25   -9999.25
 12761.00000    0.06670   96.35210    8.69920    0.00490    0.03220    2.88530    2.66190   26.95900   25.57750   24.63370   -9999.25   -9999.25   -9999.25
 12761.50000    0.06490   94.27140    8.69080    0.00520    0.02940    2.88070    2.66020   32.03250   29.25480   27.63570   -9999.25   -9999.25   -9999.25
 12762.00000    0.06420   91.89920    8.68740    0.00540    0.02950    2.86210    2.65980   30.85220   29.12520   27.81260   -9999.25   -9999.25   -9999.25
 12762.50000    0.06510   90.09830    8.68520    0.00570    0.02960    2.84350    2.66020   28.57700   27.90610   27.22830   -9999.25   -9999.25   -9999.25
 12763.00000    0.06460   88.92730    8.68310    0.00600    0.02900    2.82480    2.67430   27.31410   26.69470   26.02720   -9999.25   -9999.25   -9999.25
 12763.50000    0.06200   88.31930    8.68090    0.00640    0.02170    2.80560    2.67630   26.01350   25.31530   24.56340   -9999.25   -9999.25   -9999.25
 12764.00000    0.06060   86.74410    8.67870    0.00660    0.02080    2.80190    2.67390   27.55200   25.14660   23.54710   -9999.25   -9999.25   -9999.25
 12764.50000    0.05890   85.04860    8.67650    0.00520    0.02280    2.80130    2.66550   35.17500   32.77270   29.32370   -9999.25   -9999.25   -9999.25
 12765.00000    0.05550   84.68230    8.67430    0.00440    0.02630    2.80060    2.66020   35.39290   32.36200   31.66480   -9999.25   -9999.25   -9999.25
 12765.50000    0.05180   85.71820    8.67210    0.00380    0.03150    2.82430    2.65700   31.90260   30.90540   29.83810   -9999.25   -9999.25   -9999.25
 12766.00000    0.05100   86.37610    8.68420    0.00320    0.03190    2.83350    2.65920   33.81050   32.76070   30.71950   -9999.25   -9999.25   -9999.25
 12766.50000    0.04870   87.08600    8.70470    0.00320    0.03060    2.82090    2.66510   37.44810   34.83600   33.79560   -9999.25   -9999.25   -9999.25
 12767.00000    0.04990   87.90860    8.72510    0.00420    0.02490    2.79620    2.67050   38.25900   35.40430   34.10670   -9999.25   -9999.25   -9999.25
 12767.50000    0.05320   88.56140    8.74360    0.00510    0.02330    2.77150    2.67190   33.08590   31.40090   29.63180   -9999.25   -9999.25   -9999.25
 12768.00000    0.05510   88.91020    8.75240    0.00540    0.02300    2.74680    2.67340   32.41780   31.46810   30.26690   -9999.25   -9999.25   -9999.25
 12768.50000    0.05410   88.26010    8.75860    0.00540    0.02310    2.72300    2.67310   34.75240   33.73470   32.54510   -9999.25   -9999.25   -9999.25
 12769.00000    0.05280   85.95150    8.75220    0.00520    0.02220    2.72290    2.66180   40.08010   37.45960   34.99460   -9999.25   -9999.25   -9999.25
 12769.50000    0.04780   81.31460    8.74570    0.00490    0.02850    2.72270    2.64730   49.65410   45.07310   41.82670   -9999.25   -9999.25   -9999.25
 12770.00000    0.03910   76.60290    8.73850    0.00430    0.03930    2.79020    2.63770   79.18350   66.99800   55.73830   -9999.25   -9999.25   -9999.25
 12770.50000    0.03040   71.89120    8.73040    0.00370    0.04330    2.86350    2.64490  101.05490   90.92270   83.35210   -9999.25   -9999.25   -9999.25
 12771.00000    0.02260   66.01580    8.72570    0.00350    0.03770    2.94280    2.66610  118.15540  101.75210   98.38960   -9999.25   -9999.25   -9999.25
 12771.50000    0.01680   60.44000    8.73040    0.00350    0.02600    3.06370    2.68240  107.05280  102.71020  100.85310   -9999.25   -9999.25   -9999.25
 12772.00000    0.00850   55.35490    8.73500    0.00570    0.01460    3.16010    2.69340  207.90320  102.42960  100.36780   -9999.25   -9999.25   -9999.25
 12772.50000   -0.00000   50.26990    8.73960    0.00790    0.00840    3.39200    2.69870  343.38000  301.29620  265.35360   -9999.25   -9999.25   -9999.25
 12773.00000   -0.00190   46.54980    8.74420    0.01030    0.00650    3.40850    2.69860  452.94740  349.11230  268.53730   -9999.25   -9999.25   -9999.25
 12773.50000   -0.00220   47.71730    8.74880    0.01260    0.00870    3.32780    2.68810  328.37230  175.69370  133.06760   -9999.25   -9999.25   -9999.25
 12774.00000    0.00320   51.54950    8.75340    0.01440    0.01350    3.18540    2.66480  152.90210  110.36210   95.63850   -9999.25   -9999.25   -9999.25
 12774.50000    0.01050   56.80830    8.75800    0.01390    0.01990    3.04190    2.65890   72.61290   62.72070   67.74480   -9999.25   -9999.25   -9999.25
 12775.00000    0.02160   62.87480    8.76270    0.01160    0.03070    2.89830    2.64920   47.72700   61.64470   67.58740   -9999.25   -9999.25   -9999.25
 12775.50000    0.03320   64.78860    8.76730    0.00830    0.03880    2.82880    2.64530   74.83970   89.18250  101.95240   -9999.25   -9999.25   -9999.25
 12776.00000    0.03410   63.39930    8.77190    0.00500    0.03910    2.84800    2.64600   96.71880  114.30540  129.23170   -9999.25   -9999.25   -9999.25
 12776.50000    0.02010   63.83390    8.77650    0.00420    0.03910    2.91480    2.64830   69.41280   85.30490  112.34800   -9999.25   -9999.25   -9999.25
 12777.00000    0.01950   68.30320    8.79050    0.00420    0.03760    2.88900    2.65010   45.42510   53.92530   68.72680   -9999.25   -9999.25   -9999.25
 12777.50000    0.02510   84.57390    8.80670    0.00420    0.03450    2.85020    2.64680   29.45620   34.08870   41.24920   -9999.25   -9999.25   -9999.25
 12778.00000    0.04420  101.69510    8.82280    0.00430    0.03590    2.78090    2.63880   23.85730   24.58940   24.32450   -9999.25   -9999.25   -9999.25
 12778.50000    0.06430  115.94330    8.83900    0.00430    0.04310    2.72280    2.62520   23.77650   21.46530   21.03330   -9999.25   -9999.25   -9999.25
 12779.00000    0.07570  130.24510    8.84810    0.00430    0.05220    2.72380    2.59620   26.37060   21.22580   20.74580   -9999.25   -9999.25   -9999.25
 12779.50000    0.09320  142.79160    8.84810    0.00440    0.06340    2.72920    2.59780   33.26130   24.02250   22.65830   -9999.25   -9999.25   -9999.25
 12780.00000    0.12440  149.13540    8.83470    0.00440    0.06520    2.80600    2.61420   39.24910   28.08790   27.19840   -9999.25   -9999.25   -9999.25
 12780.50000    0.12620  143.02380    8.81240    0.00450    0.06240    2.87960    2.62810   27.84100   32.42560   35.42830   -9999.25   -9999.25   -9999.25
 12781.00000    0.11760  129.68950    8.79500    0.00450    0.05140    2.86410    2.63880   27.39020   37.43310   48.30200   -9999.25   -9999.25   -9999.25
 12781.50000    0.08640  114.14630    8.79510    0.00450    0.04070    2.80860    2.64220   26.85210   37.07140   50.89580   -9999.25   -9999.25   -9999.25
 12782.00000    0.06630  103.82660    8.79510    0.00460    0.04000    2.71000    2.63110   23.01950   29.53540   34.43470   -9999.25   -9999.25   -9999.25
 12782.50000    0.06130  106.87290    8.79510    0.00460    0.04770    2.61130    2.61480   22.90240   26.32220   27.74140   -9999.25   -9999.25   -9999.25
 12783.00000    0.07410  115.86830    8.79510    0.00470    0.05730    2.60290    2.60510   23.21210   25.42980   26.57630   -9999.25   -9999.25   -9999.25
 12783.50000    0.09470  124.97910    8.79510    0.00470    0.06150    2.61190    2.59940   26.28820   26.53320   27.43720   -9999.25   -9999.25   -9999.25
