~Version ---------------------------------------------------
VERS.   2.0 : CWLS log ASCII Standard -VERSION 2.0
WRAP.    NO : One line per depth step
DLM . SPACE : Column Data Section Delimiter
~Well ------------------------------------------------------
STRT .F                 1500.0 : START DEPTH
STOP .F                13292.0 : STOP DEPTH
STEP .F                    0.5 : STEP
NULL .                -9999.25 : NULL VALUE
COMP .                         : COMPANY
WELL .                         : WELL
FLD  .                         : FIELD
LOC  .                         : LOCATION
PROV .                         : PROVINCE
CNTY .                         : COUNTY
STAT .                         : STATE
CTRY .                         : COUNTRY
SRVC .                         : SERVICE COMPANY
DATE .                         : DATE
UWI  .                         : UNIQUE WELL ID
API  .                         : API NUMBER
SLAT .WGS84    5.6112805732106 : SURFACE LATITUDE
SLON .WGS84 2.7222555198844987 : SURFACE LONGITUDE
DATUM.F                    nan : DEPTH DATUM ELEV
~Curve Information -----------------------------------------
DEPT   .F     : 1 MEASURED DEPTH
NPOR_LS.DEC   : NEUTRON POROSITY LIMESTONE
GRD    .GAPI  : GAMMA RAY FROM DENSITY LOG
HCALD  .IN    : HRCC CALIPER CALIBRATED FROM DENSITY LOG
HDRA   .G/C3  : HRDD SPINE AND RIBS DENSITY CORRECTION
DPHZ_LS.DEC   : HGRD STANDARD RESOLUTION DENSITY POROSITY
PEFZ   .B/E   : HRDD STANDARD RESOLUTION FORMATION PHOTOELECTRIC FACTOR
RHOZ   .G/C3  : HRDD STANDARD RESOLUTION FORMATION DENSITY
AE20   .OHMM  : ARRAY INDUCTION RESISTIVITY EVIRONMENTALLY COMPENSATED LOG PROCESSING AE20
AE30   .OHMM  : ARRAY INDUCTION RESISTIVITY EVIRONMENTALLY COMPENSATED LOG PROCESSING AE30
AE90   .OHMM  : ARRAY INDUCTION RESISTIVITY EVIRONMENTALLY COMPENSATED LOG PROCESSING AE90
GRS    .GAPI  : GAMMA RAY FROM SONIC LOG
DTCO   .US/F  : DELTA-T COMPRESSIONAL
DTSM   .US/F  : DELTA-T SHEAR
~Params ----------------------------------------------------
~Other -----------------------------------------------------
~ASCII -----------------------------------------------------
# ...
 12134.00000    0.12100   69.84370    8.69370    0.00540    0.03480    3.22220    2.64460    6.57400    6.46650    6.34570   -9999.25   -9999.25   -9999.25
 12134.50000    0.12450   68.99760    8.68720    0.00460    0.03530    3.16990    2.64430    6.49570    6.38700    6.17440   -9999.25   -9999.25   -9999.25
 12135.00000    0.12680   66.36280    8.68310    0.00370    0.03840    3.15690    2.64450    5.98670    5.67140    5.45870   -9999.25   -9999.25   -9999.25
 12135.50000    0.12210   64.82970    8.67930    0.00310    0.03920    3.16620    2.64560    6.58520    6.20930    5.81930   -9999.25   -9999.25   -9999.25
 12136.00000    0.11540   64.76090    8.67560    0.00260    0.03950    3.23530    2.65190    7.76700    7.27310    6.81450   -9999.25   -9999.25   -9999.25
 12136.50000    0.10940   64.77870    8.67190    0.00200    0.03890    3.33650    2.65580    7.94750    7.48960    7.33220   -9999.25   -9999.25   -9999.25
 12137.00000    0.10580   64.76410    8.66730    0.00240    0.03770    3.34880    2.65640    7.93220    7.54040    7.40410   -9999.25   -9999.25   -9999.25
 12137.50000    0.10510   64.78980    8.65760    0.00290    0.03310    3.34830    2.65240    7.74220    7.41680    7.26400   -9999.25   -9999.25   -9999.25
 12138.00000    0.10570   64.96620    8.66020    0.00350    0.03200    3.34050    2.64350    7.37120    7.24220    7.10260   -9999.25   -9999.25   -9999.25
 12138.50000    0.10620   64.76610    8.68940    0.00380    0.03200    3.32290    2.64660    7.24230    7.11570    6.97840   -9999.25   -9999.25   -9999.25
 12139.00000    0.10770   63.55170    8.70740    0.00380    0.03430    3.33020    2.65370    7.20210    7.08420    6.95620   -9999.25   -9999.25   -9999.25
 12139.50000    0.10850   61.58370    8.71430    0.00380    0.04000    3.43160    2.66040    7.29830    7.17600    7.04310   -9999.25   -9999.25   -9999.25
 12140.00000    0.09970   61.27170    8.72110    0.00380    0.03820    3.49220    2.65630   10.84000    9.39350    7.72960   -9999.25   -9999.25   -9999.25
 12140.50000    0.09020   62.34540    8.71270    0.00380    0.03230    3.54630    2.65120   13.07130   11.21240    9.70880   -9999.25   -9999.25   -9999.25
 12141.00000    0.08920   64.58330    8.70350    0.00370    0.03180    3.46380    2.64330   10.12550    8.18930    6.41960   -9999.25   -9999.25   -9999.25
 12141.50000    0.11000   67.12620    8.69420    0.00440    0.03410    3.37890    2.64140    6.40760    5.92830    5.65860   -9999.25   -9999.25   -9999.25
 12142.00000    0.11780   67.51110    8.68630    0.00510    0.03640    3.29380    2.63850    6.52970    5.94830    5.78090   -9999.25   -9999.25   -9999.25
 12142.50000    0.12390   66.37780    8.68790    0.00570    0.03720    3.28430    2.63990    7.11480    6.13210    6.02130   -9999.25   -9999.25   -9999.25
 12143.00000    0.12910   66.10760    8.68950    0.00570    0.04020    3.32250    2.65310    6.71140    6.14840    6.02940   -9999.25   -9999.25   -9999.25
 12143.50000    0.13090   65.86830    8.69110    0.00570    0.04220    3.33900    2.65820    6.74600    6.50510    6.25000   -9999.25   -9999.25   -9999.25
 12144.00000    0.12880   65.52310    8.69270    0.00570    0.04120    3.37510    2.66390    7.30570    7.08320    6.82270   -9999.25   -9999.25   -9999.25
 12144.50000    0.12380   65.55340    8.69430    0.00550    0.03600    3.37760    2.66700    7.59670    7.44340    7.27790   -9999.25   -9999.25   -9999.25
 12145.00000    0.11880   65.67270    8.69590    0.00510    0.02980    3.37720    2.65080    7.35130    7.20310    7.04290   -9999.25   -9999.25   -9999.25
 12145.50000    0.11320   66.23390    8.69750    0.00460    0.02610    3.37620    2.64570    7.11390    6.97060    6.81550   -9999.25   -9999.25   -9999.25
 12146.00000    0.11170   66.27330    8.69920    0.00440    0.02780    3.36860    2.64920    6.88410    6.67090    6.44220   -9999.25   -9999.25   -9999.25
 12146.50000    0.11980   67.07600    8.70080    0.00430    0.03800    3.32090    2.65420    6.39300    6.19430    5.98240   -9999.25   -9999.25   -9999.25
 12147.00000    0.12790   68.89890    8.70240    0.00430    0.03860    3.29750    2.65550    5.93650    5.78780    5.62880   -9999.25   -9999.25   -9999.25
 12147.50000    0.13020   69.64690    8.70400    0.00420    0.03640    3.28310    2.65040    5.69040    5.59330    5.48790   -9999.25   -9999.25   -9999.25
 12148.00000    0.12750   68.36680    8.70170    0.00420    0.03350    3.30480    2.64270    6.20720    5.81180    5.42710   -9999.25   -9999.25   -9999.25
 12148.50000    0.12150   66.02230    8.69930    0.00410    0.03510    3.36200    2.63440    6.90990    6.71020    6.40550   -9999.25   -9999.25   -9999.25
 12149.00000    0.11340   65.21580    8.69700    0.00400    0.03660    3.42170    2.61990    6.90990    6.79680    6.67390   -9999.25   -9999.25   -9999.25
 12149.50000    0.11190   64.72480    8.69470    0.00400    0.03730    3.43170    2.63510    6.77650    6.58450    6.37830   -9999.25   -9999.25   -9999.25
 12150.00000    0.12440   64.39920    8.69230    0.00390    0.04330    3.40490    2.64560    6.34870    6.17030    6.00420   -9999.25   -9999.25   -9999.25
 12150.50000    0.13020   64.07350    8.69000    0.00390    0.04830    3.37810    2.65520    6.20340    6.04880    5.88260   -9999.25   -9999.25   -9999.25
 12151.00000    0.12870   62.43810    8.68770    0.00360    0.04790    3.39230    2.66100    6.57770    6.38530    6.20950   -9999.25   -9999.25   -9999.25
 12151.50000    0.12080   60.21180    8.68530    0.00330    0.03910    3.42650    2.66440    7.55150    7.07460    6.73480   -9999.25   -9999.25   -9999.25
 12152.00000    0.11720   59.79580    8.68300    0.00300    0.02830    3.43580    2.65890    8.44280    7.78620    7.28580   -9999.25   -9999.25   -9999.25
 12152.50000    0.11360   60.13950    8.68060    0.00280    0.02720    3.40750    2.65320    7.30060    7.13030    6.81090   -9999.25   -9999.25   -9999.25
 12153.00000    0.12190   62.28460    8.67830    0.00270    0.03190    3.37720    2.65250    6.73170    6.51820    6.35800   -9999.25   -9999.25   -9999.25
 12153.50000    0.12650   66.48580    8.67600    0.00310    0.03540    3.37740    2.65270    6.38250    6.24190    6.12170   -9999.25   -9999.25   -9999.25
 12154.00000    0.12560   69.42660    8.67360    0.00350    0.03590    3.37760    2.64980    6.24320    6.13450    6.01640   -9999.25   -9999.25   -9999.25
 12154.50000    0.12310   71.44290    8.67130    0.00380    0.03440    3.37790    2.64760    6.15800    5.99200    5.81320   -9999.25   -9999.25   -9999.25
 12155.00000    0.12490   70.67430    8.66890    0.00400    0.03520    3.38840    2.65780    5.89440    5.79270    5.68240   -9999.25   -9999.25   -9999.25
 12155.50000    0.12580   67.92580    8.66860    0.00420    0.03690    3.43980    2.66870    6.54400    6.28290    6.00640   -9999.25   -9999.25   -9999.25
 12156.00000    0.11940   64.45140    8.66850    0.00430    0.03570    3.49120    2.69050    7.45340    7.00190    6.67460   -9999.25   -9999.25   -9999.25
 12156.50000    0.11250   62.04940    8.66850    0.00440    0.02220    3.53930    2.68860    8.79510    8.14420    7.75290   -9999.25   -9999.25   -9999.25
 12157.00000    0.11050   62.03830    8.66840    0.00400    0.01240    3.55390    2.66950    9.55610    8.85060    7.98010   -9999.25   -9999.25   -9999.25
 12157.50000    0.12500   62.39740    8.66840    0.00360    0.01160    3.55030    2.66590    6.24760    6.09220    5.92480   -9999.25   -9999.25   -9999.25
 12158.00000    0.13270   64.01380    8.66830    0.00330    0.02720    3.52000    2.66970    6.00660    5.89930    5.78290   -9999.25   -9999.25   -9999.25
 12158.50000    0.13230   64.77500    8.66830    0.00300    0.02680    3.48970    2.67020    6.11550    5.85780    5.75090   -9999.25   -9999.25   -9999.25
 12159.00000    0.12680   64.21090    8.66820    0.00290    0.02460    3.45940    2.66710    7.43920    6.96540    6.55030   -9999.25   -9999.25   -9999.25
 12159.50000    0.12240   63.16170    8.66820    0.00270    0.02380    3.42910    2.65450    7.60640    7.10880    6.96120   -9999.25   -9999.25   -9999.25
