~Version ---------------------------------------------------
VERS.   2.0 : CWLS log ASCII Standard -VERSION 2.0
WRAP.    NO : One line per depth step
DLM . SPACE : Column Data Section Delimiter
~Well ------------------------------------------------------
STRT .F                 1500.0 : START DEPTH
STOP .F                13292.0 : STOP DEPTH
STEP .F                    0.5 : STEP
NULL .                -9999.25 : NULL VALUE
COMP .                         : COMPANY
WELL .                         : WELL
FLD  .                         : FIELD
LOC  .                         : LOCATION
PROV .                         : PROVINCE
CNTY .                         : COUNTY
STAT .                         : STATE
CTRY .                         : COUNTRY
SRVC .                         : SERVICE COMPANY
DATE .                         : DATE
UWI  .                         : UNIQUE WELL ID
API  .                         : API NUMBER
SLAT .WGS84    5.6112805732106 : SURFACE LATITUDE
SLON .WGS84 2.7222555198844987 : SURFACE LONGITUDE
DATUM.F                    nan : DEPTH DATUM ELEV
~Curve Information -----------------------------------------
DEPT   .F     : 1 MEASURED DEPTH
NPOR_LS.DEC   : NEUTRON POROSITY LIMESTONE
GRD    .GAPI  : GAMMA RAY FROM DENSITY LOG
HCALD  .IN    : HRCC CALIPER CALIBRATED FROM DENSITY LOG
HDRA   .G/C3  : HRDD SPINE AND RIBS DENSITY CORRECTION
DPHZ_LS.DEC   : HGRD STANDARD RESOLUTION DENSITY POROSITY
PEFZ   .B/E   : HRDD STANDARD RESOLUTION FORMATION PHOTOELECTRIC FACTOR
RHOZ   .G/C3  : HRDD STANDARD RESOLUTION FORMATION DENSITY
AE20   .OHMM  : ARRAY INDUCTION RESISTIVITY EVIRONMENTALLY COMPENSATED LOG PROCESSING AE20
AE30   .OHMM  : ARRAY INDUCTION RESISTIVITY EVIRONMENTALLY COMPENSATED LOG PROCESSING AE30
AE90   .OHMM  : ARRAY INDUCTION RESISTIVITY EVIRONMENTALLY COMPENSATED LOG PROCESSING AE90
GRS    .GAPI  : GAMMA RAY FROM SONIC LOG
DTCO   .US/F  : DELTA-T COMPRESSIONAL
DTSM   .US/F  : DELTA-T SHEAR
~Params ----------------------------------------------------
~Other -----------------------------------------------------
~ASCII -----------------------------------------------------
# ...
 11874.00000    0.09160   48.85170    8.70580    0.00710    0.01910    4.03240    2.69020   10.40290   10.23010   10.04260   -9999.25   -9999.25   -9999.25
 11874.50000    0.09690   49.70480    8.70550    0.00910    0.01420    4.04520    2.70250   10.47520   10.30240   10.11470   -9999.25   -9999.25   -9999.25
 11875.00000    0.09790   51.04390    8.70530    0.01020    0.00520    4.02700    2.70120   10.53450   10.36070   10.17200   -9999.25   -9999.25   -9999.25
 11875.50000    0.09480   51.29270    8.70510    0.00980    0.00720    4.00180    2.69480   10.47730   10.30400   10.11590   -9999.25   -9999.25   -9999.25
 11876.00000    0.09490   52.12180    8.70480    0.00890    0.01080    3.95820    2.69180   10.16930    9.91860    9.64560   -9999.25   -9999.25   -9999.25
 11876.50000    0.09780   53.69020    8.70460    0.00750    0.01210    3.92830    2.69220    9.63130    9.38450    9.11880   -9999.25   -9999.25   -9999.25
 11877.00000    0.10080   54.46910    8.70440    0.00660    0.01090    3.89620    2.69250    9.11080    8.90190    8.73060   -9999.25   -9999.25   -9999.25
 11877.50000    0.10200   54.16200    8.70420    0.00710    0.01050    3.91770    2.69220    9.06910    8.88800    8.72440   -9999.25   -9999.25   -9999.25
 11878.00000    0.10210   53.89690    8.70390    0.00800    0.01060    3.93550    2.69190    9.65520    9.29070    9.04950   -9999.25   -9999.25   -9999.25
 11878.50000    0.10270   54.58170    8.70370    0.00830    0.01080    3.93590    2.69160    9.91120    9.34970    9.07800   -9999.25   -9999.25   -9999.25
 11879.00000    0.10420   55.32550    8.70350    0.00800    0.01350    3.90810    2.68150    9.02620    8.68490    8.37130   -9999.25   -9999.25   -9999.25
 11879.50000    0.10700   56.02490    8.70320    0.00670    0.01820    3.88830    2.67540    8.27520    7.99380    7.69460   -9999.25   -9999.25   -9999.25
 11880.00000    0.11120   57.09110    8.70300    0.00580    0.02300    3.85700    2.67230    7.60140    7.39540    7.17610   -9999.25   -9999.25   -9999.25
 11880.50000    0.11590   58.33060    8.70280    0.00580    0.02320    3.82930    2.67110    7.37990    7.20970    7.07840   -9999.25   -9999.25   -9999.25
 11881.00000    0.12010   59.68890    8.70250    0.00580    0.02380    3.84560    2.67120    7.44690    7.19400    7.06390   -9999.25   -9999.25   -9999.25
 11881.50000    0.12480   60.88880    8.70230    0.00580    0.02460    3.86200    2.67480    7.41770    7.19400    6.83310   -9999.25   -9999.25   -9999.25
 11882.00000    0.13010   60.88880    8.70210    0.00580    0.01980    3.87830    2.67690    6.34580    6.21720    6.07850   -9999.25   -9999.25   -9999.25
 11882.50000    0.13430   59.41390    8.70310    0.00580    0.02190    3.88300    2.67210    6.24020    6.13810    6.02710   -9999.25   -9999.25   -9999.25
 11883.00000    0.13550   57.59710    8.70640    0.00580    0.02550    3.91060    2.66390    6.45300    6.30880    6.15350   -9999.25   -9999.25   -9999.25
 11883.50000    0.13530   56.07080    8.70970    0.00580    0.02880    3.98830    2.65840    6.73380    6.58710    6.42890   -9999.25   -9999.25   -9999.25
 11884.00000    0.13340   54.63140    8.71290    0.00580    0.02880    4.07030    2.66220    7.01850    6.86550    6.70030   -9999.25   -9999.25   -9999.25
 11884.50000    0.13080   54.68420    8.71620    0.00580    0.02470    4.14330    2.67080    7.28050    7.15560    6.98310   -9999.25   -9999.25   -9999.25
 11885.00000    0.12820   55.29390    8.71950    0.00580    0.02360    4.15440    2.67040    7.20650    7.07840    6.93270   -9999.25   -9999.25   -9999.25
 11885.50000    0.12550   56.28830    8.72270    0.00570    0.02730    4.16560    2.66380    7.03070    6.89950    6.75750   -9999.25   -9999.25   -9999.25
 11886.00000    0.12450   56.34370    8.72600    0.00530    0.03230    4.13460    2.65430    6.76550    6.58320    6.38800   -9999.25   -9999.25   -9999.25
 11886.50000    0.12640   56.35830    8.72930    0.00510    0.03410    4.09870    2.65650    6.38380    6.25890    6.12350   -9999.25   -9999.25   -9999.25
 11887.00000    0.12980   57.26750    8.73250    0.00540    0.02840    4.04620    2.66270    6.25770    6.15130    6.03550   -9999.25   -9999.25   -9999.25
 11887.50000    0.13430   59.65900    8.73530    0.00580    0.02710    4.04860    2.66450    6.24390    6.14170    6.03060   -9999.25   -9999.25   -9999.25
 11888.00000    0.13640   61.08490    8.73360    0.00610    0.02680    4.01160    2.66340    6.24420    6.14200    6.03090   -9999.25   -9999.25   -9999.25
 11888.50000    0.14080   61.52690    8.73190    0.00640    0.02990    3.94480    2.65570    6.12240    6.00650    5.88110   -9999.25   -9999.25   -9999.25
 11889.00000    0.14920   61.90620    8.73020    0.00670    0.03380    3.87810    2.65060    5.51660    5.09600    4.50310   -9999.25   -9999.25   -9999.25
 11889.50000    0.15080   62.37920    8.72850    0.00710    0.03590    3.86460    2.66110    4.81030    4.36940    4.18400   -9999.25   -9999.25   -9999.25
 11890.00000    0.13540   60.78690    8.72690    0.00720    0.02380    3.90920    2.68530   12.33550    8.90290    6.12120   -9999.25   -9999.25   -9999.25
 11890.50000    0.09990   58.82660    8.72520    0.00710    0.01040    4.00080    2.70440   26.95570   21.98340   14.39270   -9999.25   -9999.25   -9999.25
 11891.00000    0.07780   54.32310    8.72350    0.00710    0.00160    4.12540    2.70980   30.88580   26.14480   20.50280   -9999.25   -9999.25   -9999.25
 11891.50000    0.06470   48.76390    8.72180    0.00700    0.00110    4.16780    2.70930   31.71200   28.75540   19.94170   -9999.25   -9999.25   -9999.25
 11892.00000    0.06150   44.78150    8.72010    0.00690    0.00480    4.20130    2.70890   49.42510   40.60780   31.24380   -9999.25   -9999.25   -9999.25
 11892.50000    0.05930   43.93980    8.71840    0.00680    0.00380    4.21850    2.70770   43.73090   27.01670   20.06150   -9999.25   -9999.25   -9999.25
 11893.00000    0.06070   45.34990    8.71670    0.00670    0.00120    4.21980    2.70410   27.59160   19.67080   16.85410   -9999.25   -9999.25   -9999.25
 11893.50000    0.06470   48.56990    8.71500    0.00660    0.00250    4.20130    2.69660   15.65960   15.02580   13.92070   -9999.25   -9999.25   -9999.25
 11894.00000    0.08330   53.27380    8.71300    0.00650    0.00980    4.16770    2.68830   16.66460   15.43300   14.41040   -9999.25   -9999.25   -9999.25
 11894.50000    0.09610   56.66670    8.71110    0.00570    0.01990    4.02850    2.66830   12.88850   10.97330    9.74920   -9999.25   -9999.25   -9999.25
 11895.00000    0.10770   58.53240    8.70910    0.00500    0.02340    3.89270    2.66570    9.30200    8.66830    8.08940   -9999.25   -9999.25   -9999.25
 11895.50000    0.12070   59.04010    8.70710    0.00490    0.02600    3.90200    2.67690    8.14790    7.85780    7.59220   -9999.25   -9999.25   -9999.25
 11896.00000    0.12480   58.56320    8.70520    0.00650    0.02140    3.99420    2.67970    8.92840    8.61000    8.18480   -9999.25   -9999.25   -9999.25
 11896.50000    0.11930   57.44210    8.70320    0.00800    0.01690    4.10730    2.68890    9.60380    9.34230    9.06230   -9999.25   -9999.25   -9999.25
 11897.00000    0.10910   55.19460    8.70120    0.00870    0.01220    4.12370    2.69520   10.22240    9.94430    9.64640   -9999.25   -9999.25   -9999.25
 11897.50000    0.10350   54.66180    8.69930    0.00900    0.00910    4.14020    2.70440   11.31660   10.83800   10.33340   -9999.25   -9999.25   -9999.25
 11898.00000    0.09300   55.45250    8.69730    0.00910    0.00350    4.13560    2.70820   13.08610   12.35140   11.58510   -9999.25   -9999.25   -9999.25
 11898.50000    0.08360   54.66040    8.69530    0.00910   -0.00080    4.12450    2.70260   14.55870   13.83300   13.24220   -9999.25   -9999.25   -9999.25
 11899.00000    0.08450   54.60080    8.69340    0.00890    0.00080    4.05440    2.69700   13.67890   13.18800   12.83390   -9999.25   -9999.25   -9999.25
 11899.50000    0.08600   54.52860    8.69140    0.00850    0.00780    4.01750    2.69420   12.85210   12.51480   12.17700   -9999.25   -9999.25   -9999.25
