~Version ---------------------------------------------------
VERS.   2.0 : CWLS log ASCII Standard -VERSION 2.0
WRAP.    NO : One line per depth step
DLM . SPACE : Column Data Section Delimiter
~Well ------------------------------------------------------
STRT .F                 1500.0 : START DEPTH
STOP .F                13292.0 : STOP DEPTH
STEP .F                    0.5 : STEP
NULL .                -9999.25 : NULL VALUE
COMP .                         : COMPANY
WELL .                         : WELL
FLD  .                         : FIELD
LOC  .                         : LOCATION
PROV .                         : PROVINCE
CNTY .                         : COUNTY
STAT .                         : STATE
CTRY .                         : COUNTRY
SRVC .                         : SERVICE COMPANY
DATE .                         : DATE
UWI  .                         : UNIQUE WELL ID
API  .                         : API NUMBER
SLAT .WGS84    5.6112805732106 : SURFACE LATITUDE
SLON .WGS84 2.7222555198844987 : SURFACE LONGITUDE
DATUM.F                    nan : DEPTH DATUM ELEV
~Curve Information -----------------------------------------
DEPT   .F     : 1 MEASURED DEPTH
NPOR_LS.DEC   : NEUTRON POROSITY LIMESTONE
GRD    .GAPI  : GAMMA RAY FROM DENSITY LOG
HCALD  .IN    : HRCC CALIPER CALIBRATED FROM DENSITY LOG
HDRA   .G/C3  : HRDD SPINE AND RIBS DENSITY CORRECTION
DPHZ_LS.DEC   : HGRD STANDARD RESOLUTION DENSITY POROSITY
PEFZ   .B/E   : HRDD STANDARD RESOLUTION FORMATION PHOTOELECTRIC FACTOR
RHOZ   .G/C3  : HRDD STANDARD RESOLUTION FORMATION DENSITY
AE20   .OHMM  : ARRAY INDUCTION RESISTIVITY EVIRONMENTALLY COMPENSATED LOG PROCESSING AE20
AE30   .OHMM  : ARRAY INDUCTION RESISTIVITY EVIRONMENTALLY COMPENSATED LOG PROCESSING AE30
AE90   .OHMM  : ARRAY INDUCTION RESISTIVITY EVIRONMENTALLY COMPENSATED LOG PROCESSING AE90
GRS    .GAPI  : GAMMA RAY FROM SONIC LOG
DTCO   .US/F  : DELTA-T COMPRESSIONAL
DTSM   .US/F  : DELTA-T SHEAR
~Params ----------------------------------------------------
~Other -----------------------------------------------------
~ASCII -----------------------------------------------------
# ...
 13122.00000    0.22890   -9999.25    8.59770    0.00240    0.17840    2.85110    2.39990   47.65960   46.52910   45.63670   -9999.25   -9999.25   -9999.25
 13122.50000    0.23560   -9999.25    8.59820    0.00220    0.18140    2.77800    2.40520   61.77460   54.84260   48.14700   -9999.25   -9999.25   -9999.25
 13123.00000    0.23390   -9999.25    8.59880    0.00200    0.17980    2.75270    2.40690   80.11650   74.31100   71.38590   -9999.25   -9999.25   -9999.25
 13123.50000    0.23030   -9999.25    8.59930    0.00170    0.17060    2.74680    2.42360   89.31350   74.12650   67.31340   -9999.25   -9999.25   -9999.25
 13124.00000    0.22700   -9999.25    8.59990    0.00180    0.16570    2.66350    2.44900   61.04780   54.13270   50.33170   -9999.25   -9999.25   -9999.25
 13124.50000    0.22230   -9999.25    8.60050    0.00300    0.15620    2.62610    2.45380   48.26560   45.19580   42.66560   -9999.25   -9999.25   -9999.25
 13125.00000    0.21450   -9999.25    8.60070    0.00420    0.14550    2.58850    2.46470   40.63150   36.96550   33.31380   -9999.25   -9999.25   -9999.25
 13125.50000    0.20500   -9999.25    8.60030    0.00540    0.14090    2.55610    2.46900   31.23090   28.41430   24.82970   -9999.25   -9999.25   -9999.25
 13126.00000    0.20730   -9999.25    8.60000    0.00600    0.14810    2.54470    2.44050   27.73010   24.59240   22.57990   -9999.25   -9999.25   -9999.25
 13126.50000    0.21430   -9999.25    8.59960    0.00600    0.16380    2.56430    2.41950   52.42020   39.97650   30.15680   -9999.25   -9999.25   -9999.25
 13127.00000    0.21680   -9999.25    8.59930    0.00500    0.17480    2.59550    2.40630   77.86350   71.14770   63.22200   -9999.25   -9999.25   -9999.25
 13127.50000    0.21510   -9999.25    8.59900    0.00220    0.17810    2.60260    2.40560   83.93080   72.78710   71.15250   -9999.25   -9999.25   -9999.25
 13128.00000    0.21760   -9999.25    8.59860   -0.00080    0.17670    2.61940    2.41370   72.40680   68.70030   62.12780   -9999.25   -9999.25   -9999.25
 13128.50000    0.21480   -9999.25    8.59830   -0.00380    0.16790    2.64970    2.42990   63.80390   53.54260   50.68170   -9999.25   -9999.25   -9999.25
 13129.00000    0.20620   -9999.25    8.59790   -0.00680    0.16450    2.70530    2.43120   57.03280   46.36700   40.72390   -9999.25   -9999.25   -9999.25
 13129.50000    0.20060   -9999.25    8.59760   -0.01060    0.16680    2.76090    2.41760   46.46560   35.89270   35.24350   -9999.25   -9999.25   -9999.25
 13130.00000    0.21460   -9999.25    8.59720   -0.01260    0.17280    2.81600    2.42390   53.29860   50.18790   43.93760   -9999.25   -9999.25   -9999.25
 13130.50000    0.23090   -9999.25    8.59690   -0.01220    0.17180    2.86800    2.43450   67.81550   56.62840   52.33900   -9999.25   -9999.25   -9999.25
 13131.00000    0.23030   -9999.25    8.59660   -0.00940    0.16070    2.79970    2.46260   60.05130   48.44740   39.85270   -9999.25   -9999.25   -9999.25
 13131.50000    0.19690   -9999.25    8.59620   -0.00400    0.12790    2.71500    2.52760   34.84640   29.10890   24.00430   -9999.25   -9999.25   -9999.25
 13132.00000    0.17740   -9999.25    8.59590    0.00150    0.10270    2.65680    2.54200   21.36240   18.25610   16.71280   -9999.25   -9999.25   -9999.25
 13132.50000    0.18470   -9999.25    8.59550    0.00400    0.10220    2.64680    2.52770   24.36900   22.17490   19.30960   -9999.25   -9999.25   -9999.25
 13133.00000    0.20490  299.68620    8.59520    0.00470    0.10850    2.63480    2.54760   29.82670   28.85750   25.81650   -9999.25   -9999.25   -9999.25
 13133.50000    0.21330  299.57730    8.59480    0.00480    0.10120    2.64880    2.57910   32.08930   28.78860   27.94260   -9999.25   -9999.25   -9999.25
 13134.00000    0.20700  296.05640    8.59450    0.00480    0.07590    2.69490    2.59800   23.86030   19.22780   16.00170   -9999.25   -9999.25   -9999.25
 13134.50000    0.19330  268.13580    8.59380    0.00470    0.05290    2.74730    2.61680   14.79770   13.28000   11.77290   -9999.25   -9999.25   -9999.25
 13135.00000    0.18540  246.03320    8.59280    0.00390    0.05810    2.79150    2.56150   13.80040   12.79560   11.44850   -9999.25   -9999.25   -9999.25
 13135.50000    0.19810  273.79030    8.59170    0.00350    0.08680    2.83570    2.54050   17.63840   15.93210   14.50330   -9999.25   -9999.25   -9999.25
 13136.00000    0.22450  295.00510    8.59070    0.00340    0.11520    2.84650    2.51130   23.29560   21.19260   18.93410   -9999.25   -9999.25   -9999.25
 13136.50000    0.22940  300.22490    8.58970    0.00320    0.12060    2.85560    2.53590   26.59500   22.69960   20.92530   -9999.25   -9999.25   -9999.25
 13137.00000    0.21880  290.41520    8.58860    0.00310    0.10730    2.85110    2.55320   20.10000   18.87430   17.88840   -9999.25   -9999.25   -9999.25
 13137.50000    0.19230  269.10600    8.58760    0.00300    0.09200    2.83200    2.54730   17.45520   16.98210   16.67510   -9999.25   -9999.25   -9999.25
 13138.00000    0.18080  270.30540    8.58660    0.00290    0.10170    2.74830    2.50030   16.95910   16.63680   16.28720   -9999.25   -9999.25   -9999.25
 13138.50000    0.19590  284.63990    8.58560    0.00280    0.12370    2.66450    2.47560   16.48990   16.13200   15.65850   -9999.25   -9999.25   -9999.25
 13139.00000    0.22250  299.44450    8.58450    0.00270    0.13790    2.63630    2.47320   26.05730   24.83580   18.19030   -9999.25   -9999.25   -9999.25
 13139.50000    0.23880  299.86360    8.58350    0.00260    0.13990    2.66990    2.47950   27.81030   25.03470   21.45700   -9999.25   -9999.25   -9999.25
 13140.00000    0.23770  297.78220    8.58250    0.00240    0.13620    2.69780    2.49450   20.18470   16.73000   15.22900   -9999.25   -9999.25   -9999.25
 13140.50000    0.23270  292.91130    8.58140    0.00230    0.12960    2.72180    2.51000   17.41160   16.09030   15.65590   -9999.25   -9999.25   -9999.25
 13141.00000    0.22060  288.04030    8.58040    0.00220    0.12080    2.74580    2.52400   18.05470   16.17810   15.57700   -9999.25   -9999.25   -9999.25
 13141.50000    0.20850  284.44980    8.57940    0.00220    0.11200    2.76980    2.50820   15.05610   14.13180   13.40560   -9999.25   -9999.25   -9999.25
 13142.00000    0.20350  292.68150    8.57840    0.00220    0.11840    2.82440    2.48710   15.74600   13.57930   13.31600   -9999.25   -9999.25   -9999.25
 13142.50000    0.23390  299.96200    8.57730    0.00240    0.13120    2.77400    2.49470   26.44920   21.25800   18.08120   -9999.25   -9999.25   -9999.25
 13143.00000    0.23020  297.99020    8.57630    0.00270    0.12660    2.72580    2.52550   29.32140   25.64730   23.70180   -9999.25   -9999.25   -9999.25
 13143.50000    0.22570  279.17680    8.57530    0.00440    0.11170    2.71690    2.54940   25.38940   23.30100   20.44540   -9999.25   -9999.25   -9999.25
 13144.00000    0.21690  258.99740    8.57420    0.00640    0.09420    2.71690    2.56040   18.74700   17.39830   16.49230   -9999.25   -9999.25   -9999.25
 13144.50000    0.20950  235.45830    8.57320    0.01130    0.08960    2.78220    2.53490   16.07790   15.21830   14.54710   -9999.25   -9999.25   -9999.25
 13145.00000    0.21070  221.75620    8.57220    0.01670    0.10340    2.83310    2.48330   19.84600   16.61470   14.66990   -9999.25   -9999.25   -9999.25
 13145.50000    0.26650  240.90080    8.57120    0.01950    0.13620    2.92620    2.42110   32.36630   29.14060   22.94290   -9999.25   -9999.25   -9999.25
 13146.00000    0.29050  269.87850    8.57010    0.01300    0.16600    3.03170    2.41000   39.23990   37.04720   34.39540   -9999.25   -9999.25   -9999.25
 13146.50000    0.29640  299.76360    8.56910    0.00380    0.17610    3.08150    2.46600   45.59360   43.11350   40.45630   -9999.25   -9999.25   -9999.25
 13147.00000    0.29090  299.77540    8.56810    0.00280    0.15960    3.06110    2.47180   52.70620   47.04260   43.52610   -9999.25   -9999.25   -9999.25
 13147.50000    0.27020  296.35460    8.56700    0.00210    0.13820    3.00180    2.51700   64.82280   38.31560   29.65780   -9999.25   -9999.25   -9999.25
