~Version ---------------------------------------------------
VERS.   2.0 : CWLS log ASCII Standard -VERSION 2.0
WRAP.    NO : One line per depth step
DLM . SPACE : Column Data Section Delimiter
~Well ------------------------------------------------------
STRT .F                 1500.0 : START DEPTH
STOP .F                13292.0 : STOP DEPTH
STEP .F                    0.5 : STEP
NULL .                -9999.25 : NULL VALUE
COMP .                         : COMPANY
WELL .                         : WELL
FLD  .                         : FIELD
LOC  .                         : LOCATION
PROV .                         : PROVINCE
CNTY .                         : COUNTY
STAT .                         : STATE
CTRY .                         : COUNTRY
SRVC .                         : SERVICE COMPANY
DATE .                         : DATE
UWI  .                         : UNIQUE WELL ID
API  .                         : API NUMBER
SLAT .WGS84    5.6112805732106 : SURFACE LATITUDE
SLON .WGS84 2.7222555198844987 : SURFACE LONGITUDE
DATUM.F                    nan : DEPTH DATUM ELEV
~Curve Information -----------------------------------------
DEPT   .F     : 1 MEASURED DEPTH
NPOR_LS.DEC   : NEUTRON POROSITY LIMESTONE
GRD    .GAPI  : GAMMA RAY FROM DENSITY LOG
HCALD  .IN    : HRCC CALIPER CALIBRATED FROM DENSITY LOG
HDRA   .G/C3  : HRDD SPINE AND RIBS DENSITY CORRECTION
DPHZ_LS.DEC   : HGRD STANDARD RESOLUTION DENSITY POROSITY
PEFZ   .B/E   : HRDD STANDARD RESOLUTION FORMATION PHOTOELECTRIC FACTOR
RHOZ   .G/C3  : HRDD STANDARD RESOLUTION FORMATION DENSITY
AE20   .OHMM  : ARRAY INDUCTION RESISTIVITY EVIRONMENTALLY COMPENSATED LOG PROCESSING AE20
AE30   .OHMM  : ARRAY INDUCTION RESISTIVITY EVIRONMENTALLY COMPENSATED LOG PROCESSING AE30
AE90   .OHMM  : ARRAY INDUCTION RESISTIVITY EVIRONMENTALLY COMPENSATED LOG PROCESSING AE90
GRS    .GAPI  : GAMMA RAY FROM SONIC LOG
DTCO   .US/F  : DELTA-T COMPRESSIONAL
DTSM   .US/F  : DELTA-T SHEAR
~Params ----------------------------------------------------
~Other -----------------------------------------------------
~ASCII -----------------------------------------------------
# ...
 12368.00000    0.11310   57.60500    8.73150    0.00390    0.02550    3.56070    2.66690    8.27260    8.13720    7.98840   -9999.25   -9999.25   -9999.25
 12368.50000    0.11300   59.01600    8.72600    0.00390    0.02530    3.50900    2.66680    8.21180    8.07410    7.91820   -9999.25   -9999.25   -9999.25
 12369.00000    0.11310   59.59890    8.72140    0.00400    0.02630    3.50390    2.66420    8.07590    7.93490    7.78180   -9999.25   -9999.25   -9999.25
 12369.50000    0.11500   59.59440    8.71770    0.00400    0.02950    3.53630    2.65910    7.93090    7.78930    7.63580   -9999.25   -9999.25   -9999.25
 12370.00000    0.11670   58.05910    8.71390    0.00410    0.03160    3.55940    2.65790    7.86920    7.73790    7.59580   -9999.25   -9999.25   -9999.25
 12370.50000    0.11580   57.03240    8.71020    0.00410    0.03260    3.58300    2.65640    8.04480    7.89330    7.72940   -9999.25   -9999.25   -9999.25
 12371.00000    0.10780   56.22460    8.70640    0.00420    0.03140    3.60670    2.65400    8.83800    8.35250    7.93460   -9999.25   -9999.25   -9999.25
 12371.50000    0.09960   55.07170    8.70270    0.00420    0.03250    3.63740    2.65320   10.61640    9.51240    9.12430   -9999.25   -9999.25   -9999.25
 12372.00000    0.10070   54.68350    8.69900    0.00430    0.03390    3.62180    2.65750   10.21840    9.74600    9.49400   -9999.25   -9999.25   -9999.25
 12372.50000    0.10320   55.87510    8.69520    0.00430    0.02950    3.59430    2.66440    8.95590    7.71450    7.25740   -9999.25   -9999.25   -9999.25
 12373.00000    0.11510   57.29880    8.69150    0.00440    0.02590    3.58070    2.66790    7.19680    6.99270    6.86410   -9999.25   -9999.25   -9999.25
 12373.50000    0.11610   58.89660    8.68770    0.00450    0.02560    3.56720    2.66530    7.07320    6.95710    6.83380   -9999.25   -9999.25   -9999.25
 12374.00000    0.11640   59.44820    8.68400    0.00450    0.02830    3.55360    2.65720    7.03900    6.91080    6.77590   -9999.25   -9999.25   -9999.25
 12374.50000    0.11940   59.45510    8.68030    0.00460    0.03370    3.54010    2.64940    6.87920    6.61940    6.07790   -9999.25   -9999.25   -9999.25
 12375.00000    0.12810   59.69540    8.67650    0.00470    0.03680    3.54580    2.64980    6.48580    5.53510    5.41030   -9999.25   -9999.25   -9999.25
 12375.50000    0.13190   60.65090    8.67280    0.00500    0.03250    3.57110    2.66650    6.27590    5.75150    5.44620   -9999.25   -9999.25   -9999.25
 12376.00000    0.13540   60.99970    8.67610    0.00520    0.02300    3.59630    2.67190    7.44730    6.48470    6.16400   -9999.25   -9999.25   -9999.25
 12376.50000    0.13560   61.36330    8.68640    0.00620    0.00910    3.65750    2.70040    7.20500    6.81150    6.34620   -9999.25   -9999.25   -9999.25
 12377.00000    0.12730   61.20910    8.69680    0.00720   -0.00360    3.74560    2.72980    8.06330    7.10030    6.75380   -9999.25   -9999.25   -9999.25
 12377.50000    0.11690   54.96220    8.70720    0.00820   -0.01470    3.90600    2.73580   10.41140    9.36880    8.38450   -9999.25   -9999.25   -9999.25
 12378.00000    0.10700   52.22970    8.71750    0.00930   -0.03750    4.02500    2.76680   17.82710   14.58100   11.84210   -9999.25   -9999.25   -9999.25
 12378.50000    0.10040   48.80300    8.72790    0.01030   -0.06050    4.12370    2.80650   28.96060   26.41650   22.10850   -9999.25   -9999.25   -9999.25
 12379.00000    0.09600   45.79890    8.73820    0.01030   -0.06760    4.07030    2.82410   32.93660   29.69380   27.59260   -9999.25   -9999.25   -9999.25
 12379.50000    0.08960   43.57230    8.74860    0.01030   -0.06960    4.00400    2.82990   27.49930   24.66220   20.99960   -9999.25   -9999.25   -9999.25
 12380.00000    0.08810   45.04380    8.75890    0.01040   -0.05390    3.89630    2.80090   19.05050   16.47340   14.02540   -9999.25   -9999.25   -9999.25
 12380.50000    0.09280   46.63330    8.76010    0.01130   -0.03540    3.80170    2.75860   13.45940   12.59190   11.76740   -9999.25   -9999.25   -9999.25
 12381.00000    0.10570   51.31930    8.76010    0.01200   -0.02340    3.70900    2.73350   11.56650   11.10510    9.90090   -9999.25   -9999.25   -9999.25
 12381.50000    0.11830   57.30380    8.76010    0.01240   -0.00740    3.61800    2.72540    9.25850    8.34770    6.83930   -9999.25   -9999.25   -9999.25
 12382.00000    0.12880   62.40520    8.75960    0.00950    0.01780    3.52940    2.67790    7.49390    5.73140    5.39910   -9999.25   -9999.25   -9999.25
 12382.50000    0.13860   66.14410    8.75180    0.00630    0.03690    3.47230    2.64400    5.84230    5.49190    4.98080   -9999.25   -9999.25   -9999.25
 12383.00000    0.13990   65.52360    8.74410    0.00530    0.04350    3.44950    2.63530    6.57870    5.72040    4.34030   -9999.25   -9999.25   -9999.25
 12383.50000    0.13270   63.24740    8.73640    0.00540    0.04070    3.49200    2.64770    8.30060    7.50470    6.54010   -9999.25   -9999.25   -9999.25
 12384.00000    0.11630   60.54870    8.72870    0.00550    0.03520    3.59730    2.65550   10.47550    8.49650    7.26920   -9999.25   -9999.25   -9999.25
 12384.50000    0.10280   57.47670    8.72100    0.00560    0.02760    3.72010    2.66690   10.10560    9.01880    7.42150   -9999.25   -9999.25   -9999.25
 12385.00000    0.09560   56.12900    8.71330    0.00560    0.02140    3.77350    2.67640   11.04710    9.89540    9.45880   -9999.25   -9999.25   -9999.25
 12385.50000    0.10480   57.06150    8.70560    0.00570    0.02130    3.73180    2.67710   10.95760   10.46130   10.12050   -9999.25   -9999.25   -9999.25
 12386.00000    0.10830   57.15400    8.69790    0.00590    0.02630    3.67650    2.66470   10.00230    9.65450    9.27430   -9999.25   -9999.25   -9999.25
 12386.50000    0.10930   56.57870    8.69020    0.00620    0.02840    3.61620    2.66120    9.14850    8.82150    8.47380   -9999.25   -9999.25   -9999.25
 12387.00000    0.11490   56.78870    8.69270    0.00650    0.02420    3.57250    2.67780    8.49860    8.32490    8.13720   -9999.25   -9999.25   -9999.25
 12387.50000    0.11600   57.40300    8.69740    0.00680    0.01640    3.55040    2.68480    8.21010    8.03910    7.83600   -9999.25   -9999.25   -9999.25
 12388.00000    0.11790   59.46240    8.70200    0.00700    0.01610    3.58620    2.68670    7.88010    7.71170    7.52970   -9999.25   -9999.25   -9999.25
 12388.50000    0.12300   60.66420    8.70660    0.00630    0.02050    3.60780    2.67850    7.58000    7.43180    7.29520   -9999.25   -9999.25   -9999.25
 12389.00000    0.12410   60.75540    8.71120    0.00560    0.02820    3.67670    2.66150    7.67260    7.47490    7.32480   -9999.25   -9999.25   -9999.25
 12389.50000    0.12100   60.75540    8.71580    0.00490    0.02940    3.72210    2.65900    8.11910    7.90860    7.68320   -9999.25   -9999.25   -9999.25
 12390.00000    0.11470   60.57370    8.72040    0.00430    0.02780    3.73680    2.66350    8.94720    8.58220    8.19910   -9999.25   -9999.25   -9999.25
 12390.50000    0.10830   60.27140    8.72500    0.00400    0.02600    3.73100    2.66810   10.05320    9.35930    9.11190   -9999.25   -9999.25   -9999.25
 12391.00000    0.10850   59.96910    8.72960    0.00360    0.02490    3.66630    2.67000    9.56330    9.27880    9.05620   -9999.25   -9999.25   -9999.25
 12391.50000    0.10930   59.66680    8.73420    0.00320    0.02460    3.59400    2.66870    9.06070    8.83870    8.59940   -9999.25   -9999.25   -9999.25
 12392.00000    0.11490   59.36450    8.73880    0.00340    0.02540    3.57580    2.66230    8.61790    8.45880    8.28630   -9999.25   -9999.25   -9999.25
 12392.50000    0.11720   59.27010    8.74340    0.00370    0.02930    3.58520    2.65970    8.41160    8.25630    8.08790   -9999.25   -9999.25   -9999.25
 12393.00000    0.12090   59.19090    8.74800    0.00390    0.03130    3.59870    2.65670    8.16490    7.99260    7.80560   -9999.25   -9999.25   -9999.25
 12393.50000    0.12680   59.11170    8.75260    0.00410    0.03260    3.57560    2.65290    7.74040    7.46890    7.18070   -9999.25   -9999.25   -9999.25
