~Version ---------------------------------------------------
VERS.   2.0 : CWLS log ASCII Standard -VERSION 2.0
WRAP.    NO : One line per depth step
DLM . SPACE : Column Data Section Delimiter
~Well ------------------------------------------------------
STRT .F                 1500.0 : START DEPTH
STOP .F                13292.0 : STOP DEPTH
STEP .F                    0.5 : STEP
NULL .                -9999.25 : NULL VALUE
COMP .                         : COMPANY
WELL .                         : WELL
FLD  .                         : FIELD
LOC  .                         : LOCATION
PROV .                         : PROVINCE
CNTY .                         : COUNTY
STAT .                         : STATE
CTRY .                         : COUNTRY
SRVC .                         : SERVICE COMPANY
DATE .                         : DATE
UWI  .                         : UNIQUE WELL ID
API  .                         : API NUMBER
SLAT .WGS84    5.6112805732106 : SURFACE LATITUDE
SLON .WGS84 2.7222555198844987 : SURFACE LONGITUDE
DATUM.F                    nan : DEPTH DATUM ELEV
~Curve Information -----------------------------------------
DEPT   .F     : 1 MEASURED DEPTH
NPOR_LS.DEC   : NEUTRON POROSITY LIMESTONE
GRD    .GAPI  : GAMMA RAY FROM DENSITY LOG
HCALD  .IN    : HRCC CALIPER CALIBRATED FROM DENSITY LOG
HDRA   .G/C3  : HRDD SPINE AND RIBS DENSITY CORRECTION
DPHZ_LS.DEC   : HGRD STANDARD RESOLUTION DENSITY POROSITY
PEFZ   .B/E   : HRDD STANDARD RESOLUTION FORMATION PHOTOELECTRIC FACTOR
RHOZ   .G/C3  : HRDD STANDARD RESOLUTION FORMATION DENSITY
AE20   .OHMM  : ARRAY INDUCTION RESISTIVITY EVIRONMENTALLY COMPENSATED LOG PROCESSING AE20
AE30   .OHMM  : ARRAY INDUCTION RESISTIVITY EVIRONMENTALLY COMPENSATED LOG PROCESSING AE30
AE90   .OHMM  : ARRAY INDUCTION RESISTIVITY EVIRONMENTALLY COMPENSATED LOG PROCESSING AE90
GRS    .GAPI  : GAMMA RAY FROM SONIC LOG
DTCO   .US/F  : DELTA-T COMPRESSIONAL
DTSM   .US/F  : DELTA-T SHEAR
~Params ----------------------------------------------------
~Other -----------------------------------------------------
~ASCII -----------------------------------------------------
# ...
 11640.00000    0.16650   63.27360    8.68930    0.00940    0.02580    4.08130    2.66720    4.68930    4.30420    4.22270   -9999.25   -9999.25   -9999.25
 11640.50000    0.16650   63.72060    8.68610    0.00920    0.02990    4.05850    2.65870    4.51470    4.24050    4.12910   -9999.25   -9999.25   -9999.25
 11641.00000    0.16760   63.73960    8.68290    0.00900    0.03310    4.05560    2.65500    4.24590    3.96890    3.83640   -9999.25   -9999.25   -9999.25
 11641.50000    0.16910   64.33800    8.67970    0.00810    0.03390    4.05300    2.65180    4.09180    3.83460    3.76510   -9999.25   -9999.25   -9999.25
 11642.00000    0.17200   65.11240    8.67650    0.00750    0.03580    4.05250    2.64850    4.05600    3.84950    3.77960   -9999.25   -9999.25   -9999.25
 11642.50000    0.17730   65.83800    8.67330    0.00710    0.03690    4.05400    2.64510    4.04040    3.82240    3.75050   -9999.25   -9999.25   -9999.25
 11643.00000    0.18290   65.52200    8.67010    0.00780    0.03900    4.05390    2.64410    4.00210    3.77090    3.70000   -9999.25   -9999.25   -9999.25
 11643.50000    0.18410   65.43000    8.66690    0.00840    0.03780    4.05310    2.64830    3.95560    3.72100    3.65330   -9999.25   -9999.25   -9999.25
 11644.00000    0.18290   65.36460    8.66370    0.00930    0.03600    4.05230    2.65200    3.92880    3.70240    3.63510   -9999.25   -9999.25   -9999.25
 11644.50000    0.17750   64.83230    8.66050    0.01020    0.03450    4.05310    2.65360    3.95860    3.71070    3.63070   -9999.25   -9999.25   -9999.25
 11645.00000    0.17410   63.86020    8.65730    0.00990    0.03440    3.99550    2.65130    4.02070    3.85110    3.76190   -9999.25   -9999.25   -9999.25
 11645.50000    0.17390   61.84670    8.65410    0.00930    0.03840    3.96990    2.63780    4.08390    3.99670    3.90430   -9999.25   -9999.25   -9999.25
 11646.00000    0.17270   61.20010    8.65090    0.00790    0.04390    3.98090    2.62730    4.08520    4.01830    3.94570   -9999.25   -9999.25   -9999.25
 11646.50000    0.17140   61.83390    8.64770    0.00640    0.04930    3.99180    2.62330    4.00290    3.91020    3.81610   -9999.25   -9999.25   -9999.25
 11647.00000    0.16990   64.18460    8.64450    0.00500    0.04980    3.99220    2.62540    3.91260    3.64110    3.44840   -9999.25   -9999.25   -9999.25
 11647.50000    0.16800   64.87540    8.64410    0.00460    0.04630    3.99220    2.64510    4.76380    4.42730    4.08250   -9999.25   -9999.25   -9999.25
 11648.00000    0.15370   61.27340    8.64390    0.00490    0.03670    3.99600    2.65620    5.28970    5.06280    4.96040   -9999.25   -9999.25   -9999.25
 11648.50000    0.14540   57.42420    8.64370    0.00730    0.02920    4.04590    2.67710    5.49370    5.15480    5.06160   -9999.25   -9999.25   -9999.25
 11649.00000    0.14270   56.61060    8.64340    0.00940    0.02190    4.09220    2.68930    5.51650    5.15550    5.06230   -9999.25   -9999.25   -9999.25
 11649.50000    0.14020   56.90130    8.64320    0.00980    0.01640    4.17130    2.68380    5.57670    5.18890    5.08610   -9999.25   -9999.25   -9999.25
 11650.00000    0.13800   56.03610    8.64300    0.00980    0.01930    4.16760    2.67350    5.74500    5.52280    5.28530   -9999.25   -9999.25   -9999.25
 11650.50000    0.13600   54.94780    8.64280    0.00900    0.02450    4.16340    2.66310    5.91070    5.71710    5.59040   -9999.25   -9999.25   -9999.25
 11651.00000    0.13270   54.38440    8.64620    0.00800    0.02970    4.12680    2.65280    5.89820    5.54080    5.43670   -9999.25   -9999.25   -9999.25
 11651.50000    0.12950   54.62710    8.64170    0.00670    0.03130    4.09030    2.65610    5.95010    5.61420    5.50880   -9999.25   -9999.25   -9999.25
 11652.00000    0.12620   54.50710    8.63560    0.00550    0.03480    3.99140    2.66080    6.16430    5.90960    5.73730   -9999.25   -9999.25   -9999.25
 11652.50000    0.12160   54.06990    8.62950    0.00450    0.03140    4.00140    2.66260    6.43700    6.27470    6.09140   -9999.25   -9999.25   -9999.25
 11653.00000    0.11530   52.52210    8.62730    0.00360    0.02850    4.02620    2.65750    6.91310    6.71780    6.49760   -9999.25   -9999.25   -9999.25
 11653.50000    0.10860   50.46610    8.63340    0.00280    0.02980    4.04720    2.64960    7.49740    7.23040    6.97990   -9999.25   -9999.25   -9999.25
 11654.00000    0.10480   50.13680    8.63950    0.00210    0.03900    4.05240    2.64460    8.31520    7.92840    7.61740   -9999.25   -9999.25   -9999.25
 11654.50000    0.10690   50.57390    8.64700    0.00210    0.04010    4.14640    2.64440    8.92250    8.30470    8.12260   -9999.25   -9999.25   -9999.25
 11655.00000    0.10830   50.88920    8.65790    0.00210    0.03810    4.16020    2.64550    8.76680    8.25880    8.09570   -9999.25   -9999.25   -9999.25
 11655.50000    0.10900   51.77550    8.66880    0.00210    0.03480    4.16020    2.65770    8.48100    7.94450    7.70260   -9999.25   -9999.25   -9999.25
 11656.00000    0.10960   51.24910    8.67970    0.00350    0.03130    4.16020    2.66250    8.30010    7.80970    7.42220   -9999.25   -9999.25   -9999.25
 11656.50000    0.11010   50.31410    8.69060    0.00540    0.02490    4.11880    2.67770    9.59270    8.07680    7.65920   -9999.25   -9999.25   -9999.25
 11657.00000    0.11010   50.16640    8.69780    0.00740    0.02140    4.07630    2.67760    9.04290    8.15720    7.48820   -9999.25   -9999.25   -9999.25
 11657.50000    0.11030   51.31890    8.69800    0.00940    0.02170    4.04730    2.67090    8.16660    7.45010    6.64060   -9999.25   -9999.25   -9999.25
 11658.00000    0.11560   54.28440    8.69820    0.00990    0.02560    4.04960    2.66190    7.22870    6.77460    6.16210   -9999.25   -9999.25   -9999.25
 11658.50000    0.12100   57.25000    8.69840    0.00810    0.03030    4.10210    2.65280    6.78610    6.22490    5.83320   -9999.25   -9999.25   -9999.25
 11659.00000    0.12430   58.82460    8.69860    0.00660    0.03220    4.19460    2.65550    6.09000    5.04510    4.57060   -9999.25   -9999.25   -9999.25
 11659.50000    0.12030   58.11320    8.69880    0.00530    0.02770    4.27660    2.66810    7.28320    5.95050    4.70290   -9999.25   -9999.25   -9999.25
 11660.00000    0.10270   55.45930    8.69640    0.00440    0.01860    4.17590    2.67110    8.89610    7.62910    8.02050   -9999.25   -9999.25   -9999.25
 11660.50000    0.09430   53.69370    8.69260    0.00410    0.01960    4.07530    2.67360    9.50830    8.97740    9.80510   -9999.25   -9999.25   -9999.25
 11661.00000    0.09090   52.88990    8.68890    0.00390    0.02230    4.02540    2.67560    9.57200   10.32980   11.74890   -9999.25   -9999.25   -9999.25
 11661.50000    0.08750   52.24690    8.68520    0.00410    0.02220    3.98080    2.67750   10.01910   11.49140   13.32710   -9999.25   -9999.25   -9999.25
 11662.00000    0.08410   51.16780    8.68150    0.00440    0.02030    3.93610    2.67810   10.58780   10.65840   11.02510   -9999.25   -9999.25   -9999.25
 11662.50000    0.09540   51.39640    8.67780    0.00460    0.02070    3.99210    2.67560   10.52390    9.71210    8.70250   -9999.25   -9999.25   -9999.25
 11663.00000    0.09590   50.82230    8.67410    0.00490    0.02230    4.06580    2.67320   12.50790   10.93250    9.58290   -9999.25   -9999.25   -9999.25
 11663.50000    0.06970   47.35480    8.67040    0.00460    0.02140    4.25730    2.67610   18.66760   16.74870   13.61240   -9999.25   -9999.25   -9999.25
 11664.00000    0.03780   43.58640    8.66670    0.00470    0.01410    4.38650    2.70110   25.63100   18.53490   18.20000   -9999.25   -9999.25   -9999.25
 11664.50000    0.02950   39.65020    8.66300    0.00600    0.00490    4.42540    2.71670   21.59900   17.79730   16.88300   -9999.25   -9999.25   -9999.25
 11665.00000    0.05210   39.02070    8.65930    0.00850   -0.00770    4.42800    2.72340   16.64040   15.71370   14.90710   -9999.25   -9999.25   -9999.25
 11665.50000    0.06700   40.51400    8.65570    0.01050   -0.00900    4.42740    2.72730   14.70210   12.80130   11.17770   -9999.25   -9999.25   -9999.25
