~Version ---------------------------------------------------
VERS.   2.0 : CWLS log ASCII Standard -VERSION 2.0
WRAP.    NO : One line per depth step
DLM . SPACE : Column Data Section Delimiter
~Well ------------------------------------------------------
STRT .F                 1500.0 : START DEPTH
STOP .F                13292.0 : STOP DEPTH
STEP .F                    0.5 : STEP
NULL .                -9999.25 : NULL VALUE
COMP .                         : COMPANY
WELL .                         : WELL
FLD  .                         : FIELD
LOC  .                         : LOCATION
PROV .                         : PROVINCE
CNTY .                         : COUNTY
STAT .                         : STATE
CTRY .                         : COUNTRY
SRVC .                         : SERVICE COMPANY
DATE .                         : DATE
UWI  .                         : UNIQUE WELL ID
API  .                         : API NUMBER
SLAT .WGS84    5.6112805732106 : SURFACE LATITUDE
SLON .WGS84 2.7222555198844987 : SURFACE LONGITUDE
DATUM.F                    nan : DEPTH DATUM ELEV
~Curve Information -----------------------------------------
DEPT   .F     : 1 MEASURED DEPTH
NPOR_LS.DEC   : NEUTRON POROSITY LIMESTONE
GRD    .GAPI  : GAMMA RAY FROM DENSITY LOG
HCALD  .IN    : HRCC CALIPER CALIBRATED FROM DENSITY LOG
HDRA   .G/C3  : HRDD SPINE AND RIBS DENSITY CORRECTION
DPHZ_LS.DEC   : HGRD STANDARD RESOLUTION DENSITY POROSITY
PEFZ   .B/E   : HRDD STANDARD RESOLUTION FORMATION PHOTOELECTRIC FACTOR
RHOZ   .G/C3  : HRDD STANDARD RESOLUTION FORMATION DENSITY
AE20   .OHMM  : ARRAY INDUCTION RESISTIVITY EVIRONMENTALLY COMPENSATED LOG PROCESSING AE20
AE30   .OHMM  : ARRAY INDUCTION RESISTIVITY EVIRONMENTALLY COMPENSATED LOG PROCESSING AE30
AE90   .OHMM  : ARRAY INDUCTION RESISTIVITY EVIRONMENTALLY COMPENSATED LOG PROCESSING AE90
GRS    .GAPI  : GAMMA RAY FROM SONIC LOG
DTCO   .US/F  : DELTA-T COMPRESSIONAL
DTSM   .US/F  : DELTA-T SHEAR
~Params ----------------------------------------------------
~Other -----------------------------------------------------
~ASCII -----------------------------------------------------
# ...
 11744.00000    0.11080   52.44750    8.62130    0.00490    0.01840    4.05180    2.67660    7.91210    7.52550    7.34680   -9999.25   -9999.25   -9999.25
 11744.50000    0.11350   50.77400    8.64330    0.00480    0.02340    4.07810    2.66980    7.41830    7.29660    7.16430   -9999.25   -9999.25   -9999.25
 11745.00000    0.11400   50.53520    8.66520    0.00480    0.02660    4.10030    2.66770    7.39030    7.26900    7.13720   -9999.25   -9999.25   -9999.25
 11745.50000    0.11340   51.66570    8.67150    0.00480    0.02610    4.10980    2.67130    7.33570    7.20920    7.07200   -9999.25   -9999.25   -9999.25
 11746.00000    0.11660   53.26920    8.67150    0.00510    0.02430    4.08940    2.67760    7.22540    7.10110    6.91560   -9999.25   -9999.25   -9999.25
 11746.50000    0.12490   53.68860    8.67150    0.00600    0.02000    4.04400    2.67690    6.84230    6.61340    6.36790   -9999.25   -9999.25   -9999.25
 11747.00000    0.12790   53.63050    8.67150    0.00650    0.02110    3.99620    2.67420    6.30060    6.08890    5.86370   -9999.25   -9999.25   -9999.25
 11747.50000    0.12730   53.73130    8.67150    0.00620    0.02480    3.92570    2.66540    5.90240    5.78320    5.65470   -9999.25   -9999.25   -9999.25
 11748.00000    0.12580   56.03670    8.67150    0.00530    0.02880    3.89070    2.65340    5.71980    5.61120    5.49380   -9999.25   -9999.25   -9999.25
 11748.50000    0.13080   59.73190    8.67150    0.00390    0.03140    3.89320    2.64700    5.59400    5.49870    5.39520   -9999.25   -9999.25   -9999.25
 11749.00000    0.13410   61.19840    8.67150    0.00340    0.03700    3.92240    2.64770    5.53860    5.44720    5.34790   -9999.25   -9999.25   -9999.25
 11749.50000    0.13710   61.27010    8.67150    0.00340    0.03700    3.93270    2.65080    6.12300    5.87700    5.61600   -9999.25   -9999.25   -9999.25
 11750.00000    0.13810   60.27010    8.67140    0.00440    0.03440    3.96120    2.65810    6.79990    6.52960    6.24180   -9999.25   -9999.25   -9999.25
 11750.50000    0.13770   58.97030    8.67050    0.00520    0.03170    3.98960    2.66530    7.43420    7.16470    6.93730   -9999.25   -9999.25   -9999.25
 11751.00000    0.13420   56.76000    8.67080    0.00580    0.02990    4.02350    2.66830    7.50900    7.22870    6.98010   -9999.25   -9999.25   -9999.25
 11751.50000    0.13420   55.02900    8.67100    0.00640    0.02940    4.06500    2.66710    7.23980    7.03440    6.89370   -9999.25   -9999.25   -9999.25
 11752.00000    0.13630   55.02900    8.67130    0.00690    0.02440    4.07090    2.66550    6.77270    6.51320    6.23730   -9999.25   -9999.25   -9999.25
 11752.50000    0.14320   57.71530    8.67150    0.00750    0.02620    4.07680    2.66400    6.11490    5.88120    5.34160   -9999.25   -9999.25   -9999.25
 11753.00000    0.15080   60.11820    8.67180    0.00810    0.02910    4.08260    2.66390    5.78330    5.64750    5.48030   -9999.25   -9999.25   -9999.25
 11753.50000    0.15770   63.48430    8.67210    0.00840    0.02810    4.08850    2.66440    5.75010    5.65020    5.40700   -9999.25   -9999.25   -9999.25
 11754.00000    0.16250   64.61100    8.67230    0.00880    0.02700    4.08750    2.66460    5.28360    5.06670    4.83390   -9999.25   -9999.25   -9999.25
 11754.50000    0.16680   64.80980    8.67260    0.00920    0.02740    4.07160    2.65140    4.72720    4.52750    4.31500   -9999.25   -9999.25   -9999.25
 11755.00000    0.17340   64.81460    8.67280    0.00960    0.03430    4.06180    2.64950    4.42620    4.12450    3.99300   -9999.25   -9999.25   -9999.25
 11755.50000    0.17650   66.03540    8.67310    0.00990    0.03750    4.06750    2.65450    4.23650    3.98670    3.91460   -9999.25   -9999.25   -9999.25
 11756.00000    0.17490   66.49270    8.67340    0.01070    0.03560    4.10060    2.66320    4.38850    3.98670    3.91460   -9999.25   -9999.25   -9999.25
 11756.50000    0.17260   67.48400    8.67360    0.01170    0.02760    4.13370    2.66940    4.94940    4.33990    4.14400   -9999.25   -9999.25   -9999.25
 11757.00000    0.16910   68.34500    8.67390    0.01280    0.02340    4.15010    2.66690    5.20420    4.91720    4.65690   -9999.25   -9999.25   -9999.25
 11757.50000    0.16680   69.15360    8.67420    0.01380    0.02670    4.15270    2.65930    5.26460    4.94040    4.81510   -9999.25   -9999.25   -9999.25
 11758.00000    0.17410   70.28120    8.67440    0.01380    0.02920    4.13900    2.65600    4.80500    4.47310    4.21540   -9999.25   -9999.25   -9999.25
 11758.50000    0.17910   71.77830    8.67480    0.01190    0.03170    4.08770    2.65060    4.08220    3.86890    3.76070   -9999.25   -9999.25   -9999.25
 11759.00000    0.18550   73.05180    8.67600    0.00970    0.03820    4.01960    2.64680    3.75380    3.65870    3.55670   -9999.25   -9999.25   -9999.25
 11759.50000    0.19170   76.38360    8.67710    0.00780    0.04990    3.98680    2.63560    3.54990    3.46000    3.36090   -9999.25   -9999.25   -9999.25
 11760.00000    0.19970   78.74200    8.67830    0.00590    0.05050    3.99250    2.62600    3.34520    3.25450    3.15750   -9999.25   -9999.25   -9999.25
 11760.50000    0.21430   80.53450    8.67940    0.00460    0.04990    4.00270    2.62250    3.16080    3.10020    3.03470   -9999.25   -9999.25   -9999.25
 11761.00000    0.22740   80.45470    8.68060    0.00440    0.04830    4.01290    2.62000    3.07130    3.01500    2.95760   -9999.25   -9999.25   -9999.25
 11761.50000    0.23240   79.88830    8.68180    0.00410    0.05350    4.02570    2.61840    3.16850    2.96820    2.91180   -9999.25   -9999.25   -9999.25
 11762.00000    0.22320   77.52070    8.68290    0.00480    0.05510    4.10150    2.62080    4.36540    3.99820    3.44500   -9999.25   -9999.25   -9999.25
 11762.50000    0.18910   71.05250    8.68410    0.00540    0.05300    4.16680    2.62950    5.38820    5.07160    4.61880   -9999.25   -9999.25   -9999.25
 11763.00000    0.16670   63.68830    8.68530    0.00560    0.03770    4.15430    2.65530    6.10940    5.82600    5.52810   -9999.25   -9999.25   -9999.25
 11763.50000    0.15030   60.39960    8.68640    0.00580    0.03120    4.16020    2.66060    6.62490    6.43270    6.22620   -9999.25   -9999.25   -9999.25
 11764.00000    0.14030   57.35310    8.68760    0.00600    0.02840    4.14770    2.66220    7.09960    6.89150    6.67100   -9999.25   -9999.25   -9999.25
 11764.50000    0.13580   55.52260    8.68880    0.00640    0.02850    4.10460    2.66270    7.45480    7.08140    6.94640   -9999.25   -9999.25   -9999.25
 11765.00000    0.13410   54.28800    8.68760    0.00670    0.02870    4.09930    2.66330    7.45480    7.11280    6.98420   -9999.25   -9999.25   -9999.25
 11765.50000    0.13330   54.49490    8.68630    0.00700    0.02760    4.09130    2.66380    7.34430    7.11280    6.98420   -9999.25   -9999.25   -9999.25
 11766.00000    0.13540   54.58530    8.68500    0.00740    0.02750    4.11580    2.66440    7.16750    6.90650    6.63000   -9999.25   -9999.25   -9999.25
 11766.50000    0.13790   54.47040    8.68370    0.00740    0.02660    4.14630    2.66690    6.52250    6.28580    6.03410   -9999.25   -9999.25   -9999.25
 11767.00000    0.14190   55.04110    8.68240    0.00890    0.02340    4.16970    2.67620    5.93550    5.72090    5.49180   -9999.25   -9999.25   -9999.25
 11767.50000    0.14230   55.96740    8.68100    0.01190    0.02080    4.20210    2.67370    5.58210    5.48250    5.37440   -9999.25   -9999.25   -9999.25
 11768.00000    0.14390   56.91580    8.67970    0.01000    0.02270    4.16350    2.66800    5.42610    5.28720    5.16990   -9999.25   -9999.25   -9999.25
 11768.50000    0.14550   59.25810    8.67840    0.00760    0.02610    4.07380    2.66010    5.21550    5.11080    5.00200   -9999.25   -9999.25   -9999.25
 11769.00000    0.14940   61.59200    8.67710    0.00660    0.03140    4.01220    2.65370    5.07450    4.98070    4.87910   -9999.25   -9999.25   -9999.25
 11769.50000    0.15600   62.08450    8.67580    0.00620    0.03300    3.95060    2.65290    5.18980    5.09200    4.98610   -9999.25   -9999.25   -9999.25
