~Version ---------------------------------------------------
VERS.   2.0 : CWLS log ASCII Standard -VERSION 2.0
WRAP.    NO : One line per depth step
DLM . SPACE : Column Data Section Delimiter
~Well ------------------------------------------------------
STRT .F                 1500.0 : START DEPTH
STOP .F                13292.0 : STOP DEPTH
STEP .F                    0.5 : STEP
NULL .                -9999.25 : NULL VALUE
COMP .                         : COMPANY
WELL .                         : WELL
FLD  .                         : FIELD
LOC  .                         : LOCATION
PROV .                         : PROVINCE
CNTY .                         : COUNTY
STAT .                         : STATE
CTRY .                         : COUNTRY
SRVC .                         : SERVICE COMPANY
DATE .                         : DATE
UWI  .                         : UNIQUE WELL ID
API  .                         : API NUMBER
SLAT .WGS84    5.6112805732106 : SURFACE LATITUDE
SLON .WGS84 2.7222555198844987 : SURFACE LONGITUDE
DATUM.F                    nan : DEPTH DATUM ELEV
~Curve Information -----------------------------------------
DEPT   .F     : 1 MEASURED DEPTH
NPOR_LS.DEC   : NEUTRON POROSITY LIMESTONE
GRD    .GAPI  : GAMMA RAY FROM DENSITY LOG
HCALD  .IN    : HRCC CALIPER CALIBRATED FROM DENSITY LOG
HDRA   .G/C3  : HRDD SPINE AND RIBS DENSITY CORRECTION
DPHZ_LS.DEC   : HGRD STANDARD RESOLUTION DENSITY POROSITY
PEFZ   .B/E   : HRDD STANDARD RESOLUTION FORMATION PHOTOELECTRIC FACTOR
RHOZ   .G/C3  : HRDD STANDARD RESOLUTION FORMATION DENSITY
AE20   .OHMM  : ARRAY INDUCTION RESISTIVITY EVIRONMENTALLY COMPENSATED LOG PROCESSING AE20
AE30   .OHMM  : ARRAY INDUCTION RESISTIVITY EVIRONMENTALLY COMPENSATED LOG PROCESSING AE30
AE90   .OHMM  : ARRAY INDUCTION RESISTIVITY EVIRONMENTALLY COMPENSATED LOG PROCESSING AE90
GRS    .GAPI  : GAMMA RAY FROM SONIC LOG
DTCO   .US/F  : DELTA-T COMPRESSIONAL
DTSM   .US/F  : DELTA-T SHEAR
~Params ----------------------------------------------------
~Other -----------------------------------------------------
~ASCII -----------------------------------------------------
# ...
 12888.00000    0.06240   78.39500    8.72240    0.00600    0.03580    3.05910    2.65340   51.56590   48.33300   45.34950   -9999.25   -9999.25   -9999.25
 12888.50000    0.05520   75.34800    8.72080    0.00620    0.03370    3.07400    2.65150   48.71780   46.82910   43.94670   -9999.25   -9999.25   -9999.25
 12889.00000    0.05470   76.03720    8.71930    0.00650    0.03450    3.07360    2.64660   46.03590   43.82970   42.82180   -9999.25   -9999.25   -9999.25
 12889.50000    0.06310   79.31110    8.71780    0.00670    0.03640    3.07360    2.64980   43.98960   39.78370   37.29940   -9999.25   -9999.25   -9999.25
 12890.00000    0.06820   77.13670    8.71630    0.00700    0.03540    3.07380    2.65790   46.48440   39.33020   35.34840   -9999.25   -9999.25   -9999.25
 12890.50000    0.06140   72.93160    8.71470    0.00720    0.02920    3.07370    2.67120   53.41370   49.08640   46.01920   -9999.25   -9999.25   -9999.25
 12891.00000    0.05300   72.04670    8.71320    0.00710    0.02320    3.07160    2.67210   59.95300   54.43060   50.35460   -9999.25   -9999.25   -9999.25
 12891.50000    0.05240   74.58140    8.71170    0.00620    0.02310    3.05560    2.66950   53.75420   49.55620   46.30930   -9999.25   -9999.25   -9999.25
 12892.00000    0.05400   78.65130    8.71020    0.00540    0.02640    3.03210    2.66830   46.64070   40.40940   37.77010   -9999.25   -9999.25   -9999.25
 12892.50000    0.06390   81.75360    8.70860    0.00540    0.02250    3.02820    2.67430   47.25510   43.20370   40.00440   -9999.25   -9999.25   -9999.25
 12893.00000    0.06360   82.58600    8.70710    0.00710    0.02020    3.03300    2.67370   50.34740   47.60420   45.03820   -9999.25   -9999.25   -9999.25
 12893.50000    0.06350   82.92510    8.70560    0.00860    0.02330    3.08110    2.66750   47.84510   44.49300   42.06110   -9999.25   -9999.25   -9999.25
 12894.00000    0.06460   84.00110    8.70400    0.00970    0.02690    3.05400    2.66280   42.49930   38.94030   36.79950   -9999.25   -9999.25   -9999.25
 12894.50000    0.07050   86.82660    8.70250    0.01080    0.02730    3.05400    2.67060   39.68050   38.05220   35.69520   -9999.25   -9999.25   -9999.25
 12895.00000    0.07580   88.44990    8.70100    0.01180    0.02350    3.05400    2.68270   39.58150   36.25680   34.59010   -9999.25   -9999.25   -9999.25
 12895.50000    0.07150   86.76280    8.69950    0.01290    0.01660    3.05400    2.68430   41.97440   40.58170   38.15180   -9999.25   -9999.25   -9999.25
 12896.00000    0.06860   87.27860    8.69790    0.01230    0.01600    3.05400    2.67740   41.76850   40.29130   37.69470   -9999.25   -9999.25   -9999.25
 12896.50000    0.07100   89.92980    8.69640    0.01000    0.02110    3.00180    2.66660   38.63530   33.84730   29.69790   -9999.25   -9999.25   -9999.25
 12897.00000    0.07380   93.74740    8.69490    0.00830    0.03170    2.96800    2.64650   32.47720   30.92050   30.29460   -9999.25   -9999.25   -9999.25
 12897.50000    0.07530   97.04310    8.69340    0.00700    0.03860    2.94120    2.64080   34.40020   29.79670   27.99440   -9999.25   -9999.25   -9999.25
 12898.00000    0.07750   96.20010    8.69180    0.00510    0.04050    2.92710    2.63870   29.88890   23.55950   20.83140   -9999.25   -9999.25   -9999.25
 12898.50000    0.08150   94.55590    8.69030    0.00360    0.04140    2.88400    2.63190   21.07000   17.88540   17.13340   -9999.25   -9999.25   -9999.25
 12899.00000    0.08400   90.98510    8.68810    0.00430    0.04420    2.87880    2.62910   27.44430   25.72460   22.24060   -9999.25   -9999.25   -9999.25
 12899.50000    0.08030   86.78130    8.68490    0.00490    0.04780    3.01700    2.63510   45.30070   36.90190   31.89040   -9999.25   -9999.25   -9999.25
 12900.00000    0.05490   75.81810    8.68170    0.00550    0.03370    3.17760    2.67260   69.83100   53.69130   46.11220   -9999.25   -9999.25   -9999.25
 12900.50000    0.02240   63.98670    8.67850    0.00620    0.01700    3.33810    2.69960  106.06430   78.34310   67.41080   -9999.25   -9999.25   -9999.25
 12901.00000    0.00890   53.90410    8.67530    0.00680    0.01130    3.52320    2.70000  167.56830  118.49520   98.54700   -9999.25   -9999.25   -9999.25
 12901.50000    0.00750   48.38120    8.67210    0.00740    0.00830    3.64190    2.69550  302.39450  248.85700  172.76680   -9999.25   -9999.25   -9999.25
 12902.00000    0.00990   44.12410    8.66890    0.00790    0.01210    3.69920    2.69040  339.55170  313.98260  287.64860   -9999.25   -9999.25   -9999.25
 12902.50000    0.01040   43.78260    8.66570    0.00830    0.01710    3.71030    2.69080  424.44950  323.36670  249.83120   -9999.25   -9999.25   -9999.25
 12903.00000    0.01080   47.77160    8.66250    0.00880    0.02010    3.71240    2.69210  396.54340  214.85230  192.17330   -9999.25   -9999.25   -9999.25
 12903.50000    0.01370   51.99290    8.65940    0.00920    0.02310    3.65700    2.67870  192.82910  128.70050   98.78480   -9999.25   -9999.25   -9999.25
 12904.00000    0.01960   55.04460    8.65620    0.00930    0.02520    3.61900    2.66590   97.45790   68.35950   56.66330   -9999.25   -9999.25   -9999.25
 12904.50000    0.02900   56.88610    8.65300    0.00930    0.02760    3.50930    2.65860   55.32760   42.97070   36.04930   -9999.25   -9999.25   -9999.25
 12905.00000    0.03680   64.67360    8.64980    0.00870    0.03130    3.25970    2.65400   37.17500   31.29610   26.92760   -9999.25   -9999.25   -9999.25
 12905.50000    0.08940   78.64040    8.64660    0.00760    0.03280    3.13890    2.65750   24.88200   19.41000   17.06090   -9999.25   -9999.25   -9999.25
 12906.00000    0.09620   86.36140    8.64340    0.00660    0.03130    3.01810    2.66350   21.44040   20.14160   19.03460   -9999.25   -9999.25   -9999.25
 12906.50000    0.08490   86.62760    8.64020    0.00580    0.02600    2.95010    2.67330   22.37770   21.30300   21.42000   -9999.25   -9999.25   -9999.25
 12907.00000    0.07290   84.80170    8.63700    0.00520    0.02080    2.93320    2.67800   22.58570   21.66850   25.56000   -9999.25   -9999.25   -9999.25
 12907.50000    0.07120   84.20470    8.63850    0.00470    0.02030    2.86350    2.67040   22.01340   21.42850   17.22120   -9999.25   -9999.25   -9999.25
 12908.00000    0.08300   90.03010    8.64050    0.00420    0.03410    2.84180    2.64430   19.35860   13.21110   11.32700   -9999.25   -9999.25   -9999.25
 12908.50000    0.11010   96.95870    8.64250    0.00380    0.04650    2.82770    2.62510   11.36590   10.57260   10.18040   -9999.25   -9999.25   -9999.25
 12909.00000    0.11050  102.67680    8.64450    0.00340    0.05460    2.85050    2.61660   15.51920   12.63600   11.40210   -9999.25   -9999.25   -9999.25
 12909.50000    0.09610  103.82780    8.64650    0.00290    0.05290    2.90900    2.62810   22.17600   16.78090   14.80010   -9999.25   -9999.25   -9999.25
 12910.00000    0.06730   93.16740    8.64850    0.00250    0.03720    3.05100    2.65870   30.14370   24.04660   20.88090   -9999.25   -9999.25   -9999.25
 12910.50000    0.04900   81.65280    8.65050    0.00250    0.02330    3.19310    2.68540   35.92620   32.54380   29.20640   -9999.25   -9999.25   -9999.25
 12911.00000    0.04320   75.23670    8.65260    0.00280    0.01640    3.20880    2.68660   42.81800   39.57260   36.38850   -9999.25   -9999.25   -9999.25
 12911.50000    0.04360   76.52760    8.65460    0.00300    0.01510    3.20160    2.67030   55.59070   45.58190   40.23140   -9999.25   -9999.25   -9999.25
 12912.00000    0.04790   79.04620    8.65660    0.00330    0.02100    3.14410    2.66470   39.71950   30.12300   23.65550   -9999.25   -9999.25   -9999.25
 12912.50000    0.07610   88.49240    8.65860    0.00350    0.03450    3.02920    2.65290   24.33030   19.92180   18.01970   -9999.25   -9999.25   -9999.25
 12913.00000    0.09840  100.55660    8.66060    0.00360    0.04050    2.91420    2.63980   16.97510   16.29090   15.93990   -9999.25   -9999.25   -9999.25
 12913.50000    0.10610  102.95780    8.66260    0.00360    0.04260    2.87520    2.63510   16.73220   15.63260   15.13220   -9999.25   -9999.25   -9999.25
