~Version ---------------------------------------------------
VERS.   2.0 : CWLS log ASCII Standard -VERSION 2.0
WRAP.    NO : One line per depth step
DLM . SPACE : Column Data Section Delimiter
~Well ------------------------------------------------------
STRT .F                 1500.0 : START DEPTH
STOP .F                13292.0 : STOP DEPTH
STEP .F                    0.5 : STEP
NULL .                -9999.25 : NULL VALUE
COMP .                         : COMPANY
WELL .                         : WELL
FLD  .                         : FIELD
LOC  .                         : LOCATION
PROV .                         : PROVINCE
CNTY .                         : COUNTY
STAT .                         : STATE
CTRY .                         : COUNTRY
SRVC .                         : SERVICE COMPANY
DATE .                         : DATE
UWI  .                         : UNIQUE WELL ID
API  .                         : API NUMBER
SLAT .WGS84    5.6112805732106 : SURFACE LATITUDE
SLON .WGS84 2.7222555198844987 : SURFACE LONGITUDE
DATUM.F                    nan : DEPTH DATUM ELEV
~Curve Information -----------------------------------------
DEPT   .F     : 1 MEASURED DEPTH
NPOR_LS.DEC   : NEUTRON POROSITY LIMESTONE
GRD    .GAPI  : GAMMA RAY FROM DENSITY LOG
HCALD  .IN    : HRCC CALIPER CALIBRATED FROM DENSITY LOG
HDRA   .G/C3  : HRDD SPINE AND RIBS DENSITY CORRECTION
DPHZ_LS.DEC   : HGRD STANDARD RESOLUTION DENSITY POROSITY
PEFZ   .B/E   : HRDD STANDARD RESOLUTION FORMATION PHOTOELECTRIC FACTOR
RHOZ   .G/C3  : HRDD STANDARD RESOLUTION FORMATION DENSITY
AE20   .OHMM  : ARRAY INDUCTION RESISTIVITY EVIRONMENTALLY COMPENSATED LOG PROCESSING AE20
AE30   .OHMM  : ARRAY INDUCTION RESISTIVITY EVIRONMENTALLY COMPENSATED LOG PROCESSING AE30
AE90   .OHMM  : ARRAY INDUCTION RESISTIVITY EVIRONMENTALLY COMPENSATED LOG PROCESSING AE90
GRS    .GAPI  : GAMMA RAY FROM SONIC LOG
DTCO   .US/F  : DELTA-T COMPRESSIONAL
DTSM   .US/F  : DELTA-T SHEAR
~Params ----------------------------------------------------
~Other -----------------------------------------------------
~ASCII -----------------------------------------------------
# ...
 12992.00000   -0.00120   44.41970    8.58490    0.00760    0.02790    3.83870    2.65340  737.72360 1064.88160 1512.70840   -9999.25   -9999.25   -9999.25
 12992.50000   -0.00080   43.05210    8.58650    0.00740    0.03130    3.83510    2.65950  859.15550 1129.12300 1735.34310   -9999.25   -9999.25   -9999.25
 12993.00000   -0.00050   41.06580    8.58810    0.00740    0.03070    3.89400    2.67000 1090.32910 1135.90490 1935.78820   -9999.25   -9999.25   -9999.25
 12993.50000   -0.00030   38.66600    8.58980    0.00740    0.02630    4.04210    2.67910 1361.04880 1044.25760 1897.81770   -9999.25   -9999.25   -9999.25
 12994.00000   -0.00010   35.66660    8.59140    0.00740    0.01840    4.16270    2.69170 1498.28470  842.09560 1367.45830   -9999.25   -9999.25   -9999.25
 12994.50000   -0.00010   34.80070    8.59300    0.00750    0.01200    4.21110    2.69480 1519.21810  670.49420  780.23550   -9999.25   -9999.25   -9999.25
 12995.00000   -0.00030   34.95090    8.59460    0.00790    0.01120    4.21420    2.69230 1476.39750  533.86190  442.07350   -9999.25   -9999.25   -9999.25
 12995.50000   -0.00060   35.72650    8.59630    0.00830    0.01170    4.26930    2.68960 1066.37570  314.08310  266.10130   -9999.25   -9999.25   -9999.25
 12996.00000   -0.00080   37.70070    8.59790    0.00860    0.01240    4.32020    2.67990  721.99370  234.61980  198.52430   -9999.25   -9999.25   -9999.25
 12996.50000   -0.00110   42.05500    8.59950    0.00870    0.01540    4.10980    2.65990  682.20780  211.33130  173.73960   -9999.25   -9999.25   -9999.25
 12997.00000   -0.00060   46.41010    8.60440    0.00870    0.02950    3.90140    2.64630  693.47350  216.57600  179.92840   -9999.25   -9999.25   -9999.25
 12997.50000    0.00060   52.18290    8.63100    0.00800    0.03930    3.72210    2.63430 1528.81270  340.37480  245.60840   -9999.25   -9999.25   -9999.25
 12998.00000    0.00890   62.04480    8.65760    0.00680    0.04420    3.39390    2.64160  972.81010  360.69620  354.11200   -9999.25   -9999.25   -9999.25
 12998.50000    0.01990   77.12110    8.68420    0.00560    0.03980    3.09850    2.65070  399.27910  208.71140  177.23340   -9999.25   -9999.25   -9999.25
 12999.00000    0.03080   85.04960    8.68940    0.00440    0.03540    3.05060    2.65730  180.47520  138.28910  116.12140   -9999.25   -9999.25   -9999.25
 12999.50000    0.04130   91.49060    8.68940    0.00410    0.03430    3.02630    2.65370  108.66450   91.62820   68.83380   -9999.25   -9999.25   -9999.25
 13000.00000    0.04880   98.73840    8.68940    0.00410    0.03470    3.01220    2.64020   69.39430   63.76460   56.25970   -9999.25   -9999.25   -9999.25
 13000.50000    0.05460  103.73970    8.68940    0.00410    0.03550    2.99940    2.62680   79.22850   59.81970   55.07210   -9999.25   -9999.25   -9999.25
 13001.00000    0.07520  107.30110    8.68950    0.00410    0.03910    2.98100    2.61510   58.82170   48.80570   39.67490   -9999.25   -9999.25   -9999.25
 13001.50000    0.10510  113.75890    8.68950    0.00420    0.05450    2.88840    2.60140   34.08430   27.79910   22.20330   -9999.25   -9999.25   -9999.25
 13002.00000    0.11670  116.16440    8.68950    0.00430    0.06900    2.80800    2.58330   21.06310   19.52630   18.53660   -9999.25   -9999.25   -9999.25
 13002.50000    0.09760  113.14490    8.68960    0.00430    0.07600    2.68160    2.58160   27.47640   24.63350   21.45700   -9999.25   -9999.25   -9999.25
 13003.00000    0.08590  104.05660    8.68960    0.00440    0.07450    2.60300    2.59840   34.27300   31.33850   29.33810   -9999.25   -9999.25   -9999.25
 13003.50000    0.08070  101.79860    8.68960    0.00450    0.06960    2.66420    2.60290   42.64270   36.93680   34.57910   -9999.25   -9999.25   -9999.25
 13004.00000    0.07170   99.89630    8.68970    0.00460    0.05780    2.81020    2.64080   49.77370   42.19510   39.89290   -9999.25   -9999.25   -9999.25
 13004.50000    0.05940   96.49140    8.68970    0.00460    0.04090    3.05880    2.65760   70.65740   64.14820   54.49440   -9999.25   -9999.25   -9999.25
 13005.00000    0.04910   90.58040    8.68970    0.00470    0.02810    3.08920    2.66180   91.21410   82.89590   77.51490   -9999.25   -9999.25   -9999.25
 13005.50000    0.05040   85.32360    8.68980    0.00410    0.02840    3.04330    2.65300  106.03170   93.61710   84.76750   -9999.25   -9999.25   -9999.25
 13006.00000    0.05910   88.14100    8.68980    0.00350    0.03530    3.00230    2.64330   96.43310   87.95740   77.85780   -9999.25   -9999.25   -9999.25
 13006.50000    0.06360   93.14350    8.67480    0.00290    0.04500    2.96220    2.63610   83.78050   79.40270   72.87240   -9999.25   -9999.25   -9999.25
 13007.00000    0.06780   98.21100    8.64650    0.00230    0.05510    2.92220    2.61590   74.70950   71.68010   69.14900   -9999.25   -9999.25   -9999.25
 13007.50000    0.06940  100.83030    8.61870    0.00230    0.05290    2.89920    2.62220   71.44540   67.30600   64.57520   -9999.25   -9999.25   -9999.25
 13008.00000    0.06680   96.72580    8.60770    0.00230    0.04630    2.89130    2.63150   68.47700   61.16190   58.95280   -9999.25   -9999.25   -9999.25
 13008.50000    0.06770   90.61840    8.60160    0.00230    0.04480    2.88350    2.62960   63.01260   56.33930   54.30350   -9999.25   -9999.25   -9999.25
 13009.00000    0.06830   88.27500    8.60210    0.00230    0.04750    2.89730    2.61540   57.91660   51.98260   50.02270   -9999.25   -9999.25   -9999.25
 13009.50000    0.06800   88.95810    8.60270    0.00230    0.05620    2.96510    2.61370   57.39660   52.13390   46.82250   -9999.25   -9999.25   -9999.25
 13010.00000    0.06780   91.58620    8.60330    0.00250    0.05320    3.05490    2.63000   66.20580   55.59590   49.10360   -9999.25   -9999.25   -9999.25
 13010.50000    0.06710   93.78320    8.60390    0.00270    0.04540    3.13670    2.64620   78.05520   64.45500   58.72830   -9999.25   -9999.25   -9999.25
 13011.00000    0.06420   87.61780    8.60450    0.00290    0.03910    3.19460    2.64970  100.52810   88.97560   79.33850   -9999.25   -9999.25   -9999.25
 13011.50000    0.04910   82.68240    8.60510    0.00310    0.03680    3.10980    2.64270  116.71350   98.74080   96.47930   -9999.25   -9999.25   -9999.25
 13012.00000    0.04410   80.71780    8.60560    0.00330    0.04170    3.00340    2.61730  104.10240   92.34060   82.50710   -9999.25   -9999.25   -9999.25
 13012.50000    0.06570   89.25860    8.60620    0.00350    0.05680    2.89700    2.60420   77.12230   70.60590   63.97790   -9999.25   -9999.25   -9999.25
 13013.00000    0.09730  110.36130    8.60680    0.00380    0.06360    2.77930    2.59830   60.26570   55.15130   49.98080   -9999.25   -9999.25   -9999.25
 13013.50000    0.11050  130.27210    8.60740    0.00400    0.06140    2.80620    2.63110   47.06820   40.79190   36.60660   -9999.25   -9999.25   -9999.25
 13014.00000    0.10610  140.93990    8.60800    0.00420    0.05360    2.84930    2.63590   41.70020   34.55820   31.78610   -9999.25   -9999.25   -9999.25
 13014.50000    0.09430  143.66330    8.60850    0.00440    0.04220    3.01470    2.66370   56.72520   46.46680   42.13690   -9999.25   -9999.25   -9999.25
 13015.00000    0.08930  134.71920    8.60910    0.00470    0.02720    3.20350    2.69380   58.27090   45.44170   44.19480   -9999.25   -9999.25   -9999.25
 13015.50000    0.08420  111.40820    8.60970    0.00800    0.00620    3.44720    2.72790   50.81960   43.53300   42.67700   -9999.25   -9999.25   -9999.25
 13016.00000    0.07830   93.42740    8.61030    0.01260   -0.01270    3.61720    2.75190   80.72130   67.00030   54.86950   -9999.25   -9999.25   -9999.25
 13016.50000    0.06860   74.23630    8.61090    0.01640   -0.02200    3.69180    2.73750  146.33330  115.10220   92.19950   -9999.25   -9999.25   -9999.25
 13017.00000    0.05040   65.42830    8.61140    0.01550   -0.01470    3.67320    2.71160  216.87300  174.17910  157.60850   -9999.25   -9999.25   -9999.25
 13017.50000    0.03850   65.04500    8.61200    0.01230   -0.00340    3.55500    2.68680  188.01510  139.36490  117.42170   -9999.25   -9999.25   -9999.25
