~Version ---------------------------------------------------
VERS.   2.0 : CWLS log ASCII Standard -VERSION 2.0
WRAP.    NO : One line per depth step
DLM . SPACE : Column Data Section Delimiter
~Well ------------------------------------------------------
STRT .F                 1500.0 : START DEPTH
STOP .F                13292.0 : STOP DEPTH
STEP .F                    0.5 : STEP
NULL .                -9999.25 : NULL VALUE
COMP .                         : COMPANY
WELL .                         : WELL
FLD  .                         : FIELD
LOC  .                         : LOCATION
PROV .                         : PROVINCE
CNTY .                         : COUNTY
STAT .                         : STATE
CTRY .                         : COUNTRY
SRVC .                         : SERVICE COMPANY
DATE .                         : DATE
UWI  .                         : UNIQUE WELL ID
API  .                         : API NUMBER
SLAT .WGS84    5.6112805732106 : SURFACE LATITUDE
SLON .WGS84 2.7222555198844987 : SURFACE LONGITUDE
DATUM.F                    nan : DEPTH DATUM ELEV
~Curve Information -----------------------------------------
DEPT   .F     : 1 MEASURED DEPTH
NPOR_LS.DEC   : NEUTRON POROSITY LIMESTONE
GRD    .GAPI  : GAMMA RAY FROM DENSITY LOG
HCALD  .IN    : HRCC CALIPER CALIBRATED FROM DENSITY LOG
HDRA   .G/C3  : HRDD SPINE AND RIBS DENSITY CORRECTION
DPHZ_LS.DEC   : HGRD STANDARD RESOLUTION DENSITY POROSITY
PEFZ   .B/E   : HRDD STANDARD RESOLUTION FORMATION PHOTOELECTRIC FACTOR
RHOZ   .G/C3  : HRDD STANDARD RESOLUTION FORMATION DENSITY
AE20   .OHMM  : ARRAY INDUCTION RESISTIVITY EVIRONMENTALLY COMPENSATED LOG PROCESSING AE20
AE30   .OHMM  : ARRAY INDUCTION RESISTIVITY EVIRONMENTALLY COMPENSATED LOG PROCESSING AE30
AE90   .OHMM  : ARRAY INDUCTION RESISTIVITY EVIRONMENTALLY COMPENSATED LOG PROCESSING AE90
GRS    .GAPI  : GAMMA RAY FROM SONIC LOG
DTCO   .US/F  : DELTA-T COMPRESSIONAL
DTSM   .US/F  : DELTA-T SHEAR
~Params ----------------------------------------------------
~Other -----------------------------------------------------
~ASCII -----------------------------------------------------
# ...
 11380.00000    0.36670   52.71090   -9999.25   -9999.25   -9999.25   -9999.25   -9999.25   -9999.25   -9999.25   -9999.25   -9999.25   -9999.25   -9999.25
 11380.50000    0.32200   51.39470   -9999.25   -9999.25   -9999.25   -9999.25   -9999.25   -9999.25   -9999.25   -9999.25   -9999.25   -9999.25   -9999.25
 11381.00000    0.26530   50.85240   -9999.25   -9999.25   -9999.25   -9999.25   -9999.25   -9999.25   -9999.25   -9999.25   -9999.25   -9999.25   -9999.25
 11381.50000    0.36660   51.22420   -9999.25   -9999.25   -9999.25   -9999.25   -9999.25   -9999.25   -9999.25   -9999.25   -9999.25   -9999.25   -9999.25
 11382.00000    0.40630   52.50560   -9999.25   -9999.25   -9999.25   -9999.25   -9999.25   -9999.25   -9999.25   -9999.25   -9999.25   -9999.25   -9999.25
 11382.50000    0.37500   54.07760   -9999.25   -9999.25   -9999.25   -9999.25   -9999.25   -9999.25   -9999.25   -9999.25   -9999.25   -9999.25   -9999.25
 11383.00000    0.54160   55.70050   -9999.25   -9999.25   -9999.25   -9999.25   -9999.25   -9999.25   -9999.25   -9999.25   -9999.25   -9999.25   -9999.25
 11383.50000    0.70820   56.54490   -9999.25   -9999.25   -9999.25   -9999.25   -9999.25   -9999.25   -9999.25   -9999.25   -9999.25   -9999.25   -9999.25
 11384.00000    0.73720   58.02650   -9999.25   -9999.25   -9999.25   -9999.25   -9999.25   -9999.25   -9999.25   -9999.25   -9999.25   -9999.25   -9999.25
 11384.50000    0.55790   59.28170   -9999.25   -9999.25   -9999.25   -9999.25   -9999.25   -9999.25   -9999.25   -9999.25   -9999.25   -9999.25   -9999.25
 11385.00000    0.65030   59.90670   -9999.25   -9999.25   -9999.25   -9999.25   -9999.25   -9999.25   -9999.25   -9999.25   -9999.25   -9999.25   -9999.25
 11385.50000    0.74260   60.17120   -9999.25   -9999.25   -9999.25   -9999.25   -9999.25   -9999.25   -9999.25   -9999.25   -9999.25   -9999.25   -9999.25
 11386.00000    0.63800   59.63550   -9999.25   -9999.25   -9999.25   -9999.25   -9999.25   -9999.25   -9999.25   -9999.25   -9999.25   -9999.25   -9999.25
 11386.50000    0.54550   59.36010   -9999.25   -9999.25   -9999.25   -9999.25   -9999.25   -9999.25   -9999.25   -9999.25   -9999.25   -9999.25   -9999.25
 11387.00000    0.41810   60.06660   -9999.25   -9999.25   -9999.25   -9999.25   -9999.25   -9999.25   -9999.25   -9999.25   -9999.25   -9999.25   -9999.25
 11387.50000    0.36450   62.28110   -9999.25   -9999.25   -9999.25   -9999.25   -9999.25   -9999.25   -9999.25   -9999.25   -9999.25   -9999.25   -9999.25
 11388.00000    0.36610   64.86390    8.78900    0.24890    0.30030    9.96470    1.99200   -9999.25   -9999.25   -9999.25   -9999.25   -9999.25   -9999.25
 11388.50000    0.41870   69.95650    9.74490    0.24940    0.30010   10.00680    1.02850   -9999.25   -9999.25   -9999.25   -9999.25   -9999.25   -9999.25
 11389.00000    0.42570   75.19240   11.23290    0.24830    0.66410   10.01040    1.01740   -9999.25   -9999.25   -9999.25   -9999.25   -9999.25   -9999.25
 11389.50000    0.41440   79.37620   14.40530   -0.05680    0.69980   10.01040    1.00630   -9999.25   -9999.25   -9999.25   -9999.25   -9999.25   -9999.25
 11390.00000    0.37410   81.85630   18.59790   -0.04320    0.69980   10.01070    0.99970   -9999.25   -9999.25   -9999.25   -9999.25   -9999.25   -9999.25
 11390.50000    0.34240   81.84930   19.04770   -0.01190    0.69970   10.01100    0.99930   -9999.25   -9999.25   -9999.25   -9999.25   -9999.25   -9999.25
 11391.00000    0.35940   79.14560   19.62910   -0.00930    0.69970    9.95790    0.99890   -9999.25   -9999.25   -9999.25   -9999.25   -9999.25   -9999.25
 11391.50000    0.41060   76.14750   20.47780   -0.02210    0.69960    9.89750    0.99840   -9999.25   -9999.25   -9999.25   -9999.25   -9999.25   -9999.25
 11392.00000    0.41590   73.67350   21.32650   -0.03540    0.69960    9.79460    0.99800   -9999.25   -9999.25   -9999.25   -9999.25   -9999.25   -9999.25
 11392.50000    0.42310   71.10160   21.67020   -0.05080    0.69960    9.67540    0.99850   -9999.25   -9999.25   -9999.25   -9999.25   -9999.25   -9999.25
 11393.00000    0.46170   69.25530   21.87720   -0.06960    0.69970    9.52530    0.99990   -9999.25   -9999.25   -9999.25   -9999.25   -9999.25   -9999.25
 11393.50000    0.49660   69.42890   22.08420   -0.05090    0.69970    9.31880    1.10440   -9999.25   -9999.25   -9999.25   -9999.25   -9999.25   -9999.25
 11394.00000    0.49630   70.60830   22.12750   -0.02050    0.69970    9.11230    1.12240    4.50500    4.39130    4.33700   -9999.25   -9999.25   -9999.25
 11394.50000    0.48240   72.44640   21.38800    0.00560    0.69970    8.90580    1.18740    4.48920    4.39240    4.27550   -9999.25   -9999.25   -9999.25
 11395.00000    0.48080   74.83640   20.57110    0.02540    0.69990    8.69930    1.19230    4.47360    4.39970    4.27240   -9999.25   -9999.25   -9999.25
 11395.50000    0.47870   77.88750   17.86870    0.05280    0.69620    8.64750    1.24990    4.52940    4.44660    4.34580   -9999.25   -9999.25   -9999.25
 11396.00000    0.47130   76.83880   16.46920    0.08830    0.67400    8.87350    1.22810    4.69610    4.55600    4.46400   -9999.25   -9999.25   -9999.25
 11396.50000    0.46610   74.49410   16.15740    0.09170    0.67660    9.18070    1.19870    4.91260    4.66950    4.57490   -9999.25   -9999.25   -9999.25
 11397.00000    0.47240   73.06080   16.41780    0.07630    0.69950    9.48780    1.14420    5.05520    4.78050    4.50290   -9999.25   -9999.25   -9999.25
 11397.50000    0.50240   74.92760   16.67820    0.04720    0.69950    9.79500    1.13820    5.07960    4.71560    4.32930   -9999.25   -9999.25   -9999.25
 11398.00000    0.52200   77.20900   16.90920    0.03620    0.69940    9.92860    1.08410    4.95140    4.58200    4.18350   -9999.25   -9999.25   -9999.25
 11398.50000    0.53390   77.48920   16.92310    0.01610    0.69940    9.94400    1.00170    4.80990    4.43300    4.08310   -9999.25   -9999.25   -9999.25
 11399.00000    0.55090   77.16680   17.17530   -0.05350    0.69940    9.94080    1.10430    4.66130    4.30570    3.99280   -9999.25   -9999.25   -9999.25
 11399.50000    0.56820   75.78010   18.98620   -0.19100    0.69940    9.93750    1.56530    4.49270    4.23260    3.90490   -9999.25   -9999.25   -9999.25
 11400.00000    0.29990   72.23970   21.72570   -0.24170    0.69930    9.93430    2.03530    4.44620    4.16080    3.81660   -9999.25   -9999.25   -9999.25
 11400.50000    0.33490   67.89220   23.15780   -0.24490    0.69930    9.93110    2.28300    4.43340    4.08000    3.74570   -9999.25   -9999.25   -9999.25
 11401.00000    0.37730   64.83540   23.27340   -0.24150    0.69930    9.92780    2.40710    4.35740    3.97420    3.70910   -9999.25   -9999.25   -9999.25
 11401.50000    0.33800   69.02460   22.94240   -0.21660    0.69570    9.92460    2.76370    4.25570    3.97190    3.68620   -9999.25   -9999.25   -9999.25
 11402.00000    0.30200   73.93840   19.40560   -0.01750    0.49200    8.77250    2.85890    4.47580    4.13270    3.71920   -9999.25   -9999.25   -9999.25
 11402.50000    0.42700   73.76400   14.84990    0.07890    0.20090    7.12320    2.83720    5.89020    5.30700    4.73130   -9999.25   -9999.25   -9999.25
 11403.00000    0.17260   66.69890    8.78780    0.10450   -0.09030    5.55130    2.78340    8.56130    7.39370    6.45980   -9999.25   -9999.25   -9999.25
 11403.50000    0.09540   62.87570    8.58450    0.05410   -0.04320    5.16600    2.72950   10.78100    9.42000    9.22890   -9999.25   -9999.25   -9999.25
 11404.00000    0.07620   68.90270    8.57360    0.01540   -0.01790    4.77930    2.67660    9.57120    8.94410    7.90440   -9999.25   -9999.25   -9999.25
 11404.50000    0.10800   78.96890    8.60840    0.00860   -0.00060    4.36450    2.64530    7.23130    6.11560    5.08100   -9999.25   -9999.25   -9999.25
 11405.00000    0.17780   97.85740    8.65600    0.00790    0.03010    3.89420    2.60830    4.81000    4.63650    4.15500   -9999.25   -9999.25   -9999.25
 11405.50000    0.24330  110.07010    8.70360    0.00790    0.05830    3.87020    2.60290    3.89550    3.55640    3.29220   -9999.25   -9999.25   -9999.25
