~Version ---------------------------------------------------
VERS.   2.0 : CWLS log ASCII Standard -VERSION 2.0
WRAP.    NO : One line per depth step
DLM . SPACE : Column Data Section Delimiter
~Well ------------------------------------------------------
STRT .F                 1500.0 : START DEPTH
STOP .F                13292.0 : STOP DEPTH
STEP .F                    0.5 : STEP
NULL .                -9999.25 : NULL VALUE
COMP .                         : COMPANY
WELL .                         : WELL
FLD  .                         : FIELD
LOC  .                         : LOCATION
PROV .                         : PROVINCE
CNTY .                         : COUNTY
STAT .                         : STATE
CTRY .                         : COUNTRY
SRVC .                         : SERVICE COMPANY
DATE .                         : DATE
UWI  .                         : UNIQUE WELL ID
API  .                         : API NUMBER
SLAT .WGS84    5.6112805732106 : SURFACE LATITUDE
SLON .WGS84 2.7222555198844987 : SURFACE LONGITUDE
DATUM.F                    nan : DEPTH DATUM ELEV
~Curve Information -----------------------------------------
DEPT   .F     : 1 MEASURED DEPTH
NPOR_LS.DEC   : NEUTRON POROSITY LIMESTONE
GRD    .GAPI  : GAMMA RAY FROM DENSITY LOG
HCALD  .IN    : HRCC CALIPER CALIBRATED FROM DENSITY LOG
HDRA   .G/C3  : HRDD SPINE AND RIBS DENSITY CORRECTION
DPHZ_LS.DEC   : HGRD STANDARD RESOLUTION DENSITY POROSITY
PEFZ   .B/E   : HRDD STANDARD RESOLUTION FORMATION PHOTOELECTRIC FACTOR
RHOZ   .G/C3  : HRDD STANDARD RESOLUTION FORMATION DENSITY
AE20   .OHMM  : ARRAY INDUCTION RESISTIVITY EVIRONMENTALLY COMPENSATED LOG PROCESSING AE20
AE30   .OHMM  : ARRAY INDUCTION RESISTIVITY EVIRONMENTALLY COMPENSATED LOG PROCESSING AE30
AE90   .OHMM  : ARRAY INDUCTION RESISTIVITY EVIRONMENTALLY COMPENSATED LOG PROCESSING AE90
GRS    .GAPI  : GAMMA RAY FROM SONIC LOG
DTCO   .US/F  : DELTA-T COMPRESSIONAL
DTSM   .US/F  : DELTA-T SHEAR
~Params ----------------------------------------------------
~Other -----------------------------------------------------
~ASCII -----------------------------------------------------
# ...
 11510.00000    0.35560   98.94050    8.67330    0.00490    0.08280    3.33810    2.57210    1.56330    1.53470    1.50360   -9999.25   -9999.25   -9999.25
 11510.50000    0.36430  101.77440    8.67670    0.00410    0.09630    2.99590    2.53380    1.55020    1.52320    1.49400   -9999.25   -9999.25   -9999.25
 11511.00000    0.36350  102.38910    8.67810    0.00420    0.09890    2.95260    2.53260    1.56780    1.53190    1.49860   -9999.25   -9999.25   -9999.25
 11511.50000    0.36460  101.71840    8.67900    0.00470    0.10300    2.95260    2.53370    1.61500    1.58090    1.54650   -9999.25   -9999.25   -9999.25
 11512.00000    0.36850  100.86090    8.67990    0.00520    0.10530    2.98560    2.53680    1.66450    1.63140    1.59590   -9999.25   -9999.25   -9999.25
 11512.50000    0.37080  100.00340    8.68080    0.00570    0.10150    3.03610    2.55860    1.72020    1.68600    1.64890   -9999.25   -9999.25   -9999.25
 11513.00000    0.36010   99.02780    8.68160    0.00620    0.09080    3.06070    2.57010    1.74760    1.71720    1.68420   -9999.25   -9999.25   -9999.25
 11513.50000    0.35290   98.25100    8.68250    0.00640    0.08300    3.05960    2.56490    1.70960    1.66070    1.60840   -9999.25   -9999.25   -9999.25
 11514.00000    0.35640   98.42010    8.68340    0.00560    0.08410    3.02600    2.55720    1.59570    1.55850    1.52820   -9999.25   -9999.25   -9999.25
 11514.50000    0.35580   98.74020    8.68430    0.00450    0.08920    2.99220    2.55280    1.57230    1.54640    1.51830   -9999.25   -9999.25   -9999.25
 11515.00000    0.34680   99.06030    8.68510    0.00450    0.09340    2.97150    2.55340    1.61970    1.58200    1.54220   -9999.25   -9999.25   -9999.25
 11515.50000    0.34460   99.46120    8.68600    0.00450    0.09220    2.97120    2.55560    1.70310    1.66040    1.61760   -9999.25   -9999.25   -9999.25
 11516.00000    0.34250   99.79250    8.68690    0.00450    0.09090    2.99790    2.55770    1.90770    1.76120    1.71000   -9999.25   -9999.25   -9999.25
 11516.50000    0.33910   99.12810    8.68780    0.00450    0.08970    3.05780    2.55850    2.32460    1.82570    1.74750   -9999.25   -9999.25   -9999.25
 11517.00000    0.33520   96.78470    8.68860    0.00450    0.08950    3.11490    2.55210    1.96050    1.74560    1.70060   -9999.25   -9999.25   -9999.25
 11517.50000    0.33760   95.59910    8.68950    0.00450    0.09120    3.16480    2.54530    1.71830    1.68480    1.63680   -9999.25   -9999.25   -9999.25
 11518.00000    0.34250   96.77910    8.69040    0.00460    0.09550    3.20270    2.53960    1.63100    1.58020    1.52300   -9999.25   -9999.25   -9999.25
 11518.50000    0.34920   98.86970    8.69130    0.00470    0.10050    3.22600    2.53690    1.54220    1.51690    1.48940   -9999.25   -9999.25   -9999.25
 11519.00000    0.36870   99.80540    8.69210    0.00480    0.10170    3.14300    2.53850    1.53660    1.51140    1.48400   -9999.25   -9999.25   -9999.25
 11519.50000    0.38420   98.72830    8.69220    0.00490    0.10190    3.06000    2.54280    1.53310    1.50800    1.48080   -9999.25   -9999.25   -9999.25
 11520.00000    0.36660   95.32520    8.69100    0.00500    0.09890    2.97700    2.54710    1.53150    1.50640    1.47920   -9999.25   -9999.25   -9999.25
 11520.50000    0.34100   94.09880    8.68980    0.00510    0.09630    2.88740    2.55040    1.52990    1.50480    1.47770   -9999.25   -9999.25   -9999.25
 11521.00000    0.32140   96.60740    8.68860    0.00510    0.09600    2.84650    2.55110    1.52850    1.50330    1.47610   -9999.25   -9999.25   -9999.25
 11521.50000    0.32090   99.57060    8.68740    0.00510    0.09400    2.82410    2.54790    1.54640    1.51990    1.49120   -9999.25   -9999.25   -9999.25
 11522.00000    0.32310  102.13200    8.68620    0.00500    0.09740    2.80070    2.54510    1.56140    1.53570    1.50790   -9999.25   -9999.25   -9999.25
 11522.50000    0.33440  101.48890    8.68500    0.00500    0.09920    2.77730    2.54240    1.56230    1.53680    1.50900   -9999.25   -9999.25   -9999.25
 11523.00000    0.34580   99.33130    8.68380    0.00500    0.09860    2.79970    2.53990    1.56550    1.53980    1.51190   -9999.25   -9999.25   -9999.25
 11523.50000    0.36210   98.25540    8.68260    0.00490    0.09740    2.82970    2.53760    1.57960    1.55240    1.52290   -9999.25   -9999.25   -9999.25
 11524.00000    0.36360   98.19100    8.68140    0.00490    0.09740    2.88960    2.54350    1.61480    1.58360    1.55000   -9999.25   -9999.25   -9999.25
 11524.50000    0.35320   98.30000    8.68020    0.00490    0.09750    2.98870    2.56090    1.65140    1.62150    1.58920   -9999.25   -9999.25   -9999.25
 11525.00000    0.34070   98.15970    8.67900    0.00480    0.09020    3.12720    2.58110    1.70120    1.66430    1.62450   -9999.25   -9999.25   -9999.25
 11525.50000    0.33500   94.79340    8.67780    0.00480    0.07330    3.24290    2.59500    1.77100    1.73250    1.69100   -9999.25   -9999.25   -9999.25
 11526.00000    0.33180   92.38680    8.67660    0.00480    0.06790    3.27100    2.57520    1.77160    1.74220    1.71010   -9999.25   -9999.25   -9999.25
 11526.50000    0.32900   93.03840    8.67540    0.00470    0.07170    3.24310    2.55320    1.75370    1.70550    1.63420   -9999.25   -9999.25   -9999.25
 11527.00000    0.32500   93.82380    8.67410    0.00470    0.08860    3.16810    2.54800    1.91830    1.86790    1.77680   -9999.25   -9999.25   -9999.25
 11527.50000    0.29080   94.02480    8.67230    0.00470    0.09670    3.09300    2.54630    1.96770    1.93520    1.89450   -9999.25   -9999.25   -9999.25
 11528.00000    0.29510   94.94820    8.67050    0.00460    0.09660    3.05630    2.54920    1.97650    1.92310    1.80940   -9999.25   -9999.25   -9999.25
 11528.50000    0.30610   97.64160    8.66860    0.00460    0.09580    3.02430    2.55240    1.69130    1.63770    1.60570   -9999.25   -9999.25   -9999.25
 11529.00000    0.31330  101.10290    8.66680    0.00450    0.09480    2.97490    2.55370    1.63250    1.59540    1.55690   -9999.25   -9999.25   -9999.25
 11529.50000    0.31470  104.34440    8.66500    0.00380    0.09340    2.93720    2.55140    1.68560    1.65800    1.62610   -9999.25   -9999.25   -9999.25
 11530.00000    0.31600  102.09190    8.66320    0.00300    0.09320    2.94280    2.54430    1.68550    1.65790    1.62800   -9999.25   -9999.25   -9999.25
 11530.50000    0.31780   99.42570    8.66130    0.00230    0.09850    2.95740    2.53670    1.68530    1.65770    1.62760   -9999.25   -9999.25   -9999.25
 11531.00000    0.32270   97.34510    8.65950    0.00150    0.10320    2.97320    2.53180    1.67240    1.64350    1.61170   -9999.25   -9999.25   -9999.25
 11531.50000    0.33290   97.35670    8.65770    0.00070    0.10470    2.98720    2.53300    1.64300    1.61430    1.57060   -9999.25   -9999.25   -9999.25
 11532.00000    0.33620  100.16560    8.66760    0.00060    0.10190    2.99960    2.53940    1.58010    1.55190    1.52360   -9999.25   -9999.25   -9999.25
 11532.50000    0.33900  102.33050    8.70320    0.00130    0.09930    2.95540    2.54330    1.57290    1.54710    1.51910   -9999.25   -9999.25   -9999.25
 11533.00000    0.35560  103.17930    8.73790    0.00190    0.09650    2.89460    2.54890    1.64970    1.62260    1.57260   -9999.25   -9999.25   -9999.25
 11533.50000    0.36000  101.82420    8.76210    0.00250    0.09310    2.89450    2.55410    1.65670    1.62960    1.60010   -9999.25   -9999.25   -9999.25
 11534.00000    0.35530   99.09870    8.74610    0.00320    0.09360    2.94160    2.55130    1.65680    1.62970    1.60030   -9999.25   -9999.25   -9999.25
 11534.50000    0.34460   99.06830    8.69450    0.00380    0.09630    3.00200    2.54160    1.74740    1.69400    1.63680   -9999.25   -9999.25   -9999.25
 11535.00000    0.33100   98.91400    8.68640    0.00390    0.10020    3.05900    2.54780    1.88550    1.82380    1.76240   -9999.25   -9999.25   -9999.25
 11535.50000    0.33090   96.68860    8.67840    0.00430    0.09370    3.08150    2.56070    2.06340    1.99050    1.91270   -9999.25   -9999.25   -9999.25
