~Version ---------------------------------------------------
VERS.   2.0 : CWLS log ASCII Standard -VERSION 2.0
WRAP.    NO : One line per depth step
DLM . SPACE : Column Data Section Delimiter
~Well ------------------------------------------------------
STRT .F                 1500.0 : START DEPTH
STOP .F                13292.0 : STOP DEPTH
STEP .F                    0.5 : STEP
NULL .                -9999.25 : NULL VALUE
COMP .                         : COMPANY
WELL .                         : WELL
FLD  .                         : FIELD
LOC  .                         : LOCATION
PROV .                         : PROVINCE
CNTY .                         : COUNTY
STAT .                         : STATE
CTRY .                         : COUNTRY
SRVC .                         : SERVICE COMPANY
DATE .                         : DATE
UWI  .                         : UNIQUE WELL ID
API  .                         : API NUMBER
SLAT .WGS84    5.6112805732106 : SURFACE LATITUDE
SLON .WGS84 2.7222555198844987 : SURFACE LONGITUDE
DATUM.F                    nan : DEPTH DATUM ELEV
~Curve Information -----------------------------------------
DEPT   .F     : 1 MEASURED DEPTH
NPOR_LS.DEC   : NEUTRON POROSITY LIMESTONE
GRD    .GAPI  : GAMMA RAY FROM DENSITY LOG
HCALD  .IN    : HRCC CALIPER CALIBRATED FROM DENSITY LOG
HDRA   .G/C3  : HRDD SPINE AND RIBS DENSITY CORRECTION
DPHZ_LS.DEC   : HGRD STANDARD RESOLUTION DENSITY POROSITY
PEFZ   .B/E   : HRDD STANDARD RESOLUTION FORMATION PHOTOELECTRIC FACTOR
RHOZ   .G/C3  : HRDD STANDARD RESOLUTION FORMATION DENSITY
AE20   .OHMM  : ARRAY INDUCTION RESISTIVITY EVIRONMENTALLY COMPENSATED LOG PROCESSING AE20
AE30   .OHMM  : ARRAY INDUCTION RESISTIVITY EVIRONMENTALLY COMPENSATED LOG PROCESSING AE30
AE90   .OHMM  : ARRAY INDUCTION RESISTIVITY EVIRONMENTALLY COMPENSATED LOG PROCESSING AE90
GRS    .GAPI  : GAMMA RAY FROM SONIC LOG
DTCO   .US/F  : DELTA-T COMPRESSIONAL
DTSM   .US/F  : DELTA-T SHEAR
~Params ----------------------------------------------------
~Other -----------------------------------------------------
~ASCII -----------------------------------------------------
# ...
 12004.00000    0.05330   49.67990    8.72160    0.00660    0.00770    4.04720    2.69830   14.97260   14.33420   12.80140   -9999.25   -9999.25   -9999.25
 12004.50000    0.06060   45.81130    8.72160    0.00600    0.00760    4.08460    2.69990   11.17250    8.72320    8.41970   -9999.25   -9999.25   -9999.25
 12005.00000    0.05250   40.61250    8.72160    0.00530    0.00470    4.14960    2.71360   19.59190   17.61970   14.01720   -9999.25   -9999.25   -9999.25
 12005.50000    0.02500   38.07120    8.72050    0.00500   -0.00530    4.23990    2.72590   26.74000   23.27340   19.03370   -9999.25   -9999.25   -9999.25
 12006.00000    0.02280   38.40590    8.71890    0.00500   -0.00940    4.26480    2.72580   30.26260   20.10680   17.59320   -9999.25   -9999.25   -9999.25
 12006.50000    0.03440   39.61120    8.71720    0.00530   -0.00630    4.26640    2.71800   17.35820   16.04080   14.98390   -9999.25   -9999.25   -9999.25
 12007.00000    0.04280   39.97790    8.71560    0.00600    0.00120    4.26640    2.70570   17.89910   16.40980   15.66250   -9999.25   -9999.25   -9999.25
 12007.50000    0.04140   40.24570    8.71390    0.00670    0.00500    4.26650    2.70170   21.92630   20.58880   18.82840   -9999.25   -9999.25   -9999.25
 12008.00000    0.04020   41.46450    8.71230    0.00750    0.00780    4.24070    2.69630   21.58970   18.19680   15.78320   -9999.25   -9999.25   -9999.25
 12008.50000    0.04440   43.89020    8.71070    0.00760    0.01040    4.19840    2.69100   14.37010   13.06060   12.67240   -9999.25   -9999.25   -9999.25
 12009.00000    0.05670   46.14320    8.70900    0.00760    0.01190    4.15620    2.68790   13.10300   12.86250   12.52380   -9999.25   -9999.25   -9999.25
 12009.50000    0.05950   46.32780    8.70740    0.00780    0.01150    4.11390    2.68760   13.07790   12.85890   12.62120   -9999.25   -9999.25   -9999.25
 12010.00000    0.04600   44.01180    8.70570    0.00830   -0.00010    4.07160    2.72370   20.20260   18.24590   12.95860   -9999.25   -9999.25   -9999.25
 12010.50000    0.03990   41.36830    8.70410    0.00900   -0.01070    4.05880    2.74320   23.90830   21.58930   19.90220   -9999.25   -9999.25   -9999.25
 12011.00000    0.04250   39.11450    8.70250    0.00960   -0.01760    4.06440    2.75730   20.86860   18.69110   16.62350   -9999.25   -9999.25   -9999.25
 12011.50000    0.04070   36.87240    8.70080    0.00970   -0.02610    4.07000    2.76100   21.94570   16.57200   14.52620   -9999.25   -9999.25   -9999.25
 12012.00000    0.03290   33.97410    8.69920    0.01010   -0.02860    4.07270    2.76150   33.31650   29.32810   25.30220   -9999.25   -9999.25   -9999.25
 12012.50000    0.02180   34.83830    8.69750    0.00950   -0.02770    4.07420    2.76030   48.11160   34.74680   30.47130   -9999.25   -9999.25   -9999.25
 12013.00000    0.02740   38.01430    8.69590    0.00760   -0.01420    4.07570    2.73740   34.25530   23.25220   18.68490   -9999.25   -9999.25   -9999.25
 12013.50000    0.04690   41.57510    8.69420    0.00690   -0.00020    4.07720    2.71130   16.31390   13.33520   10.67530   -9999.25   -9999.25   -9999.25
 12014.00000    0.08370   45.11880    8.69260    0.00660    0.00010    4.07870    2.71410   12.00490    9.25180    6.92030   -9999.25   -9999.25   -9999.25
 12014.50000    0.08860   46.85860    8.69100    0.00690   -0.00630    4.13160    2.73540   20.15080   16.05620   12.48690   -9999.25   -9999.25   -9999.25
 12015.00000    0.05730   44.89860    8.68930    0.00820   -0.01610    4.21820    2.74290   40.34080   30.27200   23.54260   -9999.25   -9999.25   -9999.25
 12015.50000    0.01700   39.87530    8.68770    0.00840   -0.02110    4.36520    2.74650   62.30200   48.58070   41.31190   -9999.25   -9999.25   -9999.25
 12016.00000    0.01490   37.60520    8.68520    0.00890   -0.01780    4.40530    2.73950   47.24750   42.12770   37.18190   -9999.25   -9999.25   -9999.25
 12016.50000    0.03170   37.98220    8.67700    0.00950   -0.01080    4.40420    2.72290   42.67930   36.66690   29.21400   -9999.25   -9999.25   -9999.25
 12017.00000    0.03550   39.18910    8.66880    0.01010   -0.00370    4.37750    2.71170   38.10570   33.69260   30.90780   -9999.25   -9999.25   -9999.25
 12017.50000    0.03670   41.37940    8.66060    0.01060    0.00140    4.29560    2.70490   33.51180   30.49780   26.41940   -9999.25   -9999.25   -9999.25
 12018.00000    0.03770   43.77360    8.65240    0.01120    0.00600    4.21240    2.69420   24.01860   20.79980   18.26900   -9999.25   -9999.25   -9999.25
 12018.50000    0.05940   46.26840    8.64420    0.01120    0.01290    4.12920    2.67900   17.07630   15.37840   13.70230   -9999.25   -9999.25   -9999.25
 12019.00000    0.07620   47.75330    8.63600    0.01030    0.02060    4.04600    2.67140   15.32880   13.13560   11.71200   -9999.25   -9999.25   -9999.25
 12019.50000    0.07470   47.57340    8.62780    0.00950    0.02010    4.01840    2.67540   17.73380   15.85860   15.38350   -9999.25   -9999.25   -9999.25
 12020.00000    0.07170   45.11510    8.61960    0.00860    0.01910    4.00390    2.67730   17.76270   15.86930   15.50410   -9999.25   -9999.25   -9999.25
 12020.50000    0.06960   44.06150    8.61570    0.00780    0.02000    3.99560    2.67210   16.43890   15.29260   14.94160   -9999.25   -9999.25   -9999.25
 12021.00000    0.06760   43.86800    8.61570    0.00670    0.02420    4.02840    2.66130   15.69760   14.69180   14.30750   -9999.25   -9999.25   -9999.25
 12021.50000    0.06550   44.66560    8.61570    0.00590    0.02900    4.06120    2.65920   17.84950   16.24060   15.90750   -9999.25   -9999.25   -9999.25
 12022.00000    0.06570   45.66040    8.61570    0.00520    0.02990    4.21390    2.66070   16.64450   16.24210   15.81710   -9999.25   -9999.25   -9999.25
 12022.50000    0.06880   46.65530    8.61570    0.00450    0.02540    4.33700    2.69370   15.83610   15.46020   15.02230   -9999.25   -9999.25   -9999.25
 12023.00000    0.06870   47.25620    8.61570    0.00380    0.00910    4.48010    2.70600   15.74560   14.65010   14.31050   -9999.25   -9999.25   -9999.25
 12023.50000    0.06090   46.42900    8.61570    0.00310    0.00270    4.47850    2.70690   21.08710   18.98580   16.90620   -9999.25   -9999.25   -9999.25
 12024.00000    0.05160   44.36400    8.61570    0.00330    0.00170    4.40910    2.70120   28.50440   25.55680   22.75890   -9999.25   -9999.25   -9999.25
 12024.50000    0.04540   42.29900    8.61570    0.00350    0.00530    4.38110    2.69340   39.19680   31.82800   28.41450   -9999.25   -9999.25   -9999.25
 12025.00000    0.04180   42.15660    8.61560    0.00370    0.01250    4.29640    2.68800   31.38080   28.01080   25.22130   -9999.25   -9999.25   -9999.25
 12025.50000    0.04480   41.69780    8.61560    0.00390    0.01370    4.27900    2.68930   25.05390   23.08240   22.05510   -9999.25   -9999.25   -9999.25
 12026.00000    0.04490   40.42310    8.61560    0.00410    0.01090    4.26170    2.69110   31.51350   29.01890   26.02330   -9999.25   -9999.25   -9999.25
 12026.50000    0.04570   39.15840    8.61560    0.00440    0.01100    4.24650    2.69250   37.14920   35.34610   33.06320   -9999.25   -9999.25   -9999.25
 12027.00000    0.04660   39.15840    8.61560    0.00520    0.01240    4.24320    2.69370   41.39040   40.17690   38.22970   -9999.25   -9999.25   -9999.25
 12027.50000    0.04740   39.61830    8.61560    0.00600    0.01160    4.21800    2.69710   48.03880   42.27780   37.86720   -9999.25   -9999.25   -9999.25
 12028.00000    0.04780   41.48720    8.61560    0.00670    0.00640    4.19000    2.69860   38.94500   25.99590   19.49780   -9999.25   -9999.25   -9999.25
 12028.50000    0.04830   43.14060    8.61560    0.00750    0.00640    4.14630    2.69360   26.37490   24.45980   23.32280   -9999.25   -9999.25   -9999.25
 12029.00000    0.05000   44.44920    8.61560    0.00720    0.01000    4.13390    2.66850   27.63330   24.40790   22.35990   -9999.25   -9999.25   -9999.25
 12029.50000    0.05570   46.13430    8.61560    0.00660    0.02250    4.11070    2.66550   20.05350   15.52580   14.24610   -9999.25   -9999.25   -9999.25
