~Version ---------------------------------------------------
VERS.   2.0 : CWLS log ASCII Standard -VERSION 2.0
WRAP.    NO : One line per depth step
DLM . SPACE : Column Data Section Delimiter
~Well ------------------------------------------------------
STRT .F                 1500.0 : START DEPTH
STOP .F                13292.0 : STOP DEPTH
STEP .F                    0.5 : STEP
NULL .                -9999.25 : NULL VALUE
COMP .                         : COMPANY
WELL .                         : WELL
FLD  .                         : FIELD
LOC  .                         : LOCATION
PROV .                         : PROVINCE
CNTY .                         : COUNTY
STAT .                         : STATE
CTRY .                         : COUNTRY
SRVC .                         : SERVICE COMPANY
DATE .                         : DATE
UWI  .                         : UNIQUE WELL ID
API  .                         : API NUMBER
SLAT .WGS84    5.6112805732106 : SURFACE LATITUDE
SLON .WGS84 2.7222555198844987 : SURFACE LONGITUDE
DATUM.F                    nan : DEPTH DATUM ELEV
~Curve Information -----------------------------------------
DEPT   .F     : 1 MEASURED DEPTH
NPOR_LS.DEC   : NEUTRON POROSITY LIMESTONE
GRD    .GAPI  : GAMMA RAY FROM DENSITY LOG
HCALD  .IN    : HRCC CALIPER CALIBRATED FROM DENSITY LOG
HDRA   .G/C3  : HRDD SPINE AND RIBS DENSITY CORRECTION
DPHZ_LS.DEC   : HGRD STANDARD RESOLUTION DENSITY POROSITY
PEFZ   .B/E   : HRDD STANDARD RESOLUTION FORMATION PHOTOELECTRIC FACTOR
RHOZ   .G/C3  : HRDD STANDARD RESOLUTION FORMATION DENSITY
AE20   .OHMM  : ARRAY INDUCTION RESISTIVITY EVIRONMENTALLY COMPENSATED LOG PROCESSING AE20
AE30   .OHMM  : ARRAY INDUCTION RESISTIVITY EVIRONMENTALLY COMPENSATED LOG PROCESSING AE30
AE90   .OHMM  : ARRAY INDUCTION RESISTIVITY EVIRONMENTALLY COMPENSATED LOG PROCESSING AE90
GRS    .GAPI  : GAMMA RAY FROM SONIC LOG
DTCO   .US/F  : DELTA-T COMPRESSIONAL
DTSM   .US/F  : DELTA-T SHEAR
~Params ----------------------------------------------------
~Other -----------------------------------------------------
~ASCII -----------------------------------------------------
# ...
 12264.00000    0.12480   56.23340    8.68090    0.00900    0.02530    3.50770    2.66390    7.81930    7.17800    7.03820   -9999.25   -9999.25   -9999.25
 12264.50000    0.12270   57.39870    8.68350    0.00600    0.02690    3.55540    2.66060    7.54880    7.13450    7.00490   -9999.25   -9999.25   -9999.25
 12265.00000    0.12140   62.38580    8.68620    0.00510    0.03140    3.59640    2.65800    7.31250    7.05460    6.92040   -9999.25   -9999.25   -9999.25
 12265.50000    0.12410   65.61290    8.68880    0.00480    0.03300    3.59780    2.65550    7.15090    6.78260    6.58830   -9999.25   -9999.25   -9999.25
 12266.00000    0.12530   65.46030    8.69150    0.00460    0.03310    3.59210    2.65320    6.96100    6.40180    6.21830   -9999.25   -9999.25   -9999.25
 12266.50000    0.12470   64.11960    8.69410    0.00400    0.03460    3.55790    2.65000    6.73450    6.22040    6.10330   -9999.25   -9999.25   -9999.25
 12267.00000    0.12380   63.29810    8.69680    0.00340    0.03530    3.55800    2.64500    6.46440    6.16720    6.05440   -9999.25   -9999.25   -9999.25
 12267.50000    0.12800   63.02980    8.69940    0.00280    0.03860    3.55820    2.64100    6.30270    6.12260    6.01070   -9999.25   -9999.25   -9999.25
 12268.00000    0.12860   63.10820    8.70210    0.00250    0.04160    3.55830    2.63790    6.80390    6.14010    6.02480   -9999.25   -9999.25   -9999.25
 12268.50000    0.12280   62.96970    8.70420    0.00250    0.04230    3.55840    2.63690    7.30500    6.22180    6.10490   -9999.25   -9999.25   -9999.25
 12269.00000    0.12230   62.34690    8.70310    0.00250    0.04270    3.55860    2.63690    6.73470    6.24820    6.13530   -9999.25   -9999.25   -9999.25
 12269.50000    0.12350   62.04190    8.70210    0.00260    0.04240    3.55870    2.64080    6.43940    6.23110    6.11710   -9999.25   -9999.25   -9999.25
 12270.00000    0.13300   62.86960    8.70110    0.00350    0.03980    3.52760    2.64600    6.38110    6.18410    6.07100   -9999.25   -9999.25   -9999.25
 12270.50000    0.13590   64.22240    8.70010    0.00450    0.03640    3.49950    2.65170    6.46590    6.13840    6.02620   -9999.25   -9999.25   -9999.25
 12271.00000    0.13420   63.92410    8.69910    0.00540    0.03430    3.52620    2.65340    6.63090    6.09360    5.98220   -9999.25   -9999.25   -9999.25
 12271.50000    0.12710   63.02010    8.69810    0.00590    0.03580    3.56990    2.65510    6.38080    6.08040    5.97050   -9999.25   -9999.25   -9999.25
 12272.00000    0.12030   61.54750    8.69710    0.00610    0.03350    3.60750    2.65840    6.74360    6.14860    6.01940   -9999.25   -9999.25   -9999.25
 12272.50000    0.11640   59.83100    8.69610    0.00630    0.02960    3.60480    2.66170    8.14050    7.62020    7.00010   -9999.25   -9999.25   -9999.25
 12273.00000    0.11310   58.62630    8.69510    0.00640    0.03030    3.60050    2.65740    8.14070    7.68890    7.54990   -9999.25   -9999.25   -9999.25
 12273.50000    0.11120   58.59570    8.69410    0.00640    0.03570    3.58530    2.64680    8.25020    7.83530    7.60020   -9999.25   -9999.25   -9999.25
 12274.00000    0.11020   58.59380    8.69310    0.00640    0.04100    3.56660    2.64000    8.89350    8.10030    7.92360   -9999.25   -9999.25   -9999.25
 12274.50000    0.12230   60.27630    8.69200    0.00580    0.03730    3.54780    2.65290    7.68760    7.29720    6.88760   -9999.25   -9999.25   -9999.25
 12275.00000    0.12550   61.49200    8.69100    0.00500    0.02970    3.52690    2.67210    8.32950    8.03380    7.51690   -9999.25   -9999.25   -9999.25
 12275.50000    0.12060   62.87140    8.69000    0.00430    0.02160    3.42320    2.67600    8.77160    8.35080    8.18520   -9999.25   -9999.25   -9999.25
 12276.00000    0.12180   64.96140    8.68900    0.00400    0.02110    3.40710    2.66920    8.91360    8.22200    7.96800   -9999.25   -9999.25   -9999.25
 12276.50000    0.12380   65.43250    8.68800    0.00370    0.02500    3.44580    2.66190    8.38370    7.64050    7.37660   -9999.25   -9999.25   -9999.25
 12277.00000    0.12860   65.80400    8.68700    0.00370    0.03150    3.49060    2.65070    7.66050    7.07350    6.82920   -9999.25   -9999.25   -9999.25
 12277.50000    0.13520   67.01350    8.67890    0.00370    0.03780    3.55640    2.64610    6.92610    6.54860    6.32590   -9999.25   -9999.25   -9999.25
 12278.00000    0.13680   67.25700    8.66060    0.00370    0.03970    3.55950    2.64150    6.37600    6.08100    5.88850   -9999.25   -9999.25   -9999.25
 12278.50000    0.13390   66.36870    8.64220    0.00370    0.03960    3.56270    2.64150    6.21370    5.91840    5.81140   -9999.25   -9999.25   -9999.25
 12279.00000    0.12940   64.16760    8.63330    0.00370    0.03660    3.56600    2.64990    6.66280    6.28980    6.09000   -9999.25   -9999.25   -9999.25
 12279.50000    0.12660   60.11420    8.63390    0.00370    0.03460    3.56920    2.65800    7.03910    6.42940    6.31320   -9999.25   -9999.25   -9999.25
 12280.00000    0.12750   57.63840    8.64200    0.00370    0.03400    3.56900    2.65380    6.70750    6.30290    6.16920   -9999.25   -9999.25   -9999.25
 12280.50000    0.12900   56.15840    8.65010    0.00370    0.03570    3.58480    2.64820    6.29590    6.13730    6.01380   -9999.25   -9999.25   -9999.25
 12281.00000    0.12860   57.48180    8.65820    0.00370    0.03760    3.65530    2.64500    6.41690    6.07660    5.96680   -9999.25   -9999.25   -9999.25
 12281.50000    0.12090   60.07990    8.66630    0.00370    0.03890    3.68490    2.64670    7.96650    7.29980    6.68570   -9999.25   -9999.25   -9999.25
 12282.00000    0.11060   63.67720    8.67440    0.00370    0.03720    3.68920    2.65170    9.25570    8.17620    8.02840   -9999.25   -9999.25   -9999.25
 12282.50000    0.12090   65.44760    8.68250    0.00370    0.03130    3.58620    2.66310    7.58810    6.88190    6.24360   -9999.25   -9999.25   -9999.25
 12283.00000    0.13560   66.87980    8.69060    0.00370    0.02700    3.45930    2.66200    6.22230    6.05480    5.87560   -9999.25   -9999.25   -9999.25
 12283.50000    0.13200   66.27880    8.69870    0.00370    0.02980    3.44050    2.65730    5.89860    5.79080    5.67440   -9999.25   -9999.25   -9999.25
 12284.00000    0.12950   66.12990    8.70400    0.00370    0.03330    3.43570    2.65240    6.00190    5.75550    5.57360   -9999.25   -9999.25   -9999.25
 12284.50000    0.12860   66.82890    8.70400    0.00370    0.03410    3.48500    2.65530    6.73300    6.42280    6.08280   -9999.25   -9999.25   -9999.25
 12285.00000    0.12520   66.44130    8.70400    0.00370    0.03090    3.52440    2.65930    7.34730    7.22710    6.90820   -9999.25   -9999.25   -9999.25
 12285.50000    0.11600   65.19190    8.70400    0.00370    0.02920    3.58530    2.66360    7.72640    7.28340    7.12230   -9999.25   -9999.25   -9999.25
 12286.00000    0.10690   62.79080    8.70400    0.00370    0.02280    3.59970    2.68130    9.19940    8.49460    7.96930   -9999.25   -9999.25   -9999.25
 12286.50000    0.10570   61.34740    8.70400    0.00380    0.01310    3.58860    2.70660    9.16740    8.53230    8.11630   -9999.25   -9999.25   -9999.25
 12287.00000    0.10700   61.66870    8.70400    0.00380    0.00210    3.50160    2.70900    8.20700    8.15290    7.89140   -9999.25   -9999.25   -9999.25
 12287.50000    0.10990   62.00450    8.70400    0.00380    0.00060    3.48320    2.70920    8.00650    7.85870    7.69840   -9999.25   -9999.25   -9999.25
 12288.00000    0.11210   61.12270    8.70400    0.00380   -0.00000    3.50520    2.70950    7.75490    7.57700    7.38520   -9999.25   -9999.25   -9999.25
 12288.50000    0.11560   58.97400    8.70400    0.00380   -0.00040    3.53240    2.71080    7.40420    7.23410    7.05080   -9999.25   -9999.25   -9999.25
 12289.00000    0.11720   57.88880    8.70400    0.00380   -0.00170    3.55980    2.71510    7.89170    7.56240    7.21510   -9999.25   -9999.25   -9999.25
 12289.50000    0.11600   57.41110    8.70400    0.00380   -0.00380    3.65210    2.72260    8.78510    8.45210    8.06530   -9999.25   -9999.25   -9999.25
