~Version ---------------------------------------------------
VERS.   2.0 : CWLS log ASCII Standard -VERSION 2.0
WRAP.    NO : One line per depth step
DLM . SPACE : Column Data Section Delimiter
~Well ------------------------------------------------------
STRT .F                  148.0 : START DEPTH
STOP .F                 3456.0 : STOP DEPTH
STEP .F                    0.5 : STEP
NULL .                -9999.25 : NULL VALUE
COMP .                         : COMPANY
WELL .                         : WELL
FLD  .                         : FIELD
LOC  .                         : LOCATION
PROV .                         : PROVINCE
CNTY .                         : COUNTY
STAT .                         : STATE
CTRY .                         : COUNTRY
SRVC .                         : SERVICE COMPANY
DATE .                         : DATE
UWI  .                         : UNIQUE WELL ID
API  .                         : API NUMBER
SLAT .WGS84 1.7417209862131067 : SURFACE LATITUDE
SLON .WGS84  7.225960631755015 : SURFACE LONGITUDE
DATUM.F                2649.73 : DEPTH DATUM ELEV
~Curve Information -----------------------------------------
DEPT   .F     : 1 MEASURED DEPTH
RXOZ   .OHMM  : INVADED FORMATION RESISTIVITY FILTERED AT 18 INCHES
HCALR  .IN    : HRCC CALIPER CALIBRATED FROM RESISTIVITY LOG
HLLD   .OHMM  : HALS LATEROLOG DEEP RESISTIVITY
HLLS   .OHMM  : HALS LATEROLOG SHALLOW RESISTIVITY
GRD    .GAPI  : GAMMA RAY FROM DENSITY LOG
TNPH_LS.DEC   : THERMAL NEUTRON POROSITY [LIMESTONE]
RHOZ   .G/C3  : HRDD STANDARD RESOLUTION FORMATION DENSITY
HDRA   .G/C3  : HRDD SPINE AND RIBS DENSITY CORRECTION
PEFZ   .B/E   : HRDD STANDARD RESOLUTION FORMATION PHOTOELECTRIC FACTOR
DPHZ_LS.DEC   : HGRD STANDARD RESOLUTION DENSITY POROSITY
DTCO   .US/F  : DELTA-T COMPRESSIONAL
DTRP   .US/F  : DELTA-T COMPRESSIONAL, RECEIVER ARRAY - MONOPOLE P & S
DTRS   .US/F  : DELTA-T SHEAR, RECEIVER ARRAY - MONOPOLE P & S
DTSM   .US/F  : DELTA-T SHEAR
~Params ----------------------------------------------------
~Other -----------------------------------------------------
~ASCII -----------------------------------------------------
# ...
 3038.50000  155.49020    8.25430  494.33540  309.90920   21.97710    0.06830    2.77160    0.01040    3.51660   -0.03980   50.57130   51.05540   92.07020   91.35720
 3039.00000  203.38630    8.25300  488.96430  311.39960   19.56840    0.06790    2.78620    0.00950    3.48310   -0.04880   50.22520   50.87280   91.19740   90.40290
 3039.50000  268.19300    8.25100  443.33610  269.15080   18.54960    0.06900    2.79710    0.01050    3.45210   -0.05340   49.94500   50.69020   90.32460   89.28830
 3040.00000  207.56720    8.24920  386.49970  232.63430   20.11510    0.07110    2.79610    0.01150    3.42100   -0.05120   49.87500   50.50760   90.29180   89.30490
 3040.50000  148.95600    8.24800  386.48630  216.30240   21.84010    0.07160    2.78610    0.01250    3.40400   -0.04540   49.90140   50.41020   90.29240   89.33050
 3041.00000  148.46860    8.24690  438.71580  223.12340   24.06790    0.06390    2.78140    0.01360    3.36240   -0.04240   49.92360   50.40860   90.29290   89.45660
 3041.50000  255.76270    8.24580  852.64360  499.69380   25.58300    0.05480    2.78750    0.01580    3.33510   -0.05000   49.93590   50.40710   90.29350   89.77790
 3042.00000  794.20240    8.24470 1361.88590  857.33030   27.75120    0.04700    2.81190    0.02030    3.36130   -0.06070   49.94200   50.40560   90.29400   89.35520
 3042.50000  700.66780    8.24360 1219.34020  704.97750   30.79270    0.04610    2.82890    0.02460    3.41720   -0.07410   49.95110   50.40410   90.36770   89.16950
 3043.00000  328.80650    8.24250  806.74690  517.98490   35.16400    0.05140    2.82940    0.02870    3.48920   -0.07160   50.02760   50.40250   90.48490   89.08100
 3043.50000  201.88140    8.24140  533.76430  380.59150   40.94550    0.05940    2.80320    0.03150    3.48750   -0.05630   49.93150   50.40100   90.60210   89.29000
 3044.00000  164.26360    8.24030  500.71230  319.15730   44.31040    0.06730    2.77530    0.03010    3.49190   -0.04060   49.66290   50.39950   90.71940   89.65020
 3044.50000  218.52620    8.23930  499.83290  313.49240   43.76200    0.07480    2.77070    0.02820    3.53040   -0.03770   49.29660   50.36430   90.83660   90.09920
 3045.00000  229.18210    8.23820  545.41070  395.82820   42.97890    0.07290    2.77720    0.02400    3.57490   -0.04170   49.18110   50.03700   90.95380   89.87870
 3045.50000  462.51960    8.23710  953.92370  763.69560   42.50750    0.06850    2.79370    0.02090    3.60710   -0.05200   49.04960   49.70970   90.41430   89.16920
 3046.00000  802.73160    8.23600 1518.22340  808.86230   43.27910    0.06620    2.80280    0.02440    3.63930   -0.05760   48.91770   49.40130   89.80690   88.87000
 3046.50000  897.20380    8.23490 1443.32290  718.96310   45.29820    0.06550    2.80690    0.03450    3.66180   -0.06020   48.79120   49.31030   89.32650   88.84840
 3047.00000  699.14240    8.23380 1184.19930  628.59000   45.89480    0.06690    2.80270    0.04470    3.60290   -0.05760   48.87190   49.31450   89.33760   89.06830
 3047.50000  584.06400    8.23270  968.74430  588.82780   44.44430    0.06740    2.79580    0.04490    3.54920   -0.05330   48.89810   49.32640   89.91900   89.18030
 3048.00000  343.65600    8.23160  727.46380  455.01700   43.44080    0.06800    2.79000    0.03670    3.49860   -0.04970   48.94920   49.42410   89.71640   88.86380
 3048.50000  218.21420    8.23130  546.27820  332.33850   43.23050    0.06860    2.79150    0.02850    3.43180   -0.05060   49.22270   49.56010   89.21730   88.59190
 3049.00000  218.34670    8.22790  534.53880  345.54270   45.99190    0.07080    2.79920    0.02660    3.37310   -0.05540   49.33120   49.68790   88.60020   88.60880
 3049.50000  356.36880    8.22420  589.62510  350.08710   49.24020    0.07490    2.80110    0.02530    3.33440   -0.05660   49.38390   49.81580   88.59380   88.78060
 3050.00000  260.38170    8.22250  515.85310  262.33290   48.72870    0.08020    2.78670    0.02480    3.32930   -0.04770   49.67890   50.20250   90.00500   89.50480
 3050.50000   91.47370    8.22080  268.37330  196.57560   46.03310    0.08560    2.75740    0.02470    3.32950   -0.02930   50.24090   50.82190   91.56110   90.59000
 3051.00000   79.85200    8.22030  196.25320  158.02300   42.50120    0.08800    2.73430    0.02340    3.32980   -0.01520   51.20520   51.51770   93.11720   92.13530
 3051.50000   57.96430    8.22110  200.02290  153.17470   45.33940    0.09310    2.72290    0.01960    3.33000   -0.00800   51.54650   51.78180   94.05530   93.25880
 3052.00000   72.27280    8.22230  228.26520  169.53060   51.67360    0.09260    2.72110    0.01640    3.37540   -0.00690   51.48410   51.78260   94.82460   93.64950
 3052.50000   93.54120    8.22610  213.33620  175.68560   59.92940    0.08980    2.72570    0.01450    3.41560   -0.00970   51.47830   52.20180   95.59400   94.07710
 3053.00000   90.74100    8.22560  167.08060  144.21630   66.19930    0.09040    2.73780    0.01270    3.41570   -0.01720   51.98060   52.92630   95.99630   94.72320
 3053.50000   65.67050    8.22450  133.61320  104.10170   69.30840    0.09520    2.73420    0.00600    3.41750   -0.01510   52.53080   53.38190   95.92710   94.54310
 3054.00000   66.67740    8.22380  135.89110  105.38730   71.24660    0.09810    2.71400    0.00430    3.47240   -0.00590   52.31980   52.99720   95.31020   94.31990
 3054.50000   83.23770    8.22400  209.62620  137.31100   71.34600    0.09550    2.72340    0.00530    3.49300   -0.00100   51.94290   52.49270   94.69330   94.03830
 3055.00000  139.22940    8.22420  491.38940  277.86800   69.04840    0.08310    2.73830    0.00940    3.49590   -0.01630   51.34060   51.98810   94.07640   93.29000
 3055.50000  247.05190    8.22440  794.11210  489.67780   64.43700    0.07630    2.76260    0.01550    3.51620   -0.03260   51.01780   51.60410   93.45950   92.45980
 3056.00000  213.40210    8.22100  583.69890  367.37490   58.67040    0.08080    2.77510    0.01950    3.59150   -0.04050   50.95110   51.26540   92.89170   92.13810
 3056.50000  113.41410    8.20840  410.48250  240.85350   52.90520    0.08350    2.77720    0.02020    3.66690   -0.04170   50.72960   50.94890   92.48610   91.76810
 3057.00000  114.84360    8.19580  409.91590  239.03470   47.63680    0.07890    2.79130    0.01920    3.74220   -0.05050   50.41440   50.63250   92.08050   91.70560
 3057.50000  201.63340    8.18850  654.10240  357.57660   43.79200    0.07000    2.80310    0.01750    3.79300   -0.05780   50.10020   50.31610   91.67490   91.25130
 3058.00000  499.63300    8.18510 1485.81960  830.69740   43.41920    0.06110    2.81390    0.01560    3.81420   -0.06470   49.84240   49.99960   91.26920   90.64700
 3058.50000  441.30800    8.18290 1492.58720  841.45790   46.26720    0.05790    2.81470    0.01360    3.81060   -0.06500   49.60230   49.68320   90.86360   89.79990
 3059.00000  206.93130    8.18360  923.89200  562.25180   50.73410    0.05950    2.80530    0.01170    3.74900   -0.05910   49.35260   49.36680   90.45800   88.91370
 3059.50000  200.10700    8.18420  894.48320  562.14780   50.31460    0.06290    2.79500    0.00890    3.66150   -0.05280   49.11850   49.36790   90.21590   88.84340
 3060.00000  171.81070    8.18490  783.60310  470.58360   44.76390    0.06600    2.78280    0.00170    3.55300   -0.04530   48.98020   50.02320   91.60460   90.90780
 3060.50000  133.16580    8.17880  354.51970  278.67370   38.31540    0.06850    2.77070   -0.00010    3.44250   -0.03780   50.00130   50.96120   93.72800   93.23390
 3061.00000  103.39040    8.16260  221.58330  165.02700   36.04960    0.07560    2.76780    0.00590    3.47390   -0.03580   51.22900   51.89920   94.12150   93.54650
 3061.50000  114.25640    8.15240  167.95370  120.27530   34.84680    0.08740    2.77430    0.02150    3.59420   -0.03990   52.27890   52.83720   94.57300   93.38170
 3062.00000  300.86650    8.14850  316.21860  135.64960   37.86840    0.09770    2.78090    0.03870    3.71460   -0.04400   52.75430   53.24750   95.12120   93.94860
 3062.50000  560.69270    8.14560  338.22950  183.33410   44.29600    0.09870    2.78530    0.05030    3.83490   -0.04680   52.86070   53.19160   95.23320   94.23470
