~Version ---------------------------------------------------
VERS.   2.0 : CWLS log ASCII Standard -VERSION 2.0
WRAP.    NO : One line per depth step
DLM . SPACE : Column Data Section Delimiter
~Well ------------------------------------------------------
STRT .F                  148.0 : START DEPTH
STOP .F                 3456.0 : STOP DEPTH
STEP .F                    0.5 : STEP
NULL .                -9999.25 : NULL VALUE
COMP .                         : COMPANY
WELL .                         : WELL
FLD  .                         : FIELD
LOC  .                         : LOCATION
PROV .                         : PROVINCE
CNTY .                         : COUNTY
STAT .                         : STATE
CTRY .                         : COUNTRY
SRVC .                         : SERVICE COMPANY
DATE .                         : DATE
UWI  .                         : UNIQUE WELL ID
API  .                         : API NUMBER
SLAT .WGS84 1.7417209862131067 : SURFACE LATITUDE
SLON .WGS84  7.225960631755015 : SURFACE LONGITUDE
DATUM.F                2649.73 : DEPTH DATUM ELEV
~Curve Information -----------------------------------------
DEPT   .F     : 1 MEASURED DEPTH
RXOZ   .OHMM  : INVADED FORMATION RESISTIVITY FILTERED AT 18 INCHES
HCALR  .IN    : HRCC CALIPER CALIBRATED FROM RESISTIVITY LOG
HLLD   .OHMM  : HALS LATEROLOG DEEP RESISTIVITY
HLLS   .OHMM  : HALS LATEROLOG SHALLOW RESISTIVITY
GRD    .GAPI  : GAMMA RAY FROM DENSITY LOG
TNPH_LS.DEC   : THERMAL NEUTRON POROSITY [LIMESTONE]
RHOZ   .G/C3  : HRDD STANDARD RESOLUTION FORMATION DENSITY
HDRA   .G/C3  : HRDD SPINE AND RIBS DENSITY CORRECTION
PEFZ   .B/E   : HRDD STANDARD RESOLUTION FORMATION PHOTOELECTRIC FACTOR
DPHZ_LS.DEC   : HGRD STANDARD RESOLUTION DENSITY POROSITY
DTCO   .US/F  : DELTA-T COMPRESSIONAL
DTRP   .US/F  : DELTA-T COMPRESSIONAL, RECEIVER ARRAY - MONOPOLE P & S
DTRS   .US/F  : DELTA-T SHEAR, RECEIVER ARRAY - MONOPOLE P & S
DTSM   .US/F  : DELTA-T SHEAR
~Params ----------------------------------------------------
~Other -----------------------------------------------------
~ASCII -----------------------------------------------------
# ...
 1127.50000  201.23490   10.56420 1442.42860  708.50980   11.46460   -0.02940    2.02470   -0.00510    5.01940    0.42570   66.95820   67.50540  119.30090  118.53790
 1128.00000  308.27330   10.57580 1985.43580  712.01040   13.27940   -0.03080    2.02250   -0.00560    5.03120    0.42700   66.98550   67.47900  118.84540  117.93190
 1128.50000  244.21770   10.58750 2129.52320  681.07240   14.60150   -0.03220    2.02050   -0.00610    5.04300    0.42830   66.95880   67.20270  117.39190  116.46550
 1129.00000  214.87130   10.58890 2002.25060  631.52220   14.03140   -0.03370    2.02090   -0.00460    5.06560    0.42800   66.02200   66.71370  115.93830  114.99910
 1129.50000  216.42330   10.39400 2370.35450  723.97970   12.88840   -0.03610    2.02510   -0.00300    5.09130    0.42540   65.42780   66.22460  115.45500  114.01110
 1130.00000 1964.72630   10.30010 30346.89840 1003.95220   11.57460   -0.03820    2.03310   -0.00150    5.11690    0.42040   65.33960   65.75350  115.44240  114.58400
 1130.50000 1969.57410   10.22290 58522.39060  895.06570   10.34670   -0.03900    2.03620    0.00030    5.14260    0.41850   65.37830   65.74870  115.45490  115.32730
 1131.00000 1974.43380   10.17440 41050.18360  921.24220    9.06460   -0.03900    2.03190    0.00110    5.14740    0.42120   65.42980   65.74390  115.60800  115.47330
 1131.50000 1979.30550   10.15700 31089.77730 1262.96290    7.65970   -0.03900    2.02580    0.00100    5.11490    0.42500   65.22450   65.74400  115.83970  115.10130
 1132.00000 1984.18930   10.08890 34611.72270 1853.58000    5.40050   -0.03910    2.02310    0.00100    5.07610    0.42670   64.99550   65.75400  115.60020  114.43560
 1132.50000 1989.08510    9.99850 58032.45310 2164.91750    3.70910   -0.03950    2.02740    0.00090    5.05260    0.42400   65.43250   66.14470  115.44010  113.90640
 1133.00000 1993.99190    9.89380 33515.16410 2116.25710    3.39010   -0.04000    2.02880    0.00080    5.02920    0.42320   66.90610   67.28580  115.44210  114.15980
 1133.50000 1593.62850    9.78870 13254.72460 1902.73290    3.61860   -0.04060    2.04220    0.00070    5.00580    0.42110   68.21530   68.72130  117.42120  115.66250
 1134.00000 1136.86500    9.63510 4734.98100 1689.20870    3.61670   -0.04090    2.05730    0.00090    4.98240    0.41330   69.77790   70.06450  119.42130  118.14260
 1134.50000 1257.82680    9.58350 3413.81200 1369.74760    3.61480   -0.04030    2.06770    0.00160    4.97520    0.40510   71.01370   71.40780  121.42130  120.49200
 1135.00000 1462.91580    9.61940 5428.59960 1902.91610    3.61280   -0.03970    2.06390    0.02320    5.04280    0.39780   71.31510   71.62940  120.58340  119.90800
 1135.50000  428.52900    9.65530 19940.84960 3774.70140    3.61090   -0.03910    2.05860    0.05010    5.26410    0.39900   69.00080   69.77200  114.45090  113.10530
 1136.00000  104.43640    9.62750 22771.48440 3457.88260    3.90870   -0.03680    2.05780    0.08220    5.54240    0.40280   66.59450   66.35310  110.27020  108.88860
 1136.50000   16.15010    9.48010 7491.37110 2489.84470    4.67800   -0.03340    2.07450    0.09640    5.73440    0.40580   63.69440   62.93430  106.50510  105.59170
 1137.00000    6.97870    9.30400 3956.25760 1625.23450    4.83210   -0.02610    2.09940    0.09120    5.69510    0.38020   60.52500   60.34120  102.74000  102.46770
 1137.50000    7.81850    8.99630 2806.45310  973.41420    4.82490   -0.01760    2.29610    0.07940    5.44670    0.24850   58.00700   58.41080  100.19100   98.51030
 1138.00000   30.46650    8.77630 2023.16360  684.59420    4.77470   -0.00950    2.68890    0.07280    5.20510    0.09830   55.94330   56.48040   98.53480   97.94080
 1138.50000 1953.07230    8.72200 1998.34790  638.81360    4.73990   -0.00750    2.83510    0.07040    5.23580   -0.02390   54.43160   55.15070   97.58370   96.73880
 1139.00000 1956.47410    8.71400 2165.18020  730.26750    4.83960   -0.00720    2.93520    0.06150    5.28190   -0.14250   54.45230   55.27110   97.59150   96.30210
 1139.50000 1959.88180    8.71600 3317.65230 1013.99440    5.35500   -0.01250    2.97120    0.04880    5.33160   -0.16230   54.60060   55.42960   97.68200   96.95610
 1140.00000 1963.29440    8.72250 5275.49370 1407.95620    5.87170   -0.01970    2.97810    0.02520    5.35630   -0.16650   54.60290   54.89360   97.06940   96.95660
 1140.50000 1966.71410    8.72900 7191.28520 1635.57340    5.44520   -0.02170    2.95420    0.00630    5.29700   -0.15170   53.98570   54.10530   96.08500   95.34740
 1141.00000 1970.13960    8.73550 6962.54390 1893.52190    4.80030   -0.02060    2.90720    0.01070    5.23770   -0.12250   53.28020   53.68300   94.52260   93.18690
 1141.50000 1973.57120    8.74590 7732.25880 2431.07960    4.22300   -0.01580    2.87720    0.01980    5.17840   -0.10370   53.36710   53.75910   93.55510   92.36320
 1142.00000 1977.00880    8.77060 6734.36520 3095.38920    3.90150   -0.00980    2.87620    0.02570    5.16400   -0.10320   54.16430   53.88360   93.96680   93.48270
 1142.50000 1980.45230    8.79520 3768.90360 2904.97020    4.37260   -0.00540    2.89240    0.02770    5.16550   -0.11330   53.89910   54.10150   95.61230   95.03590
 1143.00000 1983.90170    8.80850 2372.55620 2045.87790    5.69230   -0.00090    2.93750    0.02380    5.10980   -0.13560   53.62810   54.42140   98.03390   96.58910
 1143.50000  716.06990    8.81040 2106.68480 1272.18660    7.93560    0.01150    2.94450    0.01930    5.00240   -0.14280   55.27570   55.55170  102.73310  100.99930
 1144.00000   55.11100    8.85520  808.00220  167.77740   13.19970    0.04730    2.90800    0.01830    4.63610   -0.10900   58.84550   60.13130  107.58290  106.04680
 1144.50000    3.56100    8.90520   16.90170   18.33090   18.43560    0.10780    2.83760    0.02030    4.30340   -0.08450   64.19460   64.53550  113.83600  112.87250
 1145.00000    2.93100    8.95530   11.57550   15.97330   22.56670    0.11030    2.76720    0.02920    4.03560   -0.03290   66.41590   67.00740  121.73340  120.08830
 1145.50000    2.53800    9.00530   11.39980   17.43440   22.29210    0.06720    2.69680    0.03820    4.06310   -0.00060   66.98810   67.59380  122.56640  121.55800
 1146.00000    4.03300    9.20590   15.53310   29.55490   18.54420    0.02960    2.60860    0.04720    4.21130    0.10280   68.37680   68.79140  121.72620  121.15940
 1146.50000    4.07190    9.65340   26.41010   39.65590   14.86430    0.00090    2.33170    0.05040    4.40290    0.23530   69.35330   69.59600  120.95220  120.71450
 1147.00000   19.32520    9.86660   88.62480  282.06090   10.99080   -0.01620    2.21490    0.04490    4.59450    0.30750   68.97520   68.76250  120.95710  120.35060
 1147.50000   68.15830    9.91710  660.22630 1834.04350    7.79980   -0.02650    2.05470    0.03710    4.70800    0.40440   68.33840   68.72500  121.22560  120.45980
 1148.00000   48.00510    9.96760 1701.12230 2624.30880    6.69240   -0.03180    2.04580    0.02920    4.76490    0.41260   68.16480   68.63440  121.49400  120.62020
 1148.50000   66.58520   10.02190 2003.58760 2867.23490    6.13930   -0.03360    2.04080    0.02140    4.82180    0.41570   68.20780   68.75410  121.76250  120.84690
 1149.00000  440.64250   10.07640 8999.16410 3012.52860    6.65410   -0.03540    2.03670    0.01360    4.86110    0.41830   68.31060   68.75250  121.90650  120.89070
 1149.50000 1254.05530   10.11390 7376.61670 2835.24730    6.38200   -0.03560    2.03480    0.01060    4.85630    0.41880   68.33920   68.57210  121.80900  120.40060
 1150.00000  185.59540   10.13290 2187.76000 2365.59790    6.06230   -0.03580    2.03290    0.00960    4.88860    0.41960   67.94550   68.30240  120.80490  119.91040
 1150.50000  179.11790   10.14850 1993.34400 2238.08150    6.52900   -0.03630    2.02520    0.00910    4.94280    0.42130   67.32090   67.65280  119.80080  119.43340
 1151.00000  199.07240   10.16400 5681.49320 2191.06050    7.00090   -0.03820    2.01470    0.01140    4.95590    0.42700   67.58430   67.90600  120.28030  120.04310
 1151.50000  127.02840   10.11490 7423.78710 2134.09790    7.21470   -0.03870    2.01470    0.01690    4.95340    0.43310   69.25290   69.09290  122.24320  121.27380
