~Version ---------------------------------------------------
VERS.   2.0 : CWLS log ASCII Standard -VERSION 2.0
WRAP.    NO : One line per depth step
DLM . SPACE : Column Data Section Delimiter
~Well ------------------------------------------------------
STRT .F                  148.0 : START DEPTH
STOP .F                 3456.0 : STOP DEPTH
STEP .F                    0.5 : STEP
NULL .                -9999.25 : NULL VALUE
COMP .                         : COMPANY
WELL .                         : WELL
FLD  .                         : FIELD
LOC  .                         : LOCATION
PROV .                         : PROVINCE
CNTY .                         : COUNTY
STAT .                         : STATE
CTRY .                         : COUNTRY
SRVC .                         : SERVICE COMPANY
DATE .                         : DATE
UWI  .                         : UNIQUE WELL ID
API  .                         : API NUMBER
SLAT .WGS84 1.7417209862131067 : SURFACE LATITUDE
SLON .WGS84  7.225960631755015 : SURFACE LONGITUDE
DATUM.F                2649.73 : DEPTH DATUM ELEV
~Curve Information -----------------------------------------
DEPT   .F     : 1 MEASURED DEPTH
RXOZ   .OHMM  : INVADED FORMATION RESISTIVITY FILTERED AT 18 INCHES
HCALR  .IN    : HRCC CALIPER CALIBRATED FROM RESISTIVITY LOG
HLLD   .OHMM  : HALS LATEROLOG DEEP RESISTIVITY
HLLS   .OHMM  : HALS LATEROLOG SHALLOW RESISTIVITY
GRD    .GAPI  : GAMMA RAY FROM DENSITY LOG
TNPH_LS.DEC   : THERMAL NEUTRON POROSITY [LIMESTONE]
RHOZ   .G/C3  : HRDD STANDARD RESOLUTION FORMATION DENSITY
HDRA   .G/C3  : HRDD SPINE AND RIBS DENSITY CORRECTION
PEFZ   .B/E   : HRDD STANDARD RESOLUTION FORMATION PHOTOELECTRIC FACTOR
DPHZ_LS.DEC   : HGRD STANDARD RESOLUTION DENSITY POROSITY
DTCO   .US/F  : DELTA-T COMPRESSIONAL
DTRP   .US/F  : DELTA-T COMPRESSIONAL, RECEIVER ARRAY - MONOPOLE P & S
DTRS   .US/F  : DELTA-T SHEAR, RECEIVER ARRAY - MONOPOLE P & S
DTSM   .US/F  : DELTA-T SHEAR
~Params ----------------------------------------------------
~Other -----------------------------------------------------
~ASCII -----------------------------------------------------
# ...
 2475.00000  991.77510    8.17290  716.30070  806.35330   30.91450    0.01180    2.80990    0.02630    3.77590   -0.05500   44.80950   45.35290   85.11980   84.41650
 2475.50000 1161.83010    8.17300  768.40940  801.64910   30.50980    0.00630    2.84060    0.02470    3.94690   -0.06020   44.43680   45.15440   84.73340   83.44070
 2476.00000  727.74580    8.18010  640.34200  683.93050   24.32310   -0.00070    2.87140    0.02140    4.22650   -0.08180   47.40950   47.17630   88.38680   89.32300
 2476.50000  722.94750    8.18720  833.76350  715.89500   16.99270   -0.00740    2.90410    0.01700    4.45260   -0.12060   48.69500   49.19820   92.06180   92.72010
 2477.00000  974.33760    8.19440 1753.93770 1295.47810   10.88040   -0.01270    2.94280    0.00620    4.63090   -0.14470   49.83310   51.22010   95.43950   94.71920
 2477.50000 1464.39580    8.20130 2674.11180 2472.76440    9.86360   -0.01210    2.97990   -0.00210    4.78950   -0.16960   51.65340   52.68410   96.04010   94.71990
 2478.00000 1346.54090    8.20300 1742.40530 2053.23880   10.88680   -0.00690    2.98670   -0.00150    4.79950   -0.17210   52.69150   52.68600   95.76030   94.65140
 2478.50000  947.99990    8.20570  517.62840  890.50760   12.82650   -0.00030    2.97430   -0.00120    4.76870   -0.16420   52.20210   52.56350   95.41080   94.45020
 2479.00000  491.10090    8.20920  304.12810  438.32100   16.75100    0.00930    2.95690   -0.00130    4.69170   -0.15340   53.02370   52.98060   95.05430   94.17370
 2479.50000  254.40920    8.21000  177.28220  330.40600   24.82460    0.02620    2.92410   -0.00130    4.59010   -0.13600   53.57200   53.83690   96.01760   95.21290
 2480.00000  136.16000    8.21070   89.42160  230.78060   34.15390    0.04340    2.88050   -0.00130    4.28520   -0.11550   54.07530   54.66870   99.28140   99.04560
 2480.50000   77.59540    8.21150   44.78170  127.38810   46.17290    0.05660    2.83690   -0.00130    3.94170   -0.08670   55.45430   56.07310  102.81970  102.47470
 2481.00000   42.53840    8.20870   25.30380   64.47990   57.91480    0.05730    2.81060    0.01300    3.70650   -0.06680   56.93470   57.77230  106.04520  104.13300
 2481.50000   30.05600    8.19930   25.27390   34.55500   57.94490    0.04670    2.81020    0.03470    3.60520   -0.05960   58.58060   59.08940  105.93290  104.24410
 2482.00000   33.53470    8.19930   28.03460  114.70080   47.75470    0.02840    2.84180    0.03770    3.74300   -0.07690   57.76160   58.35210  104.38790  103.04250
 2482.50000  256.37940    8.19920  106.15620  422.38900   35.15610    0.00840    2.88070    0.02140    4.06610   -0.10620   55.73420   56.10710  101.96410  100.48060
 2483.00000  466.15790    8.19910  438.27580  397.39540   24.08000    0.00150    2.92770    0.00430    4.46440   -0.13540   54.63810   54.13870   98.40440   96.92410
 2483.50000  425.09260    8.19900  548.33610  428.93170   21.26710   -0.00450    2.96410   -0.01050    4.90330   -0.15700   54.16170   54.10010   95.79880   94.91740
 2484.00000  536.56270    8.18440 1129.69850  892.67060   19.63040   -0.01050    2.97220   -0.01750    5.22300   -0.16290   54.21970   54.80670   95.86810   94.84560
 2484.50000 1445.59330    8.17060 1993.97000 2301.08810   17.60820   -0.01270    2.97560   -0.01920    5.37790   -0.16490   55.45220   55.75240   96.61150   95.17290
 2485.00000 1053.34610    8.16680 1314.84420 2110.05200   16.04370   -0.01360    2.98230   -0.02090    5.43630   -0.16920   56.18730   56.53640   96.50210   95.04250
 2485.50000  760.38480    8.16790  684.02660  911.84970   14.22950   -0.01460    2.98180   -0.01840    5.39320   -0.16890   56.41030   56.54620   96.11440   94.06030
 2486.00000  819.07720    8.16870  640.92760  888.48460   12.16740   -0.01560    2.97310   -0.00700    5.31310   -0.16340   56.09580   56.44380   94.14740   93.03020
 2486.50000 1026.84670    8.16900  843.48180 1628.94860   10.05070   -0.01660    2.97440    0.00970    5.30240   -0.16430   54.97280   55.51300   92.17580   90.25320
 2487.00000 1650.49760    8.16840 1974.84790 3779.19040    8.65690   -0.01710    2.99040    0.01750    5.35730   -0.17250   52.06990   52.72620   86.92890   84.44190
 2487.50000 1651.53720    8.16260 3300.35300 5027.03660    9.08630   -0.01130    3.00920    0.00790    5.41840   -0.18160   49.95160   50.58820   80.52970   79.92250
 2488.00000 1573.58390    8.12540 2028.45230 2364.24900   13.17770   -0.00490    2.99320   -0.00430    5.42100   -0.18480   51.91180   51.81050   79.97400   80.77300
 2488.50000 1360.08010    8.07170  756.55160 1311.99040   17.25630    0.00160    2.97720   -0.00670    4.95890   -0.16590   55.65550   55.72200   84.80280   87.18230
 2489.00000  543.10860    8.04360  343.32190  416.05310   18.76870    0.00410    2.94210    0.00100    4.40200   -0.14410   59.04060   59.31120   91.10480   91.47850
 2489.50000  443.16910    8.02870  339.35420  385.61570   18.48910    0.00440    2.90930    0.02160    3.94280   -0.12380   58.11580   58.22580   93.33810   91.87360
 2490.00000  365.17850    8.01380  343.65770  353.14140   18.18870    0.00830    2.90820    0.02150    3.98690   -0.12310   55.80130   56.33360   92.97830   90.60320
 2490.50000  276.51040    8.00580  348.31590  329.64830   18.65330    0.01350    2.91850    0.01550    4.10950   -0.12980   50.75800   51.47410   87.83470   88.01060
 2491.00000  276.01070    8.00390  354.68790  318.16780   20.10950    0.01860    2.91670    0.01200    4.14430   -0.12840   46.13470   46.61460   83.18660   83.81330
 2491.50000  355.58500    8.00190  500.48890  424.82660   21.51550    0.02070    2.89290    0.01230    3.91800   -0.11360   44.60370   45.21970   83.25360   83.92370
 2492.00000  618.11330    7.99990  824.30850  685.50430   23.67860    0.01570    2.87050    0.01590    3.67480   -0.09970   46.65110   47.55680   85.30420   84.75070
 2492.50000 1242.98730    7.99790 1401.75930 1189.35550   26.81900    0.01090    2.85530    0.02250    3.50400   -0.09030   49.02950   49.87730   86.44310   85.17520
 2493.00000 1777.90450    7.99590 2546.44800 2022.28740   30.26370    0.00990    2.84720    0.01700    3.50730   -0.08520   49.15660   49.45480   86.44150   85.05520
 2493.50000 1737.66440    7.99400 4106.36380 2006.40770   36.43320    0.01110    2.84380    0.00980    3.51060   -0.08310   47.95680   48.53700   86.43950   85.27920
 2494.00000  420.08720    7.99200 1686.91240 1236.22910   49.59010    0.01550    2.83920    0.00230    3.48360   -0.08030   48.29370   48.34010   86.49220   85.50750
 2494.50000  414.92400    7.99000  501.21700  454.61730   58.57520    0.01990    2.83160    0.00190    3.44240   -0.07560   49.57170   49.67110   86.98680   85.81670
 2495.00000  429.91450    7.98800  513.47780  455.49710   58.63520    0.02070    2.81620    0.00150    3.43940   -0.06680   50.83390   51.19600   87.48150   86.55400
 2495.50000  792.66660    7.98600 1762.75610 1049.86080   48.21920    0.01840    2.79310    0.00510    3.43880   -0.05160   51.59070   52.07550   88.51130   86.89780
 2496.00000 1758.76290    7.98400 4687.20210 2432.15620   38.76270    0.01610    2.77470    0.00830    3.45360   -0.04020   52.61170   53.21920   89.69960   87.35990
 2496.50000 1700.01040    7.98200 3755.74460 3814.45170   34.99100    0.01380    2.78260    0.00710    3.46730   -0.04510   54.00770   54.42960   90.52960   87.85380
 2497.00000 1612.85420    7.98010 2759.32620 3868.80520   34.93140    0.01260    2.80550    0.00400    3.39630   -0.05860   55.08130   55.54250   89.69480   88.34770
 2497.50000 1602.87720    7.97810 2969.30030 4187.48050   37.03960    0.01260    2.82950    0.00270    3.33910   -0.07420   55.65780   55.82390   89.18690   88.84160
 2498.00000  305.15110    7.97610 2237.59280 1185.18400   48.66560    0.01490    2.85140    0.00630    3.31600   -0.08780   55.37200   55.51180   90.68860   90.18950
 2498.50000   95.33960    7.98110  229.00110  151.15500   61.50040    0.02490    2.84810    0.00990    3.29290   -0.08580   54.20090   54.38400   91.90870   91.54820
 2499.00000   67.14520    7.99170   81.28840   72.70820   68.60590    0.03610    2.83280    0.01350    3.26990   -0.07630   53.16770   53.26080   92.93790   92.02160
