~Version ---------------------------------------------------
VERS.   2.0 : CWLS log ASCII Standard -VERSION 2.0
WRAP.    NO : One line per depth step
DLM . SPACE : Column Data Section Delimiter
~Well ------------------------------------------------------
STRT .F                  148.0 : START DEPTH
STOP .F                 3456.0 : STOP DEPTH
STEP .F                    0.5 : STEP
NULL .                -9999.25 : NULL VALUE
COMP .                         : COMPANY
WELL .                         : WELL
FLD  .                         : FIELD
LOC  .                         : LOCATION
PROV .                         : PROVINCE
CNTY .                         : COUNTY
STAT .                         : STATE
CTRY .                         : COUNTRY
SRVC .                         : SERVICE COMPANY
DATE .                         : DATE
UWI  .                         : UNIQUE WELL ID
API  .                         : API NUMBER
SLAT .WGS84 1.7417209862131067 : SURFACE LATITUDE
SLON .WGS84  7.225960631755015 : SURFACE LONGITUDE
DATUM.F                2649.73 : DEPTH DATUM ELEV
~Curve Information -----------------------------------------
DEPT   .F     : 1 MEASURED DEPTH
RXOZ   .OHMM  : INVADED FORMATION RESISTIVITY FILTERED AT 18 INCHES
HCALR  .IN    : HRCC CALIPER CALIBRATED FROM RESISTIVITY LOG
HLLD   .OHMM  : HALS LATEROLOG DEEP RESISTIVITY
HLLS   .OHMM  : HALS LATEROLOG SHALLOW RESISTIVITY
GRD    .GAPI  : GAMMA RAY FROM DENSITY LOG
TNPH_LS.DEC   : THERMAL NEUTRON POROSITY [LIMESTONE]
RHOZ   .G/C3  : HRDD STANDARD RESOLUTION FORMATION DENSITY
HDRA   .G/C3  : HRDD SPINE AND RIBS DENSITY CORRECTION
PEFZ   .B/E   : HRDD STANDARD RESOLUTION FORMATION PHOTOELECTRIC FACTOR
DPHZ_LS.DEC   : HGRD STANDARD RESOLUTION DENSITY POROSITY
DTCO   .US/F  : DELTA-T COMPRESSIONAL
DTRP   .US/F  : DELTA-T COMPRESSIONAL, RECEIVER ARRAY - MONOPOLE P & S
DTRS   .US/F  : DELTA-T SHEAR, RECEIVER ARRAY - MONOPOLE P & S
DTSM   .US/F  : DELTA-T SHEAR
~Params ----------------------------------------------------
~Other -----------------------------------------------------
~ASCII -----------------------------------------------------
# ...
 2671.00000   19.49840    7.85520  157.83600   46.60650   35.52650    0.20100    2.57020    0.01520    3.24850    0.08720   54.91190   55.21630  102.74080  100.97760
 2671.50000   19.58790    7.91080  334.16820   76.43520   39.71580    0.18490    2.59040    0.00700    3.23000    0.07420   54.39750   54.91350  101.61410   99.91730
 2672.00000   20.26580    7.92330  442.98620   99.17100   44.18890    0.16180    2.61220    0.00650    3.20840    0.06080   54.31140   54.89460  100.09050   98.85690
 2672.50000   23.09450    7.92280  563.91980  125.44020   44.61380    0.13680    2.63960    0.00680    3.18670    0.04360   54.58970   55.08900   98.56690   97.79650
 2673.00000   34.38920    7.92870  652.06480  126.62310   42.26130    0.11030    2.66460    0.00720    3.17560    0.02820   54.79070   55.18350   97.37030   97.13150
 2673.50000   24.91720    7.93460  613.62130  125.97640   39.54730    0.10460    2.68070    0.00760    3.17810    0.01820   54.62710   55.12190   97.39930   97.08590
 2674.00000   25.07260    7.94040  561.21100  125.27090   39.12570    0.10430    2.67600    0.00810    3.17820    0.02110   54.30950   54.76530   97.99460   97.04040
 2674.50000   36.15090    7.94630  565.35250  149.11790   45.87150    0.10040    2.66790    0.01420    3.17890    0.02640   54.11350   54.40880   98.05950   96.94940
 2675.00000   66.64770    7.95220  610.64260  188.91300   54.33800    0.09000    2.68150    0.01970    3.18200    0.01760   53.99900   54.00200   97.27480   96.57470
 2675.50000  111.88540    7.95810  610.53470  247.51660   59.74300    0.07460    2.70950    0.01830    3.18910    0.00030   53.21520   53.33010   95.79660   95.29250
 2676.00000  125.11480    7.96400  808.50270  359.64780   50.57820    0.05930    2.73560    0.01510    3.23000   -0.01590   52.73100   53.06260   95.62500   94.85210
 2676.50000  122.28870    7.97590 1120.28020  449.95950   35.91030    0.05850    2.73900    0.01310    3.28330   -0.01800   52.87120   53.27810   95.68650   94.75480
 2677.00000   69.96370    7.98910  902.71410  334.98740   26.62750    0.07200    2.71450    0.01250    3.34870   -0.00280   53.47830   53.59320   96.02190   95.05630
 2677.50000   39.06940    8.00230  548.51880  223.88360   20.21130    0.09690    2.69050    0.01410    3.27050    0.01280   54.00360   54.26960   96.35730   95.40600
 2678.00000   44.64490    7.99080  584.22590  203.63330   23.96420    0.10290    2.69690    0.01640    3.19230    0.00810   54.74800   54.94590   96.69260   95.84880
 2678.50000   49.71540    7.98050  453.20170  185.21460   32.82160    0.09620    2.71870    0.01860    3.10400   -0.00540   55.31760   55.62230   98.89630   96.90880
 2679.00000   40.23880    7.97280  251.92050   84.32430   43.60140    0.09420    2.74100    0.02090    3.05300   -0.01930   55.86470   56.29860  101.20610   99.12730
 2679.50000   19.07120    7.96520  137.79100   51.04240   56.90940    0.09920    2.75640    0.02460    3.05760   -0.02890   56.86460   57.45310  102.90490  100.90960
 2680.00000   15.17470    7.95750  119.82010   35.36270   62.55650    0.11300    2.74960    0.02790    3.04740   -0.02460   57.82030   58.86020  101.64300  100.53300
 2680.50000   19.55480    7.94980  143.66080   40.53410   51.07830    0.11650    2.73640    0.02880    3.03580   -0.01640   58.04110   58.85240  100.38110   99.46210
 2681.00000   21.46320    7.94690  160.66540   32.38800   38.95670    0.11740    2.71830    0.02670    3.02430   -0.00520   57.57480   58.30530   99.11930   98.28290
 2681.50000   10.39870    7.94730  137.87210   12.89240   25.59240    0.12670    2.67880    0.02460    3.02400    0.01940   56.95890   57.56700   99.02310   98.39050
 2682.00000    7.33240    7.93050  123.24970   12.70960   21.35170    0.14060    2.62590    0.02450    3.04220    0.05200   56.63810   57.23090  100.13040   99.64580
 2682.50000    7.44980    7.91010  129.33990   13.66090   22.42380    0.15330    2.59980    0.02460    3.09210    0.06850   56.49170   57.08400  101.30720  100.51120
 2683.00000    9.90210    7.88980  142.85690   15.77830   24.78180    0.16080    2.60040    0.01860    3.09870    0.07200   56.44120   56.93700  102.02830  100.64530
 2683.50000   10.85020    7.86950  138.22230   16.47960   27.55380    0.17480    2.60070    0.01410    3.10300    0.06690   56.39080   57.02130  102.02830  100.67020
 2684.00000    8.28180    7.84910  120.01070   17.25780   27.46960    0.19150    2.59750    0.01600    3.10740    0.06670   56.56490   57.52300  102.08170  101.24370
 2684.50000    5.39780    7.83450   95.72310   18.17680   27.38490    0.21000    2.57200    0.01680    3.11170    0.07780   57.14650   58.55420  103.96600  102.43520
 2685.00000    5.08120    7.83450   89.70470   19.75690   27.48970    0.22420    2.56530    0.01550    3.11310    0.08880   58.40620   59.11100  105.74030  103.62670
 2685.50000    5.20660    7.83450  106.56590   21.81510   29.08900    0.22280    2.56230    0.01390    3.04260    0.09090   58.77960   59.46700  105.94340  104.49860
 2686.00000    7.05690    7.84570  105.98430   22.04540   31.84170    0.21670    2.55930    0.01240    3.03390    0.09120   58.85600   59.45010  105.26990  104.41760
 2686.50000    4.89800    7.85890   75.68340   15.01980   34.59440    0.21720    2.54540    0.01330    3.03540    0.09590   58.65240   59.24870  105.50360  104.58940
 2687.00000    3.45200    7.87210   50.90560    9.84410   36.43000    0.21830    2.53150    0.01990    3.04470    0.10660   59.13760   59.21990  106.95670  105.51830
 2687.50000    2.89420    7.88820   43.02780    7.53290   36.40530    0.20590    2.51760    0.02700    3.06420    0.11890   59.98080   60.55010  108.40980  106.78970
 2688.00000    3.86550    7.90660   66.05090    8.70800   36.38050    0.17770    2.49820    0.02610    3.10450    0.13160   60.70480   61.57660  108.47710  107.25140
 2688.50000    7.66520    7.92510   99.83590   16.27460   36.40510    0.16080    2.50410    0.02210    3.14480    0.12790   60.95290   61.41510  107.08700  106.83250
 2689.00000   13.79110    7.94350  146.18550   24.92560   36.30280    0.15370    2.53140    0.01780    3.18500    0.11100   59.83950   60.18630  105.69680  105.46840
 2689.50000   14.25630    7.96190  158.86190   26.93210   34.60730    0.14140    2.56260    0.01340    3.22530    0.09030   58.70980   59.25340  104.30660  103.87680
 2690.00000   16.82380    7.98040  192.88890   33.35270   33.12850    0.12760    2.56410    0.01700    3.30390    0.09060   58.70810   59.62260  104.41680  103.73880
 2690.50000   24.55700    7.98510  250.56510   42.26690   36.28190    0.11390    2.55440    0.02150    3.36180    0.09680   60.19220   60.79450  105.54060  104.67120
 2691.00000   32.99480    7.98530  221.77020   45.72060   48.45050    0.11410    2.56180    0.02590    3.36620    0.09180   61.05040   61.80170  106.66440  105.60360
 2691.50000   23.66220    7.98540  131.43860   29.18490   66.03110    0.11910    2.59380    0.02710    3.32920    0.07220   61.07540   61.88920  107.78820  106.61420
 2692.00000   17.84450    7.98550   86.28280   23.34590   76.93690    0.12090    2.62110    0.02240    3.32780    0.05520   60.90180   61.48170  108.27120  106.87870
 2692.50000   17.76950    7.98560   95.39460   25.79580   73.15790    0.12140    2.63930    0.01600    3.32570    0.04390   60.87270   61.07420  108.20530  106.73610
 2693.00000   25.44870    7.98570  129.98960   33.08240   59.70230    0.11800    2.63710    0.01180    3.29850    0.04530   60.84350   60.86800  107.89130  106.63850
 2693.50000   27.88730    7.98580  143.72040   36.91730   54.58410    0.11300    2.63460    0.01670    3.22220    0.04680   60.54740   60.26960  107.57720  106.47200
 2694.00000   17.69650    7.98590   91.42050   26.52410   56.89780    0.11370    2.63600    0.02160    3.21020    0.04590   59.53810   59.93020  107.26320  106.03740
 2694.50000   11.52560    7.98610   80.97970   21.87600   60.17670    0.12100    2.64490    0.02650    3.22360    0.04030   60.29640   60.41580  106.93560  105.73260
 2695.00000   11.13730    7.98620   94.68990   23.29680   52.85740    0.12890    2.66570    0.02850    3.23700    0.02750   60.32970   60.45210  106.33920  105.22160
