~Version ---------------------------------------------------
VERS.   2.0 : CWLS log ASCII Standard -VERSION 2.0
WRAP.    NO : One line per depth step
DLM . SPACE : Column Data Section Delimiter
~Well ------------------------------------------------------
STRT .F                  148.0 : START DEPTH
STOP .F                 3456.0 : STOP DEPTH
STEP .F                    0.5 : STEP
NULL .                -9999.25 : NULL VALUE
COMP .                         : COMPANY
WELL .                         : WELL
FLD  .                         : FIELD
LOC  .                         : LOCATION
PROV .                         : PROVINCE
CNTY .                         : COUNTY
STAT .                         : STATE
CTRY .                         : COUNTRY
SRVC .                         : SERVICE COMPANY
DATE .                         : DATE
UWI  .                         : UNIQUE WELL ID
API  .                         : API NUMBER
SLAT .WGS84 1.7417209862131067 : SURFACE LATITUDE
SLON .WGS84  7.225960631755015 : SURFACE LONGITUDE
DATUM.F                2649.73 : DEPTH DATUM ELEV
~Curve Information -----------------------------------------
DEPT   .F     : 1 MEASURED DEPTH
RXOZ   .OHMM  : INVADED FORMATION RESISTIVITY FILTERED AT 18 INCHES
HCALR  .IN    : HRCC CALIPER CALIBRATED FROM RESISTIVITY LOG
HLLD   .OHMM  : HALS LATEROLOG DEEP RESISTIVITY
HLLS   .OHMM  : HALS LATEROLOG SHALLOW RESISTIVITY
GRD    .GAPI  : GAMMA RAY FROM DENSITY LOG
TNPH_LS.DEC   : THERMAL NEUTRON POROSITY [LIMESTONE]
RHOZ   .G/C3  : HRDD STANDARD RESOLUTION FORMATION DENSITY
HDRA   .G/C3  : HRDD SPINE AND RIBS DENSITY CORRECTION
PEFZ   .B/E   : HRDD STANDARD RESOLUTION FORMATION PHOTOELECTRIC FACTOR
DPHZ_LS.DEC   : HGRD STANDARD RESOLUTION DENSITY POROSITY
DTCO   .US/F  : DELTA-T COMPRESSIONAL
DTRP   .US/F  : DELTA-T COMPRESSIONAL, RECEIVER ARRAY - MONOPOLE P & S
DTRS   .US/F  : DELTA-T SHEAR, RECEIVER ARRAY - MONOPOLE P & S
DTSM   .US/F  : DELTA-T SHEAR
~Params ----------------------------------------------------
~Other -----------------------------------------------------
~ASCII -----------------------------------------------------
# ...
  956.00000   27.25050    9.75260  357.88720  408.75030    5.86610   -0.01660    2.10070    0.02760    5.10370    0.38430   65.21290   65.36020  120.34030  119.09830
  956.50000   28.73430    9.21670  317.68610  282.18710    5.37560   -0.00690    2.30170    0.02830    4.86150    0.26090   65.22030   66.19920  121.48980  120.52850
  957.00000   34.00340    8.84720  123.61750   94.50590    6.38160   -0.00010    2.50440    0.02850    4.74920    0.13760   67.16940   67.20440  123.02130  121.75760
  957.50000   13.80590    8.90460   44.45240   60.74040    8.81300   -0.00080    2.55540    0.03730    4.76160    0.09640   67.85140   68.20970  123.83280  122.60010
  958.00000   10.82810    9.21940   45.58720   60.96630   10.60770   -0.00650    2.47090    0.04150    4.81130    0.16200   68.06030   69.01910  122.58770  121.52160
  958.50000   11.39990    9.43310  126.16260   74.67080   10.23680   -0.01590    2.13450    0.03980    4.86290    0.32900   68.52610   69.00440  120.35940  119.34470
  959.00000  209.23830    9.53380  995.79490  289.12830    7.64200   -0.02530    2.06960    0.03210    4.91460    0.39770   68.25970   68.39110  118.34530  117.06340
  959.50000 1983.40950    9.59570 2888.68070  807.82480    5.53040   -0.03380    2.03270    0.02250    4.96620    0.42070   67.33310   67.47830  118.35720  117.37450
  960.00000 1987.80470    9.59330 4781.56640 1232.24830    5.13160   -0.03460    2.03050    0.01280    5.01790    0.42210   66.38090   66.59330  120.22550  119.57800
  960.50000 1992.21060    9.59880 15456.77440 1064.05870    5.19240   -0.03280    2.02870    0.00430    5.05690    0.42310   66.40290   67.04640  123.00960  122.05700
  961.00000 1975.63840    9.66710 8504.55760  735.05110    5.72700   -0.02720    2.02200    0.00340    5.04260    0.42710   67.82000   69.42940  125.93520  125.04490
  961.50000  397.51370    9.76170 1329.41210  626.17770    7.15880   -0.02030    2.01640    0.00340    4.97800    0.43000   70.94740   71.81240  130.30410  128.96360
  962.00000  105.16140    9.82030  466.49300  626.29290    7.45880   -0.01300    2.01090    0.00560    4.90050    0.43280   73.37870   73.54220  132.25440  129.44130
  962.50000   72.81460    9.83200  473.11820  626.40840    7.75880   -0.00760    2.01090    0.00860    4.82290    0.43530   72.48190   72.95950  128.49850  127.05990
  963.00000   75.05750    9.83180  830.91230  626.52360    7.60640   -0.00560    2.01260    0.01170    4.77170    0.43390   71.17540   71.87980  123.70390  123.58460
  963.50000  160.29690    9.82770  752.16190  344.99640    7.59400    0.00070    2.02380    0.01740    4.74440    0.43130   70.12770   70.80010  118.90930  119.52200
  964.00000    8.30900    9.81730  167.28690   71.56440    8.18660    0.01080    2.03820    0.02650    4.71720    0.42230   69.49240   69.72040  115.51430  115.69100
  964.50000    3.41220    9.63690   35.16490   56.38050    8.64910    0.01290    2.10250    0.03560    4.68990    0.38510   68.68890   69.10980  116.35300  115.70030
  965.00000    3.06430    9.47790   34.78610   55.76830    8.22490    0.00810    2.20690    0.04470    4.67730    0.33070   68.22500   68.78410  119.24140  118.19300
  965.50000   15.77530    9.62430   57.58730  112.82790    7.49160   -0.00480    2.20660    0.04880    4.72200    0.30640   68.88990   69.14330  122.12980  119.86780
  966.00000   18.57660    9.67030  641.12990  499.54220    7.01020   -0.01660    2.16050    0.04240    4.79370    0.33850   69.60320   69.68530  123.68470  120.56370
  966.50000   66.20480    9.67940  854.32190  182.85620    6.55670   -0.01250    2.09560    0.03030    4.80350    0.38150   70.05540   70.22730  122.30200  120.77440
  967.00000  145.63110    9.64330   61.20470   54.25990    6.16700   -0.00290    2.07240    0.02200    4.80890    0.39600   70.10550   70.61580  120.30430  118.96540
  967.50000    2.75940    9.66680   33.54020   52.14100    5.84950   -0.00200    2.06770    0.01950    4.79730    0.39890   70.10070   70.62020  118.30650  117.23120
  968.00000    2.73510    9.70310   34.68840   54.76770    5.22250   -0.00660    2.04950    0.01850    4.84180    0.40700   69.70840   69.99540  115.83940  115.15930
  968.50000    3.55980    9.73870   95.92290  280.69490    4.65060   -0.01530    2.03120    0.01960    4.98140    0.42120   67.49460   67.20820  112.10930  111.96340
  969.00000  842.70470    9.72140  892.72740 1337.09950    4.01540   -0.02710    2.03010    0.02290    5.16300    0.42220   63.88140   64.27940  107.05260  107.16630
  969.50000  379.22940    9.67300 2248.90770 1344.00110    4.34630   -0.02980    2.05340    0.04040    5.36380    0.41630   60.88740   62.16370  104.59490  103.28500
  970.00000   74.76420    9.62460 1528.52830  865.17790    4.57280   -0.03010    2.10690    0.05250    5.27900    0.41430   62.20760   63.20570  105.95740  104.33470
  970.50000   34.79390    9.54120  503.87600  472.95410    5.42580   -0.01630    2.21380    0.04810    5.02660    0.38440   65.45730   67.59230  112.97170  111.14530
  971.00000   29.64230    9.35640  196.98160  258.54300    6.21910   -0.00210    2.34440    0.04040    4.71630    0.24530   69.78790   71.48690  119.98590  120.48240
  971.50000   39.57790    9.13910  108.44730  142.73230    6.86820    0.00820    2.61270    0.03740    4.59740    0.10800   71.21540   71.60860  130.55510  129.62420
  972.00000    8.47150    9.20490   53.43320   81.79380    8.61770    0.00790    2.65180    0.05170    4.61580    0.03620   70.29030   70.50250  141.42090  137.22170
  972.50000    1.70670    9.88980   39.72240   57.07080    9.61070   -0.00390    2.50260    0.06430    4.67220    0.12880   68.64720   69.39640  140.91370  139.29390
  973.00000    1.73230    9.86270   41.74230   75.80710    8.42980   -0.01660    2.26290    0.06440    4.72850    0.27600   68.42390   68.86500  139.84130  139.01730
  973.50000    2.26460    9.95180  129.41650  213.34370    6.53380   -0.02930    2.08600    0.06090    4.78490    0.39700   68.23810   68.98300  138.34340  137.97090
  974.00000  231.55640    9.86410  520.14140  770.63540    6.23700   -0.03270    2.04760    0.05740    4.89450    0.41320   69.71840   70.23980  138.28570  137.58470
  974.50000  123.24130    9.73900 1510.15530 1253.44260    7.17080   -0.03000    2.04750    0.05390    5.01680    0.41100   73.31720   73.52050  140.18130  138.41630
  975.00000   57.43850    9.72890 1827.27280  546.29740   11.29550   -0.02110    2.07770    0.05030    5.00840    0.40440   76.51310   76.63410  142.88400  140.01500
  975.50000   13.44720    9.71870  148.88420  172.03490   17.73330   -0.00340    2.12020    0.04370    4.82810    0.38300   78.68100   79.74760  142.37790  140.56740
  976.00000    3.54660    9.79190   49.02310   77.00860   23.83530    0.00580    2.12090    0.03530    4.64770    0.36650   79.86460   80.95430  138.77770  138.54230
  976.50000    3.58530    9.90660   48.72210   74.48360   24.36810    0.00100    2.10230    0.02680    4.56920    0.37780   78.30110   77.77370  134.01840  132.78410
  977.00000   10.63860    9.96530   84.92430  139.68470   19.06180   -0.01030    2.07040    0.01840    4.56410    0.39710   72.51800   73.25240  128.25200  126.31740
  977.50000   71.03650    9.96530  181.50130  290.22700   11.99390   -0.02170    2.03560    0.01050    4.62340    0.41890   69.15520   68.99040  118.25320  119.48670
  978.00000  196.95480    9.96180  454.73410 1125.33960    6.62230   -0.03240    2.03180    0.00350    4.76140    0.42130   68.28520   68.40430  120.47890  118.43540
  978.50000 1706.37320    9.95160 5311.48440 2475.60060    3.84960   -0.03690    2.03310    0.00010    4.89940    0.42040   68.94820   69.57010  122.61300  121.18870
  979.00000 2000.00000    9.94520 10726.18070 2039.54360    3.84190   -0.03660    2.03310    0.00020    5.00790    0.42040   70.38950   70.77020  121.37580  121.60480
  979.50000 2000.00000    9.94520 1883.41890 1603.48660    5.22490   -0.03350    2.03070    0.00290    5.04510    0.42270   71.11850   71.65010  119.98610  120.70330
  980.00000 1135.24660    9.94530  710.73150 1167.42960    6.71100   -0.03040    2.02830    0.00560    4.99530    0.42310   71.15020   71.66850  120.32590  120.13610
