~Version ---------------------------------------------------
VERS.   2.0 : CWLS log ASCII Standard -VERSION 2.0
WRAP.    NO : One line per depth step
DLM . SPACE : Column Data Section Delimiter
~Well ------------------------------------------------------
STRT .F                  148.0 : START DEPTH
STOP .F                 3456.0 : STOP DEPTH
STEP .F                    0.5 : STEP
NULL .                -9999.25 : NULL VALUE
COMP .                         : COMPANY
WELL .                         : WELL
FLD  .                         : FIELD
LOC  .                         : LOCATION
PROV .                         : PROVINCE
CNTY .                         : COUNTY
STAT .                         : STATE
CTRY .                         : COUNTRY
SRVC .                         : SERVICE COMPANY
DATE .                         : DATE
UWI  .                         : UNIQUE WELL ID
API  .                         : API NUMBER
SLAT .WGS84 1.7417209862131067 : SURFACE LATITUDE
SLON .WGS84  7.225960631755015 : SURFACE LONGITUDE
DATUM.F                2649.73 : DEPTH DATUM ELEV
~Curve Information -----------------------------------------
DEPT   .F     : 1 MEASURED DEPTH
RXOZ   .OHMM  : INVADED FORMATION RESISTIVITY FILTERED AT 18 INCHES
HCALR  .IN    : HRCC CALIPER CALIBRATED FROM RESISTIVITY LOG
HLLD   .OHMM  : HALS LATEROLOG DEEP RESISTIVITY
HLLS   .OHMM  : HALS LATEROLOG SHALLOW RESISTIVITY
GRD    .GAPI  : GAMMA RAY FROM DENSITY LOG
TNPH_LS.DEC   : THERMAL NEUTRON POROSITY [LIMESTONE]
RHOZ   .G/C3  : HRDD STANDARD RESOLUTION FORMATION DENSITY
HDRA   .G/C3  : HRDD SPINE AND RIBS DENSITY CORRECTION
PEFZ   .B/E   : HRDD STANDARD RESOLUTION FORMATION PHOTOELECTRIC FACTOR
DPHZ_LS.DEC   : HGRD STANDARD RESOLUTION DENSITY POROSITY
DTCO   .US/F  : DELTA-T COMPRESSIONAL
DTRP   .US/F  : DELTA-T COMPRESSIONAL, RECEIVER ARRAY - MONOPOLE P & S
DTRS   .US/F  : DELTA-T SHEAR, RECEIVER ARRAY - MONOPOLE P & S
DTSM   .US/F  : DELTA-T SHEAR
~Params ----------------------------------------------------
~Other -----------------------------------------------------
~ASCII -----------------------------------------------------
# ...
 3430.50000  104.89670    7.59430  347.62990  297.41800   -9999.25    0.10440    2.66820    0.00030    3.07540    0.02570   56.74650   56.93940   97.95090   97.42770
 3431.00000   33.61410    7.59780  311.20910  266.77130   -9999.25    0.11900    2.62040    0.00280    3.07190    0.05870   56.92990   57.65380   98.81010   98.76500
 3431.50000   16.38130    7.60130  312.09880  265.47120   -9999.25    0.13360    2.56470    0.00530    3.09110    0.08930   57.21630   57.90070   99.66940   99.11430
 3432.00000   12.82280    7.60480  319.80360  275.59120   -9999.25    0.14120    2.50820    0.00780    3.11380    0.12540   57.56360   58.14760  100.52870   99.72330
 3432.50000   14.59650    7.60830  286.62560  269.35380   -9999.25    0.13900    2.48330    0.00910    3.13420    0.14080   57.82000   58.39460  101.20890  100.26750
 3433.00000   18.56660    7.61180  260.90920  243.90120   -9999.25    0.13690    2.48320    0.00870    3.14310    0.14080   57.96500   58.51110  101.85010  100.57160
 3433.50000   21.13470    7.61530  282.55820  245.80780   -9999.25    0.13650    2.48670    0.00820    3.15260    0.13870   58.11010   58.59970  102.53250  100.89130
 3434.00000   19.80840    7.61450  417.33590  339.41350   -9999.25    0.13790    2.48750    0.00810    3.16210    0.13820   58.14960   58.72280  102.42810  101.26050
 3434.50000   11.00550    7.58590  616.40140  498.54330   -9999.25   -9999.25    2.47760    0.00850    3.17150    0.14440   57.78190   58.43570  101.69820  101.32490
 3435.00000    7.50080    7.55720  871.75200  732.27960   -9999.25   -9999.25    2.46750    0.00890    3.18870    0.15060   56.80140   57.54810  100.96820  100.53630
 3435.50000    8.03380    7.53700  947.68150  774.94060   -9999.25   -9999.25    2.49460    0.01100    3.22620    0.13380   55.92750   56.66060  100.23830   99.69910
 3436.00000   28.16460    7.59300  711.96750  591.20100   -9999.25   -9999.25    2.55920    0.01470    3.23820    0.09380   55.57110   56.07850   99.64110   98.90700
 3436.50000   43.42850    7.62610  510.99810  448.73600   -9999.25   -9999.25    2.60920    0.01850    3.23610    0.06240   55.48140   56.07850   99.70470   98.69380
 3437.00000   26.30970    7.62170  359.23390  338.65700   -9999.25   -9999.25    2.60740    0.02120    3.24200    0.06360   55.99670   56.69180  101.00520   99.62530
 3437.50000   19.03310    7.60400  303.53230  293.89870   -9999.25   -9999.25    2.56440    0.02130    3.27670    0.09040   57.18210   58.18540  102.30560  100.95140
 3438.00000   18.13450    7.57320  307.64810  291.47210   -9999.25   -9999.25    2.51440    0.01820    3.28160    0.12150   58.03340   58.37180  102.30670  101.25280
 3438.50000   21.64100    7.54240  367.09210  321.73020   -9999.25   -9999.25    2.49350    0.01400    3.27320    0.13450   57.57480   58.00190  100.96720  100.52780
 3439.00000   32.52420    7.57230  447.29470  391.61300   -9999.25   -9999.25    2.49820    0.00980    3.34330    0.13150   56.57470   57.14990   99.47960   99.09710
 3439.50000   45.20820    7.56190  555.77690  433.39530   -9999.25   -9999.25    2.52140    0.00890    3.42440    0.11720   55.21820   55.45210   97.99210   97.66640
 3440.00000   99.19540    7.58710  867.01230  556.95520   -9999.25   -9999.25    2.56540    0.01420    3.49160    0.08980   53.52050   53.72690   96.50450   95.88050
 3440.50000  235.77010    7.59920 1352.53970  993.18690   -9999.25   -9999.25    2.62980    0.02040    3.50430    0.05020   51.37700   51.91550   95.01700   93.81760
 3441.00000  337.99100    7.57160 2606.56490 1771.09420   -9999.25   -9999.25    2.72570    0.02660    3.51710   -0.00970   50.37950   50.81180   93.52940   92.51060
 3441.50000  777.97470    7.54400 7404.01460 8252.19920   -9999.25   -9999.25    2.81010    0.03280    3.52980   -0.06210   -9999.25   -9999.25   -9999.25   -9999.25
 3442.00000  587.59840    7.58090 10339.52540 8425.30760   -9999.25   -9999.25    2.86640    0.03900    3.54000   -0.09720   -9999.25   -9999.25   -9999.25   -9999.25
 3442.50000  110.85040    7.60210 1980.41750 1365.25150   -9999.25   -9999.25    2.83470    0.04450    3.52990   -0.07760   -9999.25   -9999.25   -9999.25   -9999.25
 3443.00000   25.73840    7.53160  620.15530  370.58350   -9999.25   -9999.25    2.76440    0.04230    3.48080   -0.03380   -9999.25   -9999.25   -9999.25   -9999.25
 3443.50000   21.23730    7.56500  216.91380  170.18410   -9999.25   -9999.25    2.69490    0.03360    3.38590    0.00930   -9999.25   -9999.25   -9999.25   -9999.25
 3444.00000   20.26350    7.59840  115.66590   78.15410   -9999.25   -9999.25    2.66710    0.02400    3.29110    0.02670   -9999.25   -9999.25   -9999.25   -9999.25
 3444.50000   30.55430    7.62140   49.79580   39.78270   -9999.25   -9999.25    2.70060    0.01440    3.22890    0.00600   -9999.25   -9999.25   -9999.25   -9999.25
 3445.00000   32.30410    7.62580   30.54140   37.64540   -9999.25   -9999.25    2.74570    0.00840    3.26520   -0.02210   -9999.25   -9999.25   -9999.25   -9999.25
 3445.50000   31.15330    7.62780   31.05250   39.03280   -9999.25   -9999.25    2.76120    0.00360    3.32800   -0.03180   -9999.25   -9999.25   -9999.25   -9999.25
 3446.00000   28.96380    7.62520   41.13840   48.63530   -9999.25   -9999.25    2.76240   -0.00110    3.35220   -0.03250   -9999.25   -9999.25   -9999.25   -9999.25
 3446.50000   -9999.25    7.62060   54.50020   60.60000   -9999.25   -9999.25   -9999.25   -9999.25   -9999.25   -9999.25   -9999.25   -9999.25   -9999.25   -9999.25
 3447.00000   -9999.25    7.61610   63.46060   75.50830   -9999.25   -9999.25   -9999.25   -9999.25   -9999.25   -9999.25   -9999.25   -9999.25   -9999.25   -9999.25
 3447.50000   -9999.25    7.61150   70.75240   88.63400   -9999.25   -9999.25   -9999.25   -9999.25   -9999.25   -9999.25   -9999.25   -9999.25   -9999.25   -9999.25
 3448.00000   -9999.25    7.60700  121.69470  117.93910   -9999.25   -9999.25   -9999.25   -9999.25   -9999.25   -9999.25   -9999.25   -9999.25   -9999.25   -9999.25
 3448.50000   -9999.25    7.60240  222.35640  194.10200   -9999.25   -9999.25   -9999.25   -9999.25   -9999.25   -9999.25   -9999.25   -9999.25   -9999.25   -9999.25
 3449.00000   -9999.25    7.59790  212.29360  194.74940   -9999.25   -9999.25   -9999.25   -9999.25   -9999.25   -9999.25   -9999.25   -9999.25   -9999.25   -9999.25
 3449.50000   -9999.25    7.59330  168.98590  160.37050   -9999.25   -9999.25   -9999.25   -9999.25   -9999.25   -9999.25   -9999.25   -9999.25   -9999.25   -9999.25
 3450.00000   -9999.25    7.59030  142.84650  153.58430   -9999.25   -9999.25   -9999.25   -9999.25   -9999.25   -9999.25   -9999.25   -9999.25   -9999.25   -9999.25
 3450.50000   -9999.25    7.58790  142.89240  148.28100   -9999.25   -9999.25   -9999.25   -9999.25   -9999.25   -9999.25   -9999.25   -9999.25   -9999.25   -9999.25
 3451.00000   -9999.25    7.58550  161.20520  147.13940   -9999.25   -9999.25   -9999.25   -9999.25   -9999.25   -9999.25   -9999.25   -9999.25   -9999.25   -9999.25
 3451.50000   -9999.25    7.58310  190.73650  157.36270   -9999.25   -9999.25   -9999.25   -9999.25   -9999.25   -9999.25   -9999.25   -9999.25   -9999.25   -9999.25
 3452.00000   -9999.25    7.58070  111.74020  161.86480   -9999.25   -9999.25   -9999.25   -9999.25   -9999.25   -9999.25   -9999.25   -9999.25   -9999.25   -9999.25
 3452.50000   -9999.25    7.57830   49.30040   70.25190   -9999.25   -9999.25   -9999.25   -9999.25   -9999.25   -9999.25   -9999.25   -9999.25   -9999.25   -9999.25
 3453.00000   -9999.25    7.57590   22.30870   33.95970   -9999.25   -9999.25   -9999.25   -9999.25   -9999.25   -9999.25   -9999.25   -9999.25   -9999.25   -9999.25
 3453.50000   -9999.25    7.57350   19.78980   33.63100   -9999.25   -9999.25   -9999.25   -9999.25   -9999.25   -9999.25   -9999.25   -9999.25   -9999.25   -9999.25
 3454.00000   -9999.25    7.57110   30.65340   38.72010   -9999.25   -9999.25   -9999.25   -9999.25   -9999.25   -9999.25   -9999.25   -9999.25   -9999.25   -9999.25
 3454.50000   -9999.25    7.56870   74.44740   45.91460   -9999.25   -9999.25   -9999.25   -9999.25   -9999.25   -9999.25   -9999.25   -9999.25   -9999.25   -9999.25
