~Version ---------------------------------------------------
VERS.   2.0 : CWLS log ASCII Standard -VERSION 2.0
WRAP.    NO : One line per depth step
DLM . SPACE : Column Data Section Delimiter
~Well ------------------------------------------------------
STRT .F                  148.0 : START DEPTH
STOP .F                 3456.0 : STOP DEPTH
STEP .F                    0.5 : STEP
NULL .                -9999.25 : NULL VALUE
COMP .                         : COMPANY
WELL .                         : WELL
FLD  .                         : FIELD
LOC  .                         : LOCATION
PROV .                         : PROVINCE
CNTY .                         : COUNTY
STAT .                         : STATE
CTRY .                         : COUNTRY
SRVC .                         : SERVICE COMPANY
DATE .                         : DATE
UWI  .                         : UNIQUE WELL ID
API  .                         : API NUMBER
SLAT .WGS84 1.7417209862131067 : SURFACE LATITUDE
SLON .WGS84  7.225960631755015 : SURFACE LONGITUDE
DATUM.F                2649.73 : DEPTH DATUM ELEV
~Curve Information -----------------------------------------
DEPT   .F     : 1 MEASURED DEPTH
RXOZ   .OHMM  : INVADED FORMATION RESISTIVITY FILTERED AT 18 INCHES
HCALR  .IN    : HRCC CALIPER CALIBRATED FROM RESISTIVITY LOG
HLLD   .OHMM  : HALS LATEROLOG DEEP RESISTIVITY
HLLS   .OHMM  : HALS LATEROLOG SHALLOW RESISTIVITY
GRD    .GAPI  : GAMMA RAY FROM DENSITY LOG
TNPH_LS.DEC   : THERMAL NEUTRON POROSITY [LIMESTONE]
RHOZ   .G/C3  : HRDD STANDARD RESOLUTION FORMATION DENSITY
HDRA   .G/C3  : HRDD SPINE AND RIBS DENSITY CORRECTION
PEFZ   .B/E   : HRDD STANDARD RESOLUTION FORMATION PHOTOELECTRIC FACTOR
DPHZ_LS.DEC   : HGRD STANDARD RESOLUTION DENSITY POROSITY
DTCO   .US/F  : DELTA-T COMPRESSIONAL
DTRP   .US/F  : DELTA-T COMPRESSIONAL, RECEIVER ARRAY - MONOPOLE P & S
DTRS   .US/F  : DELTA-T SHEAR, RECEIVER ARRAY - MONOPOLE P & S
DTSM   .US/F  : DELTA-T SHEAR
~Params ----------------------------------------------------
~Other -----------------------------------------------------
~ASCII -----------------------------------------------------
# ...
  760.00000   94.09800    9.43490 60920.61720 7995.93900   16.62600   -0.03830    2.05640    0.02090    5.02450    0.40600   66.69210   67.13000  118.56280  118.68470
  760.50000   74.04970    9.41130 60771.43750 4181.63820   17.37990   -0.03910    2.05470    0.01730    5.02440    0.40700   67.94500   68.73370  118.55940  119.30690
  761.00000   76.90160    9.40980 60622.62500 36066.19140   16.68000   -0.03900    2.04880    0.01370    5.02440    0.41070   69.61880   71.06660  121.28760  120.87920
  761.50000   99.18320    9.40950 60474.17580 1716.56360   15.72130   -0.03880    2.03910    0.01140    5.02440    0.41670   72.81940   73.64650  126.49960  125.58460
  762.00000  107.90630    9.35820 44653.51170 1904.83000   14.35320   -0.03460    2.03880    0.01100    5.02440    0.41690   74.82880   75.49760  131.35690  129.64140
  762.50000   40.48750    9.30460 11242.11430 10976.16410   13.27600   -0.03000    2.06660    0.01630    4.97820    0.40020   75.05450   75.67540  131.55440  129.98740
  763.00000   29.81360    9.25110 1709.78080 5786.78320   15.94950   -0.02550    2.13820    0.02230    4.87370    0.35410   74.26870   74.61340  126.33100  127.07500
  763.50000   29.20010    9.25560  498.13890  597.40220   22.36200   -0.02250    2.20850    0.02820    4.82270    0.31110   72.64170   71.90980  120.72170  123.24770
  764.00000   30.50070    9.30790  497.34270  565.39570   28.43240   -0.02250    2.20830    0.03420    4.85640    0.31000   67.01140   66.35290  115.11230  117.06590
  764.50000   36.99280    9.36330  693.11990  926.98550   23.90790   -0.02530    2.13720    0.03750    4.92610    0.35610   60.42540   59.22220  109.50290  108.94190
  765.00000   60.73920    9.40950 16464.82230 5630.20260   17.36130   -0.02930    2.07810    0.03320    4.95820    0.39230   56.66760   56.84410  103.39890  103.63860
  765.50000  178.61780    9.45560 59572.11330 6538.44530   12.67680   -0.03330    2.04120    0.02370    4.98010    0.41580   58.00690   58.00360  104.06770  103.11190
  766.00000  969.53060    9.50170 61466.51560 5019.46970   10.78590   -0.03730    2.03390    0.01420    5.00190    0.41890   60.02490   59.98680  104.69460  103.60060
  766.50000  895.59910    9.52510 61143.35940 4282.17140    9.01070   -0.03880    2.02990    0.00480    4.97590    0.41990   61.75610   61.97000  103.78690  103.13370
  767.00000  702.08860    9.51680 61181.03120 6875.38430    8.42990   -0.03910    2.02760   -0.00180    4.96210    0.42160   63.32160   63.95320  101.58380   98.88780
  767.50000 1072.31070    9.52600 61377.56250 6919.22360    8.51100   -0.03910    2.02780   -0.00380    4.96210    0.42410   63.86370   64.80520   99.38080   97.37740
  768.00000 1293.44860    9.53260 61574.72660 6519.96090    8.65720   -0.03910    2.02810   -0.00510    4.99700    0.42330   63.22350   64.11950   95.77030   96.69070
  768.50000 1986.62320    9.54440 45141.67970 10085.97560    9.51580   -0.03900    2.02840   -0.00510    5.03990    0.42200   62.48950   63.02510   92.00850   93.61970
  769.00000 1980.48490    9.55630 20193.43160 12355.59380   10.58760   -0.03870    2.02880   -0.00510    5.08280    0.42140   61.63010   61.93060   88.24680   88.74710
  769.50000 1974.36550    9.56810 8830.02540 5866.36040   12.11850   -0.03460    2.02920   -0.00450    5.10330    0.42060   61.39070   61.81620   84.62670   83.51820
  770.00000  735.81170    9.60960 4519.92870 1399.04240   17.46870   -0.02080    2.02950    0.00060    5.07600    0.42030   62.45030   63.15270   85.19010   84.14710
  770.50000   28.07740    9.65110  209.83190  114.06910   29.18200    0.00600    2.03080    0.00930    4.90560    0.41730   63.13540   63.84970   87.29210   85.67690
  771.00000    8.90000    9.80680   22.33420   16.15470   43.47270    0.06320    2.08050    0.01800    4.73520    0.39090   61.99300   62.14810   89.39410   87.88250
  771.50000    4.20420   10.00170    9.74510    7.30790   51.00410    0.13020    2.13080    0.02670    4.41730    0.35960   59.86810   59.45690   89.98590   88.80740
  772.00000    2.78540   10.04020    6.42450    6.00070   52.16630    0.18080    2.17820    0.02900    4.08710    0.33030   56.56840   56.78300   88.87580   88.21120
  772.50000    2.21050   10.05790    6.39430    6.00680   47.23760    0.16330    2.17040    0.02450    3.90280    0.33530   55.15690   55.08770   87.64910   87.49680
  773.00000    2.89920   10.07150    7.37270    6.23320   42.33000    0.13280    2.13910    0.01150    4.00230    0.35380   54.99110   55.29450   87.23980   86.85880
  773.50000    6.70860   10.06920   11.80040    9.08170   42.36980    0.09860    2.10240    0.00710    4.11970    0.37750   55.54070   55.99740   87.03510   86.31680
  774.00000   38.19390   10.06260   14.96870   14.15160   42.82840    0.08770    2.08920    0.00500    4.21810    0.38560   56.77910   57.77540   88.22480   87.19330
  774.50000   16.86250   10.05360   15.19260   14.38600   42.51320    0.09050    2.09930    0.00490    4.16030    0.37930   60.56670   64.40820   97.07230   95.84610
  775.00000    6.80870   10.03270   15.62530   14.50390   36.48220    0.07670    2.10910    0.00780    3.94440    0.37320   69.24590   72.69320  105.91990  105.36850
  775.50000    4.58300    9.98460   22.59230   18.80450   29.96100    0.05030    2.10810    0.01440    3.93200    0.37380   75.33920   76.40330  111.89690  111.41160
  776.00000    5.34500    9.88000   38.40780   32.18290   26.40350    0.03210    2.10530    0.02090    4.11520    0.37560   74.55050   74.91910  111.16110  110.21770
  776.50000    9.07130    9.77550   38.64470   30.65960   24.78730    0.01710    2.10390    0.02750    4.33660    0.37640   73.49010   73.44800  109.50790  108.87550
  777.00000   10.66510    9.68750   34.81240   27.38740   24.31100    0.01060    2.10390    0.02980    4.53510    0.37650   74.28750   74.43440  107.85480  107.62910
  777.50000   10.23710    9.72130   30.65350   23.84890   25.00370    0.00620    2.10250    0.03080    4.52090    0.37650   76.75810   77.18770  106.74850  106.02130
  778.00000   20.73660    9.72740   26.64800   16.14630   26.04350    0.00220    2.10070    0.03110    4.44990    0.37720   79.25930   79.94110  107.36020  106.12490
  778.50000   27.76620    9.72600   20.96480   10.95220   26.30530   -0.00240    2.09880    0.03240    4.37880    0.37940   79.25950   80.41270  109.03590  108.04300
  779.00000   13.71460    9.72450   19.90720   11.03750   23.16350   -0.00700    2.09950    0.04180    4.31490    0.37850   75.99340   76.89850  110.71170  109.21510
  779.50000    4.09700    9.72290   29.96510   16.83820   17.98620   -0.01160    2.11490    0.05140    4.27510    0.37190   73.10190   73.55670  112.38750  110.19200
  780.00000    2.44680    9.68520   94.32640   37.15220   13.04440   -0.01030    2.13070    0.05370    4.28610    0.35970   72.91300   73.09240  115.10990  112.25310
  780.50000    2.53870    9.66310  162.01170  101.11710   14.99660    0.00810    2.12730    0.04550    4.44530    0.36190   75.03660   75.51340  122.38650  118.23440
  781.00000    4.04740    9.64470   75.59980   41.24260   25.72530    0.06220    2.10630    0.03700    4.60450    0.37500   81.77720   82.59000  133.50270  130.81790
  781.50000   27.23700    9.64340   21.75000   15.40640   41.96510    0.13200    2.08750    0.02840    4.68580    0.38740   89.78310   89.66650  144.61880  145.63240
  782.00000   13.35360    9.92620   10.70230    6.53680   56.01410    0.19700    2.08720    0.02480    4.51850    0.38680   93.06480   94.19520  153.06210  151.62770
  782.50000    1.56850   11.35570    4.90730    3.61240   59.85240    0.24050    2.08860    0.03000    4.14910    0.38590   94.56870   95.07820  155.45830  153.16830
  783.00000    0.57510   13.83090    2.69170    3.55640   56.16990    0.23520    2.07020    0.03770    3.76330    0.39740   94.84700   95.12770  152.45590  154.20560
  783.50000    0.52690   19.49100    2.56030    3.73060   49.72920    0.16270    2.04120    0.02890    3.45390    0.41540   92.82440   92.61710  144.55920  149.15000
  784.00000    1.31940   13.13530    4.89270    8.13440   41.16200    0.08920    2.03590    0.01590    3.49400    0.41890   86.71700   88.18910  136.66250  138.02290
