~Version ---------------------------------------------------
VERS.   2.0 : CWLS log ASCII Standard -VERSION 2.0
WRAP.    NO : One line per depth step
DLM . SPACE : Column Data Section Delimiter
~Well ------------------------------------------------------
STRT .F                  148.0 : START DEPTH
STOP .F                 3456.0 : STOP DEPTH
STEP .F                    0.5 : STEP
NULL .                -9999.25 : NULL VALUE
COMP .                         : COMPANY
WELL .                         : WELL
FLD  .                         : FIELD
LOC  .                         : LOCATION
PROV .                         : PROVINCE
CNTY .                         : COUNTY
STAT .                         : STATE
CTRY .                         : COUNTRY
SRVC .                         : SERVICE COMPANY
DATE .                         : DATE
UWI  .                         : UNIQUE WELL ID
API  .                         : API NUMBER
SLAT .WGS84 1.7417209862131067 : SURFACE LATITUDE
SLON .WGS84  7.225960631755015 : SURFACE LONGITUDE
DATUM.F                2649.73 : DEPTH DATUM ELEV
~Curve Information -----------------------------------------
DEPT   .F     : 1 MEASURED DEPTH
RXOZ   .OHMM  : INVADED FORMATION RESISTIVITY FILTERED AT 18 INCHES
HCALR  .IN    : HRCC CALIPER CALIBRATED FROM RESISTIVITY LOG
HLLD   .OHMM  : HALS LATEROLOG DEEP RESISTIVITY
HLLS   .OHMM  : HALS LATEROLOG SHALLOW RESISTIVITY
GRD    .GAPI  : GAMMA RAY FROM DENSITY LOG
TNPH_LS.DEC   : THERMAL NEUTRON POROSITY [LIMESTONE]
RHOZ   .G/C3  : HRDD STANDARD RESOLUTION FORMATION DENSITY
HDRA   .G/C3  : HRDD SPINE AND RIBS DENSITY CORRECTION
PEFZ   .B/E   : HRDD STANDARD RESOLUTION FORMATION PHOTOELECTRIC FACTOR
DPHZ_LS.DEC   : HGRD STANDARD RESOLUTION DENSITY POROSITY
DTCO   .US/F  : DELTA-T COMPRESSIONAL
DTRP   .US/F  : DELTA-T COMPRESSIONAL, RECEIVER ARRAY - MONOPOLE P & S
DTRS   .US/F  : DELTA-T SHEAR, RECEIVER ARRAY - MONOPOLE P & S
DTSM   .US/F  : DELTA-T SHEAR
~Params ----------------------------------------------------
~Other -----------------------------------------------------
~ASCII -----------------------------------------------------
# ...
 2083.00000   20.59680   10.32640   28.87000   32.26650   42.15230    0.04970    2.82310    0.01180    4.54960   -0.06730   62.41670   62.77810  121.39630  120.71780
 2083.50000   27.96140   10.34340   34.82330   52.10000   38.46820    0.04380    2.82810    0.01690    4.51150   -0.08070   64.20620   64.22050  120.36390  119.22310
 2084.00000   42.45430   10.34940   65.77030  117.33330   30.04630    0.02700    2.88650    0.01750    4.64470   -0.10980   63.42950   63.00640  117.99900  116.75460
 2084.50000  167.24450   10.35720   99.03030  122.37830   23.26750    0.01100    2.96230    0.01450    4.79020   -0.14750   61.33720   60.84000  115.63400  114.23430
 2085.00000  324.55720   10.37750  102.50400  123.69860   17.61010    0.00920    2.96030    0.00890    4.92900   -0.15400   58.29940   58.67360  113.74670  112.55540
 2085.50000  142.34980   10.39780   80.85430   99.96790   17.41070    0.01100    2.94500    0.00340    5.01970   -0.14770   56.72140   57.21170  112.33430  111.33920
 2086.00000   52.51460   10.41800   59.17940   72.96790   19.21070    0.01310    2.92980   -0.00180    4.89810   -0.13880   56.52490   56.57740  110.92180  110.15140
 2086.50000   53.65810   10.43390   56.55290   62.15170   20.70100    0.01360    2.92830   -0.00700    4.72650   -0.13530   56.18730   55.90250  109.50930  109.00080
 2087.00000   79.49920   10.43400   61.71680   74.87180   19.13530    0.01090    2.94600   -0.01160    4.66390   -0.14340   54.56670   54.86630  108.66410  108.27290
 2087.50000  330.68510   10.46790   79.60210   88.74880   18.45910    0.01180    2.95580   -0.01610    4.66080   -0.15280   55.15860   55.91410  109.22340  109.61650
 2088.00000   15.77800   10.50170   40.59600   48.93890   21.53150    0.03540    2.93660   -0.02000    4.69280   -0.13930   59.00790   59.71880  117.53910  117.18120
 2088.50000   14.91770   10.53560   20.32650   26.14060   29.60540    0.06500    2.89640   -0.01650    4.65370   -0.11580   63.96590   63.52340  125.85490  125.49650
 2089.00000    8.22010   10.56950   12.74770   13.98380   39.89120    0.09470    2.83260   -0.00300    4.51010   -0.07800   67.21840   67.32810  130.41610  129.14650
 2089.50000    7.22730   10.59350   11.05960    8.35100   48.98490    0.12290    2.75970    0.01060    4.28360   -0.03110   70.66700   71.13280  133.38450  131.95320
 2090.00000    6.11450   10.58920   10.70440    8.28280   52.07440    0.14770    2.66980    0.01970    4.04520    0.02650   73.51810   74.14140  136.35300  135.54470
 2090.50000    7.40280   10.58500   11.26520    9.80240   45.77700    0.13240    2.67230    0.02040    3.98260    0.02340   72.36810   71.87900  136.10170  135.18060
 2091.00000   13.96140   10.58100   21.88140   17.26630   39.10270    0.09550    2.71950    0.02040    4.03600   -0.00700   67.89680   68.58250  131.34630  130.82170
 2091.50000   37.78200   10.58360   29.66870   35.01660   30.39460    0.06180    2.81710    0.01990    4.25310   -0.06610   65.56460   66.09060  126.59100  126.71490
 2092.00000   44.92140   10.58620   25.56540   30.19590   25.94320    0.04880    2.87890    0.02020    4.48420   -0.10240   65.48140   65.94010  124.88020  124.99170
 2092.50000   28.03540   10.58770   21.82200   24.71280   26.58700    0.05690    2.86500    0.02080    4.72670   -0.10310   65.75820   65.93530  125.84730  125.37280
 2093.00000   26.01540   10.58770   18.91550   20.22530   29.13280    0.06630    2.83630    0.01990    4.85770   -0.08110   65.37470   65.75440  125.04180  123.75090
 2093.50000   22.15910   10.58770   16.64300   18.43910   30.91720    0.07890    2.80760    0.01890    4.84510   -0.06590   64.70790   64.99770  121.22640  120.00610
 2094.00000   16.31200   10.58510   18.45720   18.54740   28.55160    0.07090    2.80420    0.01800    4.80530   -0.05650   62.90310   63.33400  117.41100  116.79490
 2094.50000   19.67090   10.57410   24.08030   22.12440   21.66540    0.04940    2.81040    0.01270    4.80370   -0.05570   60.47790   60.26290  114.32200  114.41840
 2095.00000   32.21970   10.56320   49.56560   37.68290   15.62660    0.02670    2.84420    0.00580    4.84720   -0.08180   58.65560   58.94230  111.74020  112.04190
 2095.50000  144.58960   10.55230   64.31080   53.87230   12.84500    0.00950    2.89500    0.00020    4.95740   -0.10810   57.07740   57.44380  109.15830  109.66540
 2096.00000  135.14770   10.52430   52.02690   48.70820   12.77160    0.01020    2.94640    0.00040    4.96770   -0.13300   55.48300   56.20690  108.10660  108.34190
 2096.50000  228.94330   10.48990   49.76040   46.02880   13.62500    0.01550    2.94710    0.00890    4.96780   -0.14720   55.16520   56.16950  110.40480  108.99960
 2097.00000  114.16580   10.47330   49.27330   38.07980   14.47850    0.02590    2.94150    0.01710    4.96780   -0.14050   57.33260   58.40000  114.20420  113.79810
 2097.50000   29.49030   10.48840   39.22030   30.21850   16.28770    0.03660    2.91630    0.02490    4.96780   -0.12740   60.03280   61.26520  118.00350  116.85880
 2098.00000   11.97710   10.50360   24.29560   28.45460   17.03060    0.03960    2.89100    0.02780    4.92350   -0.11610   62.51600   63.24040  119.25790  117.55630
 2098.50000   12.10550   10.48980   24.84680   29.87790   17.28070    0.03610    2.88370    0.02620    4.91070   -0.10700   63.55820   63.79120  119.16290  117.58160
 2099.00000   17.00080   10.39140   26.91050   33.78810   17.54240    0.03270    2.88360    0.02440    4.97050   -0.10600   62.81220   63.17230  117.99680  117.54590
 2099.50000   33.00160   10.35030   27.58720   34.84180   18.28320    0.02810    2.88430    0.02000    5.06620   -0.10750   62.18200   62.95400  116.11700  116.19400
 2100.00000   14.71180   10.32400   27.20220   30.03010   18.40130    0.02600    2.88510    0.01650    5.10890   -0.11010   62.81920   63.77520  114.23720  114.04230
 2100.50000    2.76520   10.29850   21.71630   24.54430   17.98840    0.02420    2.88510    0.01580    5.12470   -0.11160   63.17500   63.88850  112.53120  112.00280
 2101.00000    2.64900   10.26220   21.69410   24.10030   15.11370    0.02220    2.88510    0.01950    5.05800   -0.11030   61.32140   60.43980  110.85100  109.70760
 2101.50000    2.65000   10.16100   26.40400   43.70070   12.58600    0.01210    2.88560    0.01940    4.98050   -0.10680   58.04130   56.79480  109.17080  107.23820
 2102.00000   19.58570   10.09970   68.46780  133.75800    9.54540   -0.00000    2.88720    0.01280    4.98950   -0.11130   55.44870   56.43560  107.49060  106.13080
 2102.50000   68.81650   10.06480  183.32180  217.84480    7.33150   -0.01080    2.91580    0.00630    5.01230   -0.12720   56.82480   57.17430  104.83460  105.02280
 2103.00000  212.00040   10.01760  257.83670  221.53060    5.66780   -0.01730    2.94560    0.00300    5.03510   -0.14610   56.80430   56.31030  101.50970  103.05530
 2103.50000  711.97020    9.97040  393.16440  319.84500    4.21200   -0.02080    2.98710    0.00160    5.05800   -0.16160   54.53490   54.39550  100.12760  100.55810
 2104.00000  884.80520    9.92320  632.83230  500.28700    4.01370   -0.02150    3.00880    0.00010    5.08080   -0.17390   54.04600   54.06990  101.12420  100.23770
 2104.50000 1454.36040    9.88370  729.74770  457.06040    5.17660   -0.02070    3.01210   -0.00160    5.10730   -0.18370   54.19120   54.04960  101.70250  100.11750
 2105.00000  174.06910    9.83180  378.53660  293.47270    7.02280   -0.01800    3.00980   -0.00310    5.13580   -0.18510   54.18290   54.04960   99.85740  100.11750
 2105.50000  164.08920    9.77730  301.62170  255.35240   10.14890   -0.01350    2.99820   -0.00250    5.12350   -0.17910   54.11060   54.38650  100.63490   99.85100
 2106.00000   98.99440    9.73070  201.91900  122.34270   15.48250    0.00030    2.96250    0.00340    5.05220   -0.15690   55.81390   56.43850   99.31510   95.20070
 2106.50000   48.13550    9.68410   73.57300   58.96290   21.05210    0.01800    2.92800    0.01570    4.88760   -0.13550   58.97460   60.05070   84.55280   84.75900
 2107.00000   37.68440    9.63750   41.65420   37.82840   26.18290    0.03570    2.89500    0.02790    4.76690   -0.11520   62.23810   63.27460   77.33490   77.08630
