~Version ---------------------------------------------------
VERS.   2.0 : CWLS log ASCII Standard -VERSION 2.0
WRAP.    NO : One line per depth step
DLM . SPACE : Column Data Section Delimiter
~Well ------------------------------------------------------
STRT .F                  148.0 : START DEPTH
STOP .F                 3456.0 : STOP DEPTH
STEP .F                    0.5 : STEP
NULL .                -9999.25 : NULL VALUE
COMP .                         : COMPANY
WELL .                         : WELL
FLD  .                         : FIELD
LOC  .                         : LOCATION
PROV .                         : PROVINCE
CNTY .                         : COUNTY
STAT .                         : STATE
CTRY .                         : COUNTRY
SRVC .                         : SERVICE COMPANY
DATE .                         : DATE
UWI  .                         : UNIQUE WELL ID
API  .                         : API NUMBER
SLAT .WGS84 1.7417209862131067 : SURFACE LATITUDE
SLON .WGS84  7.225960631755015 : SURFACE LONGITUDE
DATUM.F                2649.73 : DEPTH DATUM ELEV
~Curve Information -----------------------------------------
DEPT   .F     : 1 MEASURED DEPTH
RXOZ   .OHMM  : INVADED FORMATION RESISTIVITY FILTERED AT 18 INCHES
HCALR  .IN    : HRCC CALIPER CALIBRATED FROM RESISTIVITY LOG
HLLD   .OHMM  : HALS LATEROLOG DEEP RESISTIVITY
HLLS   .OHMM  : HALS LATEROLOG SHALLOW RESISTIVITY
GRD    .GAPI  : GAMMA RAY FROM DENSITY LOG
TNPH_LS.DEC   : THERMAL NEUTRON POROSITY [LIMESTONE]
RHOZ   .G/C3  : HRDD STANDARD RESOLUTION FORMATION DENSITY
HDRA   .G/C3  : HRDD SPINE AND RIBS DENSITY CORRECTION
PEFZ   .B/E   : HRDD STANDARD RESOLUTION FORMATION PHOTOELECTRIC FACTOR
DPHZ_LS.DEC   : HGRD STANDARD RESOLUTION DENSITY POROSITY
DTCO   .US/F  : DELTA-T COMPRESSIONAL
DTRP   .US/F  : DELTA-T COMPRESSIONAL, RECEIVER ARRAY - MONOPOLE P & S
DTRS   .US/F  : DELTA-T SHEAR, RECEIVER ARRAY - MONOPOLE P & S
DTSM   .US/F  : DELTA-T SHEAR
~Params ----------------------------------------------------
~Other -----------------------------------------------------
~ASCII -----------------------------------------------------
# ...
 1519.50000   39.46160   10.06610  100.12130   43.63640   41.37090    0.04960    2.46000    0.00680    3.36460    0.15540   65.32580   65.57150  117.97590  116.95210
 1520.00000   37.40790   10.05950  105.89880   45.69180   40.62250    0.04690    2.42440    0.00890    3.27940    0.17740   65.97040   66.38010  118.88680  117.39040
 1520.50000   37.55710   10.04210  112.00980   48.41770   40.44690    0.04420    2.42450    0.00790    3.21980    0.17730   66.65890   67.04970  120.41980  119.00900
 1521.00000   47.00930   10.02460  122.24680   50.71390   41.07730    0.03830    2.42450    0.00510    3.21950    0.17730   67.72080   68.21690  123.02990  121.77840
 1521.50000   45.99530   10.00720  131.09670   51.10700   41.97010    0.03730    2.41570    0.00440    3.21920    0.18280   69.24400   69.38970  126.81470  124.94150
 1522.00000   41.99290    9.98970  126.08830   48.19880   43.25400    0.04290    2.40410    0.00550    3.19120    0.19000   69.61680   70.19140  128.97270  126.49650
 1522.50000   29.97870    9.97210   99.20790   46.39930   44.95940    0.04980    2.39840    0.01020    3.14420    0.19350   70.16170   70.82760  127.91130  126.61750
 1523.00000   26.11300    9.94530   76.99810   41.07600   46.51440    0.05990    2.39860    0.01250    3.15510    0.19350   73.68690   73.74920  125.13080  124.22870
 1523.50000   18.68100    9.91840   57.51890   36.05350   49.07810    0.08420    2.40420    0.01190    3.19420    0.18990   76.91940   77.00600  122.35020  122.05860
 1524.00000   11.42630    9.89630   37.05740   22.69500   52.28740    0.11490    2.41160    0.01140    3.21030    0.18530   77.65820   78.52260  120.46770  120.17860
 1524.50000    6.84790    9.88190   22.46980   14.07560   54.13660    0.14790    2.42460    0.01070    3.23950    0.17720   77.28390   78.18290  119.56850  119.16940
 1525.00000    4.57270    9.84980   16.51830   10.63410   52.80250    0.20420    2.43930    0.00990    3.29140    0.16790   74.77100   75.16130  118.77080  118.50560
 1525.50000    4.46630    9.78610   13.39520    9.19880   46.21850    0.18600    2.49540    0.02180    3.34330    0.13740   71.67590   72.13960  118.87740  118.13610
 1526.00000    6.05520    9.72910   14.35470   10.58640   38.41520    0.14760    2.56510    0.02750    3.54890    0.08960   70.30950   70.73530  120.00890  118.53450
 1526.50000   10.09690    9.69810   29.19630   16.09050   30.61190    0.09610    2.60530    0.03080    3.84190    0.06500   70.06740   70.16210  123.72300  120.87940
 1527.00000    6.35810    9.86570   57.98340   36.58150   23.81490    0.04940    2.54690    0.03110    4.11290    0.10060   69.82520   70.11190  125.63210  123.22420
 1527.50000    4.49140   10.12160   64.68160   38.73430   23.60550    0.04830    2.40980    0.03550    4.22290    0.18660   69.17370   69.53030  125.41440  123.77280
 1528.00000    4.30020   10.01720   52.53410   36.04560   26.62060    0.05470    2.30890    0.04650    4.18730    0.25570   66.87490   67.49510  124.29040  122.76430
 1528.50000   18.10980    9.93770   57.68840   45.23040   30.55080    0.05180    2.26700    0.05700    4.07160    0.27900   64.39290   65.27280  122.89350  121.66190
 1529.00000   20.27220    9.92730   92.31850   65.48520   32.88230    0.03900    2.26750    0.05700    3.80900    0.26560   63.03380   63.49680  121.79650  121.20310
 1529.50000   16.64770    9.95390  101.59750   93.82660   35.01560    0.03940    2.29340    0.04980    3.69460    0.24500   63.85030   64.52810  123.31660  122.21320
 1530.00000   15.73660   10.03340   69.47540   65.79640   37.17940    0.05590    2.33570    0.03920    3.63430    0.22320   67.50360   68.04400  126.13840  124.86820
 1530.50000   14.08750   10.14990   37.96040   43.00450   39.07100    0.09470    2.37790    0.02860    3.62170    0.19450   70.01290   70.52670  128.96030  128.01920
 1531.00000    9.95120    9.92070   29.87720   33.20970   39.52400    0.14280    2.42020    0.01810    3.65710    0.18010   68.21650   69.27870  129.43790  128.47700
 1531.50000    6.90290    9.81000   23.51520   26.51460   37.17760    0.16420    2.46240    0.00900    3.77990    0.15420   65.93630   66.43680  128.52260  129.04940
 1532.00000    2.14380    9.73190   26.60140   24.89020   31.36110    0.14240    2.52620    0.01250    3.97520    0.11370   65.94280   65.82210  129.54790  129.67320
 1532.50000    2.47600    9.66960   30.00720   23.52810   24.46110    0.11030    2.63960    0.01830    4.17560    0.04350   68.42970   68.67530  131.58370  130.65850
 1533.00000    3.48580    9.62110   18.77200   21.93740   18.78870    0.08190    2.72850    0.01970    4.38670   -0.01160   70.93720   70.94480  132.78990  131.41130
 1533.50000   12.20360    9.57260   17.93060   21.44930   17.09390    0.05440    2.74430    0.02110    4.58620   -0.02140   67.74010   68.04410  124.63480  125.09250
 1534.00000   13.03810    9.54430   26.00100   21.36080   14.44690    0.02980    2.72000    0.02250    4.71010   -0.00620   62.29410   63.46370  116.22030  111.96260
 1534.50000   47.24840    9.53420  192.11020  112.36570   10.19270    0.00510    2.71310    0.02180    4.85400   -0.00150   57.25210   58.88320  107.80590  102.79900
 1535.00000 1949.61650    9.50520 1477.64450  798.34250    6.64620   -0.00660    2.75800    0.01590    4.99790   -0.02980   55.13160   55.62750  102.51640  100.11370
 1535.50000 1973.96450    9.48150 1517.94260 1213.79280    4.32290   -0.00570    2.82370    0.01050    5.01410   -0.06050   55.13750   55.01060  101.38670   99.91150
 1536.00000  436.23090    9.50000 1185.96180  978.37100    4.83900   -0.00290    2.82780    0.00920    4.91280   -0.06840   55.39320   55.29980  101.21470  101.36200
 1536.50000  413.99840    9.51840  820.45880  689.20910    8.93330    0.00760    2.77060    0.01250    4.67910   -0.00330   57.67410   57.10940  102.17070  103.69880
 1537.00000  185.58040    9.53010  321.68230  255.81340   13.57580    0.03270    2.58570    0.01670    4.45020    0.07780   61.07150   60.64480  107.04910  108.14460
 1537.50000   15.20060    9.53240   84.97220   87.01030   16.05010    0.06790    2.48670    0.02080    4.23740    0.14220   62.36340   62.42820  111.92760  112.36260
 1538.00000   12.50920    9.53300   69.46590   90.80170   16.22780    0.06840    2.48230    0.02450    4.09140    0.14050   61.83440   62.71050  115.89640  114.01950
 1538.50000   13.18130    9.53000   87.66270  127.16720   15.75460    0.05930    2.59930    0.02810    4.20390    0.07040   60.41130   61.52050  115.94760  114.12890
 1539.00000   83.80690    9.52710   98.66030  178.09680   15.26980    0.03500    2.73870    0.03070    4.50380   -0.01830   60.51070   60.58790  114.58380  114.37810
 1539.50000   89.53870    9.52420   76.81230  163.96070   16.17550    0.01900    2.88840    0.03020    4.81610   -0.11570   61.32880   60.79120  115.99260  115.33800
 1540.00000   20.22510    9.51720   46.35860   65.54390   17.37930    0.02030    2.91340    0.02990    4.92000   -0.12350   62.26260   61.65260  117.72350  116.63860
 1540.50000   19.61350    9.51740   41.31300   49.89480   17.70980    0.02180    2.91340    0.02980    4.96360   -0.12650   62.00040   62.82030  118.49810  116.51720
 1541.00000   24.36940    9.52690   34.16860   50.70780   17.46780    0.01920    2.92820    0.03320    4.79520   -0.14270   59.01550   61.22710  116.95800  112.24790
 1541.50000   42.43420    9.53270   26.04400   38.35310   16.45370    0.01630    2.97990    0.03770    4.67280   -0.17810   55.94960   58.39820  108.86410  107.01450
 1542.00000   48.35650    9.56030   25.82820   31.94460   14.70220    0.00860    2.99780    0.04380    4.61380   -0.18780   54.44830   55.56930  106.73350  107.15930
 1542.50000   48.99250    9.58780   28.29620   52.76520   12.34570   -0.00240    2.99730    0.04990    4.68830   -0.16950   54.64100   54.64030  109.25460  110.44080
 1543.00000   16.10010    9.61540   74.54310  136.69460    9.70610   -0.01390    2.91020    0.04990    4.90320   -0.11540   57.53810   57.05690  114.56560  114.50040
 1543.50000    4.50860    9.69980  188.22160  209.65260    8.38050   -0.02400    2.71450    0.04880    5.12120   -0.00190   61.90620   61.11020  119.87650  120.39590
