~Version ---------------------------------------------------
VERS.   2.0 : CWLS log ASCII Standard -VERSION 2.0
WRAP.    NO : One line per depth step
DLM . SPACE : Column Data Section Delimiter
~Well ------------------------------------------------------
STRT .F                  148.0 : START DEPTH
STOP .F                 3456.0 : STOP DEPTH
STEP .F                    0.5 : STEP
NULL .                -9999.25 : NULL VALUE
COMP .                         : COMPANY
WELL .                         : WELL
FLD  .                         : FIELD
LOC  .                         : LOCATION
PROV .                         : PROVINCE
CNTY .                         : COUNTY
STAT .                         : STATE
CTRY .                         : COUNTRY
SRVC .                         : SERVICE COMPANY
DATE .                         : DATE
UWI  .                         : UNIQUE WELL ID
API  .                         : API NUMBER
SLAT .WGS84 1.7417209862131067 : SURFACE LATITUDE
SLON .WGS84  7.225960631755015 : SURFACE LONGITUDE
DATUM.F                2649.73 : DEPTH DATUM ELEV
~Curve Information -----------------------------------------
DEPT   .F     : 1 MEASURED DEPTH
RXOZ   .OHMM  : INVADED FORMATION RESISTIVITY FILTERED AT 18 INCHES
HCALR  .IN    : HRCC CALIPER CALIBRATED FROM RESISTIVITY LOG
HLLD   .OHMM  : HALS LATEROLOG DEEP RESISTIVITY
HLLS   .OHMM  : HALS LATEROLOG SHALLOW RESISTIVITY
GRD    .GAPI  : GAMMA RAY FROM DENSITY LOG
TNPH_LS.DEC   : THERMAL NEUTRON POROSITY [LIMESTONE]
RHOZ   .G/C3  : HRDD STANDARD RESOLUTION FORMATION DENSITY
HDRA   .G/C3  : HRDD SPINE AND RIBS DENSITY CORRECTION
PEFZ   .B/E   : HRDD STANDARD RESOLUTION FORMATION PHOTOELECTRIC FACTOR
DPHZ_LS.DEC   : HGRD STANDARD RESOLUTION DENSITY POROSITY
DTCO   .US/F  : DELTA-T COMPRESSIONAL
DTRP   .US/F  : DELTA-T COMPRESSIONAL, RECEIVER ARRAY - MONOPOLE P & S
DTRS   .US/F  : DELTA-T SHEAR, RECEIVER ARRAY - MONOPOLE P & S
DTSM   .US/F  : DELTA-T SHEAR
~Params ----------------------------------------------------
~Other -----------------------------------------------------
~ASCII -----------------------------------------------------
# ...
 1715.50000  148.42750    9.13210   76.85540  112.68490   20.34760    0.03020    2.77600    0.03170    4.75570   -0.01620   55.08720   55.36720  100.75060  100.54500
 1716.00000   69.81480    9.15150   76.40980   87.43840   19.59150    0.03480    2.88520    0.05380    4.37000   -0.06520   55.16620   55.38490  102.21060  101.53170
 1716.50000   81.20200    9.16320   75.96670   87.45100   18.83600    0.02520    2.91230    0.06310    4.28840   -0.12810   55.12990   55.36630  103.37970  102.69240
 1717.00000   45.15340    9.21530   75.52610   88.04050   18.42790    0.01210    2.90740    0.05650    4.33520   -0.11490   55.46110   55.88310  105.42990  105.17650
 1717.50000   19.53150    9.33750   75.08820   89.02490   18.48330   -0.00100    2.70700    0.04400    4.45860   -0.00010   57.44890   58.21990  110.02030  109.26780
 1718.00000   11.27000    9.77850   81.54760   94.92330   15.81220   -0.01400    2.36330    0.03510    4.62520    0.23130   59.75000   60.60290  114.61070  112.98760
 1718.50000   12.31960   10.08490  311.88450  151.71710   11.83370   -0.02710    2.19650    0.04400    4.82580    0.31790   62.27320   62.98590  116.52060  115.74130
 1719.00000   38.93820   10.21550 1554.86160 1274.18080    8.64460   -0.03080    2.08850    0.06120    5.03920    0.38610   63.97050   64.50490  118.24140  116.95150
 1719.50000  298.76430   10.28780 2797.83860 3659.05590    6.91830   -0.03090    2.07830    0.07330    5.28240    0.39240   66.17800   67.25290  121.17420  119.62080
 1720.00000   64.30980   10.25620 1683.23330 2534.33150    7.57820   -0.02590    2.09880    0.07930    5.52570    0.38890   69.12850   70.18200  124.10700  123.38240
 1720.50000   28.16980   10.13910  275.94020  599.55910    8.13280   -0.01300    2.19460    0.08090    5.63000    0.37350   71.73380   72.19220  125.77550  125.10320
 1721.00000   18.12520    9.96260   65.83960   86.48430    7.92950    0.00770    2.29040    0.07760    5.47160    0.31360   70.20820   70.61620  123.74190  122.97610
 1721.50000   21.71550    9.65430   71.69660   84.31910    6.98210    0.01310    2.43470    0.06680    5.22800    0.17310   67.69920   67.03490  118.27290  119.15700
 1722.00000   58.01840    9.54610 2042.79600  106.02270    6.03470    0.00800    2.62630    0.05100    4.98430    0.05300   63.56120   63.45360  112.80380  113.30620
 1722.50000 1934.14170    9.48020 2037.65280 2060.44170    5.08730    0.00040    2.88910    0.03300    4.99180   -0.11090   58.73490   59.87230  107.83200  105.86710
 1723.00000  806.49190    9.48190 1434.10020  622.83710    4.54980   -0.00730    2.96160    0.01970    5.00420   -0.15660   55.30340   56.51060  102.98730  101.29010
 1723.50000  198.09020    9.48460  391.97760  164.61930    5.51730   -0.00930    2.98010    0.01890    5.01560   -0.16770   53.83770   54.09440   99.80660   98.33890
 1724.00000  124.56320    9.50350  128.55100  140.79500    7.27420   -0.01010    2.97830    0.02110    5.02700   -0.16670   53.88780   54.65720  100.28320   98.45010
 1724.50000  132.18950    9.52240  122.33950  143.42710    9.29760   -0.00880    2.95680    0.01830    5.03840   -0.15500   55.28710   56.39810  102.43820  100.96260
 1725.00000  169.05870    9.54130  133.65370  191.34100    9.44530    0.00060    2.91180    0.01490    4.98950   -0.11940   56.95430   57.22990  103.68460  102.41060
 1725.50000   79.80010    9.56940  214.85830  255.26150    8.80080    0.00930    2.86440    0.01140    4.92250   -0.09620   55.95680   55.92440  103.00390  101.98700
 1726.00000   63.59390    9.60430  240.49720  292.42610    7.99320    0.01330    2.83260    0.00800    4.88270   -0.07620   54.66290   54.94030  101.07240  100.48680
 1726.50000   61.70450    9.61350  311.14910  303.33510    7.63730    0.00800    2.83700    0.00460    4.88540   -0.07890   54.18640   54.63100   99.14090   98.52180
 1727.00000  126.66240    9.62210  500.29750  539.98390    7.55510   -0.00080    2.85780    0.00120    4.90010   -0.09170   54.19300   54.52930   97.37540   97.06470
 1727.50000  642.57950    9.63030 1881.75710 1473.81250    7.47290   -0.00970    2.88080   -0.00010    4.95440   -0.10270   54.25170   54.31380   97.08600   96.38130
 1728.00000 1971.28750    9.63840 14848.86720 3916.68290    8.00380   -0.01300    2.88120   -0.00120    5.02340   -0.10440   54.65590   55.24040   97.46220   96.16070
 1728.50000 1971.10570    9.64660 10426.63380 3392.84720    9.42140   -0.00720    2.88070   -0.00220    5.04540   -0.10500   55.74490   56.64880  104.27390  100.96330
 1729.00000 1853.01830    9.65480 3184.77640 2201.56840   18.10810    0.01430    2.87050   -0.00590    4.94590   -0.10320   58.80170   58.82830  112.71060  111.55560
 1729.50000   94.61820    9.72370  785.77120 1465.64030   28.97780    0.04400    2.83350   -0.00840    4.50830   -0.07720   61.47170   61.03780  120.46860  118.20210
 1730.00000   17.47850    9.81770  131.96660  729.71210   45.39940    0.07940    2.69410   -0.00610    4.07060    0.00870   62.80290   63.24730  121.93860  119.17930
 1730.50000   10.56740    9.81740  128.95480  150.09870   55.48010    0.08960    2.54200    0.00750    3.53600    0.10420   65.49790   65.45690  122.72500  120.15640
 1731.00000    8.15730    9.81690  133.03160  153.69690   51.73730    0.06360    2.41900    0.02140    3.48750    0.18060   66.76040   67.24390  121.50280  120.61350
 1731.50000    7.48580   10.00140  210.93640  260.35120   40.77270    0.02760    2.23510    0.03630    3.81220    0.28970   65.95440   65.82920  119.65450  119.87420
 1732.00000    8.10080   10.52030  482.14290 1536.95100   26.67490   -0.01150    2.09350    0.05120    4.29860    0.31830   63.40350   63.54100  117.80620  117.60150
 1732.50000   13.73160   10.45750 1369.87170 1536.95100   16.01760   -0.02000    2.09020    0.06610    4.74370    0.37640   62.50010   63.42200  115.95790  115.46970
 1733.00000   22.23880   10.34110  785.41880 1093.84350   10.41160   -0.01800    2.09620    0.07800    5.05000    0.38550   63.35010   63.18970  114.10950  113.68140
 1733.50000   16.72030   10.19860  337.70570  527.20540    9.46500   -0.00900    2.15320    0.08260    5.09240    0.37040   63.05940   62.76090  112.20760  110.92430
 1734.00000   14.94020    9.92170  122.74390  185.42710    9.03180   -0.00520    2.28260    0.08310    4.85550    0.24850   62.27240   62.33210  112.11100  111.36890
 1734.50000   17.92470    9.78440  100.07510  133.50690    8.25000   -0.01550    2.46560    0.07720    4.61410    0.15210   61.93000   62.44860  113.25030  113.59700
 1735.00000   12.35700    9.99230  129.70180  134.59100    6.34220   -0.02650    2.48670    0.05730    4.61310    0.13870   62.62400   64.23340  116.64210  115.82520
 1735.50000   10.42530   10.28350 1007.72080  163.95630    5.64070   -0.03740    2.33550    0.03740    4.66220    0.21640   64.35510   66.22140  120.03390  119.05640
 1736.00000   11.62780   10.34200 9992.41020 7942.93070    5.66920   -0.03990    2.05840    0.02400    4.78270    0.37570   66.04090   66.46230  122.89490  121.70800
 1736.50000   39.66310   10.34550 10913.60350 7818.75680    5.72100   -0.04010    2.05640    0.02570    4.90320    0.40950   66.10960   66.52690  123.13550  122.10840
 1737.00000   92.30220   10.31390 7021.73780 2701.56010    5.72090   -0.03910    2.07770    0.03780    5.02370    0.40020   65.92260   66.62470  123.29620  121.49570
 1737.50000   24.77990   10.20120 1096.48950  582.12480    5.72070   -0.03720    2.10800    0.06040    5.16690    0.37810   66.56800   67.50690  123.21440  121.02060
 1738.00000   10.55000   10.03530  530.86040  288.05440    6.04880   -0.02330    2.13830    0.08300    5.36930    0.35860   67.45050   67.79230  123.13270  121.54520
 1738.50000    6.70370   10.06000  213.68340  144.15410    6.59720   -0.00560    2.18100    0.10230    5.52950    0.34540   65.57670   65.55620  122.52460  121.70070
 1739.00000    6.32620   10.07030   80.59420   94.84210    7.03200    0.01320    2.30520    0.10160    5.47810    0.29810   62.51210   62.61650  121.30410  119.58980
 1739.50000    9.58310    9.97180   92.04610  115.58370    7.24110    0.02180    2.41410    0.09290    5.28180    0.18380   59.62100   60.15450  119.35660  116.59410
