~Version ---------------------------------------------------
VERS.   2.0 : CWLS log ASCII Standard -VERSION 2.0
WRAP.    NO : One line per depth step
DLM . SPACE : Column Data Section Delimiter
~Well ------------------------------------------------------
STRT .F                  148.0 : START DEPTH
STOP .F                 3456.0 : STOP DEPTH
STEP .F                    0.5 : STEP
NULL .                -9999.25 : NULL VALUE
COMP .                         : COMPANY
WELL .                         : WELL
FLD  .                         : FIELD
LOC  .                         : LOCATION
PROV .                         : PROVINCE
CNTY .                         : COUNTY
STAT .                         : STATE
CTRY .                         : COUNTRY
SRVC .                         : SERVICE COMPANY
DATE .                         : DATE
UWI  .                         : UNIQUE WELL ID
API  .                         : API NUMBER
SLAT .WGS84 1.7417209862131067 : SURFACE LATITUDE
SLON .WGS84  7.225960631755015 : SURFACE LONGITUDE
DATUM.F                2649.73 : DEPTH DATUM ELEV
~Curve Information -----------------------------------------
DEPT   .F     : 1 MEASURED DEPTH
RXOZ   .OHMM  : INVADED FORMATION RESISTIVITY FILTERED AT 18 INCHES
HCALR  .IN    : HRCC CALIPER CALIBRATED FROM RESISTIVITY LOG
HLLD   .OHMM  : HALS LATEROLOG DEEP RESISTIVITY
HLLS   .OHMM  : HALS LATEROLOG SHALLOW RESISTIVITY
GRD    .GAPI  : GAMMA RAY FROM DENSITY LOG
TNPH_LS.DEC   : THERMAL NEUTRON POROSITY [LIMESTONE]
RHOZ   .G/C3  : HRDD STANDARD RESOLUTION FORMATION DENSITY
HDRA   .G/C3  : HRDD SPINE AND RIBS DENSITY CORRECTION
PEFZ   .B/E   : HRDD STANDARD RESOLUTION FORMATION PHOTOELECTRIC FACTOR
DPHZ_LS.DEC   : HGRD STANDARD RESOLUTION DENSITY POROSITY
DTCO   .US/F  : DELTA-T COMPRESSIONAL
DTRP   .US/F  : DELTA-T COMPRESSIONAL, RECEIVER ARRAY - MONOPOLE P & S
DTRS   .US/F  : DELTA-T SHEAR, RECEIVER ARRAY - MONOPOLE P & S
DTSM   .US/F  : DELTA-T SHEAR
~Params ----------------------------------------------------
~Other -----------------------------------------------------
~ASCII -----------------------------------------------------
# ...
 2279.00000  182.05630    8.64610  184.84690  263.23140   49.31590    0.03830    2.90650    0.03490    4.23880   -0.11610   52.56580   52.93510   93.61710   92.95390
 2279.50000  233.36070    8.64510  172.64720  304.89560   47.88220    0.04260    2.87770    0.03780    4.06900   -0.10630   51.59900   51.57020   93.93150   93.07470
 2280.00000   87.89040    8.63140  126.74170  170.80740   46.83150    0.03710    2.87340    0.04070    3.99580   -0.09640   50.96230   51.03980   94.30500   93.04630
 2280.50000   83.97650    8.61780  117.90690  108.80760   45.10850    0.02570    2.87890    0.04970    4.02200   -0.10450   50.52310   50.88670   94.00140   93.01790
 2281.00000  123.08900    8.60420  157.05220  328.38650   42.22450    0.01430    2.89140    0.05740    4.10240   -0.11260   50.70890   51.40230   93.60850   93.03340
 2281.50000 1746.22230    8.64010  752.69020  886.79070   39.34050    0.01110    2.92410    0.05620    4.26750   -0.13290   51.56130   52.65130   93.51790   93.27630
 2282.00000 1184.64990    8.68350  765.43160  778.70060   40.73870    0.01150    2.93790    0.04060    4.43530   -0.14150   53.55810   54.05510   94.76400   94.36830
 2282.50000  104.73780    8.72690  264.49150  134.78040   44.67200    0.01250    2.90250    0.02810    4.50650   -0.11980   55.52090   56.07600   96.50230   95.61240
 2283.00000   67.86250    8.77030   81.13730  101.45480   47.75770    0.01350    2.83930    0.02920    4.42530   -0.08060   55.80720   56.35960   97.86570   96.65150
 2283.50000   61.70690    8.79730   79.31100  102.37790   45.60780    0.01360    2.81360    0.03740    4.31450   -0.06430   54.19350   54.62850   98.68150   96.95540
 2284.00000   88.34300    8.79520   93.39070  140.03430   33.93800    0.00780    2.83890    0.04620    4.29570   -0.07980   52.33110   52.89740   98.24610   96.69560
 2284.50000  280.40430    8.79840  168.44820  273.46520   24.86510   -0.00670    2.89100    0.04930    4.36850   -0.10730   50.77320   51.16630   96.96700   95.88930
 2285.00000  870.31410    8.82120  357.11630  534.03450   17.70370   -0.01180    2.94430    0.04930    4.60640   -0.14530   50.22240   50.71160   95.68780   94.82390
 2285.50000 1028.90580    8.84400  720.16400  869.27560   13.69580   -0.01140    3.00000    0.04000    4.87290   -0.17900   52.09830   51.62880   95.25980   95.00460
 2286.00000 1185.70400    8.86680  472.85100  734.77910   16.98420   -0.00570    3.00060    0.03010    5.04110   -0.18260   55.62940   55.07840   95.68670   95.80620
 2286.50000  228.15080    8.88960  137.80560  220.18260   24.15750    0.00240    2.97330    0.02090    5.02050   -0.15280   59.03950   58.52790   97.59190   96.72710
 2287.00000   50.38690    8.91240   71.74030   86.53750   32.03910    0.00980    2.90250    0.02190    4.88390   -0.12070   59.61160   60.06960   99.62130   98.17580
 2287.50000   47.33440    8.93160   60.31010   67.94230   37.77840    0.01550    2.86900    0.02460    4.74570   -0.09680   59.71140   60.20850  101.65060  100.67090
 2288.00000   51.74000    8.94750   58.71230   70.62330   38.40060    0.01770    2.86900    0.03040    4.66600   -0.10710   59.74660   60.21090  103.67990  102.51150
 2288.50000  170.32070    8.96330   55.75810   74.13540   38.33000    0.01990    2.89990    0.03380    4.66060   -0.11750   59.73730   60.21330  105.11680  103.53510
 2289.00000  170.01130    8.97730   49.57580   64.39300   39.34640    0.02370    2.92650    0.03280    4.64930   -0.13450   59.73780   60.21580  105.87960  104.34370
 2289.50000   88.35600    8.97900   38.59830   53.57610   41.27930    0.02940    2.92350    0.02690    4.63120   -0.13320   59.70880   59.66060  105.92230  104.95550
 2290.00000   70.90890    8.98060   40.23310   53.69920   43.21220    0.03560    2.89640    0.01850    4.58670   -0.11420   57.59430   58.74130  103.83010  103.05660
 2290.50000   47.63140    8.98230   50.08450   61.85050   43.58360    0.03560    2.87330    0.01210    4.54280   -0.10110   54.61410   54.93630  100.15740   99.92360
 2291.00000   44.30890    8.98400   62.34820   79.44100   39.57110    0.02350    2.86200    0.00880    4.51170   -0.09440   53.50160   53.59710   98.58560   96.43630
 2291.50000   50.21540    8.98570   73.07020  110.80190   30.81160    0.01050    2.86930    0.00830    4.58730   -0.09890   54.14170   54.77290   99.65140   98.39530
 2292.00000   95.64960    8.98740  294.83880  515.09190   21.84640   -0.00110    2.90680    0.00800    4.76130   -0.12270   54.32550   54.26060  100.12840   98.56110
 2292.50000 1051.50820    8.98910  853.15400 1151.24930   14.86880   -0.00950    2.94990    0.00800    5.01610   -0.14720   53.55920   53.46270   97.45020   97.01770
 2293.00000 1023.11490    8.99080  875.75540 1571.99680   14.01220   -0.01530    2.98490    0.01030    5.18730   -0.16720   52.75500   52.66470   95.59400   94.88410
 2293.50000 1550.39150    8.99250  880.75710 1689.71970   14.07740   -0.01850    2.98580    0.01670    5.19930   -0.17170   52.12530   51.86670   95.94830   94.42840
 2294.00000 1026.18510    8.99420  888.99830 1444.74510   14.22610   -0.01930    2.98360    0.01940    5.17550   -0.16990   51.38680   51.06880   96.45510   95.02480
 2294.50000  897.41470    8.99590  898.26590 1300.87020   14.37480   -0.01980    2.98240    0.01180    5.14010   -0.16660   50.55490   50.27080   96.53560   95.47430
 2295.00000 1263.58700    8.99760  933.00180 1350.79440   13.88000   -0.02040    2.98240    0.00060    5.08070   -0.16820   49.99690   49.47920   96.38280   95.57240
 2295.50000 1965.96060    8.99930 2808.42580 1845.79660   13.31440   -0.02100    2.99280   -0.00090    5.07410   -0.17430   48.89560   48.71550   96.28490   95.63050
 2296.00000 1988.04260    9.00090 7194.93410 5915.72120   12.73230   -0.02160    3.00940   -0.00170    5.08210   -0.18400   47.50210   47.95180   96.18700   95.65560
 2296.50000 1984.29270    9.00260 8420.04100 6828.00880   12.88760   -0.02230    3.01030    0.00230    5.09000   -0.18740   48.43800   48.17590   96.35380   95.68060
 2297.00000 1980.54900    9.00430 6262.72270 4927.27930   13.50110   -0.02240    3.00810    0.00640    5.09000   -0.18470   51.17370   52.13120   96.52360   95.55020
 2297.50000 1976.81340    9.00600 4791.70460 4741.25490   13.80140   -0.02060    3.00200    0.00870    5.08170   -0.17930   53.99920   55.00820   96.69340   95.61720
 2298.00000 1955.78580    9.00770 3840.47270 4856.87890   13.72050   -0.01890    2.99930    0.00770    5.00960   -0.18110   54.76960   55.32830   96.86320   95.90200
 2298.50000 1504.74790    9.00940 2583.96000 3486.32740   13.63950   -0.01710    2.99670    0.00590    4.91240   -0.17980   55.23950   55.64840   97.03300   96.16670
 2299.00000 1313.07910    9.01110 1327.44740 1898.05020   14.34630   -0.01540    2.99400    0.00530    4.81520   -0.17620   55.63600   55.96850   97.20280   96.67830
 2299.50000 1304.24260    9.01090 1053.00730 1511.50390   15.14010   -0.01340    2.97830    0.00670    4.71790   -0.16710   55.97550   56.28850   97.42600   96.78440
 2300.00000  604.46620    9.00790  285.92110  907.33310   17.28240   -0.00990    2.96250    0.00240    4.67210   -0.15690   56.23480   56.60860   97.75330   97.17150
 2300.50000  271.57950    9.00490  240.42110  409.74310   18.95810   -0.00590    2.93890   -0.00190    4.65280   -0.14610   56.48610   56.78850   98.68960   97.94620
 2301.00000  208.93280    9.00180  175.24230  235.93340   19.29220   -0.00190    2.93890   -0.00070    4.63470   -0.13970   56.62280   56.56720  101.47680   99.58690
 2301.50000  173.18940    8.99880  134.14270  156.21940   19.47020    0.00070    2.93890    0.00550    4.65490   -0.14050   55.12490   54.47190   97.65400   97.83570
 2302.00000  194.74370    8.99580  127.86290  159.47890   19.54550    0.00490    2.93890    0.00990    4.68030   -0.14070   52.69870   50.14960   92.00150   93.30840
 2302.50000  358.45490    8.99280  158.58820  240.51960   20.50230    0.01290    2.92260    0.00010    4.68880   -0.13260   49.48530   49.99060   91.25450   90.93430
 2303.00000  513.35440    8.98980  261.18190  356.37230   22.41640    0.02020    2.86010   -0.01160    4.51810   -0.09110   50.07520   50.15380   95.13560   92.93960
