~Version ---------------------------------------------------
VERS.   2.0 : CWLS log ASCII Standard -VERSION 2.0
WRAP.    NO : One line per depth step
DLM . SPACE : Column Data Section Delimiter
~Well ------------------------------------------------------
STRT .F                  148.0 : START DEPTH
STOP .F                 3456.0 : STOP DEPTH
STEP .F                    0.5 : STEP
NULL .                -9999.25 : NULL VALUE
COMP .                         : COMPANY
WELL .                         : WELL
FLD  .                         : FIELD
LOC  .                         : LOCATION
PROV .                         : PROVINCE
CNTY .                         : COUNTY
STAT .                         : STATE
CTRY .                         : COUNTRY
SRVC .                         : SERVICE COMPANY
DATE .                         : DATE
UWI  .                         : UNIQUE WELL ID
API  .                         : API NUMBER
SLAT .WGS84 1.7417209862131067 : SURFACE LATITUDE
SLON .WGS84  7.225960631755015 : SURFACE LONGITUDE
DATUM.F                2649.73 : DEPTH DATUM ELEV
~Curve Information -----------------------------------------
DEPT   .F     : 1 MEASURED DEPTH
RXOZ   .OHMM  : INVADED FORMATION RESISTIVITY FILTERED AT 18 INCHES
HCALR  .IN    : HRCC CALIPER CALIBRATED FROM RESISTIVITY LOG
HLLD   .OHMM  : HALS LATEROLOG DEEP RESISTIVITY
HLLS   .OHMM  : HALS LATEROLOG SHALLOW RESISTIVITY
GRD    .GAPI  : GAMMA RAY FROM DENSITY LOG
TNPH_LS.DEC   : THERMAL NEUTRON POROSITY [LIMESTONE]
RHOZ   .G/C3  : HRDD STANDARD RESOLUTION FORMATION DENSITY
HDRA   .G/C3  : HRDD SPINE AND RIBS DENSITY CORRECTION
PEFZ   .B/E   : HRDD STANDARD RESOLUTION FORMATION PHOTOELECTRIC FACTOR
DPHZ_LS.DEC   : HGRD STANDARD RESOLUTION DENSITY POROSITY
DTCO   .US/F  : DELTA-T COMPRESSIONAL
DTRP   .US/F  : DELTA-T COMPRESSIONAL, RECEIVER ARRAY - MONOPOLE P & S
DTRS   .US/F  : DELTA-T SHEAR, RECEIVER ARRAY - MONOPOLE P & S
DTSM   .US/F  : DELTA-T SHEAR
~Params ----------------------------------------------------
~Other -----------------------------------------------------
~ASCII -----------------------------------------------------
# ...
 1323.50000 1129.15040   10.42840 1916.56210 1354.41280    5.04350   -0.01590    2.02740   -0.00110    5.00210    0.42490   72.88240   72.97970  113.47210  112.08170
 1324.00000   50.84880   10.37430  479.61700  432.78430    7.35750    0.00620    2.07050    0.00700    5.02270    0.40380   72.89460   73.15330  110.43540  110.80370
 1324.50000    6.70250   10.35710   46.77010   97.26930    9.30880    0.02800    2.12350    0.02030    5.00670    0.36570   72.88960   73.18370  112.45030  111.90950
 1325.00000    6.16540   10.34630   45.16450   62.73990   10.12800    0.02750    2.18400    0.03360    4.98300    0.32800   72.78560   72.73340  114.99720  113.45630
 1325.50000    6.59600   10.24430   66.56700  132.90510    8.47080    0.01140    2.24210    0.04690    4.97010    0.29030   70.70860   70.02520  115.11610  113.93370
 1326.00000   40.20450   10.08920  313.48400  364.61000    7.32830   -0.00250    2.30030    0.05560    5.00730    0.25650   65.60570   66.40730  111.52330  110.75740
 1326.50000   38.71860    9.80500  353.65490  298.80960    7.31390    0.00020    2.37730    0.05670    5.04450    0.20650   62.18980   62.77100  109.68350  108.41690
 1327.00000   50.70870    9.75270  188.28940  200.57350    8.62150    0.00900    2.47060    0.05200    5.06500    0.15340   60.80180   59.79810  109.24390  108.06570
 1327.50000  222.00700    9.70040  192.24860  137.63390    9.88600    0.01310    2.59180    0.03930    5.06760    0.09100   58.41630   57.99890  108.97090  108.40340
 1328.00000  162.54480    9.67260  202.76580  108.02460    9.86320    0.00870    2.74020    0.04110    5.07030   -0.01790   56.39510   57.19470  107.53970  107.12830
 1328.50000   34.53310    9.67140  139.16180   93.12010    9.46580    0.00150    2.78340    0.04590    5.07300   -0.04560   56.84110   57.36150  106.29860  105.22380
 1329.00000    6.88600    9.69270  104.02620   93.29390    8.17360   -0.00570    2.72690    0.05070    5.07990   -0.01110   57.40370   57.78490  106.30430  105.88500
 1329.50000    5.06710    9.75650  120.47230   99.01630    7.19690   -0.00870    2.52490    0.05470    5.08790    0.07490   58.31530   58.95660  110.47690  108.60900
 1330.00000    9.80180    9.75310  153.49540  112.93120    7.20530    0.00710    2.51970    0.05010    4.94560    0.10800   59.66740   60.27370  117.51790  115.65100
 1330.50000   26.19460    9.77400   60.67290   53.44210    8.50470    0.02350    2.61780    0.04010    4.79840    0.05310   61.65790   62.34540  123.58710  122.20110
 1331.00000   14.26310    9.85230   25.43320   38.96050   11.77040    0.03420    2.72260    0.02960    4.78480   -0.00310   63.84870   64.53270  127.62150  124.91610
 1331.50000   11.12270    9.89420   25.26330   36.60000   13.88840    0.03420    2.70640    0.01970    4.85460   -0.00170   65.62670   65.83410  131.65600  129.60580
 1332.00000   14.14950    9.89970   50.00950   73.37450   14.69830    0.03850    2.65570    0.01980    5.02160    0.03370   66.68280   66.83490  133.33740  131.74440
 1332.50000   29.76370    9.90520   76.34910  110.53300   16.06610    0.05440    2.62750    0.02130    4.90060    0.05150   67.26070   67.83570  132.30830  130.51400
 1333.00000    9.95480    9.91070   21.30440   33.80710   17.43390    0.07330    2.65600    0.03030    4.71990    0.03350   67.55850   68.06180  128.68180  127.53850
 1333.50000    6.04430    9.91620   15.71930   24.70100   18.81270    0.08170    2.71230    0.05410    4.56040   -0.00150   67.59480   67.93300  125.05520  124.80940
 1334.00000    8.41940    9.91960   28.46530   28.24560   15.02740    0.04430    2.79830    0.08630    4.51060   -0.05500   67.07300   67.48520  121.42860  121.95860
 1334.50000   26.29590    9.92250   98.69910   46.10170   10.52890   -0.00090    2.80930    0.08650    4.52900   -0.06210   65.99610   66.69670  118.96940  118.71330
 1335.00000   12.95330   10.01260  203.01770  138.38470    7.08380   -0.03270    2.68490    0.06750    4.73190    0.01550   65.39540   65.91380  119.00350  117.08020
 1335.50000    8.94980   10.44260  359.44870  277.96130    5.72230   -0.03400    2.47710    0.05380    4.89280    0.14470   65.12580   65.57440  120.32450  118.50530
 1336.00000    9.63870   10.53290 3235.47630  902.60350    5.87620   -0.03320    2.19180    0.05480    4.95080    0.30860   65.67370   66.04830  122.65970  121.66970
 1336.50000   28.80620   10.56280  899.56770  499.73200    6.00570   -0.02920    2.12570    0.06340    4.98450    0.36290   66.65570   67.44280  124.99490  124.20990
 1337.00000   26.00570   10.55470  129.40960  180.70890    6.40360   -0.02490    2.14970    0.07490    5.03210    0.34800   68.16080   68.91660  127.33000  125.85760
 1337.50000   35.40490   10.58760  128.05620  169.93460    8.42390   -0.01890    2.16970    0.08630    5.18450    0.33560   69.60300   70.39030  129.44190  127.56490
 1338.00000   46.63130   10.78740  101.48060  138.04500   12.57910   -0.00210    2.14870    0.08710    5.25220    0.34860   70.50260   71.01110  128.32620  127.43810
 1338.50000   19.05070   10.78200   40.87690   68.59290   16.48570    0.03110    2.12350    0.05380    5.23220    0.36430   69.47360   69.93440  125.00050  124.24160
 1339.00000    8.28540   10.60250   29.68970   33.40490   19.20840    0.07600    2.21080    0.03450    4.97110    0.32000   67.91900   68.42350  121.67490  120.83650
 1339.50000    8.03570   10.38670   29.89600   32.47600   18.61980    0.09360    2.38440    0.02420    4.71010    0.22280   66.50670   66.91260  118.34930  117.09780
 1340.00000   82.81620   10.22960   31.40640   34.98050   16.19840    0.07950    2.58880    0.03040    4.52850    0.13020   65.02450   65.40160  116.41890  114.69740
 1340.50000   51.13970   10.20230   31.75720   38.15150   14.16800    0.05470    2.86460    0.03710    4.57800   -0.04950   65.45300   66.26770  118.36330  117.00970
 1341.00000   27.86340   10.29660   31.36900   37.87400   17.19070    0.05430    2.86530    0.03710    4.71130   -0.09410   69.48990   69.64380  123.50700  122.59050
 1341.50000   21.46650   10.35230   27.50230   31.46440   24.32280    0.06490    2.84400    0.03520    4.78740   -0.08950   72.25790   73.01990  128.65070  128.14600
 1342.00000   11.86330   10.40810   20.98230   25.58310   32.57460    0.08750    2.79090    0.00910    4.59020   -0.05060   75.38930   75.09300  131.44350  128.95050
 1342.50000    6.60680   10.44660   16.48020   20.80110   39.07060    0.12890    2.71170    0.00140    4.27500   -0.00110   75.90070   76.08840  130.85530  128.25960
 1343.00000    5.26410   10.44260   15.30760   18.39860   39.31550    0.16380    2.62260    0.00410    4.06010    0.05420   75.73480   75.70060  127.27600  127.14740
 1343.50000    4.13980   10.42390   14.51910   17.16500   34.48150    0.15620    2.57810    0.00780    3.85040    0.08190   72.27700   72.26680  122.76840  122.38430
 1344.00000    4.78260   10.40520   16.10820   17.61960   26.81840    0.10590    2.58650   -0.00080    3.84580    0.07740   67.71660   68.83310  120.20450  118.72280
 1344.50000    8.78390   10.39030   27.47650   22.97780   19.27800    0.04330    2.67490   -0.00190    4.01930    0.02180   64.19060   65.39930  121.35800  119.63430
 1345.00000   21.23070   10.40280   57.52330   38.47130   13.42090    0.00120    2.67080    0.00200    4.21330    0.02320   63.19750   63.65270  122.50840  121.57520
 1345.50000   19.34520   10.72320  120.14040   77.15650   10.60270   -0.01610    2.51180    0.00640    4.46200    0.12280   63.91280   64.06840  122.75530  122.14440
 1346.00000   20.37530   11.03520  281.23200  165.63390    9.28360   -0.02790    2.31370    0.02660    4.72970    0.24660   65.65950   66.66070  122.87260  122.18390
 1346.50000   78.58920   11.24520  658.32550  386.46410    8.18100   -0.03060    2.17250    0.04610    4.99350    0.36470   68.32160   69.36740  126.90280  126.70960
 1347.00000  220.12710   11.35120  739.08650  353.99110    7.23870   -0.03060    2.07680    0.05580    5.14400    0.39570   71.68170   72.38390  136.63190  134.79880
 1347.50000  154.15810   11.34220  514.86600  280.59220    7.52370   -0.02800    2.07690    0.04710    5.27180    0.39210   74.93540   75.40050  146.36110  144.64760
