~Version ---------------------------------------------------
VERS.   2.0 : CWLS log ASCII Standard -VERSION 2.0
WRAP.    NO : One line per depth step
DLM . SPACE : Column Data Section Delimiter
~Well ------------------------------------------------------
STRT .F                  148.0 : START DEPTH
STOP .F                 3456.0 : STOP DEPTH
STEP .F                    0.5 : STEP
NULL .                -9999.25 : NULL VALUE
COMP .                         : COMPANY
WELL .                         : WELL
FLD  .                         : FIELD
LOC  .                         : LOCATION
PROV .                         : PROVINCE
CNTY .                         : COUNTY
STAT .                         : STATE
CTRY .                         : COUNTRY
SRVC .                         : SERVICE COMPANY
DATE .                         : DATE
UWI  .                         : UNIQUE WELL ID
API  .                         : API NUMBER
SLAT .WGS84 1.7417209862131067 : SURFACE LATITUDE
SLON .WGS84  7.225960631755015 : SURFACE LONGITUDE
DATUM.F                2649.73 : DEPTH DATUM ELEV
~Curve Information -----------------------------------------
DEPT   .F     : 1 MEASURED DEPTH
RXOZ   .OHMM  : INVADED FORMATION RESISTIVITY FILTERED AT 18 INCHES
HCALR  .IN    : HRCC CALIPER CALIBRATED FROM RESISTIVITY LOG
HLLD   .OHMM  : HALS LATEROLOG DEEP RESISTIVITY
HLLS   .OHMM  : HALS LATEROLOG SHALLOW RESISTIVITY
GRD    .GAPI  : GAMMA RAY FROM DENSITY LOG
TNPH_LS.DEC   : THERMAL NEUTRON POROSITY [LIMESTONE]
RHOZ   .G/C3  : HRDD STANDARD RESOLUTION FORMATION DENSITY
HDRA   .G/C3  : HRDD SPINE AND RIBS DENSITY CORRECTION
PEFZ   .B/E   : HRDD STANDARD RESOLUTION FORMATION PHOTOELECTRIC FACTOR
DPHZ_LS.DEC   : HGRD STANDARD RESOLUTION DENSITY POROSITY
DTCO   .US/F  : DELTA-T COMPRESSIONAL
DTRP   .US/F  : DELTA-T COMPRESSIONAL, RECEIVER ARRAY - MONOPOLE P & S
DTRS   .US/F  : DELTA-T SHEAR, RECEIVER ARRAY - MONOPOLE P & S
DTSM   .US/F  : DELTA-T SHEAR
~Params ----------------------------------------------------
~Other -----------------------------------------------------
~ASCII -----------------------------------------------------
# ...
  564.50000    2.23050    9.08860  197.28040  343.31250   22.01440    0.01840    1.88540    0.00260    5.22890    0.51330   74.20920   75.17510  122.42160  121.21320
  565.00000    2.20180    9.03160 62384.10940  517.96720   24.13020    0.00840    1.88430    0.00250    5.23080    0.51360   73.67980   74.13950  120.71000  119.76130
  565.50000    2.17910    9.14060 62284.46090  737.21550   26.48210    0.00020    1.88340    0.00250    5.20690    0.51390   71.86660   71.83620  119.19850  118.53960
  566.00000    2.16130    9.27230 62184.90230  967.12300   26.90830   -0.00700    1.88280    0.00250    5.17650    0.51410   72.22480   72.04170  121.76280  120.61530
  566.50000    2.14360    9.35470 62085.57030 2307.63720   24.91480   -0.01100    1.87910    0.00220    5.16350    0.51620   76.14440   75.15590  124.80740  123.98040
  567.00000    2.13330    9.36220 61986.33200 3433.78270   22.22710   -0.01420    1.87510    0.00160    5.15050    0.51930   81.28220   79.74560  127.31780  126.93950
  567.50000    2.18670    9.37910 61923.00000 2663.74270   20.61530   -0.01550    1.87110    0.00100    5.13800    0.52170   83.18990   82.86100  127.74590  127.75000
  568.00000    2.33920    9.39680 42894.06250 2310.77980   19.56990   -0.01650    1.86740    0.00040    5.12560    0.52330   83.13490   84.19850  126.90950  127.17110
  568.50000    2.36360    9.41450 13163.11130 1523.46250   18.96330   -0.01750    1.86450    0.00030    5.11130    0.52340   79.77580   80.09550  124.02350  121.55720
  569.00000    0.71330    9.43220 13582.54980  332.01100   17.34000   -0.01860    1.81660    0.00950    4.87110    0.53710   71.38000   72.74390  116.74390  112.94320
  569.50000    0.19900    9.49150 61642.64060  138.76040   14.24770   -0.01650    1.75700    0.05150    4.49480    0.57190   67.51350   68.62210  110.25880  109.07450
  570.00000    0.19660    9.96920 61010.44530  137.47650   11.39310   -0.01010    1.73220    0.09670    4.11850    0.60860   65.61960   65.63840  104.67730  105.02750
  570.50000    0.20800   10.88280 8022.90580  151.90620   11.34430   -0.00250    1.76970    0.14200    3.79030    0.60890   62.13670   63.47910  101.03370  100.58740
  571.00000    0.45620   11.28780 2124.86840  167.85050   11.80780    0.00580    1.98580    0.17660    3.71490    0.52240   60.29100   61.61630  100.29280   99.13260
  571.50000    1.79450   11.79500 1681.26710  174.45210   13.20250    0.01100    2.04590    0.17910    3.93720    0.41210   59.66400   59.75360  100.74840   99.58270
  572.00000    4.38100   12.13580  833.03560  162.12040   13.20250    0.01240    2.08830    0.13710    4.31850    0.38620   58.86070   58.66320  100.88960   99.08730
  572.50000    1.69860   12.34300  425.95530  104.59190   13.20250    0.01600    2.04740    0.06820    4.65510    0.41130   57.24380   57.58670   99.58890   97.91980
  573.00000    0.67510   12.13230  233.28770   65.63220   16.48710    0.03080    1.96670    0.03670    4.66340    0.45290   56.20680   56.11700   95.92710   95.37430
  573.50000    0.51540   11.62750   81.76090   33.09550   29.61350    0.05960    1.93990    0.03670    4.45770    0.48460   56.18190   56.30430   91.97750   92.20330
  574.00000    0.44240   11.52460   21.64690   10.39830   41.96110    0.12220    1.97170    0.06300    4.25020    0.48320   56.97810   57.48880   92.08050   91.72230
  574.50000    0.57610   11.51710    7.97090    8.08910   56.94200    0.18270    2.05740    0.09740    3.99690    0.44440   58.44730   58.66850   96.20040   93.76850
  575.00000    0.50890   11.63240    6.97750    7.92680   64.82560    0.23710    2.13800    0.12840    3.74360    0.39030   59.93080   59.84690  103.74410   98.55930
  575.50000    0.52170   11.94510    6.83860    9.13730   62.88190    0.28320    2.13620    0.13740    3.49030    0.36040   64.30830   66.04250  113.91740  111.65070
  576.00000    0.42720   12.27090    6.24700    9.94560   57.71340    0.31430    2.12130    0.12270    3.23700    0.36310   72.46120   73.75410  127.04670  128.89320
  576.50000    0.43570   12.32320    5.05800    9.02620   52.17070    0.33830    2.10550    0.10660    2.98370    0.37540   78.95600   80.03940  140.17590  141.31920
  577.00000    0.44120   12.00240    5.01120    8.87540   48.95070    0.33960    2.10320    0.10680    2.92560    0.37690   80.84930   81.71320  148.31420  145.91810
  577.50000    0.30470   12.00320    4.98570    8.26990   46.91130    0.33590    2.08800    0.11810    2.94930    0.38030   84.44910   85.64540  149.22980  149.07320
  578.00000    0.20470   11.76400    4.98570    7.70570   45.84340    0.30600    1.95780    0.12830    3.06870    0.42280   90.30130   90.16910  149.36670  148.80300
  578.50000    0.19630   10.83280    5.34990    7.40340   48.02310    0.27620    1.91110    0.12060    3.18810    0.48560   93.81190   95.22330  148.44520  147.87030
  579.00000    0.26490   10.02330    8.79060    7.51880   64.88940    0.22580    1.91040    0.10590    3.30750    0.48960   94.81720   95.76350  151.35090  149.60780
  579.50000    1.23850    9.35050   18.64970   11.65600   82.37760    0.18970    1.95970    0.09120    3.71480    0.42340   91.87200   89.91190  150.34680  148.89670
  580.00000   11.11850    8.79030   42.31290   22.82980   95.82830    0.13650    2.16500    0.07650    4.14380    0.26920   82.99200   81.61010  136.47890  132.21730
  580.50000    8.90990    8.65430   77.78460   46.57760   79.81310    0.08100    2.54390    0.07190    4.57290    0.11350   73.52650   73.09070  119.75500  118.59960
  581.00000    5.93830    8.96390  522.14950  117.60940   52.62000    0.01800    2.50120    0.07740    4.78510    0.14800   68.04290   68.52290  113.78920  113.44120
  581.50000    4.88080    9.21140 29852.82230  778.95160   26.97660   -0.02330    2.34130    0.08490    4.99530    0.21460   64.69360   65.14900  115.40420  114.17150
  582.00000    7.62320    9.21170 59183.49220 11382.98830   26.70110   -0.02370    2.14580    0.08990    5.01240    0.35050   62.38830   62.85620  117.19360  116.35490
  582.50000   14.22920    9.19690 61255.57420 3480.04200   38.13930   -0.01830    2.10910    0.08990    4.95850    0.37320   62.74770   63.27370  118.46900  117.64900
  583.00000   10.82570    9.11610 61260.01170 3314.39750   57.87920   -0.00280    2.12900    0.08800    4.85130    0.36110   65.17710   66.44260  118.54220  118.06880
  583.50000   10.83660    9.03870 44482.48830 2501.48360   79.03150    0.01680    2.19330    0.07190    4.73040    0.33380   66.46610   67.68900  119.15130  118.76500
  584.00000   15.66370    8.97130 21033.11720 1904.69710   99.92390    0.04070    2.27570    0.04870    4.60940    0.27910   66.42440   66.74290  120.16030  119.46110
  584.50000   19.90150    8.90380 1091.54000  558.02730  110.79830    0.06480    2.39880    0.03890    4.48840    0.19360   66.26570   66.42740  119.23670  119.22490
  585.00000    9.61740    8.94760  218.05640  270.25820   98.69290    0.06530    2.45750    0.04160    4.46440    0.15680   66.90240   67.18140  118.99900  119.59030
  585.50000    6.57830    9.13740   93.76750  141.40870   73.95240    0.05770    2.38780    0.04510    4.45370    0.19980   70.08360   69.97150  122.80280  123.52070
  586.00000    8.00640    9.32720   40.32140   66.79710   52.13650    0.04620    2.22670    0.04860    4.51810    0.28400   74.94430   74.08660  130.93430  130.67030
  586.50000   24.23270    9.43390   34.80500   49.00830   29.22660    0.03270    2.08830    0.04790    4.59210    0.36810   77.89890   78.24780  139.06580  136.69920
  587.00000   49.39420    9.43410   40.02050   57.14220   17.83740    0.01370    2.08210    0.03440    4.68180    0.39000   80.95410   81.17650  143.08090  141.57810
  587.50000  264.83570    9.43690   75.08150  258.78360   14.02210   -0.00410    2.08110    0.02900    4.77130    0.39060   80.15110   80.25980  139.17250  140.44430
  588.00000  184.15090    9.44190  348.78450 1171.96950   12.23290   -0.01620    2.07980    0.02930    4.86080    0.39140   75.92590   76.57520  133.04090  131.73480
  588.50000   24.26310    9.44690 2038.17870 3382.54030   11.70220   -0.02310    2.06880    0.03340    4.91220    0.39460   71.43420   72.89060  126.90930  124.19850
