~Version ---------------------------------------------------
VERS.   2.0 : CWLS log ASCII Standard -VERSION 2.0
WRAP.    NO : One line per depth step
DLM . SPACE : Column Data Section Delimiter
~Well ------------------------------------------------------
STRT .F                  148.0 : START DEPTH
STOP .F                 3456.0 : STOP DEPTH
STEP .F                    0.5 : STEP
NULL .                -9999.25 : NULL VALUE
COMP .                         : COMPANY
WELL .                         : WELL
FLD  .                         : FIELD
LOC  .                         : LOCATION
PROV .                         : PROVINCE
CNTY .                         : COUNTY
STAT .                         : STATE
CTRY .                         : COUNTRY
SRVC .                         : SERVICE COMPANY
DATE .                         : DATE
UWI  .                         : UNIQUE WELL ID
API  .                         : API NUMBER
SLAT .WGS84 1.7417209862131067 : SURFACE LATITUDE
SLON .WGS84  7.225960631755015 : SURFACE LONGITUDE
DATUM.F                2649.73 : DEPTH DATUM ELEV
~Curve Information -----------------------------------------
DEPT   .F     : 1 MEASURED DEPTH
RXOZ   .OHMM  : INVADED FORMATION RESISTIVITY FILTERED AT 18 INCHES
HCALR  .IN    : HRCC CALIPER CALIBRATED FROM RESISTIVITY LOG
HLLD   .OHMM  : HALS LATEROLOG DEEP RESISTIVITY
HLLS   .OHMM  : HALS LATEROLOG SHALLOW RESISTIVITY
GRD    .GAPI  : GAMMA RAY FROM DENSITY LOG
TNPH_LS.DEC   : THERMAL NEUTRON POROSITY [LIMESTONE]
RHOZ   .G/C3  : HRDD STANDARD RESOLUTION FORMATION DENSITY
HDRA   .G/C3  : HRDD SPINE AND RIBS DENSITY CORRECTION
PEFZ   .B/E   : HRDD STANDARD RESOLUTION FORMATION PHOTOELECTRIC FACTOR
DPHZ_LS.DEC   : HGRD STANDARD RESOLUTION DENSITY POROSITY
DTCO   .US/F  : DELTA-T COMPRESSIONAL
DTRP   .US/F  : DELTA-T COMPRESSIONAL, RECEIVER ARRAY - MONOPOLE P & S
DTRS   .US/F  : DELTA-T SHEAR, RECEIVER ARRAY - MONOPOLE P & S
DTSM   .US/F  : DELTA-T SHEAR
~Params ----------------------------------------------------
~Other -----------------------------------------------------
~ASCII -----------------------------------------------------
# ...
 3234.50000   16.64170    7.95050   42.02040   23.78670   17.64430    0.17750    2.66550    0.01550    3.29170    0.02770   54.33830   54.77560   98.38950   97.35830
 3235.00000   32.02190    7.95100   51.54290   38.64020   17.36840    0.18130    2.66480    0.01020    3.26510    0.02910   54.92090   55.32050   98.37590   97.53380
 3235.50000   55.60040    7.95140   36.42850   26.16960   17.27110    0.18050    2.66420    0.00410    3.21680    0.02800   55.44610   55.86540   99.82110   98.71770
 3236.00000   30.12220    7.95190   19.46160   16.12920   18.19520    0.18880    2.66170    0.00040    3.21330    0.03000   56.01700   56.41030  101.64130  100.26140
 3236.50000   13.77760    7.95240   17.49150   13.15530   19.08060    0.20550    2.64080   -0.00260    3.21550    0.04300   56.72160   56.72710  102.46510  101.48850
 3237.00000    8.83600    7.95280   20.94730   14.43160   19.74110    0.21310    2.61350   -0.00570    3.23480    0.05990   56.74970   56.98080  102.70360  101.84350
 3237.50000    9.81280    7.95330   26.95260   21.53290   20.42910    0.21250    2.60330   -0.00870    3.25780    0.06620   56.54210   56.88740  102.94200  101.97470
 3238.00000   24.13420    7.95760   32.46400   20.95650   21.61660    0.20570    2.60660   -0.01030    3.28090    0.06420   56.29560   56.57320  104.02110  102.60390
 3238.50000   19.37990    7.96330   19.45200   13.00520   21.95450    0.19850    2.61270   -0.01150    3.29330    0.06040   56.23140   56.93150  105.49390  104.00410
 3239.00000   10.38000    7.96910   10.06740    8.63510   21.90640    0.20380    2.60890   -0.01270    3.29150    0.06360   56.50700   57.42890  106.41890  105.40430
 3239.50000    8.04300    7.97480   10.76350    8.90210   20.21880    0.21200    2.60050   -0.00720    3.24660    0.06970   56.71620   57.69220  105.86410  104.54320
 3240.00000   10.09280    7.98050   14.78350   12.12980   18.66190    0.21680    2.59220    0.00200    3.21990    0.07450   56.90650   57.21610  104.67820  104.02590
 3240.50000   15.49070    7.98630   20.30490   16.52760   17.27750    0.21410    2.58380    0.01010    3.21630    0.07740   56.46750   56.74000  103.49220  102.58420
 3241.00000   19.72370    7.99200   26.57700   22.52000   15.80040    0.20870    2.57550    0.01520    3.21850    0.08000   55.61130   55.72640  102.30630  101.20190
 3241.50000   21.52920    7.99770   33.60860   28.79570   15.29960    0.20220    2.57390    0.01690    3.23270    0.08380   55.11650   55.46030  101.12030  100.15960
 3242.00000   31.52910    8.00350   40.74910   30.79360   17.36650    0.19590    2.57800    0.01380    3.21900    0.07730   54.94520   55.48540  100.75720   99.44900
 3242.50000   31.09600    8.00920   40.45810   29.71940   19.99100    0.18880    2.61010    0.01610    3.20300    0.06130   54.83080   55.56120  100.54150   98.89580
 3243.00000   29.90360    8.01160   38.50720   26.58790   22.20770    0.18670    2.63450    0.01730    3.18700    0.04690   54.81790   55.59610  100.16360   98.78300
 3243.50000   29.59700    8.00960   37.77910   25.88810   22.36030    0.18450    2.64300    0.01770    3.18920    0.04160   54.80860   55.30160   99.58810   99.00450
 3244.00000   32.33830    8.00760   48.37720   27.19570   21.33920    0.17160    2.62930    0.01400    3.24030    0.05010   54.45390   54.41690   98.26870   97.51980
 3244.50000   50.84860    8.00570   72.73090   38.26640   18.11280    0.15640    2.62820    0.00880    3.29500    0.05080   53.32090   53.43650   96.94930   95.91960
 3245.00000   83.83890    8.00370  113.12880   60.87220   16.87460    0.14000    2.65130    0.00390    3.37610    0.03640   52.50480   52.45600   95.62990   94.46060
 3245.50000  119.07610    8.00170  144.89520  100.48710   15.95240    0.12730    2.68890    0.00390    3.43840    0.01330   51.60950   51.47560   95.04580   94.07510
 3246.00000   96.96030    7.99970  130.32300   88.67100   15.40260    0.12920    2.72090    0.00930    3.44020   -0.00680   51.20350   51.24690   95.06570   94.03250
 3246.50000   66.66990    7.99780   89.30080   60.56770   15.45920    0.13970    2.72680    0.01390    3.39590   -0.01040   50.96370   51.24280   95.59650   94.68740
 3247.00000   48.54340    7.99580   61.19140   47.66490   15.64850    0.15100    2.72220    0.01250    3.32790   -0.00760   51.15880   51.49000   96.12740   95.10970
 3247.50000   47.87520    7.99380   55.09740   42.55510   15.38700    0.16340    2.70390    0.00640    3.24210    0.00370   51.80380   51.99050   96.65820   95.45330
 3248.00000   76.18850    7.99180  109.22860   44.54840   14.45200    0.17390    2.68690    0.00030    3.20760    0.01440   52.14240   52.49100   97.18910   95.82590
 3248.50000  154.80890    7.98990  139.61490   97.82460   14.81000    0.17490    2.67450   -0.00030    3.22290    0.02290   52.47590   52.99150   97.71990   96.62490
 3249.00000  106.84460    7.98790  112.87280   86.89640   16.01780    0.17370    2.66790    0.00530    3.25710    0.02540   52.75320   53.31750   98.09500   97.27440
 3249.50000   76.15810    7.98590   81.30290   62.63380   17.84030    0.17130    2.66790    0.00870    3.29130    0.02630   52.68210   52.88510   97.92170   97.22370
 3250.00000   62.15350    7.98390   81.87450   62.54100   19.14430    0.16390    2.66960    0.00780    3.33540    0.02560   52.36350   52.49750   97.35280   96.86750
 3250.50000   59.31740    7.98190   81.89470   63.65730   19.67590    0.15220    2.67320    0.00650    3.37780    0.02280   51.60810   52.10990   96.71620   96.51020
 3251.00000   64.36680    7.97950   76.16010   64.42680   19.38370    0.13860    2.69320    0.00290    3.37700    0.01050   51.31190   51.72230   96.24390   95.96160
 3251.50000   47.58520    7.97440   72.15980   66.26940   18.63000    0.13100    2.71430    0.00160    3.37580   -0.00270   51.22430   51.59090   96.12510   95.26400
 3252.00000   59.99000    7.96930   82.22030   70.87230   17.75030    0.13830    2.71630    0.00280    3.37520   -0.00400   51.51690   52.20420   96.54630   95.58320
 3252.50000   68.76240    7.96410   89.47540   71.85430   17.29130    0.15350    2.69710    0.00350    3.37550    0.00790   52.54960   52.87200   97.88270   96.70790
 3253.00000   31.64640    7.95900   54.38890   33.93020   17.44890    0.15990    2.67390    0.00390    3.36930    0.02240   53.50620   53.55760   98.40810   97.57490
 3253.50000   17.56770    7.95390   21.89290   19.78360   17.82330    0.15490    2.65820    0.00700    3.33930    0.03210   53.66080   54.16270   98.25920   97.85150
 3254.00000   18.16960    7.94880   25.64570   20.31870   18.16270    0.13450    2.66780    0.01060    3.36660    0.02620   53.17000   53.40730   97.51500   96.97770
 3254.50000   34.61170    7.94370   89.18450   42.24030   18.58990    0.11470    2.70470    0.01480    3.40260    0.00320   52.54050   53.05070   96.77080   95.59480
 3255.00000  165.38120    7.93860  148.69820  137.38390   18.80770    0.11440    2.73120    0.02040    3.43850   -0.01320   52.27120   52.97010   96.28020   95.72230
 3255.50000  131.76040    7.93700  154.46370  130.93510   17.54950    0.11830    2.75030    0.02050    3.45590   -0.02510   51.97860   52.85300   98.08590   95.80520
 3256.00000  132.46520    7.93680  160.39790  122.81470   15.84890    0.12670    2.74010    0.01700    3.41650   -0.01870   51.68590   52.62830   98.36190   95.88150
 3256.50000  156.10550    7.93660  176.02060  127.66760   14.34860    0.13350    2.72700    0.01340    3.38150   -0.00980   51.33230   51.95750   97.58280   95.89580
 3257.00000  203.10880    7.93630  212.75650  169.75960   13.79690    0.13940    2.72020    0.00940    3.37860   -0.00340   50.78300   51.28830   96.93570   95.47670
 3257.50000  307.68430    7.93610  241.90470  206.43890   13.62070    0.14490    2.71460    0.00680    3.37650   -0.00010   50.88790   51.02620   96.65000   95.01080
 3258.00000  304.55730    7.93590  249.50010  164.99060   13.50550    0.15550    2.71200    0.00540    3.41440    0.00350   51.22040   51.38650   96.81440   95.04870
 3258.50000  198.53550    7.93560  160.41560  110.17010   13.39020    0.16660    2.68330    0.00730    3.46600    0.01660   51.62910   51.74680   96.94440   95.61400
