~Version ---------------------------------------------------
VERS.   2.0 : CWLS log ASCII Standard -VERSION 2.0
WRAP.    NO : One line per depth step
DLM . SPACE : Column Data Section Delimiter
~Well ------------------------------------------------------
STRT .F                  148.0 : START DEPTH
STOP .F                 3456.0 : STOP DEPTH
STEP .F                    0.5 : STEP
NULL .                -9999.25 : NULL VALUE
COMP .                         : COMPANY
WELL .                         : WELL
FLD  .                         : FIELD
LOC  .                         : LOCATION
PROV .                         : PROVINCE
CNTY .                         : COUNTY
STAT .                         : STATE
CTRY .                         : COUNTRY
SRVC .                         : SERVICE COMPANY
DATE .                         : DATE
UWI  .                         : UNIQUE WELL ID
API  .                         : API NUMBER
SLAT .WGS84 1.7417209862131067 : SURFACE LATITUDE
SLON .WGS84  7.225960631755015 : SURFACE LONGITUDE
DATUM.F                2649.73 : DEPTH DATUM ELEV
~Curve Information -----------------------------------------
DEPT   .F     : 1 MEASURED DEPTH
RXOZ   .OHMM  : INVADED FORMATION RESISTIVITY FILTERED AT 18 INCHES
HCALR  .IN    : HRCC CALIPER CALIBRATED FROM RESISTIVITY LOG
HLLD   .OHMM  : HALS LATEROLOG DEEP RESISTIVITY
HLLS   .OHMM  : HALS LATEROLOG SHALLOW RESISTIVITY
GRD    .GAPI  : GAMMA RAY FROM DENSITY LOG
TNPH_LS.DEC   : THERMAL NEUTRON POROSITY [LIMESTONE]
RHOZ   .G/C3  : HRDD STANDARD RESOLUTION FORMATION DENSITY
HDRA   .G/C3  : HRDD SPINE AND RIBS DENSITY CORRECTION
PEFZ   .B/E   : HRDD STANDARD RESOLUTION FORMATION PHOTOELECTRIC FACTOR
DPHZ_LS.DEC   : HGRD STANDARD RESOLUTION DENSITY POROSITY
DTCO   .US/F  : DELTA-T COMPRESSIONAL
DTRP   .US/F  : DELTA-T COMPRESSIONAL, RECEIVER ARRAY - MONOPOLE P & S
DTRS   .US/F  : DELTA-T SHEAR, RECEIVER ARRAY - MONOPOLE P & S
DTSM   .US/F  : DELTA-T SHEAR
~Params ----------------------------------------------------
~Other -----------------------------------------------------
~ASCII -----------------------------------------------------
# ...
 2867.00000    7.76710    7.50590 1188.56370   22.42870   28.33850    0.18250    2.63190    0.01300    3.50230    0.04970   59.65020   60.17050  111.68480  110.69680
 2867.50000    6.58700    7.67070  933.10990   17.55880   28.61240    0.18840    2.60540    0.00600    3.47760    0.06070   59.48870   60.05320  109.93160  108.19930
 2868.00000    7.97110    7.82880 1058.09220   25.08700   32.25080    0.18520    2.60150   -0.00090    3.47180    0.06820   59.08650   59.39530  107.54970  106.87760
 2868.50000   27.48870    7.83870 1747.89310   60.54330   40.13560    0.15710    2.61330   -0.00120    3.50090    0.05850   57.93080   58.23160  107.41250  106.21550
 2869.00000  164.36580    7.79680 1885.01710  105.02610   50.79620    0.12990    2.68260    0.00320    3.53010    0.03780   56.58290   57.06790  106.88710  105.55330
 2869.50000  111.94900    7.78010 1782.59180   68.92080   62.56910    0.10750    2.70610    0.00900    3.57470    0.01400   55.87200   56.21810  101.41140  102.50870
 2870.00000   70.40480    7.81190 1398.43960   79.83240   74.49190    0.11020    2.69650    0.01120    3.53840    0.00280   56.31630   56.50540   97.36290   98.05480
 2870.50000   43.27100    7.84370 1069.29040  104.13220   73.15400    0.11580    2.67820    0.01160    3.44030    0.00750   56.86230   58.00420   96.29700   95.48450
 2871.00000   29.82940    7.85450  848.42400   62.18500   66.39180    0.12730    2.65990    0.01160    3.31040    0.02330   58.19740   59.54470   99.28920   97.80970
 2871.50000   24.97230    7.93200  670.13730   31.14660   53.28010    0.13520    2.64160    0.00950    3.22570    0.04180   60.47530   61.08510  103.27160  101.50290
 2872.00000    9.60880    7.98420  544.42740   24.38990   43.58260    0.14570    2.62270    0.00740    3.29500    0.05420   60.63540   61.75470  103.74490  102.54260
 2872.50000    5.52630    7.93990  446.82450   20.38360   33.80300    0.15650    2.60550    0.00120    3.44880    0.06490   59.60890   60.47320  104.09620  103.56290
 2873.00000    3.50960    7.84200  414.75930   17.31120   31.60010    0.17070    2.59450   -0.00520    3.60430    0.07170   60.48700   60.80960  107.18370  106.96790
 2873.50000    4.27110    7.74060  488.25620   19.09460   31.42690    0.18130    2.59210   -0.01070    3.65880    0.07320   61.84530   62.08450  110.74600  109.94700
 2874.00000   11.98510    7.51370  609.44460   28.94260   30.55980    0.17880    2.59820   -0.01400    3.50880    0.06940   62.54640   63.50020  112.15570  110.90970
 2874.50000   15.85520    7.49450  710.33910   28.73680   29.69880    0.17260    2.60700   -0.01150    3.33940    0.06310   61.42300   61.85120  109.84470  108.73550
 2875.00000   10.32210    7.50510  780.37390   28.63690   28.83770    0.16050    2.61470    0.00190    3.26850    0.06060   59.01410   59.42220  106.24350  104.74110
 2875.50000    8.64140    7.51860 1099.23120   32.90540   27.76830    0.14790    2.62240    0.01580    3.28160    0.05920   59.32670   59.88910  104.79060  104.45010
 2876.00000   11.52330    7.51580 1543.40420   37.76080   26.52940    0.13960    2.62430    0.03090    3.31060    0.05490   60.40080   60.78860  106.87580  106.49910
 2876.50000    4.94460    7.50970 1443.36800   30.28850   25.03080    0.15040    2.61000    0.04430    3.32430    0.05220   61.51390   61.68810  109.45110  108.68240
 2877.00000    2.77770    7.50360  859.65800   16.08240   23.58460    0.17310    2.58730    0.04690    3.30640    0.06690   62.55130   62.58760  111.08450  110.36210
 2877.50000    2.41990    7.49750  721.67820   13.05870   23.36400    0.19480    2.56000    0.03660    3.30200    0.09320   63.27410   63.48700  111.67730  110.91110
 2878.00000    4.14820    7.49150  759.13640   12.79430   24.89920    0.20380    2.53470    0.02630    3.29760    0.10890   63.49350   64.25910  112.27010  111.07050
 2878.50000    3.71760    7.48950  890.93650   13.48150   28.30760    0.20640    2.54000    0.01600    3.30270    0.10430   63.98390   64.90610  113.14760  111.99000
 2879.00000    4.73210    7.50630  913.00930   13.29820   27.79410    0.20440    2.55840    0.00740    3.38780    0.09420   64.68820   65.35970  114.30540  113.20950
 2879.50000    6.42990    7.52320  794.83790   12.51580   24.35450    0.20040    2.58750    0.00250    3.50480    0.07610   64.65720   65.27320  114.48480  113.23860
 2880.00000    5.52660    7.54000  582.56150    9.46970   22.04390    0.19400    2.60130   -0.00110    3.48960    0.06750   64.41380   65.16290  113.92390  112.80630
 2880.50000    3.54410    7.55690  399.56490    6.63780   21.56540    0.18770    2.60830   -0.00040    3.42280    0.06320   64.34790   64.89910  113.36290  112.38290
 2881.00000    2.71770    7.57370  379.00780    6.70420   23.10370    0.18410    2.60060    0.00110    3.36190    0.06800   64.15910   64.46270  112.80190  112.15060
 2881.50000    3.11350    7.59110  425.56450    7.32030   24.27840    0.18800    2.58570    0.00380    3.32610    0.07720   64.30420   65.19120  112.40970  111.93230
 2882.00000    4.93150    7.61220  447.31210    8.23960   23.89890    0.19740    2.57540    0.00660    3.31390    0.08360   64.97630   65.54390  112.40970  111.71410
 2882.50000    4.95970    7.63330  413.48870    8.12180   22.71230    0.19920    2.56760    0.00950    3.30180    0.08850   65.38260   65.35960  112.68350  111.70150
 2883.00000    2.68880    7.73660  372.65700    6.96940   21.04550    0.19320    2.56960    0.01460    3.32660    0.08720   64.28790   63.25350  113.19610  112.38150
 2883.50000    2.55140    7.81190  374.49150    6.67780   22.36010    0.18300    2.57840    0.01810    3.36200    0.08210   61.57200   60.83360  113.70870  113.01800
 2884.00000    3.23420    7.85400  557.19040    9.68830   25.91170    0.17320    2.60350    0.01700    3.39150    0.06620   60.05790   60.45270  114.22130  113.24100
 2884.50000    3.71720    7.88480  536.58890    9.69360   28.14010    0.18300    2.61190    0.01580    3.41160    0.06090   62.00590   62.56430  114.76930  114.03720
 2885.00000    1.83280    7.84070  359.73350    5.64160   27.89930    0.20720    2.58730    0.01630    3.40020    0.07580   64.71400   64.67590  116.89340  116.38050
 2885.50000    1.34280    7.82130  244.83060    4.50040   26.79090    0.23820    2.53170    0.01670    3.34020    0.10350   65.56510   66.07900  119.01740  118.66500
 2886.00000    1.40840    7.81470  255.45560    4.59360   27.01060    0.25070    2.49830    0.01180    3.28600    0.13270   65.90510   66.86680  121.00600  120.09430
 2886.50000    2.06110    7.80810  333.70990    6.63150   27.13610    0.22550    2.51100    0.00870    3.33010    0.12400   65.96160   66.28610  121.13710  119.47180
 2887.00000    3.22230    7.80150  466.50410    8.64820   28.15170    0.19400    2.53620    0.01010    3.40670    0.10790   65.12780   65.36520  118.22600  117.34230
 2887.50000    4.90590    7.79490  459.40170    9.42700   28.55680    0.19040    2.55860    0.01540    3.43130    0.09420   63.51540   64.44420  115.31500  114.59220
 2888.00000    4.70640    7.78830  395.09460    8.05150   28.16530    0.20030    2.56070    0.02010    3.42770    0.09280   62.87280   63.52330  113.97140  112.69540
 2888.50000    5.36010    7.78170  351.34530    6.87670   27.05700    0.20770    2.55440    0.01950    3.41690    0.09700   62.36410   63.04730  113.23530  111.37880
 2889.00000    3.62110    7.77510  343.03080    6.67860   26.11660    0.20770    2.54850    0.01590    3.40450    0.10030   62.15020   62.97720  112.61980  110.67060
 2889.50000    1.78870    7.76850  325.76100    6.64590   26.14600    0.20670    2.54510    0.01790    3.39200    0.10240   61.99730   62.88930  112.10720  110.14920
 2890.00000    1.66140    7.76850  354.79110    6.61330   28.00660    0.19920    2.54880    0.03180    3.42830    0.10010   61.70030   62.68260  111.18430  109.61650
 2890.50000    1.98950    7.76880  370.19980    6.99070   29.81580    0.18670    2.57130    0.03520    3.46590    0.08580   61.37560   61.99000  109.79850  108.85880
 2891.00000    3.08840    7.77070  432.01400    9.36530   28.61850    0.17120    2.62120    0.03010    3.52080    0.05980   60.60010   60.64730  107.17720  106.79800
