~Version ---------------------------------------------------
VERS.   2.0 : CWLS log ASCII Standard -VERSION 2.0
WRAP.    NO : One line per depth step
DLM . SPACE : Column Data Section Delimiter
~Well ------------------------------------------------------
STRT .F                  148.0 : START DEPTH
STOP .F                 3456.0 : STOP DEPTH
STEP .F                    0.5 : STEP
NULL .                -9999.25 : NULL VALUE
COMP .                         : COMPANY
WELL .                         : WELL
FLD  .                         : FIELD
LOC  .                         : LOCATION
PROV .                         : PROVINCE
CNTY .                         : COUNTY
STAT .                         : STATE
CTRY .                         : COUNTRY
SRVC .                         : SERVICE COMPANY
DATE .                         : DATE
UWI  .                         : UNIQUE WELL ID
API  .                         : API NUMBER
SLAT .WGS84 1.7417209862131067 : SURFACE LATITUDE
SLON .WGS84  7.225960631755015 : SURFACE LONGITUDE
DATUM.F                2649.73 : DEPTH DATUM ELEV
~Curve Information -----------------------------------------
DEPT   .F     : 1 MEASURED DEPTH
RXOZ   .OHMM  : INVADED FORMATION RESISTIVITY FILTERED AT 18 INCHES
HCALR  .IN    : HRCC CALIPER CALIBRATED FROM RESISTIVITY LOG
HLLD   .OHMM  : HALS LATEROLOG DEEP RESISTIVITY
HLLS   .OHMM  : HALS LATEROLOG SHALLOW RESISTIVITY
GRD    .GAPI  : GAMMA RAY FROM DENSITY LOG
TNPH_LS.DEC   : THERMAL NEUTRON POROSITY [LIMESTONE]
RHOZ   .G/C3  : HRDD STANDARD RESOLUTION FORMATION DENSITY
HDRA   .G/C3  : HRDD SPINE AND RIBS DENSITY CORRECTION
PEFZ   .B/E   : HRDD STANDARD RESOLUTION FORMATION PHOTOELECTRIC FACTOR
DPHZ_LS.DEC   : HGRD STANDARD RESOLUTION DENSITY POROSITY
DTCO   .US/F  : DELTA-T COMPRESSIONAL
DTRP   .US/F  : DELTA-T COMPRESSIONAL, RECEIVER ARRAY - MONOPOLE P & S
DTRS   .US/F  : DELTA-T SHEAR, RECEIVER ARRAY - MONOPOLE P & S
DTSM   .US/F  : DELTA-T SHEAR
~Params ----------------------------------------------------
~Other -----------------------------------------------------
~ASCII -----------------------------------------------------
# ...
 1911.50000 1104.82740    9.01890 1685.50520  862.67560   11.65620    0.01090    2.87230    0.04970    4.81370   -0.10080   56.76860   58.12730  104.19750  103.79320
 1912.00000  167.86230    9.00700  818.62000  282.12270   19.82790    0.01420    2.88300    0.03090    4.66910   -0.10760   54.31240   54.95520  100.76120  100.14100
 1912.50000   59.10890    9.03040  110.04730   81.14350   28.57750    0.02740    2.83310    0.01500    4.45430   -0.07590   55.94780   56.28880  102.12570  102.00160
 1913.00000   39.30540    9.05990   46.20400   43.46290   35.63790    0.04130    2.71410    0.01770    4.23250   -0.00240   57.96750   58.28080  104.29490  103.77170
 1913.50000   41.11390    9.08940   43.33200   42.12580   37.24580    0.05390    2.59480    0.02520    4.00760    0.07330   59.96620   60.27290  105.61890  104.41580
 1914.00000   39.28040    9.06910   48.35400   42.12190   33.07350    0.05500    2.59980    0.03270    3.99310    0.06820   60.69190   61.39890  105.48240  104.54340
 1914.50000   41.48940    9.01390   72.74010   48.50150   25.37290    0.03730    2.71740    0.03350    4.11350    0.01530   60.18160   60.25930  104.48560  103.64820
 1915.00000   66.77230    8.97240  147.21040  100.70580   16.79070    0.01590    2.86360    0.02600    4.48390   -0.06860   57.28760   57.45180  101.93340  101.11060
 1915.50000  160.91950    8.95540  391.55690  263.25410   10.19710   -0.00040    2.95540    0.01760    4.85440   -0.14260   53.45240   54.49890   99.38120   98.05030
 1916.00000  410.63640    8.95120  468.86920  697.70990    8.16630   -0.00640    2.98480    0.01090    5.00280   -0.17070   51.26310   51.54600   98.30020   97.84860
 1916.50000  525.60610    8.94830  472.36400  669.05400    7.34130   -0.00530    2.99590    0.01470    5.04110   -0.17760   50.99940   51.43990   98.78440   98.16600
 1917.00000  644.17430    8.94540  333.84460  387.49740    8.12310   -0.00200    2.98840    0.02660    5.07800   -0.17290   51.66640   52.32140  100.24680   98.71440
 1917.50000  294.80290    8.97600  182.82700  219.23000    9.87150    0.00040    2.98370    0.03640    5.10460   -0.17000   53.90000   54.21490  103.19790  101.37250
 1918.00000   93.12320    9.00820   72.77580  123.97880   11.81740    0.00430    2.97820    0.04290    5.12750   -0.16650   55.78050   57.13430  106.31820  104.48540
 1918.50000   62.41550    9.01100   72.77580   87.52510   12.01690    0.00960    2.97230    0.04120    5.15390   -0.16290   58.07440   60.05360  109.43850  107.98350
 1919.00000   77.11280    8.99310   72.77580  106.70180   11.02690    0.01430    2.96510    0.03080    5.18400   -0.15840   61.43510   62.97300  112.55880  110.36660
 1919.50000  257.21800    8.99270   72.77580  109.08720   14.47040    0.03250    2.94650    0.02050    5.18190   -0.14790   64.99750   65.67580  113.17610  111.00330
 1920.00000   19.55080    9.03780   10.06950   33.33490   20.72900    0.06860    2.82440    0.01390    5.06350   -0.09540   64.51540   64.86690  109.04880  109.49630
 1920.50000    5.91560    9.08460    9.68700   13.68590   26.51480    0.10330    2.77520    0.02020    4.87070   -0.05600   62.84960   63.63940  108.61580  108.22030
 1921.00000    5.12910    9.11200    9.94810   13.74050   28.26870    0.10960    2.77510    0.02890    4.68400   -0.03190   62.55440   63.32670  109.32480  108.51370
 1921.50000    7.73380    9.13310   15.69250   28.42760   24.26420    0.05440    2.78390    0.03510    4.61880   -0.04600   61.61530   61.72340  109.48110  108.80430
 1922.00000   30.09900    9.14420   52.90710  189.79400   16.50160    0.01100    2.88820    0.03520    4.68650   -0.09450   56.83190   57.59020  104.30510  103.67010
 1922.50000  403.81340    9.14930  185.18060  746.31910    8.83430   -0.00730    2.99140    0.03350    4.94680   -0.15550   52.82700   53.95640   98.93070   99.09070
 1923.00000 1277.59190    9.15430  614.65940 1981.88570    7.54010   -0.00900    2.99200    0.02800    5.11450   -0.18500   51.62590   52.32330   99.70010   98.69860
 1923.50000  479.02840    9.19750  476.07120 1071.95520   12.29150   -0.00580    2.92710    0.02200    5.12690   -0.15330   51.00230   51.59510  100.32130   98.66420
 1924.00000  234.22590    9.24120  295.05240  424.26000   20.26540    0.00240    2.76160    0.01590    4.91380   -0.09030   50.74760   51.36440   99.25950   98.12700
 1924.50000  232.73800    9.27030  291.75720  316.23070   23.27740    0.01690    2.75840    0.00990    4.68230   -0.03240   50.60730   51.19600   96.76860   95.51760
 1925.00000  721.46230    9.30130  312.55120  570.32120   21.47480    0.01520    2.76350    0.00330    4.61270   -0.02830   50.48830   51.02750   96.19040   93.70940
 1925.50000 1496.72600    9.33370  841.37570  911.36980   16.91580    0.00480    2.83090   -0.00350    4.71110   -0.07340   50.37040   50.87940   95.94750   95.28740
 1926.00000 1477.26570    9.36600  667.10390  829.09610   14.21020   -0.00480    2.89820   -0.00020    5.05190   -0.12300   50.45750   51.21740   96.13240   95.99160
 1926.50000  750.85280    9.40200  414.94610  545.41280   14.10240   -0.00410    2.98400    0.00770    5.08090   -0.15560   51.14780   52.26830   96.36780   96.54540
 1927.00000  416.94300    9.43670  180.79000  243.98540   16.97760    0.00650    2.98730    0.01150    4.91850   -0.17130   52.71850   53.46630  100.02640   99.09780
 1927.50000  113.63500    9.46490   59.16850   90.37600   22.88560    0.02220    2.95900    0.00790    4.75110   -0.15710   54.90550   56.28870  103.90750  102.60900
 1928.00000   69.04700    9.52910   30.84860   20.09990   29.24590    0.03790    2.89250    0.00330    4.58370   -0.12480   58.56280   59.42900  109.54200  106.80260
 1928.50000   18.74140    9.60890   17.96520   19.06760   35.60650    0.05930    2.82600    0.00010    4.41620   -0.07330   61.73160   62.56940  115.58370  111.67310
 1929.00000   12.53110    9.68940   15.76630   19.14550   41.27510    0.08340    2.75820    0.00340    4.20280   -0.02880   65.45130   65.70980  121.47580  120.55690
 1929.50000   12.04470    9.77700   15.71080   19.49380   45.72130    0.10550    2.68870    0.00930    3.98160    0.00530   69.60830   68.85010  127.36790  127.30910
 1930.00000   12.90180    9.86460   14.99740   19.59590   45.94670    0.11440    2.62860    0.01520    3.76980    0.02200   71.39770   71.99050  133.26000  132.55910
 1930.50000   12.61230    9.90420   13.71070   19.13290   45.42570    0.11590    2.62440    0.02120    3.67740    0.03680   72.51890   73.89180  136.45220  135.24430
 1931.00000    7.66500    9.90930   11.09960   12.78460   43.44370    0.11740    2.62600    0.02930    3.64890    0.05240   73.57000   73.78700  136.70470  134.43700
 1931.50000    7.65000    9.90560   11.04650   14.69490   35.31790    0.09840    2.66030    0.03150    3.78240    0.05550   70.52150   69.95050  132.72600  130.72030
 1932.00000   10.84130    9.90190   16.32420   44.07700   27.57150    0.06560    2.73860    0.03500    4.07060   -0.02010   65.53440   65.07160  126.57200  125.04760
 1932.50000   45.73210    9.89820   43.42740   67.54950   18.81820    0.03270    2.90250    0.03870    4.37100   -0.08380   61.89180   62.54250  120.41810  121.16990
 1933.00000  152.72290    9.91480   39.46060   49.66500   16.74590    0.02430    2.96180    0.04180    4.68240   -0.14750   61.28550   61.84090  116.98590  116.77760
 1933.50000   29.00370    9.93590   31.07630   38.01080   16.49840    0.01930    2.93170    0.04380    4.82700   -0.15590   61.30490   62.34170  116.02950  113.80070
 1934.00000   29.02990    9.95620   31.04210   48.57470   15.25600    0.00990    2.90550    0.04000    4.79970   -0.12190   62.06740   63.43090  116.02900  114.51800
 1934.50000   48.56450    9.97650  104.78660  215.52610   12.62640   -0.00320    2.90610    0.02580    4.79830   -0.12680   63.37230   64.09340  115.82560  115.63650
 1935.00000  596.23380    9.99680  277.31790  372.50080    9.60980   -0.01140    2.96930    0.01130    4.94530   -0.15370   62.66550   62.18750  112.00630  111.37090
 1935.50000  689.77390   10.01710  308.01500  380.56810    7.29770   -0.01410    3.02060    0.00100    5.03130   -0.17960   58.05210   57.10040  107.82420  103.67800
