~Version ---------------------------------------------------
VERS.   2.0 : CWLS log ASCII Standard -VERSION 2.0
WRAP.    NO : One line per depth step
DLM . SPACE : Column Data Section Delimiter
~Well ------------------------------------------------------
STRT .F                6442.0 : START DEPTH
STOP .F                7737.0 : STOP DEPTH
STEP .F                   0.5 : STEP
NULL .               -9999.25 : NULL VALUE
COMP .                        : COMPANY
WELL .                        : WELL
FLD  .                        : FIELD
LOC  .                        : LOCATION
PROV .                        : PROVINCE
CNTY .                        : COUNTY
STAT .                        : STATE
CTRY .                        : COUNTRY
SRVC .                        : SERVICE COMPANY
DATE .                        : DATE
UWI  .                        : UNIQUE WELL ID
API  .                        : API NUMBER
SLAT .WGS84 6.511741391871496 : SURFACE LATITUDE
SLON .WGS84 4.971150513225993 : SURFACE LONGITUDE
DATUM.F               2597.53 : DEPTH DATUM ELEV
~Curve Information -----------------------------------------
DEPT.F     : 1 MEASURED DEPTH
DTLF.US/F  : DELTA-T LONG SPACING FAR
DTSM.US/F  : DELTA-T SHEAR
GRS .GAPI  : GAMMA RAY FROM SONIC LOG
~Params ----------------------------------------------------
~Other -----------------------------------------------------
~ASCII -----------------------------------------------------
# ...
 7332.00000  143.68770  141.73540   92.21990
 7332.50000  144.08340  142.58640   92.28190
 7333.00000  145.13300  143.75240   91.83050
 7333.50000  145.70340  144.74440   97.32780
 7334.00000  145.19240  144.46080  103.32220
 7334.50000  143.26300  142.30890  105.97330
 7335.00000  139.16920  137.70490  106.29570
 7335.50000  136.32970  134.42550  107.01340
 7336.00000  134.29830  132.49670  106.73060
 7336.50000  134.73210  132.33910  104.11080
 7337.00000  139.82100  136.20360   94.66150
 7337.50000  144.42870  143.54770   84.61260
 7338.00000  144.44010  142.91920   87.33730
 7338.50000  144.25360  142.97500   92.17620
 7339.00000  146.30570  145.17820  100.62640
 7339.50000  149.41210  148.35090  102.48110
 7340.00000  153.70860  152.25640  103.83520
 7340.50000  158.00520  157.41770  110.20140
 7341.00000  164.25960  162.52290  118.81480
 7341.50000  169.62810  167.43580  130.22080
 7342.00000  173.89040  172.34870  134.44230
 7342.50000  175.67180  176.38020  140.56950
 7343.00000  176.24670  178.67710  149.88270
 7343.50000  175.54440  180.02180  166.63290
 7344.00000  169.51710  178.17230  193.29850
 7344.50000  162.07540  169.54730  205.17440
 7345.00000  154.18440  159.17520  187.76420
 7345.50000  146.35490  148.28100  135.48500
 7346.00000  142.83290  141.67050   96.17580
 7346.50000  139.31090  140.84130   74.14870
 7347.00000  135.80170  141.42380   70.78050
 7347.50000  133.05860  141.32440   70.34950
 7348.00000  128.91030  136.95590   62.45100
 7348.50000  125.46910  131.64430   53.36480
 7349.00000  125.44250  129.72860   46.12020
 7349.50000  126.96700  128.91830   47.46970
 7350.00000  134.83340  134.77570   61.14770
 7350.50000  141.44090  140.79480   71.34970
 7351.00000  144.82530  145.35820   76.51040
 7351.50000  146.38810  147.67690   78.92740
 7352.00000  147.34920  148.74190   80.49670
 7352.50000  148.12160  149.80690   82.18860
 7353.00000  148.78200  150.59380   83.38070
 7353.50000  149.44260  150.95040   83.81220
 7354.00000  150.04260  151.30710   83.88950
 7354.50000  150.72830  151.66370   83.59930
 7355.00000  151.23160  152.58560   84.55590
 7355.50000  153.07130  153.63290   86.06520
 7356.00000  154.68720  155.42560   88.70290
 7356.50000  155.30280  157.24550   90.50560
 7357.00000  155.51450  158.10690   92.30840
 7357.50000  155.72620  158.48970   91.51040
 7358.00000  155.93780  158.87250   91.49600
 7358.50000  156.14940  159.25530   91.48630
 7359.00000  156.36110  159.09190   93.34140
 7359.50000  156.51780  158.90040   95.44670
 7360.00000  156.46170  158.70900   94.32580
 7360.50000  156.40550  158.51750   93.13260
 7361.00000  156.34930  158.32610   91.89330
 7361.50000  156.15470  158.04660   94.88870
 7362.00000  155.64120  157.56340   92.51170
 7362.50000  155.12780  157.08030   91.14920
 7363.00000  154.54720  156.59710   94.65710
 7363.50000  153.86330  156.66300   99.58240
 7364.00000  153.76630  157.23080  100.84800
 7364.50000  154.25740  157.91220   94.17880
 7365.00000  154.80220  158.92910   92.03160
 7365.50000  155.44780  158.84420   89.61220
 7366.00000  156.22480  157.95010   91.10220
 7366.50000  155.34210  157.14100   93.21880
 7367.00000  154.17720  156.72340   94.77070
 7367.50000  153.01230  156.30580   97.43510
 7368.00000  151.81240  155.81270   98.00500
 7368.50000  150.92970  155.18490   97.70580
 7369.00000  150.66800  154.33530   96.18040
 7369.50000  151.35960  154.15670   94.68820
 7370.00000  152.08900  155.39520   93.33050
 7370.50000  153.26130  156.69910   92.62390
 7371.00000  154.45830  159.01990   92.94390
 7371.50000  155.05460  161.34060   96.44130
 7372.00000  155.35310  163.66140   98.46830
 7372.50000  155.16160  163.86840  100.60150
 7373.00000  154.96610  160.27040  101.35310
 7373.50000  154.76520  157.41340  100.32450
 7374.00000  154.57020  155.71610   97.97060
 7374.50000  154.37870  155.11990   97.46260
 7375.00000  153.59880  155.28320  101.17960
 7375.50000  152.52880  155.88780  103.98910
 7376.00000  151.03530  156.72470  103.04810
 7376.50000  148.55460  156.23740  100.93890
 7377.00000  146.17010  151.86830   99.84600
 7377.50000  149.78030  150.69470   97.95540
 7378.00000  155.07730  157.27710   90.76800
 7378.50000  160.25890  162.30400   83.78110
 7379.00000  161.26540  166.64080   81.57360
 7379.50000  158.99860  164.73180   89.25170
 7380.00000  156.34080  159.58140   94.17430
 7380.50000  154.49850  157.29820   95.20130
 7381.00000  152.82190  156.81400   95.62520
 7381.50000  151.30130  157.23890   96.36950
 7382.00000  150.65530  157.39870   98.55520
 7382.50000  150.91090  157.21850   98.44830
 7383.00000  151.61650  157.24560   96.84180
 7383.50000  152.22080  157.54700   94.19480
 7384.00000  152.59800  157.65810   91.85370
 7384.50000  152.73760  157.57730   91.99870
 7385.00000  152.64320  157.36230   92.26400
 7385.50000  152.37740  156.82580   93.99170
 7386.00000  151.99420  156.27220   96.14370
 7386.50000  151.20550  155.88680   97.24160
 7387.00000  150.41690  155.11960   93.36780
 7387.50000  149.68600  154.08530   91.82670
 7388.00000  148.88170  153.07390   92.72120
 7388.50000  147.64190  152.28190   95.49020
 7389.00000  146.64850  151.15670   95.28010
 7389.50000  144.92520  149.73840   96.20780
 7390.00000  141.16790  148.15330   93.38840
 7390.50000  136.09380  146.15780   90.55900
 7391.00000  131.01970  142.48180   82.84740
 7391.50000  126.35800  135.96350   76.41750
 7392.00000  125.72590  131.85520   71.89360
 7392.50000  126.23120  130.46280   72.13110
 7393.00000  126.69240  132.94400   75.33690
 7393.50000  126.56560  132.94450   81.21950
 7394.00000  126.24190  131.82910   82.97780
 7394.50000  124.96220  129.79060   81.37310
 7395.00000  122.25030  123.11330   77.02430
 7395.50000  116.80250  118.58200   69.27010
 7396.00000  111.58650  114.53150   61.01640
 7396.50000  106.43290  112.65600   55.27070
 7397.00000  105.61490  111.92640   50.96520
 7397.50000  105.02590  110.05060   49.97620
 7398.00000  104.59400  107.72150   51.22860
 7398.50000  103.97520  105.65920   54.30410
 7399.00000  103.35640  104.74120   57.92730
 7399.50000  102.73770  103.69690   62.11320
 7400.00000  101.84570  102.68710   64.72150
 7400.50000  100.99140  101.95240   63.74820
 7401.00000  100.80850  101.55230   56.23470
 7401.50000  100.42270  101.41130   44.94280
 7402.00000  100.01410  101.88230   39.10630
 7402.50000  100.08770  102.67360   34.95810
 7403.00000  100.43290  103.46500   33.64960
 7403.50000  100.93800  103.46980   33.61300
 7404.00000  101.55750  103.07160   33.60600
 7404.50000  101.13120  101.95310   33.73840
 7405.00000  100.57380  100.87810   39.05890
 7405.50000   99.62410   99.89020   40.34940
 7406.00000   99.12170   98.32750   39.38160
 7406.50000   98.61940   96.80350   33.50440
 7407.00000   98.11700   95.27950   30.29310
 7407.50000   97.61360   95.18970   30.70330
 7408.00000   99.18830   96.09160   31.98770
 7408.50000  100.64360   96.75510   34.69780
 7409.00000  101.84920   97.41850   38.81160
 7409.50000  101.62150   97.58920   39.53370
 7410.00000  101.50130   97.69040   36.00380
 7410.50000  101.48720   97.67700   31.30220
 7411.00000  102.12070   98.90340   28.78860
 7411.50000  102.67000   99.84750   28.23900
 7412.00000  102.49040  100.60770   30.21230
 7412.50000  102.29210  100.99600   33.25980
 7413.00000  102.06040  100.81120   33.46220
 7413.50000  101.82870  100.62640   33.11130
 7414.00000  101.55040  100.44160   31.52130
 7414.50000  101.23700  100.25690   29.84940
 7415.00000  101.06820  100.07210   28.82740
 7415.50000  101.02570   99.88730   27.81660
 7416.00000  100.98310   99.59380   27.82480
 7416.50000  100.94050   98.96900   27.98170
 7417.00000  100.18300   98.34420   29.16480
 7417.50000   99.34600   97.32650   29.67420
 7418.00000   97.98600   95.96760   29.67420
 7418.50000   96.62600   94.60860   29.76470
 7419.00000   95.97190   94.11160   29.88970
 7419.50000   95.92220   94.07290   30.12220
 7420.00000   96.26780   94.41920   24.88870
 7420.50000   97.24650   95.28600   23.52280
