~Version ---------------------------------------------------
VERS.   2.0 : CWLS log ASCII Standard -VERSION 2.0
WRAP.    NO : One line per depth step
DLM . SPACE : Column Data Section Delimiter
~Well ------------------------------------------------------
STRT .F                6442.0 : START DEPTH
STOP .F                7737.0 : STOP DEPTH
STEP .F                   0.5 : STEP
NULL .               -9999.25 : NULL VALUE
COMP .                        : COMPANY
WELL .                        : WELL
FLD  .                        : FIELD
LOC  .                        : LOCATION
PROV .                        : PROVINCE
CNTY .                        : COUNTY
STAT .                        : STATE
CTRY .                        : COUNTRY
SRVC .                        : SERVICE COMPANY
DATE .                        : DATE
UWI  .                        : UNIQUE WELL ID
API  .                        : API NUMBER
SLAT .WGS84 6.511741391871496 : SURFACE LATITUDE
SLON .WGS84 4.971150513225993 : SURFACE LONGITUDE
DATUM.F               2597.53 : DEPTH DATUM ELEV
~Curve Information -----------------------------------------
DEPT.F     : 1 MEASURED DEPTH
DTLF.US/F  : DELTA-T LONG SPACING FAR
DTSM.US/F  : DELTA-T SHEAR
GRS .GAPI  : GAMMA RAY FROM SONIC LOG
~Params ----------------------------------------------------
~Other -----------------------------------------------------
~ASCII -----------------------------------------------------
# ...
 7243.00000  146.92260  149.73290   67.83010
 7243.50000  146.52000  149.61310   69.21180
 7244.00000  146.11730  149.25210   69.82340
 7244.50000  145.71460  148.89100   70.21780
 7245.00000  145.31200  148.53000   69.37740
 7245.50000  144.90930  148.16890   71.31180
 7246.00000  145.42850  147.80780   71.70320
 7246.50000  145.95770  147.63090   71.14310
 7247.00000  145.85050  147.48900   69.72530
 7247.50000  145.55490  147.35440   68.45390
 7248.00000  145.43340  147.32530   69.63650
 7248.50000  145.52640  147.29610   71.02320
 7249.00000  145.61940  147.38950   71.70030
 7249.50000  145.48750  147.38920   72.74880
 7250.00000  145.33440  147.07980   71.33920
 7250.50000  145.71320  147.63030   68.83650
 7251.00000  148.55080  149.38110   65.52290
 7251.50000  152.20020  153.95840   61.44610
 7252.00000  154.30540  156.78560   59.97460
 7252.50000  154.03530  155.28050   59.80250
 7253.00000  152.87770  153.45140   62.14360
 7253.50000  151.74810  151.28460   65.32400
 7254.00000  150.38520  149.97270   70.89180
 7254.50000  150.20290  149.41710   72.65580
 7255.00000  150.24720  149.30160   71.91200
 7255.50000  151.87750  149.18600   73.31160
 7256.00000  153.27810  149.07050   77.43240
 7256.50000  153.65710  148.95500   81.64280
 7257.00000  153.86940  148.86590   78.68230
 7257.50000  154.67670  149.75500   77.71020
 7258.00000  159.30570  155.11020   78.93450
 7258.50000  161.93140  157.90260   82.99800
 7259.00000  161.66090  158.64130   86.00300
 7259.50000  158.83630  158.70340   87.46940
 7260.00000  158.95550  158.98980   88.49910
 7260.50000  159.98580  159.27620   90.41450
 7261.00000  161.43610  158.94670   91.17710
 7261.50000  161.66420  158.14770   91.36060
 7262.00000  160.77270  156.93350   91.46580
 7262.50000  159.09270  155.71930   93.06870
 7263.00000  158.48410  154.95640   93.38150
 7263.50000  158.40700  154.93000   91.66790
 7264.00000  158.32990  154.94020   91.05830
 7264.50000  158.74770  154.83940   90.77250
 7265.00000  159.20090  154.89460   90.73060
 7265.50000  160.65470  155.25450   90.42690
 7266.00000  162.14170  155.78970   90.01390
 7266.50000  164.71760  156.32500   89.61490
 7267.00000  167.06850  156.98320   90.91780
 7267.50000  167.79180  157.71710   92.19830
 7268.00000  165.28280  158.22810   93.42280
 7268.50000  161.72250  158.56860   93.47820
 7269.00000  160.66900  158.75450   91.58260
 7269.50000  160.53170  159.18190   93.59990
 7270.00000  158.20140  159.60920   93.48660
 7270.50000  157.57460  160.30140   92.99710
 7271.00000  157.97410  161.57090   93.03710
 7271.50000  159.59770  163.19130   93.07710
 7272.00000  162.20290  165.62210   93.05270
 7272.50000  163.15880  168.08960   92.70390
 7273.00000  163.25870  166.10240   92.33720
 7273.50000  162.27690  163.38030   92.14680
 7274.00000  161.43690  162.39940   92.52620
 7274.50000  160.62610  161.90070   93.73260
 7275.00000  160.42490  161.70690   94.24990
 7275.50000  160.86560  162.04320   93.75510
 7276.00000  161.24690  162.48060   92.54280
 7276.50000  161.87710  163.32460   92.00040
 7277.00000  162.84180  164.16870   92.64170
 7277.50000  163.73630  165.09020   94.03590
 7278.00000  163.92710  166.05630   91.79780
 7278.50000  162.87650  166.89260   88.04190
 7279.00000  161.92810  165.98700   88.42510
 7279.50000  161.10910  165.69180   88.63550
 7280.00000  161.25950  165.87440   89.34920
 7280.50000  161.48610  166.35890   89.84520
 7281.00000  161.89230  166.97300   89.54990
 7281.50000  161.72450  167.08930   87.98990
 7282.00000  159.18350  165.68060   87.29440
 7282.50000  155.99510  163.31910   87.78340
 7283.00000  152.80660  159.71120   89.01610
 7283.50000  147.43420  151.74150   89.93250
 7284.00000  142.37780  140.75700   86.18580
 7284.50000  137.74080  134.88130   82.02730
 7285.00000  134.33620  130.83340   76.44710
 7285.50000  132.36420  126.78560   72.55980
 7286.00000  132.31100  125.24870   69.19180
 7286.50000  132.66400  124.91170   66.87460
 7287.00000  132.93380  124.93860   67.91880
 7287.50000  133.12260  125.36700   67.87460
 7288.00000  133.65380  127.14530   65.92110
 7288.50000  134.54760  129.80750   63.91900
 7289.00000  136.44650  133.09250   64.61490
 7289.50000  138.13390  136.15360   71.53750
 7290.00000  138.66420  137.90610   74.14220
 7290.50000  138.34230  137.42260   75.67050
 7291.00000  136.68090  136.05260   74.77400
 7291.50000  133.15780  134.43310   75.78150
 7292.00000  130.25960  132.84680   74.67590
 7292.50000  128.14020  132.40000   73.66390
 7293.00000  127.89980  132.39680   74.18370
 7293.50000  128.68220  132.93950   74.85260
 7294.00000  133.64700  136.24490   75.00540
 7294.50000  138.65250  141.33210   74.48350
 7295.00000  144.56650  146.03700   73.38410
 7295.50000  147.24160  150.01840   72.83640
 7296.00000  147.18430  151.05070   74.98010
 7296.50000  146.82680  145.85120   77.80650
 7297.00000  144.46950  139.39330   77.98890
 7297.50000  141.29110  137.48190   74.89750
 7298.00000  140.81320  139.42600   75.07150
 7298.50000  144.30930  143.17250   77.02160
 7299.00000  147.31410  145.34850   81.14680
 7299.50000  149.70820  147.70220   90.50840
 7300.00000  150.58590  151.50450   91.79770
 7300.50000  150.42410  155.33920   92.35030
 7301.00000  149.17540  156.89360   88.29970
 7301.50000  146.27280  152.94420   90.27010
 7302.00000  143.52420  142.12070   91.72340
 7302.50000  141.62820  137.96150   92.16960
 7303.00000  141.33510  138.76250   89.14170
 7303.50000  144.55830  141.58790   86.10120
 7304.00000  148.48190  145.41740   87.64610
 7304.50000  152.03390  149.33600   92.48080
 7305.00000  154.96060  152.48460  101.03020
 7305.50000  157.37720  154.99500  108.84080
 7306.00000  160.27330  157.71890  112.45840
 7306.50000  166.22190  164.20620  120.85480
 7307.00000  173.06210  171.52540  131.29130
 7307.50000  175.58670  174.73590  143.19320
 7308.00000  176.07980  174.35630  155.09510
 7308.50000  169.06180  166.67890  157.20480
 7309.00000  156.03430  152.67280  149.16790
 7309.50000  143.29130  138.12250  141.13100
 7310.00000  132.11480  129.00750  110.66640
 7310.50000  126.22760  123.08440   76.07300
 7311.00000  123.25760  120.69710   48.67000
 7311.50000  125.51670  122.22940   49.53280
 7312.00000  129.95470  127.45450   53.35590
 7312.50000  134.74180  133.00850   60.39010
 7313.00000  139.69520  137.88460   65.69020
 7313.50000  141.02790  138.76810   73.95610
 7314.00000  139.42630  133.99570   78.33320
 7314.50000  137.86940  130.58090   78.13450
 7315.00000  136.43750  131.13840   74.73930
 7315.50000  136.74370  134.05500   70.50050
 7316.00000  140.10350  138.86340   70.84070
 7316.50000  146.55800  144.02530   77.97880
 7317.00000  151.02720  149.23910   84.55590
 7317.50000  154.24930  149.27210   87.88820
 7318.00000  153.51680  148.16520   85.26570
 7318.50000  151.69290  147.67510   83.88140
 7319.00000  151.91670  147.95810   82.24310
 7319.50000  152.55580  149.66280   85.22630
 7320.00000  152.94920  150.40750   91.00510
 7320.50000  153.16530  149.73440   94.21680
 7321.00000  153.17320  148.16740   92.04450
 7321.50000  152.39640  145.81330   88.28500
 7322.00000  150.91410  144.29360   85.05340
 7322.50000  149.22500  143.27170   83.56580
 7323.00000  146.07920  141.18890   80.24360
 7323.50000  140.98190  137.39320   76.54040
 7324.00000  136.02640  132.48510   74.37020
 7324.50000  131.11880  127.57700   72.20840
 7325.00000  127.02500  124.22570   64.80450
 7325.50000  123.86450  121.41190   56.56460
 7326.00000  121.64550  120.92960   49.76760
 7326.50000  121.34790  121.73760   50.36280
 7327.00000  125.43690  123.24300   57.94790
 7327.50000  128.09100  124.23110   66.73680
 7328.00000  129.56380  123.21360   70.70310
 7328.50000  129.48700  122.10790   71.56530
 7329.00000  128.66250  121.72220   59.72410
 7329.50000  128.79060  124.26110   51.88160
 7330.00000  130.15200  129.94680   51.13540
 7330.50000  134.76660  134.04170   60.29270
 7331.00000  140.13010  138.98690   78.49010
 7331.50000  143.36090  141.69350   91.42820
