~Version ---------------------------------------------------
VERS.   2.0 : CWLS log ASCII Standard -VERSION 2.0
WRAP.    NO : One line per depth step
DLM . SPACE : Column Data Section Delimiter
~Well ------------------------------------------------------
STRT .F                6442.0 : START DEPTH
STOP .F                7737.0 : STOP DEPTH
STEP .F                   0.5 : STEP
NULL .               -9999.25 : NULL VALUE
COMP .                        : COMPANY
WELL .                        : WELL
FLD  .                        : FIELD
LOC  .                        : LOCATION
PROV .                        : PROVINCE
CNTY .                        : COUNTY
STAT .                        : STATE
CTRY .                        : COUNTRY
SRVC .                        : SERVICE COMPANY
DATE .                        : DATE
UWI  .                        : UNIQUE WELL ID
API  .                        : API NUMBER
SLAT .WGS84 6.511741391871496 : SURFACE LATITUDE
SLON .WGS84 4.971150513225993 : SURFACE LONGITUDE
DATUM.F               2597.53 : DEPTH DATUM ELEV
~Curve Information -----------------------------------------
DEPT.F     : 1 MEASURED DEPTH
DTLF.US/F  : DELTA-T LONG SPACING FAR
DTSM.US/F  : DELTA-T SHEAR
GRS .GAPI  : GAMMA RAY FROM SONIC LOG
~Params ----------------------------------------------------
~Other -----------------------------------------------------
~ASCII -----------------------------------------------------
# ...
 7421.00000   98.56700   96.49780   23.18560
 7421.50000  100.12490   98.05560   25.59720
 7422.00000  101.85710   99.73040   26.57820
 7422.50000  103.11000  101.26930   28.32190
 7423.00000  103.30540  101.46470   29.34310
 7423.50000  103.32020  101.48400   29.44780
 7424.00000  102.98960  101.09010   27.84680
 7424.50000  102.17320  100.27380   26.83630
 7425.00000  101.71140   99.87530   27.02350
 7425.50000  101.70380   99.86760   28.44940
 7426.00000  101.69620   99.86000   29.68340
 7426.50000  101.84490   99.97460   30.18210
 7427.00000  102.41960  100.54910   28.98180
 7427.50000  102.75460  100.90880   26.77100
 7428.00000  103.06940  101.19360   25.74170
 7428.50000  103.65960  101.78390   25.80070
 7429.00000  104.48570  102.54610   28.05700
 7429.50000  105.78750  103.58860   31.66820
 7430.00000  107.76180  105.57120   34.19210
 7430.50000  109.47520  106.86180   34.14280
 7431.00000  111.47690  108.05000   31.88480
 7431.50000  112.08530  108.86150   31.32740
 7432.00000  112.22480  108.48770   31.10090
 7432.50000  111.90750  108.11390   29.64710
 7433.00000  111.38440  107.36430   29.38830
 7433.50000  110.41040  106.53790   29.33950
 7434.00000  109.43640  106.02320   28.56750
 7434.50000  108.46240  105.50850   26.78950
 7435.00000  107.99880  105.21460   24.78430
 7435.50000  108.54740  104.81650   27.27650
 7436.00000  109.56580  106.79190   37.45560
 7436.50000  111.64350  109.16520   47.56700
 7437.00000  113.85800  111.51350   55.80730
 7437.50000  116.08650  113.77680   61.25100
 7438.00000  119.32650  120.94920   63.38390
 7438.50000  123.18980  128.82420   68.33510
 7439.00000  126.79410  132.67110   74.07990
 7439.50000  130.39850  136.66000   82.13380
 7440.00000  133.14130  140.17320   85.63620
 7440.50000  135.29700  141.99460   88.86230
 7441.00000  137.45260  142.45060   90.44260
 7441.50000  140.01280  143.09380   92.40740
 7442.00000  142.45470  143.39620   93.72650
 7442.50000  144.70040  144.12250   94.49480
 7443.00000  146.86780  144.95420   97.45550
 7443.50000  148.32830  146.04210  100.28460
 7444.00000  151.06480  149.06420  105.55950
 7444.50000  155.46810  154.21190  118.43810
 7445.00000  163.88450  160.93890  134.61570
 7445.50000  170.65160  167.85690  168.83420
 7446.00000  174.65370  171.51310  189.71930
 7446.50000  174.35630  170.89940  218.39030
 7447.00000  171.06660  165.94690  241.13230
 7447.50000  163.82980  155.08040  258.76570
 7448.00000  153.69600  144.21380  238.56380
 7448.50000  143.58180  134.48280  194.39860
 7449.00000  133.47620  125.00540  141.61660
 7449.50000  125.26050  117.95620   92.75020
 7450.00000  121.08160  117.10200   64.27490
 7450.50000  121.24870  119.38890   57.47090
 7451.00000  124.87850  124.70890   61.97680
 7451.50000  131.78870  130.88650   67.55530
 7452.00000  135.83830  134.50000   71.81450
 7452.50000  137.13630  137.61040   75.53180
 7453.00000  136.91100  137.83510   78.25900
 7453.50000  133.86640  137.89480   81.05360
 7454.00000  127.08930  135.85580   80.38880
 7454.50000  117.63190  130.82700   78.05390
 7455.00000  111.83980  127.06350   70.98820
 7455.50000  110.41340  124.62840   64.11550
 7456.00000  111.36270  122.17450   57.46310
 7456.50000  113.07660  119.72080   55.61570
 7457.00000  115.18380  118.17900   54.83340
 7457.50000  117.29010  118.88280   56.20390
 7458.00000  118.99310  119.77070   58.42860
 7458.50000  120.35390  120.71380   60.82420
 7459.00000  120.44300  122.68020   63.05870
 7459.50000  119.40410  124.59280   64.68420
 7460.00000  116.43880  124.34820   65.16230
 7460.50000  115.32950  123.43750   65.58240
 7461.00000  116.30140  122.82980   64.22300
 7461.50000  118.47710  123.84310   63.04370
 7462.00000  121.60590  125.50720   60.12750
 7462.50000  125.84570  128.58610   56.31820
 7463.00000  129.49180  132.11870   52.85620
 7463.50000  130.61620  133.66840   56.72450
 7464.00000  129.89680  132.30450   61.12260
 7464.50000  128.90580  130.52160   66.78690
 7465.00000  126.70050  129.42850   69.01010
 7465.50000  124.47610  129.01960   70.71960
 7466.00000  122.88500  128.71650   72.85560
 7466.50000  122.21200  128.74010   75.04890
 7467.00000  123.68630  129.26260   72.24360
 7467.50000  127.45990  129.90260   71.25930
 7468.00000  130.35750  131.15870   70.58890
 7468.50000  131.94590  132.41490   70.30090
 7469.00000  131.87360  132.82170   69.71310
 7469.50000  131.80120  132.63810   70.25130
 7470.00000  130.05430  132.45450   71.95390
 7470.50000  127.77500  132.03780   74.79000
 7471.00000  126.00860  131.36630   75.05710
 7471.50000  124.76250  130.35340   74.99440
 7472.00000  124.09080  129.35660   73.96700
 7472.50000  125.19950  128.72720   72.21670
 7473.00000  126.65990  128.85540   69.47560
 7473.50000  128.05820  129.12250   70.51550
 7474.00000  129.37780  129.72640   71.96620
 7474.50000  129.87370  129.57290   72.61780
 7475.00000  129.82830  128.04040   72.56100
 7475.50000  128.91340  126.86720   72.24750
 7476.00000  128.15900  125.83240   70.13240
 7476.50000  128.01890  125.23530   67.42850
 7477.00000  127.82300  124.69510   64.44810
 7477.50000  127.64460  124.44490   68.63770
 7478.00000  127.80530  124.57510   71.53440
 7478.50000  128.33640  125.01060   74.48070
 7479.00000  128.42010  124.99890   74.70510
 7479.50000  128.62710  125.71200   74.79270
 7480.00000  129.41840  126.98420   74.84000
 7480.50000  129.68570  128.09500   74.49530
 7481.00000  129.67250  128.40070   72.59520
 7481.50000  129.65940  128.68230   70.09010
 7482.00000  129.64620  128.41290   69.60600
 7482.50000  129.45360  128.14360   70.33650
 7483.00000  129.14580  127.87420   72.35570
 7483.50000  128.83810  127.60490   72.45440
 7484.00000  128.53030  126.98190   72.23590
 7484.50000  128.01890  126.04290   72.44470
 7485.00000  127.11110  125.10370   72.39910
 7485.50000  126.03460  124.09790   69.67150
 7486.00000  124.23280  122.02790   64.49710
 7486.50000  120.51590  117.71280   60.47100
 7487.00000  114.43140  113.81920   56.46530
 7487.50000  110.98710  110.23210   55.73150
 7488.00000  109.44170  108.12710   56.45390
 7488.50000  108.79690  107.61920   59.03620
 7489.00000  109.82080  108.54790   60.91740
 7489.50000  112.63080  111.58150   54.96340
 7490.00000  115.42120  115.48680   48.92380
 7490.50000  116.83650  118.32950   45.21670
 7491.00000  116.29920  118.82210   45.10140
 7491.50000  114.99550  119.31480   45.94910
 7492.00000  114.40380  120.00500   45.48130
 7492.50000  115.02240  120.04620   43.77230
 7493.00000  115.92900  118.49310   44.52130
 7493.50000  117.35300  117.13520   44.65300
 7494.00000  118.16360  115.77720   45.76540
 7494.50000  118.58270  115.48070   47.91960
 7495.00000  118.96250  115.82030   50.48690
 7495.50000  118.90940  115.90820   50.51740
 7496.00000  118.85640  115.75020   50.82550
 7496.50000  118.81580  115.36600   52.34520
 7497.00000  118.85550  115.97420   56.04600
 7497.50000  118.80070  116.94520   59.65790
 7498.00000  118.71600  117.43270   61.90310
 7498.50000  118.72980  117.85640   61.25680
 7499.00000  119.09100  118.08990   58.56730
 7499.50000  119.58930  117.95050   56.46070
 7500.00000  120.38500  118.47690   55.76450
 7500.50000  121.66720  119.59510   56.02760
 7501.00000  123.20470  120.82410   59.73640
 7501.50000  125.36620  121.73740   65.81080
 7502.00000  127.76690  122.20390   72.11670
 7502.50000  128.53040  122.28660   74.16220
 7503.00000  127.71510  122.98000   71.92870
 7503.50000  122.64640  124.26680   66.04250
 7504.00000  117.32630  124.92710   65.24450
 7504.50000  116.83370  124.90200   63.96510
 7505.00000  118.22150  124.99070   64.70940
 7505.50000  120.64800  126.48670   63.00020
 7506.00000  120.86580  128.63380   63.39740
 7506.50000  120.61410  129.51500   62.58030
 7507.00000  121.89630  128.81810   62.30270
 7507.50000  123.27470  128.20200   62.37640
 7508.00000  123.67380  126.78600   62.45010
 7508.50000  120.60110  123.93010   61.63760
 7509.00000  116.58420  121.95810   60.40450
 7509.50000  112.61750  120.70670   58.81470
