~Version ---------------------------------------------------
VERS.   2.0 : CWLS log ASCII Standard -VERSION 2.0
WRAP.    NO : One line per depth step
DLM . SPACE : Column Data Section Delimiter
~Well ------------------------------------------------------
STRT .F                6442.0 : START DEPTH
STOP .F                7737.0 : STOP DEPTH
STEP .F                   0.5 : STEP
NULL .               -9999.25 : NULL VALUE
COMP .                        : COMPANY
WELL .                        : WELL
FLD  .                        : FIELD
LOC  .                        : LOCATION
PROV .                        : PROVINCE
CNTY .                        : COUNTY
STAT .                        : STATE
CTRY .                        : COUNTRY
SRVC .                        : SERVICE COMPANY
DATE .                        : DATE
UWI  .                        : UNIQUE WELL ID
API  .                        : API NUMBER
SLAT .WGS84 6.511741391871496 : SURFACE LATITUDE
SLON .WGS84 4.971150513225993 : SURFACE LONGITUDE
DATUM.F               2597.53 : DEPTH DATUM ELEV
~Curve Information -----------------------------------------
DEPT.F     : 1 MEASURED DEPTH
DTLF.US/F  : DELTA-T LONG SPACING FAR
DTSM.US/F  : DELTA-T SHEAR
GRS .GAPI  : GAMMA RAY FROM SONIC LOG
~Params ----------------------------------------------------
~Other -----------------------------------------------------
~ASCII -----------------------------------------------------
# ...
 7599.00000  141.20140  135.49640   82.66260
 7599.50000  140.80460  135.47110   84.86980
 7600.00000  140.40780  135.34080   84.39830
 7600.50000  139.95400  135.21060   82.77930
 7601.00000  139.38900  135.31120   81.02990
 7601.50000  138.95730  135.59800   81.75520
 7602.00000  139.79790  135.88480   83.29550
 7602.50000  140.68690  136.04450   83.31350
 7603.00000  141.69940  136.03150   84.03660
 7603.50000  142.23020  136.18170   84.12940
 7604.00000  142.21710  137.21370   84.33700
 7604.50000  142.20410  138.13450   83.67780
 7605.00000  141.61270  138.74640   81.75130
 7605.50000  140.04540  138.09020   79.93290
 7606.00000  138.19570  137.04060   81.02060
 7606.50000  136.70790  134.95050   83.68500
 7607.00000  134.96680  132.58020   83.29690
 7607.50000  133.35570  131.46920   82.81060
 7608.00000  133.03680  131.18770   81.47560
 7608.50000  133.51050  131.62020   80.86530
 7609.00000  134.26160  132.40690   81.07670
 7609.50000  134.54850  132.69380   83.15820
 7610.00000  135.66840  133.46640   80.41020
 7610.50000  136.99550  135.06540   76.50150
 7611.00000  137.19830  135.64220   74.34410
 7611.50000  137.05310  134.66940   74.98990
 7612.00000  136.90800  133.69670   75.16480
 7612.50000  137.05340  132.72390   75.40760
 7613.00000  137.77290  131.75110   76.86860
 7613.50000  138.49240  131.18220   82.81520
 7614.00000  139.21190  131.39110   80.91720
 7614.50000  140.04360  131.95100   78.92740
 7615.00000  140.51810  133.17540   75.80220
 7615.50000  140.81130  134.27230   76.57140
 7616.00000  141.10450  134.77410   77.26380
 7616.50000  141.39770  134.99150   80.51850
 7617.00000  141.69090  134.43030   85.27350
 7617.50000  141.98410  133.86920   87.75570
 7618.00000  142.27730  133.30800   86.64890
 7618.50000  142.57050  132.74680   82.24620
 7619.00000  142.86370  132.18570   79.26790
 7619.50000  143.15690  132.47640   77.95290
 7620.00000  143.45010  133.33310   78.86750
 7620.50000  143.29900  134.39760   79.78120
 7621.00000  143.07680  135.23300   78.01260
 7621.50000  142.98900  135.15100   79.30880
 7622.00000  142.90120  134.07310   81.34410
 7622.50000  142.81340  132.99510   82.40710
 7623.00000  142.72560  131.91730   82.07290
 7623.50000  142.63780  130.83930   81.60000
 7624.00000  142.55000  129.81980   81.31580
 7624.50000  142.46220  130.45000   81.29970
 7625.00000  142.37440  131.25920   81.26770
 7625.50000  142.28660  132.20430   80.99900
 7626.00000  142.19880  133.14940   80.27680
 7626.50000  142.11100  134.09450   81.03370
 7627.00000  142.02320  134.67350   80.24680
 7627.50000  141.93540  134.80420   80.93130
 7628.00000  142.61350  133.66590   82.70140
 7628.50000  143.81840  132.04620   85.56080
 7629.00000  144.90110  130.42650   84.80050
 7629.50000  142.34930  128.80670   84.56720
 7630.00000  138.19850  127.18700   81.90830
 7630.50000  136.10750  127.63690   78.97390
 7631.00000  139.52710  131.69010   73.61670
 7631.50000  144.28790  135.82840   70.63840
 7632.00000  147.98230  138.58540   67.62830
 7632.50000  148.43820  137.06590   67.23420
 7633.00000  147.03560  135.54640   71.07210
 7633.50000  145.69920  134.22540   81.70960
 7634.00000  145.90210  135.04320   86.88100
 7634.50000  146.91780  135.73590   87.30450
 7635.00000  148.10810  135.23460   84.91670
 7635.50000  148.19800  134.13660   80.62300
 7636.00000  147.61130  133.60300   80.23310
 7636.50000  147.02460  133.98960   80.76130
 7637.00000  146.43780  134.83140   81.85480
 7637.50000  148.07560  135.67330   83.24920
 7638.00000  149.52460  136.51520   84.55360
 7638.50000  149.55420  137.00820   89.24940
 7639.00000  148.78490  136.80470   92.51450
 7639.50000  147.67520  135.67950   92.49120
 7640.00000  146.56550  134.30200   84.52990
 7640.50000  145.45570  132.90000   78.44430
 7641.00000  144.47880  131.49810   81.22780
 7641.50000  144.43010  130.09620   84.04350
 7642.00000  144.83480  131.14040   85.69500
 7642.50000  145.47280  132.70280   86.40440
 7643.00000  146.11080  134.26520   86.81590
 7643.50000  146.74880  135.07670   89.33760
 7644.00000  147.38680  134.42920   91.31400
 7644.50000  148.02480  133.07310   92.03680
 7645.00000  148.66280  132.07370   91.94820
 7645.50000  149.30080  133.73720   91.96540
 7646.00000  149.93880  135.40060   97.00810
 7646.50000  150.57680  136.80970  103.20740
 7647.00000  151.21480  136.72890  105.34970
 7647.50000  152.22440  135.85240  103.91160
 7648.00000  153.27550  134.89560  102.77410
 7648.50000  154.32670  136.75380  103.34610
 7649.00000  155.37780  137.86970  107.65250
 7649.50000  155.72980  137.84890  110.95570
 7650.00000  153.25430  137.82800  110.21440
 7650.50000  151.12490  138.17530  105.73680
 7651.00000  151.84450  138.92530  101.28360
 7651.50000  153.39160  139.67530   98.63100
 7652.00000  154.93860  139.94380   94.85000
 7652.50000  156.48570  139.59010   92.35920
 7653.00000  157.59820  139.28280   93.02040
 7653.50000  157.92080  139.50870   92.32120
 7654.00000  157.66020  139.76780   92.24200
 7654.50000  157.91520  140.02700   92.42430
 7655.00000  158.88640  140.26270   93.26170
 7655.50000  159.96150  140.41240   92.74950
 7656.00000  161.03660  140.56220   90.88220
 7656.50000  162.11170  140.71190   90.28150
 7657.00000  163.22610  140.86170   90.26940
 7657.50000  159.88160  141.01140   90.93750
 7658.00000  155.71240  141.03210   92.22120
 7658.50000  151.54330  140.12460   93.43020
 7659.00000  149.94730  139.21710   94.36830
 7659.50000  149.48500  138.47900   97.37390
 7660.00000  148.54000  138.47940   97.03280
 7660.50000  147.59510  138.11140   94.28920
 7661.00000  146.65020  136.63810   90.18270
 7661.50000  145.70520  134.92140   86.71620
 7662.00000  144.76030  133.14110   84.80580
 7662.50000  142.27410  131.36070   83.51090
 7663.00000  139.59850  129.58040   82.93790
 7663.50000  136.92300  127.80010   80.15800
 7664.00000  134.46430  126.01980   80.16630
 7664.50000  134.28350  124.84450   81.29320
 7665.00000  134.10270  125.04330   82.19020
 7665.50000  133.92190  125.24210   82.20620
 7666.00000  133.74110  126.23620   82.59660
 7666.50000  134.46210  127.47830   84.13030
 7667.00000  135.84730  129.01420   86.81520
 7667.50000  136.86300  130.96660   88.55010
 7668.00000  138.44400  131.55430   87.26920
 7668.50000  140.00760  132.02210   83.98940
 7669.00000  140.10690  130.87250   76.18350
 7669.50000  139.43490  127.94860   68.37460
 7670.00000  139.99940  124.99710   67.50110
 7670.50000  141.25260  126.69760   68.86850
 7671.00000  144.81910  128.47560   73.29520
 7671.50000  153.01160  130.14120   77.23100
 7672.00000  156.97540  131.14000   85.71730
 7672.50000  144.74990  131.52860   91.98320
 7673.00000  143.41380  131.81650   98.36640
 7673.50000  144.67630  132.36310  102.54760
 7674.00000  150.50410  134.08180  103.18610
 7674.50000  156.38380  141.17430  100.15980
 7675.00000  160.65690  148.80930   92.44170
 7675.50000  163.35160  148.53640   86.45410
 7676.00000  164.28900  146.16120   91.59900
 7676.50000  164.79450  142.85240   99.28030
 7677.00000  163.82910  141.41200  105.72940
 7677.50000  162.41040  140.40830  106.09500
 7678.00000  160.36230  139.61870  100.72480
 7678.50000  158.20320  138.82480   98.03240
 7679.00000  156.66100  137.52340   96.76630
 7679.50000  155.66200  136.55670   97.53790
 7680.00000  154.69200  135.63410   95.91560
 7680.50000  153.65210  135.65890   96.52730
 7681.00000  154.35130  136.33590   97.29340
 7681.50000  155.72290  136.55530   99.34430
 7682.00000  157.09450  135.92350  100.19620
 7682.50000  157.68250  134.79810  100.57020
 7683.00000  157.62450  133.63030  101.41790
 7683.50000  157.40540  132.94490  102.24100
 7684.00000  156.56550  132.01420  103.19440
 7684.50000  155.88860  130.66060  103.73580
 7685.00000  155.58400  131.55780  103.78580
 7685.50000  156.21700  134.07300  103.95190
 7686.00000  157.51430  137.21230  105.36500
 7686.50000  159.17790  139.91870  106.08310
 7687.00000  160.26170  140.71970  105.28450
 7687.50000  158.75320  139.82670  103.04090
