~Version ---------------------------------------------------
VERS.   2.0 : CWLS log ASCII Standard -VERSION 2.0
WRAP.    NO : One line per depth step
DLM . SPACE : Column Data Section Delimiter
~Well ------------------------------------------------------
STRT .F                6442.0 : START DEPTH
STOP .F                7737.0 : STOP DEPTH
STEP .F                   0.5 : STEP
NULL .               -9999.25 : NULL VALUE
COMP .                        : COMPANY
WELL .                        : WELL
FLD  .                        : FIELD
LOC  .                        : LOCATION
PROV .                        : PROVINCE
CNTY .                        : COUNTY
STAT .                        : STATE
CTRY .                        : COUNTRY
SRVC .                        : SERVICE COMPANY
DATE .                        : DATE
UWI  .                        : UNIQUE WELL ID
API  .                        : API NUMBER
SLAT .WGS84 6.511741391871496 : SURFACE LATITUDE
SLON .WGS84 4.971150513225993 : SURFACE LONGITUDE
DATUM.F               2597.53 : DEPTH DATUM ELEV
~Curve Information -----------------------------------------
DEPT.F     : 1 MEASURED DEPTH
DTLF.US/F  : DELTA-T LONG SPACING FAR
DTSM.US/F  : DELTA-T SHEAR
GRS .GAPI  : GAMMA RAY FROM SONIC LOG
~Params ----------------------------------------------------
~Other -----------------------------------------------------
~ASCII -----------------------------------------------------
 6442.00000  140.98780  139.09720   79.40790
 6442.50000  141.01560  139.15730   74.13710
 6443.00000  142.22770  139.13500   68.31790
 6443.50000  145.30740  141.15670   64.76110
 6444.00000  147.73870  142.50680   69.32880
 6444.50000  147.52750  142.72590   74.30130
 6445.00000  145.84810  142.25920   80.69480
 6445.50000  144.10380  141.36790   79.80890
 6446.00000  143.11030  140.69100   81.33860
 6446.50000  143.35920  140.81310   81.66010
 6447.00000  143.80850  141.53300   83.39380
 6447.50000  144.28740  142.56920   83.33270
 6448.00000  145.19710  143.62170   85.26140
 6448.50000  147.56050  145.69710   86.48380
 6449.00000  150.54340  147.76710   86.13480
 6449.50000  152.80260  149.58070   83.77650
 6450.00000  153.33750  151.13300   82.70290
 6450.50000  153.89640  152.19110   82.47690
 6451.00000  154.19360  152.31040   84.64620
 6451.50000  153.63130  151.68310   83.95130
 6452.00000  151.81140  150.47480   84.27000
 6452.50000  149.99140  148.99140   84.22080
 6453.00000  148.19640  146.99550   80.00010
 6453.50000  146.40270  144.62590   75.95540
 6454.00000  144.71000  141.51090   73.92560
 6454.50000  145.48310  141.10650   77.10490
 6455.00000  146.49320  142.36600   76.42450
 6455.50000  147.60870  143.52660   79.50530
 6456.00000  148.65770  144.60060   80.73380
 6456.50000  148.75210  144.64590   81.80230
 6457.00000  147.84610  144.74820   78.68790
 6457.50000  147.03420  143.94010   77.65330
 6458.00000  146.22230  143.13210   78.49950
 6458.50000  145.41040  142.59530   79.67080
 6459.00000  144.39670  141.37300   79.67250
 6459.50000  143.93800  141.08770   79.67430
 6460.00000  145.44630  143.44730   80.17600
 6460.50000  146.23600  144.34420   81.62810
 6461.00000  146.06950  144.21650   82.50580
 6461.50000  145.33870  143.41220   82.94930
 6462.00000  144.14830  142.09860   83.90990
 6462.50000  142.54060  140.41530   84.00090
 6463.00000  140.95180  139.17170   84.16550
 6463.50000  140.36470  139.00250   81.00290
 6464.00000  140.93410  139.64980   79.86730
 6464.50000  141.82140  139.98460   78.36600
 6465.00000  143.83260  142.95720   80.26820
 6465.50000  145.23830  143.74190   82.92530
 6466.00000  145.72630  143.87440   83.33790
 6466.50000  146.05820  144.20330   82.35950
 6467.00000  148.11800  146.05210   80.36900
 6467.50000  151.27310  148.74090   81.90490
 6468.00000  154.42830  151.82960   83.76090
 6468.50000  157.18090  154.95690   84.55640
 6469.00000  159.80490  159.02700   83.69290
 6469.50000  162.26610  159.68570   85.98290
 6470.00000  164.49800  160.68070   86.63000
 6470.50000  166.22830  163.13010   87.30960
 6471.00000  166.91090  164.72200   87.12340
 6471.50000  166.01060  164.74120   88.67780
 6472.00000  163.92650  163.84500   89.63110
 6472.50000  161.91540  161.28880   88.27090
 6473.00000  159.90520  158.68470   86.81230
 6473.50000  157.89570  156.07510   85.13780
 6474.00000  154.21470  153.08560   82.41680
 6474.50000  152.66120  150.90160   81.03450
 6475.00000  153.71570  150.70010   80.79070
 6475.50000  155.59250  151.95940   81.95710
 6476.00000  158.61280  154.68740   85.43530
 6476.50000  163.31510  159.09560   88.33210
 6477.00000  169.74010  167.88910   87.92060
 6477.50000  172.75920  172.83200   88.50050
 6478.00000  174.40110  176.35330   89.12380
 6478.50000  174.67650  176.95840   92.29580
 6479.00000  174.84430  176.13400   94.30340
 6479.50000  173.13210  172.11380   97.71930
 6480.00000  171.34120  167.41380   95.27430
 6480.50000  160.75710  166.64390   91.48370
 6481.00000  157.75460  161.69200   91.12780
 6481.50000  160.10920  161.30960   91.13040
 6482.00000  159.35760  160.39590   91.50070
 6482.50000  152.46700  155.62800   90.25730
 6483.00000  137.02340  144.84740   83.81730
 6483.50000  126.53080  131.94930   73.26910
 6484.00000  121.04090  124.28600   64.75800
 6484.50000  120.82720  121.51290   58.41920
 6485.00000  118.73520  119.45180   55.74090
 6485.50000  116.46370  115.63910   52.74830
 6486.00000  117.27020  116.27840   53.74710
 6486.50000  119.48490  119.05000   51.60120
 6487.00000  120.23840  123.39080   47.36830
 6487.50000  119.79390  122.37440   43.33050
 6488.00000  117.87320  120.98780   43.46910
 6488.50000  116.43900  120.05720   46.11690
 6489.00000  116.86630  119.48420   46.99020
 6489.50000  117.37840  119.65340   48.37500
 6490.00000  118.79510  120.23280   51.33350
 6490.50000  120.35650  121.04240   52.45270
 6491.00000  120.78060  122.78450   51.64020
 6491.50000  121.45320  123.57560   50.47130
 6492.00000  122.65290  124.04540   55.33650
 6492.50000  123.49010  124.46720   54.37830
 6493.00000  123.79620  124.65680   52.16500
 6493.50000  123.63750  124.36470   49.56090
 6494.00000  123.42900  124.05720   49.88010
 6494.50000  123.15010  123.71800   51.85540
 6495.00000  122.51230  123.37870   54.20850
 6495.50000  121.85270  123.03940   52.33730
 6496.00000  121.90360  123.62920   50.78410
 6496.50000  122.60790  124.49030   51.05290
 6497.00000  124.01340  125.88470   52.44160
 6497.50000  125.27780  126.78520   52.65190
 6498.00000  125.41500  126.96580   52.61480
 6498.50000  125.53470  127.11370   52.35540
 6499.00000  124.85610  126.99350   53.70020
 6499.50000  123.98300  126.28370   53.93400
 6500.00000  123.10990  125.46410   55.30190
 6500.50000  122.10950  124.32470   55.88590
 6501.00000  121.07380  122.51690   55.80980
 6501.50000  121.14280  120.54210   55.63750
 6502.00000  122.12500  121.56770   57.34860
 6502.50000  123.28580  123.13300   60.44290
 6503.00000  123.27640  124.15550   62.15410
 6503.50000  123.32390  124.92060   62.19200
 6504.00000  123.26840  122.91340   62.17290
 6504.50000  123.05740  119.49240   62.56060
 6505.00000  125.06950  122.63670   63.23920
 6505.50000  132.42130  128.86500   65.05390
 6506.00000  145.70740  140.60170   70.56680
 6506.50000  159.59970  156.97880   77.35390
 6507.00000  169.31630  167.08980   82.83580
 6507.50000  171.49200  168.32780   85.79410
 6508.00000  169.22040  166.42890   86.40810
 6508.50000  167.26540  162.98020   86.41940
 6509.00000  168.53590  165.84880   85.69930
 6509.50000  173.71110  171.10090   84.58170
 6510.00000  178.76470  174.30000   83.05320
 6510.50000  179.13430  173.88740   82.13060
 6511.00000  175.44560  171.16820   81.13220
 6511.50000  173.03130  169.32130   79.91110
 6512.00000  174.66000  171.06300   78.89670
 6512.50000  179.75630  178.17030   79.78760
 6513.00000  183.30800  184.97770   82.37840
 6513.50000  181.75140  181.42850   85.64640
 6514.00000  175.21170  174.85030   90.14440
 6514.50000  168.55900  169.49340   90.87790
 6515.00000  162.69810  167.77130   90.92560
 6515.50000  161.36780  167.31020   88.78810
 6516.00000  164.63260  168.52240   86.33150
 6516.50000  169.00620  170.59070   84.60750
 6517.00000  169.13460  170.87180   83.59930
 6517.50000  158.08820  167.98020   84.15540
 6518.00000  148.28510  165.32830   83.68750
 6518.50000  144.62530  165.27800   81.28450
 6519.00000  163.15780  168.65020   78.82560
 6519.50000  182.61930  176.43100   77.16580
 6520.00000  185.70170  180.59540   76.06420
 6520.50000  182.88360  181.15310   76.13730
 6521.00000  179.16190  181.41410   80.87960
 6521.50000  175.91290  181.86600   84.06910
 6522.00000  176.90300  182.71730   84.86270
 6522.50000  181.71610  183.70540   84.89080
 6523.00000  186.46390  185.32920   84.99540
 6523.50000  189.69490  183.75090   87.27470
 6524.00000  188.07870  180.49150   87.34290
 6524.50000  177.84540  178.66270   87.20770
 6525.00000  172.99700  177.48870   83.85960
 6525.50000  170.46980  173.91970   84.55430
 6526.00000  169.03850  170.61700   84.98820
 6526.50000  169.34760  167.61160   84.97950
 6527.00000  173.50280  167.12020   84.96050
 6527.50000  176.87910  167.12070   84.79270
 6528.00000  171.16040  164.20960   86.33320
 6528.50000  161.47630  154.27510   87.28810
 6529.00000  151.79220  142.81780   90.19890
 6529.50000  151.90650  135.59400   90.01240
 6530.00000  157.40660  152.62330   88.08070
 6530.50000  168.78410  168.46500   83.03320
