~Version ---------------------------------------------------
VERS.   2.0 : CWLS log ASCII Standard -VERSION 2.0
WRAP.    NO : One line per depth step
DLM . SPACE : Column Data Section Delimiter
~Well ------------------------------------------------------
STRT .F                6442.0 : START DEPTH
STOP .F                7737.0 : STOP DEPTH
STEP .F                   0.5 : STEP
NULL .               -9999.25 : NULL VALUE
COMP .                        : COMPANY
WELL .                        : WELL
FLD  .                        : FIELD
LOC  .                        : LOCATION
PROV .                        : PROVINCE
CNTY .                        : COUNTY
STAT .                        : STATE
CTRY .                        : COUNTRY
SRVC .                        : SERVICE COMPANY
DATE .                        : DATE
UWI  .                        : UNIQUE WELL ID
API  .                        : API NUMBER
SLAT .WGS84 6.511741391871496 : SURFACE LATITUDE
SLON .WGS84 4.971150513225993 : SURFACE LONGITUDE
DATUM.F               2597.53 : DEPTH DATUM ELEV
~Curve Information -----------------------------------------
DEPT.F     : 1 MEASURED DEPTH
DTLF.US/F  : DELTA-T LONG SPACING FAR
DTSM.US/F  : DELTA-T SHEAR
GRS .GAPI  : GAMMA RAY FROM SONIC LOG
~Params ----------------------------------------------------
~Other -----------------------------------------------------
~ASCII -----------------------------------------------------
# ...
 6887.00000  179.60010  181.04350   87.30120
 6887.50000  179.43770  184.72510   87.85550
 6888.00000  175.17760  182.03250   87.87210
 6888.50000  170.42450  175.61940   88.14900
 6889.00000  165.68950  170.06480   90.17110
 6889.50000  161.08130  164.12050   90.27750
 6890.00000  156.57990  156.04180   90.02490
 6890.50000  153.37380  149.61290   89.84200
 6891.00000  151.80250  149.76100   90.23870
 6891.50000  153.20950  151.60060   90.45340
 6892.00000  155.04510  153.31120   89.79570
 6892.50000  157.49960  155.54040   86.32880
 6893.00000  158.15070  156.99330   86.00400
 6893.50000  159.08600  157.50090   85.10490
 6894.00000  160.02130  158.08500   85.62250
 6894.50000  160.85320  158.65510   84.26020
 6895.00000  165.57400  162.16130   85.20670
 6895.50000  171.86960  167.56080   84.58070
 6896.00000  176.70850  169.74530   83.61010
 6896.50000  176.95580  169.53530   83.20970
 6897.00000  168.50040  165.76700   83.30410
 6897.50000  164.50790  161.16240   83.78180
 6898.00000  161.11670  158.30830   84.14240
 6898.50000  158.21050  155.96410   84.53090
 6899.00000  157.30750  155.36350   85.59660
 6899.50000  156.27610  154.42850   87.22730
 6900.00000  154.96770  153.49340   86.98650
 6900.50000  153.63190  152.11720   85.13730
 6901.00000  152.29190  150.64450   81.94680
 6901.50000  150.95190  149.17160   79.94840
 6902.00000  149.74590  148.77270   80.39010
 6902.50000  153.55830  151.71940   82.34560
 6903.00000  157.80660  154.42870   84.09520
 6903.50000  162.19970  157.92980   86.89030
 6904.00000  166.42390  168.20910   87.85840
 6904.50000  169.56700  178.48830   88.96790
 6905.00000  170.12780  188.19110   90.16180
 6905.50000  167.44300  194.52390   85.94070
 6906.00000  162.69800  187.88970   84.02600
 6906.50000  155.15740  169.06720   82.88350
 6907.00000  149.90650  156.09110   85.50390
 6907.50000  148.73730  147.88300   87.44500
 6908.00000  148.77850  145.32740   88.34190
 6908.50000  152.44670  146.99950   87.63230
 6909.00000  160.90520  155.16740   81.30410
 6909.50000  171.90990  161.14260   74.31870
 6910.00000  175.65570  160.49810   74.16920
 6910.50000  166.20540  155.63920   76.40080
 6911.00000  154.12980  150.18520   82.40520
 6911.50000  149.31510  146.50620   86.45700
 6912.00000  149.57760  145.82510   86.63640
 6912.50000  154.15500  151.99620   85.80480
 6913.00000  159.09610  158.70090   84.21250
 6913.50000  160.61140  159.88340   82.53950
 6914.00000  157.81690  156.00460   84.29220
 6914.50000  156.29230  155.14940   86.48970
 6915.00000  162.80820  162.95730   86.00990
 6915.50000  162.55010  163.83330   84.07560
 6916.00000  159.97380  158.64290   83.99960
 6916.50000  158.21380  155.55790   86.17520
 6917.00000  162.91850  161.74920   86.59390
 6917.50000  173.82950  168.76260   82.49440
 6918.00000  182.86700  172.23380   81.50380
 6918.50000  179.11480  170.68180   81.03340
 6919.00000  168.72940  166.13170   81.06890
 6919.50000  163.81920  162.20660   81.77740
 6920.00000  163.01850  161.24840   84.51710
 6920.50000  163.62010  162.17820   87.26430
 6921.00000  165.18070  164.42210   87.45650
 6921.50000  166.72150  167.61620   85.55130
 6922.00000  167.71240  171.91670   83.59640
 6922.50000  168.35720  170.73480   81.95380
 6923.00000  168.48540  168.82820   81.10960
 6923.50000  165.95380  168.82820   81.09580
 6924.00000  166.38780  168.58440   81.38180
 6924.50000  168.53850  169.02190   82.58140
 6925.00000  168.61550  170.35020   83.22260
 6925.50000  170.00400  171.37140   83.43400
 6926.00000  172.15220  171.38580   84.73560
 6926.50000  179.04980  171.40010   85.47300
 6927.00000  183.79960  173.08520   84.82920
 6927.50000  179.42450  172.80040   83.86100
 6928.00000  173.11080  169.21930   81.90120
 6928.50000  166.08460  164.27870   80.76970
 6929.00000  162.55440  161.62070   79.95870
 6929.50000  165.06570  163.18330   81.01530
 6930.00000  167.88170  167.48850   80.62730
 6930.50000  169.94440  169.22230   79.98020
 6931.00000  168.63010  165.59180   78.08290
 6931.50000  167.32260  162.52680   76.15910
 6932.00000  171.78370  169.55360   76.31560
 6932.50000  175.56500  175.82590   77.16130
 6933.00000  176.63930  178.47250   80.80750
 6933.50000  176.25970  176.83420   81.71210
 6934.00000  172.99240  171.96120   81.95760
 6934.50000  170.00190  169.43170   81.20740
 6935.00000  169.17780  167.63920   78.93980
 6935.50000  168.88440  167.04970   77.80780
 6936.00000  168.75770  167.64300   80.85620
 6936.50000  169.42090  167.81470   82.82090
 6937.00000  170.60600  167.27390   84.20340
 6937.50000  171.51180  166.86220   82.68080
 6938.00000  171.43350  166.48860   80.46850
 6938.50000  170.85710  166.74350   81.11040
 6939.00000  168.65530  166.57880   85.00910
 6939.50000  166.04740  166.08370   86.78710
 6940.00000  162.03040  164.86210   86.57010
 6940.50000  163.57280  164.54180   85.22000
 6941.00000  163.72100  164.03080   86.00630
 6941.50000  160.01620  160.29880   84.11560
 6942.00000  160.34320  160.81200   82.99020
 6942.50000  162.18980  162.92630   81.24740
 6943.00000  165.31720  165.60470   83.67850
 6943.50000  166.27670  167.86380   82.92370
 6944.00000  166.28020  168.90350   83.03650
 6944.50000  168.39890  169.59410   81.60960
 6945.00000  169.99040  170.34610   81.35020
 6945.50000  167.58000  169.29460   81.13140
 6946.00000  164.76100  166.30190   79.60580
 6946.50000  162.69790  163.02440   79.09760
 6947.00000  160.25410  160.73450   79.65010
 6947.50000  161.41780  162.48720   81.05960
 6948.00000  163.44870  165.20760   81.68430
 6948.50000  164.56810  166.49840   82.52930
 6949.00000  164.55680  166.28350   85.50290
 6949.50000  162.72450  164.33450   88.00000
 6950.00000  162.85930  165.21610   88.98700
 6950.50000  166.27490  169.76840   84.17450
 6951.00000  169.47590  173.71460   78.60180
 6951.50000  169.52910  172.38160   73.03430
 6952.00000  166.73680  168.12690   74.86210
 6952.50000  162.49730  163.87220   79.80990
 6953.00000  159.92610  161.34260   83.78260
 6953.50000  160.17760  160.90020   83.26300
 6954.00000  160.88500  161.53420   82.56640
 6954.50000  161.90500  162.25390   83.30620
 6955.00000  162.72860  162.97370   84.18530
 6955.50000  162.33340  163.73520   83.80290
 6956.00000  162.97280  164.49670   81.14640
 6956.50000  164.16870  165.25820   80.09170
 6957.00000  165.23080  166.52840   79.96840
 6957.50000  166.33620  167.84470   80.53510
 6958.00000  166.64310  168.24290   83.89020
 6958.50000  166.54060  168.60060   85.36150
 6959.00000  167.37570  168.95820   84.61350
 6959.50000  168.79170  169.34810   82.12420
 6960.00000  170.30720  173.38060   82.24510
 6960.50000  170.43400  173.06420   84.25280
 6961.00000  165.93530  170.03960   84.86040
 6961.50000  162.58100  164.42340   87.48730
 6962.00000  161.43210  162.02720   89.65960
 6962.50000  161.24470  161.11490   90.25030
 6963.00000  160.76530  161.97080   86.64010
 6963.50000  159.45910  161.73930   83.84060
 6964.00000  160.17000  161.29040   80.42080
 6964.50000  162.78590  163.22070   76.81610
 6965.00000  165.47890  165.62270   76.22300
 6965.50000  166.35730  167.87660   76.36360
 6966.00000  165.17300  168.16590   78.65030
 6966.50000  163.77730  166.77390   80.88000
 6967.00000  163.11400  165.69410   83.31410
 6967.50000  164.92600  165.35750   83.96340
 6968.00000  174.38250  166.96170   82.97590
 6968.50000  179.50290  170.00010   80.93350
 6969.00000  174.58760  169.83120   79.64410
 6969.50000  171.93730  169.30490   79.36720
 6970.00000  171.43920  165.54110   78.48140
 6970.50000  171.29480  168.08150   80.33320
 6971.00000  170.77230  168.65320   79.65930
 6971.50000  170.09320  168.53370   81.69260
 6972.00000  169.43140  168.46510   80.59570
 6972.50000  169.12950  168.16340   77.35470
 6973.00000  171.08850  169.70230   73.49560
 6973.50000  175.48490  174.36250   73.20630
 6974.00000  179.68160  179.78170   74.47450
 6974.50000  184.07440  183.24860   75.01230
 6975.00000  187.71360  183.79440   73.59640
 6975.50000  188.58650  179.93440   71.15530
