~Version ---------------------------------------------------
VERS.   2.0 : CWLS log ASCII Standard -VERSION 2.0
WRAP.    NO : One line per depth step
DLM . SPACE : Column Data Section Delimiter
~Well ------------------------------------------------------
STRT .F                6442.0 : START DEPTH
STOP .F                7737.0 : STOP DEPTH
STEP .F                   0.5 : STEP
NULL .               -9999.25 : NULL VALUE
COMP .                        : COMPANY
WELL .                        : WELL
FLD  .                        : FIELD
LOC  .                        : LOCATION
PROV .                        : PROVINCE
CNTY .                        : COUNTY
STAT .                        : STATE
CTRY .                        : COUNTRY
SRVC .                        : SERVICE COMPANY
DATE .                        : DATE
UWI  .                        : UNIQUE WELL ID
API  .                        : API NUMBER
SLAT .WGS84 6.511741391871496 : SURFACE LATITUDE
SLON .WGS84 4.971150513225993 : SURFACE LONGITUDE
DATUM.F               2597.53 : DEPTH DATUM ELEV
~Curve Information -----------------------------------------
DEPT.F     : 1 MEASURED DEPTH
DTLF.US/F  : DELTA-T LONG SPACING FAR
DTSM.US/F  : DELTA-T SHEAR
GRS .GAPI  : GAMMA RAY FROM SONIC LOG
~Params ----------------------------------------------------
~Other -----------------------------------------------------
~ASCII -----------------------------------------------------
# ...
 7510.00000  112.08720  120.46350   56.31450
 7510.50000  113.75800  120.44240   55.05020
 7511.00000  115.77150  120.42650   55.52630
 7511.50000  118.01940  120.94870   58.96250
 7512.00000  120.90140  121.56800   63.53910
 7512.50000  123.78330  122.43600   67.45750
 7513.00000  126.25380  127.27130   71.01710
 7513.50000  126.73950  133.76180   72.42630
 7514.00000  125.91370  135.33050   72.72170
 7514.50000  125.03560  136.19770   71.93660
 7515.00000  124.15750  136.98320   74.49800
 7515.50000  125.82580  137.99170   75.23350
 7516.00000  127.99330  138.17110   77.77950
 7516.50000  130.16640  135.91380   76.51020
 7517.00000  132.33960  133.33800   76.29130
 7517.50000  134.51270  130.65040   76.39590
 7518.00000  136.68580  127.96280   77.35830
 7518.50000  138.72970  125.94580   79.11750
 7519.00000  139.91150  124.60190   81.30940
 7519.50000  140.90210  123.94910   81.97830
 7520.00000  141.21150  125.62680   81.56960
 7520.50000  141.38140  129.00110   80.54750
 7521.00000  140.86350  130.23850   78.83250
 7521.50000  139.92370  130.51670   78.29270
 7522.00000  138.78680  129.57370   76.18810
 7522.50000  137.84290  128.51930   74.31230
 7523.00000  136.89900  127.19820   74.19780
 7523.50000  135.99980  126.05800   74.40230
 7524.00000  135.26010  125.45250   74.84490
 7524.50000  135.03540  125.75120   75.23750
 7525.00000  134.90330  128.37980   76.02950
 7525.50000  134.78090  130.86940   77.86730
 7526.00000  135.28110  131.45030   81.85510
 7526.50000  135.95860  130.97700   83.43750
 7527.00000  136.50920  129.52870   85.18300
 7527.50000  138.38980  127.78890   86.12050
 7528.00000  140.60360  128.97770   92.66230
 7528.50000  143.03670  133.29260   97.83910
 7529.00000  145.15250  135.03850  101.67610
 7529.50000  145.36880  134.78050  101.02120
 7530.00000  143.82910  133.21290   99.86240
 7530.50000  141.06270  131.43680   97.83730
 7531.00000  141.43340  129.97990   98.21970
 7531.50000  142.95590  130.07000   99.09150
 7532.00000  145.90250  135.99600  103.08660
 7532.50000  149.35460  142.76610  111.25900
 7533.00000  152.67720  149.53630  122.38760
 7533.50000  154.98070  152.78640  129.47010
 7534.00000  152.68090  146.10680  124.20030
 7534.50000  143.35320  137.18460  114.57330
 7535.00000  134.15680  130.05640   95.44930
 7535.50000  128.18940  124.08770   83.01440
 7536.00000  122.22190  119.59340   76.64890
 7536.50000  120.51840  118.67730   75.28880
 7537.00000  121.34300  118.94950   75.11670
 7537.50000  123.84950  121.45510   75.78920
 7538.00000  125.60080  123.37300   73.98920
 7538.50000  126.83020  124.33040   71.08720
 7539.00000  127.61770  124.16680   64.93980
 7539.50000  128.61160  122.08610   64.07380
 7540.00000  130.41930  122.38780   67.54380
 7540.50000  132.20710  126.37180   75.06090
 7541.00000  134.09730  130.07170   79.20410
 7541.50000  136.52790  131.59730   82.63180
 7542.00000  138.49660  132.05690   82.85230
 7542.50000  139.33490  133.24980   82.65610
 7543.00000  139.48100  134.17250   80.61600
 7543.50000  138.92240  133.65420   81.28370
 7544.00000  137.23290  131.19780   81.52900
 7544.50000  134.76380  127.86110   80.91640
 7545.00000  130.36470  123.48110   79.89450
 7545.50000  127.14750  119.40980   80.36780
 7546.00000  127.18490  120.51130   83.21650
 7546.50000  130.78200  125.27470   82.95470
 7547.00000  136.25680  130.09530   79.28250
 7547.50000  141.73160  134.14190   74.52170
 7548.00000  144.67160  136.21670   71.48690
 7548.50000  146.00040  136.13450   72.11330
 7549.00000  145.72030  134.72310   80.49600
 7549.50000  144.78110  131.41590   82.64680
 7550.00000  143.87880  131.88120   83.33060
 7550.50000  143.46710  134.67730   83.66780
 7551.00000  143.49540  135.51470   86.19520
 7551.50000  142.73520  135.64920   86.77200
 7552.00000  142.05060  135.67720   87.82320
 7552.50000  141.62880  135.70510   87.54150
 7553.00000  141.84980  135.25280   87.25990
 7553.50000  141.51030  133.52880   86.35340
 7554.00000  140.97040  129.70930   85.54800
 7554.50000  140.39560  127.67340   85.13870
 7555.00000  140.15180  128.07220   86.62740
 7555.50000  140.39560  129.05430   85.33640
 7556.00000  140.63940  131.79810   84.00190
 7556.50000  141.18730  134.29350   83.45710
 7557.00000  141.85520  134.22450   84.29900
 7557.50000  142.16350  133.63570   84.14960
 7558.00000  142.37110  133.10000   85.90060
 7558.50000  142.57870  132.36930   87.34990
 7559.00000  142.79040  131.95010   88.95120
 7559.50000  143.00990  132.58990   84.42770
 7560.00000  143.08320  133.22730   82.78330
 7560.50000  142.61940  133.31330   82.46190
 7561.00000  141.50710  132.92950   86.71950
 7561.50000  138.07720  132.51090   89.27250
 7562.00000  133.97840  131.86110   90.32860
 7562.50000  137.00630  130.88210   87.81910
 7563.00000  141.10780  129.64920   85.99490
 7563.50000  142.24550  129.45200   85.61130
 7564.00000  142.45140  129.89440   85.15530
 7564.50000  140.57010  131.01380   84.06310
 7565.00000  135.82670  132.98370   82.65000
 7565.50000  130.97720  137.01220   82.34470
 7566.00000  130.91920  141.04060   83.42570
 7566.50000  131.92350  143.44200   84.34710
 7567.00000  132.92780  145.39310   84.88760
 7567.50000  133.93220  145.28100   81.94700
 7568.00000  134.93650  144.57500   81.18630
 7568.50000  135.94080  143.25160   81.04010
 7569.00000  136.96150  141.55890   82.37000
 7569.50000  138.05590  140.28710   81.03390
 7570.00000  139.93640  137.00540   79.86890
 7570.50000  141.86920  132.61040   79.02550
 7571.00000  143.76470  128.67490   79.42080
 7571.50000  145.10060  126.34470   79.93820
 7572.00000  145.80350  125.45380   80.68320
 7572.50000  145.37100  127.12130   79.85990
 7573.00000  144.59590  130.92710   80.64800
 7573.50000  142.66770  134.73290   79.21460
 7574.00000  138.63950  138.53870   77.16910
 7574.50000  135.72950  139.07110   76.31750
 7575.00000  134.10150  139.20560   76.65640
 7575.50000  133.41000  139.34000   78.69110
 7576.00000  132.96550  139.73930   80.64470
 7576.50000  132.47340  140.30560   81.81700
 7577.00000  131.60930  140.23810   82.16850
 7577.50000  130.74520  139.36250   83.07930
 7578.00000  129.88110  138.26180   82.07100
 7578.50000  128.76660  136.80420   81.78570
 7579.00000  127.38460  136.11090   79.07850
 7579.50000  126.41230  135.44210   79.37530
 7580.00000  125.93460  134.60200   79.00500
 7580.50000  125.42670  134.44140   77.68330
 7581.00000  124.87780  134.28610   74.99170
 7581.50000  125.91770  134.10820   72.57390
 7582.00000  128.05280  133.87600   76.03410
 7582.50000  129.60460  133.64380   79.67510
 7583.00000  130.43320  133.42900   82.36240
 7583.50000  131.31500  133.51500   81.28510
 7584.00000  132.29710  133.60100   80.38420
 7584.50000  133.11980  133.61490   77.99600
 7585.00000  133.07980  130.17850   76.33920
 7585.50000  132.70050  125.98810   75.96000
 7586.00000  130.95950  123.61490   77.93140
 7586.50000  130.41690  123.50700   79.69300
 7587.00000  134.38700  128.88960   78.00220
 7587.50000  140.86650  134.41240   74.69570
 7588.00000  144.48050  136.46710   72.67000
 7588.50000  144.07230  135.85200   73.61190
 7589.00000  140.95590  134.33050   76.41160
 7589.50000  138.21890  131.48930   80.34200
 7590.00000  136.42180  129.77000   81.23280
 7590.50000  135.75040  129.51480   80.94190
 7591.00000  135.43870  129.83970   79.97170
 7591.50000  135.14160  130.65120   81.18300
 7592.00000  136.15680  132.24960   81.32030
 7592.50000  137.28250  134.20190   81.15480
 7593.00000  138.48970  135.48970   79.63270
 7593.50000  139.65760  135.73170   81.96940
 7594.00000  140.77520  135.71030   82.32590
 7594.50000  141.73400  135.68890   81.88820
 7595.00000  142.10550  135.66750   81.00120
 7595.50000  142.45980  135.64610   79.42610
 7596.00000  142.79780  135.62470   82.53740
 7596.50000  142.86440  135.60340   84.58910
 7597.00000  142.63870  135.58200   86.63930
 7597.50000  142.39190  135.56060   85.97450
 7598.00000  141.99510  135.53920   84.06370
 7598.50000  141.59820  135.51780   82.82020
