~Version ---------------------------------------------------
VERS.   2.0 : CWLS log ASCII Standard -VERSION 2.0
WRAP.    NO : One line per depth step
DLM . SPACE : Column Data Section Delimiter
~Well ------------------------------------------------------
STRT .F                6442.0 : START DEPTH
STOP .F                7737.0 : STOP DEPTH
STEP .F                   0.5 : STEP
NULL .               -9999.25 : NULL VALUE
COMP .                        : COMPANY
WELL .                        : WELL
FLD  .                        : FIELD
LOC  .                        : LOCATION
PROV .                        : PROVINCE
CNTY .                        : COUNTY
STAT .                        : STATE
CTRY .                        : COUNTRY
SRVC .                        : SERVICE COMPANY
DATE .                        : DATE
UWI  .                        : UNIQUE WELL ID
API  .                        : API NUMBER
SLAT .WGS84 6.511741391871496 : SURFACE LATITUDE
SLON .WGS84 4.971150513225993 : SURFACE LONGITUDE
DATUM.F               2597.53 : DEPTH DATUM ELEV
~Curve Information -----------------------------------------
DEPT.F     : 1 MEASURED DEPTH
DTLF.US/F  : DELTA-T LONG SPACING FAR
DTSM.US/F  : DELTA-T SHEAR
GRS .GAPI  : GAMMA RAY FROM SONIC LOG
~Params ----------------------------------------------------
~Other -----------------------------------------------------
~ASCII -----------------------------------------------------
# ...
 7154.00000  141.09620  139.30240   86.57990
 7154.50000  141.70050  140.21980   87.92040
 7155.00000  142.07290  140.42070   86.83690
 7155.50000  142.31010  138.13850   84.65020
 7156.00000  142.43990  137.39580   85.37300
 7156.50000  143.10680  139.78450   85.38760
 7157.00000  144.01030  142.14660   83.50700
 7157.50000  144.76060  144.50860   83.21980
 7158.00000  145.31110  146.95060   86.35270
 7158.50000  145.14680  148.20980   90.33370
 7159.00000  142.61540  148.04280   91.27100
 7159.50000  139.82370  147.71610   89.11720
 7160.00000  139.36710  147.37640   87.25730
 7160.50000  140.44400  147.75400   85.90540
 7161.00000  143.80800  148.16380   86.38500
 7161.50000  148.99570  149.21840   87.55340
 7162.00000  150.69870  150.30670   88.86870
 7162.50000  151.36420  150.89030   91.56350
 7163.00000  151.56670  150.16520   93.70790
 7163.50000  151.50360  151.08870   96.27060
 7164.00000  151.99880  152.07750   95.46650
 7164.50000  153.12270  152.38560   94.15840
 7165.00000  154.14230  152.61650   94.26450
 7165.50000  151.67420  150.81980   94.61230
 7166.00000  148.79200  146.47530   91.95310
 7166.50000  148.33070  142.42870   89.36770
 7167.00000  148.95190  142.71640   86.65160
 7167.50000  150.15010  146.12660   86.53630
 7168.00000  152.69990  153.25530   83.35320
 7168.50000  155.80760  160.79430   78.97530
 7169.00000  158.05090  160.50540   76.93690
 7169.50000  157.38860  158.44420   78.90140
 7170.00000  155.80530  156.47460   82.09210
 7170.50000  154.44150  154.39290   87.91060
 7171.00000  154.41430  153.00160   87.60070
 7171.50000  154.84970  153.09640   88.87680
 7172.00000  154.68260  152.81310   87.82030
 7172.50000  154.22230  152.35780   87.20290
 7173.00000  153.94460  152.19390   86.25800
 7173.50000  153.76570  152.30420   90.60380
 7174.00000  153.53970  152.41440   90.21690
 7174.50000  153.13920  152.95570   87.86670
 7175.00000  153.39430  153.81270   85.58370
 7175.50000  152.51500  154.66970   84.46670
 7176.00000  150.65570  155.49380   83.48560
 7176.50000  151.15400  155.80760   82.32640
 7177.00000  152.58040  156.12140   83.36550
 7177.50000  153.17920  156.43520   86.71170
 7178.00000  153.62750  156.74900   89.53250
 7178.50000  153.77510  156.17020   91.93630
 7179.00000  153.65410  154.95800   90.02100
 7179.50000  153.15320  153.77690   87.26980
 7180.00000  152.65220  153.05470   85.11310
 7180.50000  151.62920  152.33240   84.44670
 7181.00000  150.48590  151.61020   87.58790
 7181.50000  149.35650  150.04060   86.94200
 7182.00000  149.06190  148.92670   85.23200
 7182.50000  148.56690  148.75440   84.85780
 7183.00000  148.07620  148.88180   87.68600
 7183.50000  147.72620  151.15800   86.81040
 7184.00000  147.74790  153.23810   82.81650
 7184.50000  147.87340  153.60220   79.31950
 7185.00000  148.12610  152.75090   81.41820
 7185.50000  148.46190  150.42750   82.34760
 7186.00000  148.79760  150.07640   79.76930
 7186.50000  149.13930  150.07640   77.10370
 7187.00000  149.99580  149.38920   76.52130
 7187.50000  150.59160  149.86970   77.06800
 7188.00000  151.15290  150.66680   78.78610
 7188.50000  151.69120  151.05960   80.83900
 7189.00000  152.08020  151.14030   82.17590
 7189.50000  152.35620  151.22100   83.64900
 7190.00000  151.83570  151.30170   83.66350
 7190.50000  150.39940  151.56020   82.17620
 7191.00000  148.85220  151.89870   81.61290
 7191.50000  147.73110  152.23730   81.23530
 7192.00000  147.52200  151.59500   80.57510
 7192.50000  148.22950  150.86280   79.80230
 7193.00000  149.36400  150.15400   80.55000
 7193.50000  150.46610  149.45170   82.96530
 7194.00000  150.40530  148.84270   81.94790
 7194.50000  150.16260  148.94240   80.10770
 7195.00000  149.92000  149.04200   79.85350
 7195.50000  149.67730  149.14170   80.47360
 7196.00000  150.16680  149.24140   81.07360
 7196.50000  151.00380  149.99980   80.86750
 7197.00000  151.76370  150.78840   80.36960
 7197.50000  152.09290  151.31680   79.52130
 7198.00000  151.57620  151.38180   79.53920
 7198.50000  151.13450  150.61580   80.26290
 7199.00000  151.14440  149.97190   83.95100
 7199.50000  150.69270  149.50430   84.19790
 7200.00000  149.94780  148.01760   82.83930
 7200.50000  149.31260  147.46130   81.04020
 7201.00000  148.97050  147.11160   79.02020
 7201.50000  149.32220  147.00590   76.60760
 7202.00000  150.18030  148.61250   75.59350
 7202.50000  150.95830  149.67110   75.26260
 7203.00000  150.98290  149.80060   76.49800
 7203.50000  150.81660  149.32280   76.44450
 7204.00000  150.63350  148.84500   77.39920
 7204.50000  150.36190  148.50410   79.55960
 7205.00000  150.36740  148.49960   83.57360
 7205.50000  150.69070  148.76850   83.20850
 7206.00000  149.03960  147.58150   80.59100
 7206.50000  146.15440  145.30640   77.87900
 7207.00000  146.23000  144.40950   76.70110
 7207.50000  150.80730  149.84450   76.61090
 7208.00000  156.79630  155.69220   73.63080
 7208.50000  160.17420  160.67600   70.47060
 7209.00000  159.71950  161.06480   70.34200
 7209.50000  156.51240  158.78070   75.41770
 7210.00000  154.00800  157.07800   83.07040
 7210.50000  153.86290  156.55690   88.20510
 7211.00000  154.92400  155.62170   87.55320
 7211.50000  155.47640  154.04060   86.11600
 7212.00000  154.64970  152.51380   85.11280
 7212.50000  153.71680  151.42040   86.27370
 7213.00000  153.23690  149.77490   85.11880
 7213.50000  152.67310  147.28230   82.14040
 7214.00000  151.35960  147.18550   80.82730
 7214.50000  149.62020  147.08870   80.54210
 7215.00000  147.84900  147.21060   82.11910
 7215.50000  145.85800  147.39870   80.77440
 7216.00000  143.85300  147.15240   80.42840
 7216.50000  141.60540  147.08190   79.83140
 7217.00000  139.89750  148.28070   79.13950
 7217.50000  139.11970  150.78100   77.41940
 7218.00000  138.71980  148.75430   75.67510
 7218.50000  138.42520  144.95380   74.03040
 7219.00000  138.19340  141.84840   74.69680
 7219.50000  138.01470  139.98050   73.25450
 7220.00000  138.20880  139.67020   75.49370
 7220.50000  139.08020  139.28360   77.15400
 7221.00000  140.71910  138.89690   80.19050
 7221.50000  142.04850  140.44380   78.98300
 7222.00000  142.78710  142.01390   78.15940
 7222.50000  143.53720  141.61100   77.18540
 7223.00000  144.32130  141.27250   78.30270
 7223.50000  144.02730  140.18640   78.06890
 7224.00000  143.20710  139.95620   78.85520
 7224.50000  141.80880  140.13770   77.95720
 7225.00000  140.83520  140.68990   76.90210
 7225.50000  140.81130  143.08920   76.73060
 7226.00000  141.22310  144.26440   76.68380
 7226.50000  141.66300  144.80390   76.91660
 7227.00000  142.20640  144.97610   77.90760
 7227.50000  142.47890  144.97440   79.34000
 7228.00000  142.47720  145.01900   81.35000
 7228.50000  140.45270  145.46470   83.88000
 7229.00000  140.36290  145.29870   84.23240
 7229.50000  141.68240  144.81380   84.30810
 7230.00000  143.14380  144.44690   83.50230
 7230.50000  144.41510  144.11750   82.77940
 7231.00000  145.68590  143.80400   81.57250
 7231.50000  146.10650  143.49040   79.48440
 7232.00000  143.66810  142.17710   76.70850
 7232.50000  139.87950  140.22490   73.79990
 7233.00000  136.09080  139.19790   71.09420
 7233.50000  132.30220  138.17080   71.10260
 7234.00000  129.26630  137.84580   71.68460
 7234.50000  128.43860  138.18290   71.93000
 7235.00000  131.00650  140.62000   71.62160
 7235.50000  134.14820  141.46760   72.49200
 7236.00000  136.49060  140.10000   73.58320
 7236.50000  137.59860  139.69400   73.06980
 7237.00000  138.20270  140.12460   72.66560
 7237.50000  137.82810  139.69640   71.78570
 7238.00000  137.47190  138.69980   73.55420
 7238.50000  138.46840  138.94950   73.92190
 7239.00000  139.61720  141.21770   73.50800
 7239.50000  142.13630  144.45290   73.88280
 7240.00000  144.47470  146.55510   74.18530
 7240.50000  146.45100  147.72600   72.85070
 7241.00000  147.70010  148.89680   69.24110
 7241.50000  147.85370  149.37120   68.64810
 7242.00000  147.69420  149.49180   69.81710
 7242.50000  147.31960  149.61240   69.65010
