~Version ---------------------------------------------------
VERS.   2.0 : CWLS log ASCII Standard -VERSION 2.0
WRAP.    NO : One line per depth step
DLM . SPACE : Column Data Section Delimiter
~Well ------------------------------------------------------
STRT .F                6442.0 : START DEPTH
STOP .F                7737.0 : STOP DEPTH
STEP .F                   0.5 : STEP
NULL .               -9999.25 : NULL VALUE
COMP .                        : COMPANY
WELL .                        : WELL
FLD  .                        : FIELD
LOC  .                        : LOCATION
PROV .                        : PROVINCE
CNTY .                        : COUNTY
STAT .                        : STATE
CTRY .                        : COUNTRY
SRVC .                        : SERVICE COMPANY
DATE .                        : DATE
UWI  .                        : UNIQUE WELL ID
API  .                        : API NUMBER
SLAT .WGS84 6.511741391871496 : SURFACE LATITUDE
SLON .WGS84 4.971150513225993 : SURFACE LONGITUDE
DATUM.F               2597.53 : DEPTH DATUM ELEV
~Curve Information -----------------------------------------
DEPT.F     : 1 MEASURED DEPTH
DTLF.US/F  : DELTA-T LONG SPACING FAR
DTSM.US/F  : DELTA-T SHEAR
GRS .GAPI  : GAMMA RAY FROM SONIC LOG
~Params ----------------------------------------------------
~Other -----------------------------------------------------
~ASCII -----------------------------------------------------
# ...
 6798.00000  146.81480  152.99750   91.19990
 6798.50000  147.21560  151.19700   87.88240
 6799.00000  148.64170  150.72480   87.87580
 6799.50000  150.06780  151.39630   88.20060
 6800.00000  151.90140  153.01250   88.10750
 6800.50000  155.80370  154.44670   86.48720
 6801.00000  159.83760  155.48770   85.76820
 6801.50000  161.69740  156.03700   87.00050
 6802.00000  160.74200  155.45530   90.25160
 6802.50000  159.38990  153.96110   92.37520
 6803.00000  156.38300  152.00400   90.90860
 6803.50000  153.08720  150.09980   85.97150
 6804.00000  150.29450  149.11140   83.49970
 6804.50000  147.90410  148.75990   83.00300
 6805.00000  147.36360  148.40830   85.81280
 6805.50000  147.69240  148.64610   88.10040
 6806.00000  149.34650  149.70970   91.23190
 6806.50000  151.66870  152.37560   93.18660
 6807.00000  156.51350  156.09340   91.56580
 6807.50000  157.59750  159.73590   90.72320
 6808.00000  157.09750  159.24610   90.88510
 6808.50000  156.00860  156.43520   90.57310
 6809.00000  154.29810  151.34370   88.99820
 6809.50000  153.12020  149.20300   86.38760
 6810.00000  153.52210  149.20950   86.92790
 6810.50000  152.93850  149.21590   88.79030
 6811.00000  151.38760  149.22240   90.04550
 6811.50000  150.07260  149.22880   90.18590
 6812.00000  149.36670  149.23530   85.19380
 6812.50000  149.48270  149.39860   85.84270
 6813.00000  150.65390  150.22940   88.47570
 6813.50000  152.73220  152.64760   91.80980
 6814.00000  153.90230  154.39600   93.72570
 6814.50000  154.61340  155.39430   93.19480
 6815.00000  155.33770  156.39260   91.58060
 6815.50000  155.23290  157.06650   85.96030
 6816.00000  154.21390  156.89950   86.06430
 6816.50000  153.38320  156.73250   87.49150
 6817.00000  154.04310  156.18900   91.42240
 6817.50000  153.48140  154.16930   92.03380
 6818.00000  151.47840  151.41910   90.45690
 6818.50000  150.16400  149.39840   86.82030
 6819.00000  149.12550  148.36960   84.43310
 6819.50000  148.21380  147.40300   83.51010
 6820.00000  148.19570  147.13150   84.06410
 6820.50000  147.86730  147.31860   85.39340
 6821.00000  146.75610  151.78990   85.68830
 6821.50000  145.12860  155.16830   88.58970
 6822.00000  146.83960  156.21040   90.01270
 6822.50000  149.51110  158.37500   89.94140
 6823.00000  155.34390  162.32670   89.87020
 6823.50000  162.34860  166.20510   89.79900
 6824.00000  163.21430  165.24110   89.72780
 6824.50000  158.69610  163.21500   88.99210
 6825.00000  151.40490  159.85400   86.61040
 6825.50000  147.06030  156.33320   86.53820
 6826.00000  141.92160  153.04910   87.67270
 6826.50000  138.31740  148.21940   88.29550
 6827.00000  142.24710  146.35230   87.52740
 6827.50000  148.99610  147.15460   83.10660
 6828.00000  155.74510  148.35530   78.40180
 6828.50000  157.03630  148.58420   74.41590
 6829.00000  155.91740  146.54610   75.65150
 6829.50000  153.51070  143.09140   80.48040
 6830.00000  150.28910  139.63670   87.32770
 6830.50000  148.29070  138.98770   91.16060
 6831.00000  148.69970  143.23790   91.43040
 6831.50000  153.59100  147.86070   91.69510
 6832.00000  159.68220  153.60360   91.95290
 6832.50000  162.15430  159.70830   91.89150
 6833.00000  163.30130  165.77240   91.33390
 6833.50000  163.04660  165.62100   90.24560
 6834.00000  161.71640  162.98160   88.52970
 6834.50000  160.04710  160.67330   86.80360
 6835.00000  157.44100  158.80130   85.58140
 6835.50000  154.71280  155.65250   85.76960
 6836.00000  152.05630  152.50370   86.71610
 6836.50000  149.54140  150.45750   88.23200
 6837.00000  148.47670  149.63190   89.53960
 6837.50000  147.64820  148.80590   91.02930
 6838.00000  147.63970  148.65410   91.70430
 6838.50000  148.38390  149.26710   91.20950
 6839.00000  148.78200  149.80710   87.69740
 6839.50000  149.18000  150.01260   85.48000
 6840.00000  149.90450  150.61020   84.84780
 6840.50000  151.13640  151.69690   86.15450
 6841.00000  152.31220  153.27430   86.85540
 6841.50000  151.44730  155.80740   87.60820
 6842.00000  151.38310  158.34040   87.97800
 6842.50000  153.62900  159.56010   87.25610
 6843.00000  156.47640  160.70370   85.94100
 6843.50000  158.79230  160.98630   86.02860
 6844.00000  159.10570  160.88280   87.19680
 6844.50000  158.66920  160.52610   89.35630
 6845.00000  157.38580  159.73460   85.85890
 6845.50000  155.61730  158.52810   83.66210
 6846.00000  153.35700  155.44660   85.76520
 6846.50000  151.46300  152.60220   89.51790
 6847.00000  149.05330  150.17400   91.08730
 6847.50000  147.00740  147.90990   91.45260
 6848.00000  145.27780  146.48760   90.20620
 6848.50000  144.99930  146.47330   86.23890
 6849.00000  145.09960  146.54650   82.91810
 6849.50000  145.18580  146.80320   82.82060
 6850.00000  145.06220  147.05630   85.25550
 6850.50000  144.93860  147.04830   87.73770
 6851.00000  144.99440  147.04040   89.54960
 6851.50000  145.91460  148.00370   89.72290
 6852.00000  152.14400  152.82990   88.04160
 6852.50000  156.97060  158.14350   87.68880
 6853.00000  160.70300  161.40190   88.33550
 6853.50000  161.16760  161.94980   90.88050
 6854.00000  160.85950  161.56430   93.21860
 6854.50000  160.14730  160.70490   94.12630
 6855.00000  158.38460  159.04760   93.01510
 6855.50000  156.73380  157.39030   90.73270
 6856.00000  155.83660  156.00420   88.65630
 6856.50000  154.34270  154.81920   90.83640
 6857.00000  154.08860  154.60970   91.31060
 6857.50000  151.15200  151.63520   90.63520
 6858.00000  149.77810  150.73340   89.12130
 6858.50000  149.79260  150.73340   89.37750
 6859.00000  150.44190  150.73340   88.24390
 6859.50000  155.63660  152.92590   86.73690
 6860.00000  156.02710  152.91120   86.57250
 6860.50000  154.74770  152.14270   89.34400
 6861.00000  153.60020  150.10690   89.47640
 6861.50000  153.88060  150.61210   87.36240
 6862.00000  155.10220  154.17960   85.01890
 6862.50000  156.21730  154.54950   85.15740
 6863.00000  156.11860  155.19040   83.89250
 6863.50000  157.04270  156.43840   84.32630
 6864.00000  158.31590  157.79790   83.84110
 6864.50000  160.15330  159.36770   85.16980
 6865.00000  160.31470  159.57020   84.55610
 6865.50000  157.75700  155.14450   85.14940
 6866.00000  158.52240  157.93290   85.67660
 6866.50000  161.66850  161.56760   85.35820
 6867.00000  163.33150  165.84830   82.63380
 6867.50000  160.88730  163.44550   80.17950
 6868.00000  154.29140  151.77080   81.40690
 6868.50000  150.15720  148.61090   84.47100
 6869.00000  149.80620  148.72080   88.13750
 6869.50000  149.93410  148.83080   89.42400
 6870.00000  150.20680  148.94080   88.19730
 6870.50000  151.30440  149.33940   86.40020
 6871.00000  154.43540  151.66360   84.97230
 6871.50000  157.69580  154.56480   88.35290
 6872.00000  160.95620  156.91960   91.01830
 6872.50000  163.06580  159.41760   90.63800
 6873.00000  162.85520  161.09420   88.73450
 6873.50000  161.36380  160.68320   89.57550
 6874.00000  159.79050  158.95030   90.46250
 6874.50000  158.28630  157.16880   89.99550
 6875.00000  158.40890  156.05750   85.85830
 6875.50000  162.02180  161.78010   86.24580
 6876.00000  162.46450  161.25690   89.96160
 6876.50000  162.17900  161.52540   91.44570
 6877.00000  159.60030  158.49750   88.05690
 6877.50000  154.95900  153.19450   84.64740
 6878.00000  151.72850  148.52990   82.56090
 6878.50000  153.21870  150.11460   83.39930
 6879.00000  157.03270  154.72680   87.34690
 6879.50000  160.25620  159.33900   87.29700
 6880.00000  164.59130  164.13640   85.29150
 6880.50000  168.71340  169.00640   82.79490
 6881.00000  171.73960  173.87630   81.10670
 6881.50000  172.10520  177.77200   79.11890
 6882.00000  171.24360  175.81360   80.02530
 6882.50000  164.94460  169.03660   85.27270
 6883.00000  157.65290  162.08970   86.75500
 6883.50000  151.57480  155.24310   84.97690
 6884.00000  149.44980  155.11430   85.06300
 6884.50000  152.42650  157.16740   86.62450
 6885.00000  155.57480  159.31210   88.48180
 6885.50000  158.72310  161.87310   87.15910
 6886.00000  165.25730  166.65820   86.33110
 6886.50000  173.32810  173.86120   85.70970
