~Version ---------------------------------------------------
VERS.   2.0 : CWLS log ASCII Standard -VERSION 2.0
WRAP.    NO : One line per depth step
DLM . SPACE : Column Data Section Delimiter
~Well ------------------------------------------------------
STRT .F                6442.0 : START DEPTH
STOP .F                7737.0 : STOP DEPTH
STEP .F                   0.5 : STEP
NULL .               -9999.25 : NULL VALUE
COMP .                        : COMPANY
WELL .                        : WELL
FLD  .                        : FIELD
LOC  .                        : LOCATION
PROV .                        : PROVINCE
CNTY .                        : COUNTY
STAT .                        : STATE
CTRY .                        : COUNTRY
SRVC .                        : SERVICE COMPANY
DATE .                        : DATE
UWI  .                        : UNIQUE WELL ID
API  .                        : API NUMBER
SLAT .WGS84 6.511741391871496 : SURFACE LATITUDE
SLON .WGS84 4.971150513225993 : SURFACE LONGITUDE
DATUM.F               2597.53 : DEPTH DATUM ELEV
~Curve Information -----------------------------------------
DEPT.F     : 1 MEASURED DEPTH
DTLF.US/F  : DELTA-T LONG SPACING FAR
DTSM.US/F  : DELTA-T SHEAR
GRS .GAPI  : GAMMA RAY FROM SONIC LOG
~Params ----------------------------------------------------
~Other -----------------------------------------------------
~ASCII -----------------------------------------------------
# ...
 7688.00000  156.08490  136.64860   99.41980
 7688.50000  153.41660  133.58670   92.80060
 7689.00000  150.60570  130.55700   85.75380
 7689.50000  147.46780  128.93300   78.66820
 7690.00000  144.32990  128.05190   78.30850
 7690.50000  143.09530  127.17070   78.28030
 7691.00000  143.24790  126.69630   78.25210
 7691.50000  144.45160  126.36320   78.22390
 7692.00000  147.58900  126.03000   78.19560
 7692.50000  153.86380  125.69690   78.14920
 7693.00000  163.39880  125.36370   78.09190
 7693.50000  169.12350  125.03060   78.03450
 7694.00000  170.65530  124.69740   77.99720
 7694.50000  168.29760  125.39300   78.04910
 7695.00000  150.82050  126.56690   78.05700
 7695.50000  142.98570  134.11940   78.06500
 7696.00000  136.70080  134.06390   78.07300
 7696.50000  133.67640  129.24160   78.08090
 7697.00000  133.37180  128.13640   78.08890
 7697.50000  135.88790  129.37360   78.09680
 7698.00000  139.05530  131.21840   78.10480
 7698.50000  140.01590  133.64650   78.11280
 7699.00000  138.64250  135.67560   78.12070
 7699.50000  135.97490  133.52100   78.12870
 7700.00000  133.34000  130.01420   78.13670
 7700.50000  128.64380  125.90590   78.14460
 7701.00000  124.49540  122.29680   78.15260
 7701.50000  122.55640  117.25730   78.16050
 7702.00000  120.70950  115.75050   78.16850
 7702.50000  121.07040  115.91760   78.17650
 7703.00000  121.43130  116.54310   78.18440
 7703.50000  121.89020  117.40870   78.19240
 7704.00000  122.36830  118.81710   78.20040
 7704.50000  122.84630  119.91990   78.20830
 7705.00000  122.96050  119.89910   78.21630
 7705.50000  122.75110  119.87820   78.22420
 7706.00000  122.54170  119.43610   78.23220
 7706.50000  122.33230  113.16490   78.24020
 7707.00000  122.12280  117.14640   78.24810
 7707.50000  121.88390  119.80470   78.25610
 7708.00000  121.56020  119.70680   78.26400
 7708.50000  121.23650  119.38320   78.27200
 7709.00000  120.91290  119.05950   78.28000
 7709.50000  120.85590  119.01280   78.28790
 7710.00000  120.85700  119.01400   78.29590
 7710.50000  120.85810  119.01510   78.30390
 7711.00000  120.86270  119.01950   78.31180
 7711.50000  120.90110  119.05800   78.31980
 7712.00000  120.93960  119.09640   78.32770
 7712.50000  120.97800  119.13490   78.33570
 7713.00000  121.01650  119.17330   78.34370
 7713.50000  121.05480  119.21180   78.35160
 7714.00000  121.04000  119.19710   78.35960
 7714.50000  121.02520  119.18220   78.36760
 7715.00000  121.01040  119.16730   78.37550
 7715.50000  120.99570  119.15250   78.38350
 7716.00000  120.98090  119.13760   78.39140
 7716.50000  120.96610  119.12270   78.38720
 7717.00000  120.95140  119.10780   78.37120
 7717.50000  120.93660  119.09290   78.35510
 7718.00000  120.92180  119.07810   78.34880
 7718.50000  120.90700  119.06320   78.35650
 7719.00000  120.89230  119.04830   78.34660
 7719.50000  120.87750  119.03340   78.33680
 7720.00000  120.86270  119.01860   78.32700
 7720.50000  120.84800  119.00370   78.32530
 7721.00000  120.83320  118.98880   78.33190
 7721.50000  120.81840  118.97390   78.33860
 7722.00000  120.80120  118.95670   78.30510
 7722.50000  120.78340  118.93900   78.23820
 7723.00000  120.76570  118.92120   78.22130
 7723.50000  120.74800  118.90350   78.20440
 7724.00000  120.73030  118.89700   78.18750
 7724.50000  120.71260  118.90470   78.17060
 7725.00000  120.69490  118.91240   78.15370
 7725.50000  120.69350  118.92010   78.13680
 7726.00000  120.69530  118.92780   78.11990
 7726.50000  120.69710  118.93550   78.10860
 7727.00000  120.69890  118.94320   78.26310
 7727.50000  120.70070  118.95080   78.41760
 7728.00000  120.70250  118.95850   78.57210
 7728.50000  120.70430  118.96620   78.72660
 7729.00000  120.70610  118.97390   78.47830
 7729.50000  120.70790  118.98160   78.44670
 7730.00000  120.70970  118.98930   78.41510
 7730.50000  120.71150  119.00990   78.38350
 7731.00000  120.87050  119.06140   78.35190
 7731.50000  120.96830  119.11290   78.32030
 7732.00000  121.05640  119.16450   78.28870
 7732.50000  121.14460  119.21600   78.25710
 7733.00000  121.23270  119.18810   78.22540
 7733.50000  121.30410  119.11280   78.19380
 7734.00000  121.31560  119.03750   78.16220
 7734.50000  121.32700  118.96220   78.13060
 7735.00000  121.33840  118.88700   78.09900
 7735.50000  121.34990  118.81170   78.06740
 7736.00000  121.22470  118.73640   78.03580
 7736.50000  121.06760  118.76640   77.97900
 7737.00000  120.91050  118.51890   77.77780
