~Version ---------------------------------------------------
VERS.   2.0 : CWLS log ASCII Standard -VERSION 2.0
WRAP.    NO : One line per depth step
DLM . SPACE : Column Data Section Delimiter
~Well ------------------------------------------------------
STRT .F                6442.0 : START DEPTH
STOP .F                7737.0 : STOP DEPTH
STEP .F                   0.5 : STEP
NULL .               -9999.25 : NULL VALUE
COMP .                        : COMPANY
WELL .                        : WELL
FLD  .                        : FIELD
LOC  .                        : LOCATION
PROV .                        : PROVINCE
CNTY .                        : COUNTY
STAT .                        : STATE
CTRY .                        : COUNTRY
SRVC .                        : SERVICE COMPANY
DATE .                        : DATE
UWI  .                        : UNIQUE WELL ID
API  .                        : API NUMBER
SLAT .WGS84 6.511741391871496 : SURFACE LATITUDE
SLON .WGS84 4.971150513225993 : SURFACE LONGITUDE
DATUM.F               2597.53 : DEPTH DATUM ELEV
~Curve Information -----------------------------------------
DEPT.F     : 1 MEASURED DEPTH
DTLF.US/F  : DELTA-T LONG SPACING FAR
DTSM.US/F  : DELTA-T SHEAR
GRS .GAPI  : GAMMA RAY FROM SONIC LOG
~Params ----------------------------------------------------
~Other -----------------------------------------------------
~ASCII -----------------------------------------------------
# ...
 7065.00000  153.63810  155.64780   73.00970
 7065.50000  155.81850  158.28700   82.57220
 7066.00000  157.95080  159.31120   85.54550
 7066.50000  159.71750  160.54470   87.88640
 7067.00000  162.29020  161.90270   89.28820
 7067.50000  163.23240  156.65590   89.72160
 7068.00000  160.30960  153.12870   89.55920
 7068.50000  157.94270  151.89790   89.49960
 7069.00000  155.86610  151.20750   89.44010
 7069.50000  154.01850  149.05890   89.70530
 7070.00000  152.68140  146.70010   90.10680
 7070.50000  151.13210  144.44230   87.73170
 7071.00000  150.24140  145.30200   84.09730
 7071.50000  149.89320  148.02120   82.88020
 7072.00000  149.79450  145.98530   90.36050
 7072.50000  150.24260  141.48180   96.62690
 7073.00000  151.32510  144.58820   97.66180
 7073.50000  153.83300  150.42560   93.36400
 7074.00000  163.68560  157.95030   97.32780
 7074.50000  179.96270  169.08860  109.47870
 7075.00000  193.40380  189.03490  135.43130
 7075.50000  196.70290  186.86560  158.67350
 7076.00000  192.94300  175.65660  182.37300
 7076.50000  184.94200  164.03990  202.71660
 7077.00000  172.51840  151.93480  196.48790
 7077.50000  157.62780  128.09370  158.62860
 7078.00000  141.88520  121.50390  110.99320
 7078.50000  133.85820  124.03000   68.80890
 7079.00000  128.14310  126.95170   47.98710
 7079.50000  127.34930  127.01660   51.31750
 7080.00000  127.96820  124.22380   61.48990
 7080.50000  128.72980  122.31680   72.43910
 7081.00000  129.35530  125.19950   75.87690
 7081.50000  129.52960  129.08240   75.66060
 7082.00000  128.91790  132.31810   70.06760
 7082.50000  128.30020  132.56980   61.28330
 7083.00000  125.29270  129.06800   60.14920
 7083.50000  120.62340  125.08120   61.71300
 7084.00000  117.26290  123.64190   63.27690
 7084.50000  117.41960  123.14470   65.09680
 7085.00000  119.49970  124.10330   63.83950
 7085.50000  123.40100  126.86850   62.81410
 7086.00000  126.89340  129.08820   63.92330
 7086.50000  128.76980  131.30780   66.99720
 7087.00000  129.42180  133.52750   69.83250
 7087.50000  129.75720  135.60410   74.07620
 7088.00000  129.75720  135.60410   80.00460
 7088.50000  131.40310  135.91720   81.23100
 7089.00000  133.79900  136.24630   78.98940
 7089.50000  137.02930  136.41040   74.52980
 7090.00000  138.42680  136.59470   74.72330
 7090.50000  138.57750  136.76750   76.85330
 7091.00000  136.94990  135.11160   80.53580
 7091.50000  134.34600  132.62310   82.82260
 7092.00000  132.89990  131.73540   81.36590
 7092.50000  132.70470  131.52740   77.58930
 7093.00000  133.48930  132.49640   75.21190
 7093.50000  134.97720  133.69830   76.81990
 7094.00000  136.36930  134.42690   78.55650
 7094.50000  136.82310  134.90790   81.62250
 7095.00000  134.78980  133.56830   81.70450
 7095.50000  132.93020  130.78790   81.28560
 7096.00000  132.69660  130.25670   78.14120
 7096.50000  133.90990  131.69090   77.34460
 7097.00000  134.58860  133.27270   77.35490
 7097.50000  134.95270  134.32280   77.56690
 7098.00000  135.05580  134.32280   77.90260
 7098.50000  135.21300  134.32280   76.48640
 7099.00000  135.62490  134.32280   76.59720
 7099.50000  136.60080  134.74470   78.85700
 7100.00000  138.41290  136.29210   80.28610
 7100.50000  139.42040  137.57180   80.32110
 7101.00000  140.00640  138.08180   78.64840
 7101.50000  140.42390  138.56770   79.01810
 7102.00000  140.79110  138.92280   79.49260
 7102.50000  141.28710  139.40380   79.20480
 7103.00000  140.50310  138.07080   79.68260
 7103.50000  139.88320  136.02570   81.77010
 7104.00000  139.28900  132.35460   82.51980
 7104.50000  138.79550  129.35170   82.70930
 7105.00000  139.04630  127.73180   81.76000
 7105.50000  139.33540  127.30350   83.55410
 7106.00000  139.16530  127.08260   85.01940
 7106.50000  137.16510  126.86170   86.17930
 7107.00000  133.50390  126.64080   85.15370
 7107.50000  130.87240  126.41980   83.97020
 7108.00000  128.59410  126.19890   81.10450
 7108.50000  128.64100  125.97800   77.44090
 7109.00000  128.68800  125.55030   74.97110
 7109.50000  128.73490  125.01990   73.68570
 7110.00000  128.78180  124.48940   72.81670
 7110.50000  128.82880  123.95900   71.54590
 7111.00000  128.87570  123.42860   69.59880
 7111.50000  128.92260  122.89810   68.78570
 7112.00000  129.06590  123.09010   67.75210
 7112.50000  129.25110  123.81780   68.30810
 7113.00000  130.68720  124.54550   70.29740
 7113.50000  130.93830  124.91750   75.03770
 7114.00000  130.31600  125.07350   77.14250
 7114.50000  128.99990  124.86890   79.95800
 7115.00000  128.48290  123.33870   79.38560
 7115.50000  132.28580  121.80860   78.90190
 7116.00000  132.01080  120.27840   76.66050
 7116.50000  130.44700  118.86200   74.28620
 7117.00000  128.88310  120.10630   69.70710
 7117.50000  127.71520  121.35060   68.91010
 7118.00000  127.92820  123.44310   69.85620
 7118.50000  128.59960  125.60740   73.24730
 7119.00000  129.60020  127.42660   76.81990
 7119.50000  130.61480  128.29780   78.67790
 7120.00000  129.52760  128.15030   77.65750
 7120.50000  126.61620  128.39720   74.03330
 7121.00000  123.86830  128.66520   69.93420
 7121.50000  122.37930  128.93330   70.53870
 7122.00000  123.48690  130.93950   72.68140
 7122.50000  124.25660  132.67100   74.58040
 7123.00000  123.89060  130.71840   75.35710
 7123.50000  122.68130  129.86130   75.81800
 7124.00000  122.42550  130.61530   76.07360
 7124.50000  123.65790  131.67460   73.93850
 7125.00000  128.72610  133.76460   71.40600
 7125.50000  134.13390  135.85470   68.09400
 7126.00000  135.50520  138.24100   66.79860
 7126.50000  135.21420  136.27790   66.37360
 7127.00000  133.63610  131.10440   72.50330
 7127.50000  131.82150  127.93730   76.70420
 7128.00000  132.71930  129.88270   78.73380
 7128.50000  134.35040  132.17540   78.41560
 7129.00000  135.96400  134.29830   77.43420
 7129.50000  138.30110  135.99210   76.16770
 7130.00000  140.89800  138.18610   77.06400
 7130.50000  142.59690  140.69420   78.47340
 7131.00000  143.76030  142.50670   85.12820
 7131.50000  142.86440  142.10300   87.44270
 7132.00000  140.12930  137.63000   89.64420
 7132.50000  137.39420  134.35090   89.46650
 7133.00000  134.43950  132.01950   88.21130
 7133.50000  131.46490  129.68820   86.47650
 7134.00000  130.40700  128.60320   85.92590
 7134.50000  130.63100  129.64070   81.43500
 7135.00000  131.54900  131.32490   79.14810
 7135.50000  133.26980  131.23780   79.10570
 7136.00000  132.53860  130.38380   82.09150
 7136.50000  130.66600  128.62660   84.00370
 7137.00000  128.21020  126.24320   82.30730
 7137.50000  125.72650  124.13670   80.17440
 7138.00000  123.43900  122.06170   76.82570
 7138.50000  121.63100  120.80200   72.31090
 7139.00000  120.10040  119.54230   66.94410
 7139.50000  121.36430  119.66250   67.35550
 7140.00000  123.02030  120.17350   72.69740
 7140.50000  125.43360  121.82640   74.52800
 7141.00000  127.55730  125.05660   73.12090
 7141.50000  130.91880  128.72490   70.63860
 7142.00000  134.27010  132.82450   69.89680
 7142.50000  137.62130  136.92400   70.53990
 7143.00000  140.45080  139.65460   75.25330
 7143.50000  140.66320  138.29560   84.00350
 7144.00000  137.55980  135.33350   89.96360
 7144.50000  134.34180  132.37160   91.97540
 7145.00000  132.10490  129.40810   88.67050
 7145.50000  130.01330  127.34430   82.77830
 7146.00000  129.83680  127.31470   80.03570
 7146.50000  130.15430  127.97650   79.97920
 7147.00000  133.04850  131.34700   82.80660
 7147.50000  136.99350  135.87920   83.44690
 7148.00000  139.34380  138.19860   82.63030
 7148.50000  140.21360  139.68130   80.83730
 7149.00000  140.77810  140.66740   83.16050
 7149.50000  140.90510  139.72220   86.61150
 7150.00000  139.05690  136.95090   88.02950
 7150.50000  137.34470  131.97280   88.63700
 7151.00000  137.70210  128.85460   86.46380
 7151.50000  138.17730  127.84630   84.17980
 7152.00000  138.47730  128.53860   82.08720
 7152.50000  138.99270  131.25560   79.16180
 7153.00000  139.58440  134.19980   79.40020
 7153.50000  140.39130  136.84410   81.37430
