~Version ---------------------------------------------------
VERS.   2.0 : CWLS log ASCII Standard -VERSION 2.0
WRAP.    NO : One line per depth step
DLM . SPACE : Column Data Section Delimiter
~Well ------------------------------------------------------
STRT .F                6442.0 : START DEPTH
STOP .F                7737.0 : STOP DEPTH
STEP .F                   0.5 : STEP
NULL .               -9999.25 : NULL VALUE
COMP .                        : COMPANY
WELL .                        : WELL
FLD  .                        : FIELD
LOC  .                        : LOCATION
PROV .                        : PROVINCE
CNTY .                        : COUNTY
STAT .                        : STATE
CTRY .                        : COUNTRY
SRVC .                        : SERVICE COMPANY
DATE .                        : DATE
UWI  .                        : UNIQUE WELL ID
API  .                        : API NUMBER
SLAT .WGS84 6.511741391871496 : SURFACE LATITUDE
SLON .WGS84 4.971150513225993 : SURFACE LONGITUDE
DATUM.F               2597.53 : DEPTH DATUM ELEV
~Curve Information -----------------------------------------
DEPT.F     : 1 MEASURED DEPTH
DTLF.US/F  : DELTA-T LONG SPACING FAR
DTSM.US/F  : DELTA-T SHEAR
GRS .GAPI  : GAMMA RAY FROM SONIC LOG
~Params ----------------------------------------------------
~Other -----------------------------------------------------
~ASCII -----------------------------------------------------
# ...
 6976.00000  188.32110  179.16700   70.73540
 6976.50000  186.47500  180.15210   69.63680
 6977.00000  182.43790  176.70330   70.47880
 6977.50000  179.74620  173.08130   70.82650
 6978.00000  178.27260  172.16760   73.47300
 6978.50000  178.12610  171.07310   75.00710
 6979.00000  178.86450  169.01020   74.07280
 6979.50000  179.72550  166.28500   72.01360
 6980.00000  179.48230  163.17990   71.69730
 6980.50000  178.89500  166.86490   72.52100
 6981.00000  178.20120  169.24920   73.77990
 6981.50000  175.31200  168.57280   72.28700
 6982.00000  169.24300  160.26560   70.85970
 6982.50000  162.62690  152.36090   70.20730
 6983.00000  154.74130  144.79010   73.28340
 6983.50000  147.38320  140.58260   75.34120
 6984.00000  143.20310  139.52870   75.27330
 6984.50000  143.57620  141.00320   74.53230
 6985.00000  146.17150  143.35090   75.03600
 6985.50000  148.58080  147.34360   77.89490
 6986.00000  151.42050  161.29930   77.94940
 6986.50000  154.14370  170.88710   77.08770
 6987.00000  159.71720  172.53710   74.66690
 6987.50000  165.38110  171.49600   74.26310
 6988.00000  167.31420  171.46580   74.14830
 6988.50000  169.24850  170.85750   74.76910
 6989.00000  171.18210  174.43290   75.75520
 6989.50000  173.11580  180.48860   76.54730
 6990.00000  175.34160  186.89690   74.82400
 6990.50000  177.92200  192.23540   71.50380
 6991.00000  178.98510  192.53850   67.69880
 6991.50000  176.05630  190.85680   65.66200
 6992.00000  163.96130  178.97990   66.23610
 6992.50000  157.70300  157.79400   66.02320
 6993.00000  153.60600  141.76670   65.55180
 6993.50000  151.51390  139.00560   65.85220
 6994.00000  150.70710  140.55300   65.76290
 6994.50000  152.02430  142.85790   64.96510
 6995.00000  155.31450  145.05180   62.80520
 6995.50000  158.86890  147.97160   62.05690
 6996.00000  160.12950  149.49600   62.13530
 6996.50000  160.39130  148.04190   64.27520
 6997.00000  159.24870  146.24400   67.07440
 6997.50000  155.90560  144.63510   70.00180
 6998.00000  149.61630  142.60120   70.50790
 6998.50000  143.41510  140.56830   70.27570
 6999.00000  143.37500  139.71920   70.65700
 6999.50000  148.98070  144.05120   70.89050
 7000.00000  154.16210  147.48530   69.87370
 7000.50000  153.45490  147.14940   65.03510
 7001.00000  150.05300  141.87570   64.60460
 7001.50000  146.48840  137.21110   64.70670
 7002.00000  144.66060  138.22780   66.48860
 7002.50000  150.32410  158.34940   68.74880
 7003.00000  159.03260  164.64940   71.55560
 7003.50000  163.94690  170.51210   76.32290
 7004.00000  169.18300  176.05060   79.63550
 7004.50000  174.08170  181.15380   81.62060
 7005.00000  175.57380  185.18590   79.86380
 7005.50000  174.81170  185.13490   77.80810
 7006.00000  171.42790  173.92280   73.12460
 7006.50000  165.34080  161.27460   71.17400
 7007.00000  161.49730  159.48940   68.56500
 7007.50000  163.13800  160.80400   69.40310
 7008.00000  168.07350  165.56830   70.92430
 7008.50000  173.14990  172.54650   73.66140
 7009.00000  179.50020  179.59230   77.08050
 7009.50000  187.20660  184.58320   78.78430
 7010.00000  187.38910  184.70970   75.26540
 7010.50000  185.84100  183.63020   71.83270
 7011.00000  183.80190  181.47330   70.59430
 7011.50000  181.02450  173.92310   71.16620
 7012.00000  165.27340  161.57290   70.32520
 7012.50000  153.87240  150.82420   69.31110
 7013.00000  147.48180  145.11890   70.11000
 7013.50000  145.85080  144.52850   69.97400
 7014.00000  145.31950  144.56660   70.16990
 7014.50000  144.68760  143.81680   69.97760
 7015.00000  142.50710  141.46150   70.25110
 7015.50000  140.17760  138.28540   66.46180
 7016.00000  139.14090  137.50850   63.04910
 7016.50000  139.29830  138.09250   60.43410
 7017.00000  143.87960  141.55900   61.58260
 7017.50000  149.87360  147.71940   64.85920
 7018.00000  152.16430  151.21080   69.87000
 7018.50000  153.52490  153.15990   72.54470
 7019.00000  155.81180  155.02520   73.10120
 7019.50000  158.97290  157.15470   71.53150
 7020.00000  163.80450  164.52390   71.61200
 7020.50000  165.62970  164.85490   73.40720
 7021.00000  163.34850  161.24440   77.52300
 7021.50000  162.46070  159.42100   80.66040
 7022.00000  164.88480  160.93050   81.50280
 7022.50000  170.80260  168.35490   82.33240
 7023.00000  169.09330  168.79330   85.16330
 7023.50000  166.94630  164.72790   87.47760
 7024.00000  165.12270  163.69800   88.57920
 7024.50000  164.49000  162.65180   88.50230
 7025.00000  162.82120  160.98560   91.46470
 7025.50000  157.92860  157.02680   93.88610
 7026.00000  155.72300  154.36420   93.61440
 7026.50000  154.68200  153.29020   91.84000
 7027.00000  155.99360  154.16770   92.32510
 7027.50000  161.34900  158.38780   95.56110
 7028.00000  175.71210  170.37270   97.85660
 7028.50000  184.82050  182.52540  105.51830
 7029.00000  189.11170  184.69640  126.26770
 7029.50000  184.42180  173.53460  154.09620
 7030.00000  170.23060  161.56110  161.05190
 7030.50000  157.61890  155.58910  155.18780
 7031.00000  157.50890  155.54920  122.13200
 7031.50000  164.78320  163.07270   92.10530
 7032.00000  170.24060  167.33100   82.32570
 7032.50000  172.05020  167.35260   87.06340
 7033.00000  165.72820  162.58350   89.63610
 7033.50000  161.06080  157.65380   86.00370
 7034.00000  157.53400  152.71230   81.03370
 7034.50000  154.22540  147.75680   78.52380
 7035.00000  149.73710  143.56140   77.97010
 7035.50000  146.10060  140.23750   74.25850
 7036.00000  143.77430  137.05980   70.53720
 7036.50000  138.17060  134.63730   69.33830
 7037.00000  136.43260  132.88970   73.00570
 7037.50000  136.87860  134.43620   73.55400
 7038.00000  139.82320  138.04100   67.11600
 7038.50000  144.05510  141.12720   59.85640
 7039.00000  154.10510  155.26170   52.05090
 7039.50000  160.67010  160.52330   58.48160
 7040.00000  163.75950  161.93430   69.78060
 7040.50000  164.95520  162.77980   80.86510
 7041.00000  164.78560  161.93240   81.62840
 7041.50000  163.40760  160.14730   79.06190
 7042.00000  160.67970  157.35790   77.56950
 7042.50000  158.36390  155.64430   75.18340
 7043.00000  158.20480  156.59440   76.50580
 7043.50000  159.55050  158.40220   77.10630
 7044.00000  161.32460  160.45630   77.24890
 7044.50000  162.14620  161.00850   77.19480
 7045.00000  161.86790  160.59830   73.48130
 7045.50000  160.68660  158.91180   71.82590
 7046.00000  158.55670  156.20140   71.58260
 7046.50000  156.49100  154.30780   71.91470
 7047.00000  154.59770  152.41410   73.24720
 7047.50000  153.05330  151.14100   73.06800
 7048.00000  151.97570  150.14450   72.55090
 7048.50000  151.30450  149.82660   71.80010
 7049.00000  149.24080  147.90350   71.30490
 7049.50000  145.05920  144.13960   69.28470
 7050.00000  142.00570  140.32950   62.12050
 7050.50000  139.64190  139.23460   59.56760
 7051.00000  141.64330  141.33320   58.86440
 7051.50000  145.26670  145.04880   62.43880
 7052.00000  145.68250  144.73240   67.52430
 7052.50000  145.70340  144.53990   72.63980
 7053.00000  146.12010  145.06350   71.77310
 7053.50000  146.75440  145.67470   73.17390
 7054.00000  150.47920  147.00700   75.17130
 7054.50000  154.30490  150.04640   77.79490
 7055.00000  156.74580  153.08590   78.36760
 7055.50000  159.18670  156.12530   78.49880
 7056.00000  161.64990  159.16470   79.09140
 7056.50000  163.19290  162.20410   78.29880
 7057.00000  165.69620  165.13080   77.29240
 7057.50000  167.39890  168.02050   76.28870
 7058.00000  166.61120  169.34700   77.29370
 7058.50000  162.85730  169.31750   82.32300
 7059.00000  158.24040  168.04990   88.48790
 7059.50000  153.71540  163.45350   91.13280
 7060.00000  150.66740  158.48820   90.63820
 7060.50000  147.61930  153.52280   86.74240
 7061.00000  144.57130  149.85280   80.55010
 7061.50000  140.53710  146.56440   79.27300
 7062.00000  136.49130  143.14170   76.58250
 7062.50000  133.74330  138.35830   74.20620
 7063.00000  134.03320  136.25640   70.22160
 7063.50000  136.17730  137.16760   62.12090
 7064.00000  140.90290  142.96400   59.27610
 7064.50000  147.04650  149.68960   61.92100
