~Version ---------------------------------------------------
VERS.   2.0 : CWLS log ASCII Standard -VERSION 2.0
WRAP.    NO : One line per depth step
DLM . SPACE : Column Data Section Delimiter
~Well ------------------------------------------------------
STRT .F                6442.0 : START DEPTH
STOP .F                7737.0 : STOP DEPTH
STEP .F                   0.5 : STEP
NULL .               -9999.25 : NULL VALUE
COMP .                        : COMPANY
WELL .                        : WELL
FLD  .                        : FIELD
LOC  .                        : LOCATION
PROV .                        : PROVINCE
CNTY .                        : COUNTY
STAT .                        : STATE
CTRY .                        : COUNTRY
SRVC .                        : SERVICE COMPANY
DATE .                        : DATE
UWI  .                        : UNIQUE WELL ID
API  .                        : API NUMBER
SLAT .WGS84 6.511741391871496 : SURFACE LATITUDE
SLON .WGS84 4.971150513225993 : SURFACE LONGITUDE
DATUM.F               2597.53 : DEPTH DATUM ELEV
~Curve Information -----------------------------------------
DEPT.F     : 1 MEASURED DEPTH
DTLF.US/F  : DELTA-T LONG SPACING FAR
DTSM.US/F  : DELTA-T SHEAR
GRS .GAPI  : GAMMA RAY FROM SONIC LOG
~Params ----------------------------------------------------
~Other -----------------------------------------------------
~ASCII -----------------------------------------------------
# ...
 6620.00000  133.41920  140.58150   79.14280
 6620.50000  129.38130  138.78390   75.09260
 6621.00000  126.38310  137.14490   72.95580
 6621.50000  126.16280  135.54030   73.79840
 6622.00000  126.51890  134.58490   76.97210
 6622.50000  126.54810  133.81130   78.24460
 6623.00000  126.51850  132.97210   75.03120
 6623.50000  125.45290  131.95920   70.07570
 6624.00000  124.40010  132.44170   62.33600
 6624.50000  123.95860  133.94630   62.03800
 6625.00000  126.84820  137.33970   65.12890
 6625.50000  130.13800  137.77730   67.12520
 6626.00000  130.45180  133.99700   58.99990
 6626.50000  128.56410  129.31340   49.55440
 6627.00000  126.47260  128.10220   43.97810
 6627.50000  125.30690  128.43480   44.55950
 6628.00000  125.74240  130.54210   46.11420
 6628.50000  131.09560  133.46270   51.00380
 6629.00000  136.66890  138.87990   57.99640
 6629.50000  142.24230  144.01520   66.09690
 6630.00000  146.42550  147.52620   72.01400
 6630.50000  149.35850  151.03730   75.73520
 6631.00000  151.99620  154.43020   80.69180
 6631.50000  153.84420  155.88240   81.39550
 6632.00000  151.23450  156.15230   73.69660
 6632.50000  147.36600  154.97060   63.60370
 6633.00000  143.84260  151.09220   49.23940
 6633.50000  140.59040  146.66150   39.17980
 6634.00000  141.95940  145.49660   37.79380
 6634.50000  144.18800  145.21180   41.88390
 6635.00000  147.80620  147.91630   57.91770
 6635.50000  152.11820  151.15970   72.29900
 6636.00000  156.29890  151.37590   84.13100
 6636.50000  157.60200  150.94130   89.96610
 6637.00000  155.20600  149.70510   90.17790
 6637.50000  153.68500  146.60680   90.55880
 6638.00000  153.51820  145.02000   91.74880
 6638.50000  151.58010  145.45840   94.54100
 6639.00000  147.06680  142.96660   95.66930
 6639.50000  141.87830  132.88750   94.89370
 6640.00000  132.62390  124.42530   83.26560
 6640.50000  125.17210  118.99500   62.71360
 6641.00000  117.15810  114.55610   45.70170
 6641.50000  114.98270  112.14600   36.75140
 6642.00000  116.99380  111.71210   33.86760
 6642.50000  120.68650  118.67880   33.43500
 6643.00000  122.13500  118.20420   35.48070
 6643.50000  124.16510  114.40330   41.88790
 6644.00000  125.89570  118.20050   49.14140
 6644.50000  126.90490  124.86420   55.61800
 6645.00000  126.73470  123.14460   54.56440
 6645.50000  121.07020  118.98240   48.88580
 6646.00000  120.16930  117.83170   43.64030
 6646.50000  121.03430  118.73750   38.15430
 6647.00000  121.97840  120.47600   37.30050
 6647.50000  123.74170  122.15570   37.01710
 6648.00000  124.88840  123.72770   36.82270
 6648.50000  126.13650  124.91720   37.20870
 6649.00000  128.26000  126.66960   38.99050
 6649.50000  129.39270  128.72340   44.55650
 6650.00000  129.77350  130.77720   50.25520
 6650.50000  129.65150  131.44100   50.07030
 6651.00000  128.40540  131.51810   43.25780
 6651.50000  126.71450  131.80310   35.34150
 6652.00000  125.83660  133.50660   34.03680
 6652.50000  124.95130  134.31820   36.21560
 6653.00000  123.25150  133.47390   40.18980
 6653.50000  120.55130  130.32280   49.46570
 6654.00000  119.42790  127.63470   55.25020
 6654.50000  121.71890  127.57210   57.33380
 6655.00000  125.61350  127.08870   55.46830
 6655.50000  129.50810  121.64250   56.28590
 6656.00000  132.40910  116.77640   59.79810
 6656.50000  130.77030  117.58940   66.91290
 6657.00000  127.93010  118.43010   70.52920
 6657.50000  136.13620  118.67950   74.85450
 6658.00000  144.55650  118.92900   73.79060
 6658.50000  147.63560  119.17840   71.45150
 6659.00000  148.98380  119.74650   64.58720
 6659.50000  149.30360  121.67110   63.86180
 6660.00000  147.70380  130.12470   65.61490
 6660.50000  146.15490  135.98980   72.44130
 6661.00000  144.63310  140.70000   76.99730
 6661.50000  143.13540  140.75010   77.21090
 6662.00000  141.69800  139.55460   78.05530
 6662.50000  140.48620  139.16230   77.07280
 6663.00000  140.29710  138.89330   77.64670
 6663.50000  140.29090  138.72710   78.21220
 6664.00000  140.61990  138.56090   79.08790
 6664.50000  142.10160  138.89260   78.14290
 6665.00000  144.77930  141.63360   78.56860
 6665.50000  147.06490  146.38000   83.33050
 6666.00000  148.16350  147.33710   84.40270
 6666.50000  147.79650  146.66510   84.35150
 6667.00000  147.00420  145.59850   76.54570
 6667.50000  146.27570  144.03630   75.54620
 6668.00000  146.09430  142.39260   74.15170
 6668.50000  146.37480  145.52910   76.35410
 6669.00000  147.63910  147.26540   79.42440
 6669.50000  148.90330  148.48100   81.19550
 6670.00000  150.08660  149.44230   81.47010
 6670.50000  150.99720  150.40360   82.44320
 6671.00000  151.53690  150.92640   83.71910
 6671.50000  152.38890  150.93630   84.72910
 6672.00000  152.35870  148.46900   84.74830
 6672.50000  147.94970  144.89430   83.85770
 6673.00000  144.33920  140.98010   79.50900
 6673.50000  142.38550  137.00940   77.13450
 6674.00000  140.43190  133.70720   78.83800
 6674.50000  139.64590  131.79970   80.87670
 6675.00000  139.42480  130.50940   78.73640
 6675.50000  139.67640  131.55500   78.62450
 6676.00000  139.97540  133.42240   79.39780
 6676.50000  139.60950  133.55100   80.33520
 6677.00000  139.01040  131.51290   76.30740
 6677.50000  136.90590  129.03940   74.57970
 6678.00000  135.05780  128.49140   71.92500
 6678.50000  136.26860  131.89040   70.46040
 6679.00000  138.84630  133.80700   71.48470
 6679.50000  141.27590  133.19680   75.52930
 6680.00000  142.94500  130.32350   83.52670
 6680.50000  141.68280  127.09610   85.96090
 6681.00000  140.50650  124.00790   86.05060
 6681.50000  139.70530  123.89970   85.93930
 6682.00000  139.81340  128.86450   84.42860
 6682.50000  139.85670  133.82930   82.23450
 6683.00000  139.19410  136.70520   79.66980
 6683.50000  138.40270  134.98770   76.18480
 6684.00000  137.64680  132.27830   76.02580
 6684.50000  137.61470  129.54520   76.52680
 6685.00000  137.58960  128.21870   76.92430
 6685.50000  137.75280  127.69950   75.41220
 6686.00000  138.27410  128.84160   74.90780
 6686.50000  139.19840  129.49150   75.02170
 6687.00000  140.04370  129.00070   76.26120
 6687.50000  140.84090  128.14600   76.03880
 6688.00000  141.17170  126.88890   75.45710
 6688.50000  141.28710  128.72990   74.89730
 6689.00000  141.09530  132.09430   77.00120
 6689.50000  140.63550  136.06650   76.35350
 6690.00000  139.77350  137.80140   76.02580
 6690.50000  138.84490  138.10930   76.13470
 6691.00000  137.91630  136.96370   79.42490
 6691.50000  136.76460  135.24350   80.38720
 6692.00000  135.60690  133.76070   80.71700
 6692.50000  135.37780  133.53150   79.52620
 6693.00000  135.39810  133.55180   79.22890
 6693.50000  135.70660  133.76670   77.54210
 6694.00000  136.69190  134.76730   74.52550
 6694.50000  139.48070  136.03340   73.48120
 6695.00000  142.12170  137.29940   76.90980
 6695.50000  144.87740  139.91230   80.76190
 6696.00000  147.53390  143.05980   83.10460
 6696.50000  150.16690  146.26120   83.92370
 6697.00000  152.79990  149.48170   87.03830
 6697.50000  156.41900  153.10300   89.26810
 6698.00000  162.29840  154.91030   91.24040
 6698.50000  164.90630  156.66400   92.02130
 6699.00000  165.09530  159.13430   92.51890
 6699.50000  164.28880  159.27630   89.79850
 6700.00000  163.52720  157.28380   87.22010
 6700.50000  167.84000  159.40600   84.63130
 6701.00000  173.57010  163.81860   80.81280
 6701.50000  176.32310  167.20540   76.66920
 6702.00000  169.29410  165.19450   76.39140
 6702.50000  163.15380  160.91880   77.12250
 6703.00000  160.35350  156.28620   80.13260
 6703.50000  157.40290  151.56410   83.16410
 6704.00000  154.44760  146.52070   84.81240
 6704.50000  152.53230  144.68330   85.46940
 6705.00000  152.43700  143.59420   83.01090
 6705.50000  153.27200  142.84530   83.87810
 6706.00000  154.51110  144.14410   83.60650
 6706.50000  157.28860  148.24030   83.13000
 6707.00000  161.37470  152.46950   83.37610
 6707.50000  165.59010  156.23090   87.42360
 6708.00000  167.83360  157.91150   91.68640
 6708.50000  165.84480  159.43990   92.99550
