~Version ---------------------------------------------------
VERS.   2.0 : CWLS log ASCII Standard -VERSION 2.0
WRAP.    NO : One line per depth step
DLM . SPACE : Column Data Section Delimiter
~Well ------------------------------------------------------
STRT .F                6442.0 : START DEPTH
STOP .F                7737.0 : STOP DEPTH
STEP .F                   0.5 : STEP
NULL .               -9999.25 : NULL VALUE
COMP .                        : COMPANY
WELL .                        : WELL
FLD  .                        : FIELD
LOC  .                        : LOCATION
PROV .                        : PROVINCE
CNTY .                        : COUNTY
STAT .                        : STATE
CTRY .                        : COUNTRY
SRVC .                        : SERVICE COMPANY
DATE .                        : DATE
UWI  .                        : UNIQUE WELL ID
API  .                        : API NUMBER
SLAT .WGS84 6.511741391871496 : SURFACE LATITUDE
SLON .WGS84 4.971150513225993 : SURFACE LONGITUDE
DATUM.F               2597.53 : DEPTH DATUM ELEV
~Curve Information -----------------------------------------
DEPT.F     : 1 MEASURED DEPTH
DTLF.US/F  : DELTA-T LONG SPACING FAR
DTSM.US/F  : DELTA-T SHEAR
GRS .GAPI  : GAMMA RAY FROM SONIC LOG
~Params ----------------------------------------------------
~Other -----------------------------------------------------
~ASCII -----------------------------------------------------
# ...
 6531.00000  180.24120  179.45030   76.19780
 6531.50000  182.82830  178.56790   70.88690
 6532.00000  183.64810  177.22760   71.93430
 6532.50000  180.74860  176.51830   75.22480
 6533.00000  177.92770  175.85460   81.30970
 6533.50000  175.84510  172.12570   82.68740
 6534.00000  175.59290  168.53250   83.27510
 6534.50000  177.81000  165.76020   84.65450
 6535.00000  178.78640  163.04420   86.86100
 6535.50000  184.34520  163.76830   86.25620
 6536.00000  191.58560  187.07510   82.93920
 6536.50000  195.53120  184.47460   81.26440
 6537.00000  196.32360  184.20070   82.46700
 6537.50000  193.37820  186.58530   85.57920
 6538.00000  188.99660  187.47950   86.60180
 6538.50000  188.22630  180.55310   86.12300
 6539.00000  187.33200  181.56400   85.40500
 6539.50000  186.43780  183.53270   84.91270
 6540.00000  185.51240  184.17200   84.44150
 6540.50000  184.56710  184.13100   83.71320
 6541.00000  183.62180  183.62100   83.12470
 6541.50000  180.87350  183.59690   82.69850
 6542.00000  179.13120  184.16710   82.17290
 6542.50000  178.05600  183.83810   82.06070
 6543.00000  176.64170  179.32350   84.43180
 6543.50000  174.21010  173.95240   83.25020
 6544.00000  165.76460  167.51730   82.31800
 6544.50000  159.06830  161.08210   80.54770
 6545.00000  153.52940  154.65990   78.62550
 6545.50000  147.99060  152.36200   73.90890
 6546.00000  143.88960  158.71610   73.73350
 6546.50000  145.26660  165.72850   74.98440
 6547.00000  145.86350  172.74080   79.64640
 6547.50000  142.93440  179.68050   82.89810
 6548.00000  143.32470  185.49210   84.28360
 6548.50000  153.89260  191.30380   84.88020
 6549.00000  159.76380  193.92400   83.07320
 6549.50000  161.41170  192.66340   82.68570
 6550.00000  163.12700  188.77340   82.05120
 6550.50000  168.24870  188.97100   82.51650
 6551.00000  176.45150  190.99660   83.78800
 6551.50000  183.53780  194.96700   87.10350
 6552.00000  184.25240  194.73420   87.26840
 6552.50000  181.43030  188.70440   87.38010
 6553.00000  174.95790  181.18730   85.86770
 6553.50000  164.20420  173.10840   88.96060
 6554.00000  151.57000  162.83650   97.53690
 6554.50000  139.89200  147.66190  103.03280
 6555.00000  130.36730  133.90620   99.33880
 6555.50000  123.26760  128.72700   84.12200
 6556.00000  125.36960  129.80980   65.79290
 6556.50000  136.12470  138.99230   58.70260
 6557.00000  145.29570  151.23660   63.63280
 6557.50000  149.14120  152.02670   72.28800
 6558.00000  149.12330  151.04150   79.93500
 6558.50000  148.62940  150.48810   80.74940
 6559.00000  145.79550  149.93470   83.90160
 6559.50000  138.76130  144.96430   88.57980
 6560.00000  131.76420  137.76910   92.08560
 6560.50000  125.76690  129.05360   94.19530
 6561.00000  118.66800  120.58740   90.31740
 6561.50000  116.59070  117.56400   82.34890
 6562.00000  117.43030  118.23990   74.05270
 6562.50000  117.03600  119.03290   70.60960
 6563.00000  116.43710  117.88610   70.58530
 6563.50000  114.47390  116.31710   70.51540
 6564.00000  113.16890  115.32520   64.80830
 6564.50000  112.89280  114.42920   55.64080
 6565.00000  112.61660  114.07340   46.58380
 6565.50000  112.63380  114.02340   46.00920
 6566.00000  113.34900  114.41320   47.12280
 6566.50000  114.02140  114.80310   48.18810
 6567.00000  114.03790  115.19290   48.40940
 6567.50000  114.17430  115.75670   48.17650
 6568.00000  114.57120  116.38340   47.35880
 6568.50000  114.39580  116.54380   46.42000
 6569.00000  115.00590  116.54380   41.65490
 6569.50000  115.57430  116.54380   42.45060
 6570.00000  115.89620  116.47400   47.64540
 6570.50000  116.00350  116.33350   51.78970
 6571.00000  115.04000  116.19300   49.16930
 6571.50000  114.07840  116.05250   45.29380
 6572.00000  113.30420  115.96940   44.90520
 6572.50000  113.48700  115.98170   45.96210
 6573.00000  116.85130  116.16400   45.37390
 6573.50000  117.93930  116.57980   42.38200
 6574.00000  117.95670  116.99550   42.43130
 6574.50000  117.99340  117.41130   42.62710
 6575.00000  117.96850  117.48930   47.77050
 6575.50000  118.13220  117.29840   46.27820
 6576.00000  118.40780  117.10750   47.44600
 6576.50000  118.22890  116.94060   47.91880
 6577.00000  117.25740  116.79910   46.10120
 6577.50000  116.40710  116.02600   39.39280
 6578.00000  116.33850  114.80310   37.48960
 6578.50000  116.19260  114.31370   38.18410
 6579.00000  116.47980  114.63450   44.42340
 6579.50000  116.57780  115.13870   46.76790
 6580.00000  117.10540  115.70990   47.56980
 6580.50000  117.70670  115.86410   48.24940
 6581.00000  117.33460  115.49040   49.57420
 6581.50000  117.20170  115.36080   49.68300
 6582.00000  116.66380  115.43110   42.87520
 6582.50000  116.08490  115.58100   38.87980
 6583.00000  116.42750  117.73560   40.14010
 6583.50000  116.83540  121.26420   40.14010
 6584.00000  117.46280  121.61880   38.20050
 6584.50000  119.23330  121.32210   36.46710
 6585.00000  120.31290  120.58730   34.88330
 6585.50000  120.17860  119.93100   40.24700
 6586.00000  119.90700  119.19630   49.50640
 6586.50000  118.73220  118.34880   52.35440
 6587.00000  117.34360  115.77220   50.40950
 6587.50000  115.58370  113.64860   45.54520
 6588.00000  115.21050  113.57120   41.35190
 6588.50000  118.05090  115.73630   39.70900
 6589.00000  121.38070  119.40680   40.17470
 6589.50000  122.04150  120.73300   41.03870
 6590.00000  121.02900  119.58690   41.36700
 6590.50000  120.30810  118.78460   41.21930
 6591.00000  120.65630  118.47650   40.94250
 6591.50000  121.58660  118.27900   40.42190
 6592.00000  123.49570  118.36170   39.72460
 6592.50000  123.97780  118.44430   40.85390
 6593.00000  123.93970  118.57380   46.59220
 6593.50000  123.90160  118.72710   51.42940
 6594.00000  123.39080  118.96450   55.58560
 6594.50000  122.79020  119.20190   57.61670
 6595.00000  121.99910  119.38270   57.72290
 6595.50000  121.47080  118.45740   55.60990
 6596.00000  121.01820  117.61590   52.16220
 6596.50000  120.60260  117.40130   48.71100
 6597.00000  120.29040  117.65370   46.75620
 6597.50000  119.71630  117.85170   45.02180
 6598.00000  119.01920  117.96440   43.07660
 6598.50000  118.32210  117.16400   42.26630
 6599.00000  118.51790  115.82910   42.51530
 6599.50000  119.35240  113.42620   43.70530
 6600.00000  120.51210  114.29430   45.11980
 6600.50000  121.37000  115.97580   46.43630
 6601.00000  121.77410  116.72520   47.82170
 6601.50000  121.65170  117.20070   48.80630
 6602.00000  121.33560  117.39220   47.95020
 6602.50000  120.99340  117.10930   45.51480
 6603.00000  120.86970  116.96350   42.99210
 6603.50000  121.16840  116.33170   41.34430
 6604.00000  121.23790  116.62020   41.37540
 6604.50000  121.28980  117.52830   41.67220
 6605.00000  121.45950  118.64330   46.98230
 6605.50000  121.88160  125.56840   51.74290
 6606.00000  122.83140  125.77890   51.64910
 6606.50000  123.90240  125.93840   48.01730
 6607.00000  124.86410  125.80740   42.80660
 6607.50000  125.76960  126.64000   42.79830
 6608.00000  126.71180  129.18710   51.59830
 6608.50000  128.09790  131.48740   57.39110
 6609.00000  129.23690  132.62260   60.17870
 6609.50000  130.30420  132.22560   60.27630
 6610.00000  131.37160  131.83240   60.27630
 6610.50000  132.70200  131.79130   60.27630
 6611.00000  134.25270  132.80760   62.09400
 6611.50000  134.76370  133.38640   69.57980
 6612.00000  133.09880  131.29180   84.31870
 6612.50000  129.92030  128.16820   88.57640
 6613.00000  124.95280  123.46950   84.53640
 6613.50000  121.75390  120.05730   74.24660
 6614.00000  121.90590  118.28260   61.72910
 6614.50000  124.41700  117.86380   49.10580
 6615.00000  126.53330  118.48940   48.56370
 6615.50000  128.22510  121.18110   52.08610
 6616.00000  130.24180  126.75370   55.33980
 6616.50000  133.84200  137.31850   59.63860
 6617.00000  138.99850  144.91410   60.91070
 6617.50000  141.44790  144.92150   62.17770
 6618.00000  141.39110  144.68060   65.41080
 6618.50000  139.83510  145.08100   71.37650
 6619.00000  138.39370  144.18800   79.03700
 6619.50000  136.16630  142.49670   81.64170
