~Version ---------------------------------------------------
VERS.   2.0 : CWLS log ASCII Standard -VERSION 2.0
WRAP.    NO : One line per depth step
DLM . SPACE : Column Data Section Delimiter
~Well ------------------------------------------------------
STRT .F                6442.0 : START DEPTH
STOP .F                7737.0 : STOP DEPTH
STEP .F                   0.5 : STEP
NULL .               -9999.25 : NULL VALUE
COMP .                        : COMPANY
WELL .                        : WELL
FLD  .                        : FIELD
LOC  .                        : LOCATION
PROV .                        : PROVINCE
CNTY .                        : COUNTY
STAT .                        : STATE
CTRY .                        : COUNTRY
SRVC .                        : SERVICE COMPANY
DATE .                        : DATE
UWI  .                        : UNIQUE WELL ID
API  .                        : API NUMBER
SLAT .WGS84 6.511741391871496 : SURFACE LATITUDE
SLON .WGS84 4.971150513225993 : SURFACE LONGITUDE
DATUM.F               2597.53 : DEPTH DATUM ELEV
~Curve Information -----------------------------------------
DEPT.F     : 1 MEASURED DEPTH
DTLF.US/F  : DELTA-T LONG SPACING FAR
DTSM.US/F  : DELTA-T SHEAR
GRS .GAPI  : GAMMA RAY FROM SONIC LOG
~Params ----------------------------------------------------
~Other -----------------------------------------------------
~ASCII -----------------------------------------------------
# ...
 6709.00000  161.95070  158.64650   91.69390
 6709.50000  155.50450  159.07430   93.17770
 6710.00000  149.21680  161.71040   92.30340
 6710.50000  147.59400  164.54840   91.68110
 6711.00000  149.47220  167.20940   84.05290
 6711.50000  152.91400  168.61240   85.72770
 6712.00000  153.95350  169.05820   86.26590
 6712.50000  153.78200  169.36190   89.51880
 6713.00000  152.36100  169.65930   89.53790
 6713.50000  150.31850  171.42880   90.12390
 6714.00000  150.32920  172.10290   90.20240
 6714.50000  156.41620  171.59130   90.40980
 6715.00000  162.28950  171.52740   92.05510
 6715.50000  167.88630  171.91990   93.02680
 6716.00000  168.85920  171.65290   91.73960
 6716.50000  166.03140  170.19570   90.45250
 6717.00000  159.37300  166.54750   88.01280
 6717.50000  152.71460  161.52510   89.89560
 6718.00000  146.55920  160.60190   89.82960
 6718.50000  149.89850  161.23610   89.60770
 6719.00000  152.73170  161.86440   88.12920
 6719.50000  152.90250  162.10860   85.96960
 6720.00000  153.05800  158.99420   86.37800
 6720.50000  154.51680  159.05000   87.28440
 6721.00000  156.63570  160.24840   88.95690
 6721.50000  158.28670  160.19130   89.14060
 6722.00000  158.82360  159.91570   89.87710
 6722.50000  158.13190  154.33290   91.59800
 6723.00000  157.91820  153.30150   90.25640
 6723.50000  158.89620  155.21170   89.45950
 6724.00000  159.44760  157.81630   89.23020
 6724.50000  158.45780  157.62770   88.73420
 6725.00000  156.92500  155.60720   84.54160
 6725.50000  156.71420  153.41680   83.55860
 6726.00000  158.34350  155.87830   83.99090
 6726.50000  159.85050  163.24430   86.32570
 6727.00000  159.94750  163.70770   87.12400
 6727.50000  159.80700  160.25100   87.37800
 6728.00000  159.66450  160.23610   86.90240
 6728.50000  159.51860  160.22120   86.49400
 6729.00000  158.01650  162.24450   86.26690
 6729.50000  155.26350  162.27670   86.30550
 6730.00000  155.58670  160.50290   86.64600
 6730.50000  158.36980  159.92200   87.84180
 6731.00000  158.97440  161.55230   89.70430
 6731.50000  156.05700  160.27240   89.59210
 6732.00000  152.51060  157.84920   87.79290
 6732.50000  147.43890  155.07900   84.30960
 6733.00000  145.59820  152.30880   84.06400
 6733.50000  145.14550  151.84120   82.90890
 6734.00000  148.12800  154.16690   84.62510
 6734.50000  151.11380  157.37100   88.32800
 6735.00000  150.51300  160.57510   91.17350
 6735.50000  147.52650  161.16710   93.43830
 6736.00000  148.45380  160.88440   92.73390
 6736.50000  154.22370  160.15310   89.80130
 6737.00000  158.97160  158.88250   86.27570
 6737.50000  161.15300  156.49580   85.48020
 6738.00000  161.68200  151.31690   85.53410
 6738.50000  161.50980  146.20530   85.54350
 6739.00000  159.31960  145.70820   87.76060
 6739.50000  159.25340  145.65490   88.73070
 6740.00000  160.55400  146.38610   90.57990
 6740.50000  161.67390  146.93440   90.99910
 6741.00000  162.42340  148.26560   90.92550
 6741.50000  163.07530  155.49430   91.72250
 6742.00000  163.01240  158.72170   93.11140
 6742.50000  161.20660  159.61290   92.93060
 6743.00000  155.76750  158.80460   92.47580
 6743.50000  149.58100  154.99070   89.01290
 6744.00000  148.51140  155.84210   85.07970
 6744.50000  148.96570  158.55150   77.38630
 6745.00000  150.04600  163.42610   73.69710
 6745.50000  150.18850  168.63920   74.01560
 6746.00000  149.63530  168.25870   81.40220
 6746.50000  150.82360  164.04690   86.36440
 6747.00000  155.35820  162.70780   87.79970
 6747.50000  163.39600  163.90480   86.94500
 6748.00000  167.15440  165.01680   85.62050
 6748.50000  166.41440  163.62080   85.67920
 6749.00000  163.17770  154.60700   86.21040
 6749.50000  161.01170  149.41380   86.45670
 6750.00000  160.31930  149.22620   85.46850
 6750.50000  160.95930  151.00720   84.29540
 6751.00000  163.07780  154.07440   84.69630
 6751.50000  165.70620  156.65620   88.53190
 6752.00000  166.88700  158.56750   89.69880
 6752.50000  162.47560  158.25780   87.73820
 6753.00000  157.94250  158.27450   85.54890
 6753.50000  153.40940  158.45720   85.36500
 6754.00000  149.41170  157.68530   85.63690
 6754.50000  146.68190  156.81030   86.36390
 6755.00000  145.35200  156.80680   87.15340
 6755.50000  149.97820  158.70940   88.34930
 6756.00000  153.84940  161.58680   88.49380
 6756.50000  155.87560  163.30780   89.64340
 6757.00000  156.92100  162.53600   89.13150
 6757.50000  157.94140  161.82020   89.96120
 6758.00000  158.06640  161.68270   91.53590
 6758.50000  155.73410  162.15770   91.22710
 6759.00000  151.12210  160.89250   89.51390
 6759.50000  147.17810  159.81720   87.30410
 6760.00000  151.27890  160.61340   85.28660
 6760.50000  156.75160  162.95860   83.43710
 6761.00000  161.67170  165.07070   85.34410
 6761.50000  163.63190  165.29610   87.18560
 6762.00000  162.51540  163.74030   87.45590
 6762.50000  159.59530  158.85910   84.91510
 6763.00000  156.25960  153.35200   83.09150
 6763.50000  152.97390  148.90800   81.69340
 6764.00000  152.76380  146.85310   82.27000
 6764.50000  154.11700  148.25990   86.03130
 6765.00000  156.14740  150.63730   89.90060
 6765.50000  158.02240  152.69360   90.12950
 6766.00000  160.29650  153.06160   87.65230
 6766.50000  162.68330  154.91480   84.98230
 6767.00000  165.52240  159.71520   82.69220
 6767.50000  168.05770  163.76880   82.78690
 6768.00000  169.07220  165.17210   87.13000
 6768.50000  168.73300  164.98000   90.03020
 6769.00000  167.50610  164.02060   89.65480
 6769.50000  163.69430  163.35320   87.93980
 6770.00000  156.93840  162.37500   88.20910
 6770.50000  153.85770  159.24800   91.45270
 6771.00000  151.82420  156.93730   90.05180
 6771.50000  150.47430  158.81880   90.90520
 6772.00000  149.77130  159.87770   89.57910
 6772.50000  148.60210  158.33340   88.86420
 6773.00000  147.54510  156.12990   88.15620
 6773.50000  148.64230  155.78270   87.91840
 6774.00000  153.01700  158.93900   88.56130
 6774.50000  160.05330  161.03550   90.26270
 6775.00000  158.23110  159.50190   90.87020
 6775.50000  156.19780  157.86980   89.25170
 6776.00000  154.92950  156.28610   87.35070
 6776.50000  156.22910  156.15840   86.54220
 6777.00000  159.42040  156.85780   89.56030
 6777.50000  163.93900  157.48090   89.65850
 6778.00000  163.97970  156.95780   86.28520
 6778.50000  159.68320  156.29430   83.13600
 6779.00000  153.88240  155.40460   83.89480
 6779.50000  149.37420  154.51490   83.37250
 6780.00000  150.33940  153.62520   82.87840
 6780.50000  151.75640  153.77230   83.19440
 6781.00000  152.87360  154.66250   84.76280
 6781.50000  153.95810  155.01780   85.09270
 6782.00000  155.44870  156.01860   85.42550
 6782.50000  156.45970  157.93520   86.20190
 6783.00000  155.25030  160.14890   87.30860
 6783.50000  153.23140  159.87230   86.82480
 6784.00000  150.33980  157.56390   86.45500
 6784.50000  147.44810  153.61890   87.90350
 6785.00000  146.48470  150.93400   88.33540
 6785.50000  147.55530  150.07390   84.65080
 6786.00000  150.61840  153.08010   79.57200
 6786.50000  154.16280  156.93330   76.50050
 6787.00000  159.47110  161.05810   81.64280
 6787.50000  163.60320  164.47990   85.58630
 6788.00000  164.33810  165.64270   88.30360
 6788.50000  163.18260  164.54330   90.20610
 6789.00000  157.66180  161.12570   90.91390
 6789.50000  151.06930  157.44030   90.45770
 6790.00000  149.70860  155.03300   88.81370
 6790.50000  149.00990  154.26880   85.84570
 6791.00000  149.87030  154.06280   84.74290
 6791.50000  152.13430  154.85160   84.34490
 6792.00000  154.26200  157.16330   86.69820
 6792.50000  155.69980  160.04000   88.93930
 6793.00000  154.77330  160.17210   89.22930
 6793.50000  153.36550  159.45900   86.31940
 6794.00000  152.75830  156.62600   83.94950
 6794.50000  152.51880  155.26060   83.19440
 6795.00000  154.02070  155.57180   84.83570
 6795.50000  155.41710  155.88290   87.68630
 6796.00000  155.78380  156.46110   90.94050
 6796.50000  154.89400  157.18980   90.96560
 6797.00000  152.18870  156.92920   90.59290
 6797.50000  147.54960  154.91510   90.46690
