~Version ---------------------------------------------------
VERS.   2.0 : CWLS log ASCII Standard -VERSION 2.0
WRAP.    NO : One line per depth step
DLM . SPACE : Column Data Section Delimiter
~Well ------------------------------------------------------
STRT .FT                 408.0 : START DEPTH
STOP .FT                5705.0 : STOP DEPTH
STEP .FT                   0.5 : STEP
NULL .                -9999.25 : NULL VALUE
COMP .                         : COMPANY
WELL .                         : WELL
FLD  .                         : FIELD
LOC  .                         : LOCATION
PROV .                         : PROVINCE
CNTY .                         : COUNTY
STAT .                         : STATE
CTRY .                         : COUNTRY
SRVC .                         : SERVICE COMPANY
DATE .                         : DATE
UWI  .                         : UNIQUE WELL ID
API  .                         : API NUMBER
SLAT .WGS84 1.4511292693435998 : SURFACE LATITUDE
SLON .WGS84  7.402666333495006 : SURFACE LONGITUDE
DATUM.F                2449.11 : DEPTH DATUM ELEV
~Curve Information -----------------------------------------
DEPT   .FT        : DEPTH FEET
DPHZ_LS.DEC       : DENSITY POROSITY LIMESTONE [M=2.71, F=1] FROM CNL-LDT LOG
DTCO   .US/F      : DELTA TIME FROM DAC LOG
DTSM   .US/F      : DELTA TIME FROM DAC LOG
GRD    .GAPI      : GAMMA RAY FROM CNL-LDT LOG
GRR    .GAPI      : GAMMA RAY FROM ALAT-MCFL LOG
GRS    .GAPI      : GAMMA RAY FROM DAC LOG
HCALR  .IN        : HRCC CALIPER FROM ALAT-MCFL LOG
HDRA   .G/C3      : DENSITY CORRECTION FROM CNL-LDT LOG
HLLD   .OHMM      : DEEP LATEROLOG RESISTIVITY FROM ALAT-MCFL LOG
HLLS   .OHMM      : SHALLOW LATEROLOG RESISTIVITY FROM ALAT-MCFL LOG
PEFZ   .B/E       : PHOTOELECTRIC FACTOR STANDARD RESOLUTION FROM CNL-LDT LOG
PR     .UNITLESS  : POISSON RATIO FROM DAC LOG
RHOB   .G/C3      : BULK DENSITY FROM CNL-LDT LOG
RXOZ   .OHMM      : STANDARD RESOLUTION INVADED ZONE RESISTIVITY FROM ALAT-MCFL LOG
SPHI_LS.DEC       : SONIC POROSITY LIMESTONE [DTM=47.6, DTF=189] FROM DAC LOG
TEND   .LB        : TENSION FROM CNL-LDT LOG
TENR   .LB        : TENSION FROM FROM ALAT-MCFL LOG
TENS   .LB        : TENSION FROM DAC LOG
TNPH_LS.DEC       : THERMAL NEUTRON POROSITY LIMESTONE FROM CNL-LDT LOG
VPVS   .UNITLESS  : RATIO OF COMPRESSIONAL TO SHEAR VELOCITIES FROM DAC LOG
~Params ----------------------------------------------------
~Other -----------------------------------------------------
~ASCII -----------------------------------------------------
# ...
 5325.50000   -0.00570   69.98110  125.17610   89.41250   90.22490   80.22230   10.04690   -0.00120   16.19860   16.22770    3.79640    0.28390    2.71840   16.00720    0.15870 2273.67700 2226.36960 2049.53200    0.16930    1.82730
 5326.00000   -0.00360   69.08540  124.47720   88.15420   89.34390   78.08720   10.08700   -0.00120   16.04870   15.50890    3.74000    0.28670    2.71480   15.47290    0.15460 2273.67700 2191.18140 2049.53710    0.16580    1.83260
 5326.50000    0.00170   68.31770  123.34210   86.12350   86.67280   76.99490   10.12710   -0.00020   16.04620   15.22450    3.68360    0.28940    2.70600   15.30780    0.15010 2276.13870 2173.51640 2049.54220    0.16480    1.83800
 5327.00000    0.00830   67.95310  123.13070   84.76530   85.43480   77.08560   10.16710    0.01130   16.04130   15.22060    3.63760    0.28940    2.70090   15.46010    0.14810 2253.35400 2156.57200 2049.54740    0.16790    1.83460
 5327.50000    0.01100   67.94010  124.39450   85.35940   85.60310   77.48750   10.20030    0.01760   16.03710   15.21740    3.60790    0.29350    2.69700   15.85200    0.14820 2230.56930 2139.62740 2049.55220    0.17100    1.84460
 5328.00000    0.00810   68.01540  125.65830   88.16140   88.90290   77.94510   10.22310    0.02540   16.03300   15.21350    3.56670    0.29820    2.69780   15.85870    0.14900 2216.71310 2122.68290 2049.55740    0.17200    1.85710
 5328.50000    0.00310   68.07570  126.48070   91.46640   93.35380   76.26060   10.24590    0.02480   15.88450   15.20950    3.52560    0.30030    2.70240   15.74360    0.15020 2270.68240 2164.11840 2049.56250    0.17300    1.86960
 5329.00000   -0.00100   68.28550  127.82120   94.88450   96.33710   76.76250   10.26880    0.02320   15.59580   15.20560    3.56110    0.30130    2.70710   15.28230    0.15400 2321.55570 2205.55420 2049.56760    0.17530    1.88000
 5329.50000   -0.00270   69.18080  129.49120   96.97560   98.18450   80.00630   10.29160    0.01760   15.30900   14.92900    3.61580    0.30250    2.71130   14.43800    0.15880 2327.93530 2246.29810 2049.57280    0.18050    1.88140
 5330.00000    0.00010   70.42590  131.35850   97.53560   99.17100   83.96990   10.32530    0.01100   15.02230   13.63490    3.67050    0.30530    2.71000   13.62020    0.16650 2334.31490 2286.86940 2049.57790    0.18570    1.88280
 5330.50000    0.00600   71.67100  133.22580  100.81460  101.19640   85.99120   10.35440    0.00450   14.73550   13.26880    3.68420    0.30450    2.70100   13.35250    0.17320 2348.82910 2299.07060 2049.58300    0.19080    1.88420
 5331.00000    0.01190   72.91620  135.09310  105.21160  105.90110   86.73500   10.37660   -0.00070   14.44870   13.27130    3.64340    0.30370    2.69200   13.33570    0.18400 2321.13620 2266.36550 2049.58790    0.19540    1.87370
 5331.50000    0.01950   73.89610  136.96040  111.45330  111.47590   87.64290   10.40450   -0.00070   14.16200   13.51520    3.61070    0.30290    2.67970   13.22010    0.19110 2304.22750 2257.60960 2049.59300    0.19920    1.85460
 5332.00000    0.02960   74.38870  139.61190  115.63170  116.01080   90.02490   10.43250   -0.00080   13.99980   13.76450    3.62060    0.30200    2.66930   11.88080    0.19760 2274.73750 2225.24390 2049.59810    0.20610    1.83550
 5332.50000    0.03630   74.88120  140.31730  117.68010  117.23480   92.40690   10.46050   -0.00080   14.02460   13.89160    3.62990    0.30120    2.65780   11.60950    0.20160 2245.24780 2192.87840 2049.60330    0.21110    1.86140
 5333.00000    0.03750   75.37380  141.13270  115.69670  116.22580   95.34360   10.50950    0.00300   14.04940   13.89380    3.62710    0.30040    2.64740   11.70640    0.20500 2215.75810 2160.51290 2049.60840    0.21860    1.86750
 5333.50000    0.03290   75.86630  141.94820  112.32150  112.63470   96.78710   10.50950    0.01230   14.07410   13.89580    3.62430    0.30070    2.65640   13.54610    0.20690 2186.26810 2128.14720 2049.61330    0.21970    1.87560
 5334.00000    0.02570   76.18730  142.76360  109.83380  109.65330   96.78710   10.53350    0.02170   14.09890   13.89800    3.62150    0.30260    2.66760   15.63560    0.20810 2170.68820 2159.70260 2049.61840    0.21630    1.87850
 5334.50000    0.01610   76.18090  143.41120  109.08990  109.12930   96.78710   10.56420    0.02110   14.12360   13.90010    3.61870    0.30450    2.67890   16.67900    0.20870 2223.12260 2211.68970 2049.62350    0.20830    1.88140
 5335.00000    0.00990   75.97150  143.38770  108.88890  108.88720   96.51130   10.59230    0.01590   13.96440   13.53010    3.61590    0.30640    2.69010   15.82690    0.20670 2278.65090 2253.27930 2049.62870    0.20020    1.88680
 5335.50000    0.00650   75.91990  143.16570  106.42210  106.53250   93.86930   10.78330    0.01390   13.75920   13.28970    3.61310    0.30900    2.69650   15.71630    0.20350 2305.70850 2253.27930 2049.63380    0.19220    1.89380
 5336.00000    0.00860   75.25520  140.98330  102.47470  100.94010   89.19660   10.70370    0.01480   13.55400   13.29170    3.62680    0.30900    2.69590   15.91780    0.19880 2325.64820 2253.27930 2049.63890    0.19220    1.90750
 5336.50000    0.01560   74.43730  139.57950   99.28550   99.06620   85.26610   10.63850    0.01570   13.39030   13.29380    3.64460    0.30910    2.68520   13.84420    0.19610 2323.55980 2253.27930 2049.64400    0.21200    1.91930
 5337.00000    0.02930   74.61330  139.00510   99.75430  100.35800   85.74560   10.66200    0.00800   13.66180   13.35600    3.66240    0.30920    2.66950   11.77050    0.19950 2281.65230 2253.27930 2049.64920    0.22960    1.89530
 5337.50000    0.03950   75.86810  139.28520  101.93560  102.62510   87.66180   10.69920    0.00220   13.93320   13.78710    3.68020    0.30730    2.65310   10.56460    0.20760 2252.78320 2255.23240 2049.65430    0.24240    1.86440
 5338.00000    0.03510   76.97290  139.56540  103.39020  104.02770   88.76150   10.72670    0.00130   14.20470   14.04080    3.73750    0.29710    2.64950   12.91370    0.21570 2243.47190 2249.21970 2049.65920    0.24280    1.83950
 5338.50000    0.02770   77.68500  138.94070  105.31550  105.72300   89.66940   10.74550    0.00160   14.47620   14.42900    3.80480    0.28500    2.65090   16.00740    0.21990 2254.74780 2259.81620 2049.66430    0.22430    1.80690
 5339.00000    0.02180   77.41720  138.82120  108.53490  108.06610   88.92590   10.76420    0.00250   14.74770   14.96250    3.87210    0.28020    2.67990   17.12960    0.21640 2254.74780 2248.39940 2049.66940    0.20950    1.80510
 5339.50000    0.02260   76.92540  138.55460  112.39030  112.16490   89.15190   10.79890    0.00890   14.80380   15.51570    3.89910    0.28530    2.67420   15.08860    0.21450 2254.74780 2236.98290 2049.67460    0.21170    1.83240
 5340.00000    0.02810   76.38930  137.27850  115.28780  116.43880   90.51100   10.81450    0.00980   14.79800   15.37840    3.85270    0.28920    2.66630   13.38810    0.20980 2254.74780 2225.56640 2049.67970    0.21470    1.84050
 5340.50000    0.02970   75.79320  135.75000  113.79330  114.38280   91.87910   10.83010    0.01070   14.79590   15.09290    3.82460    0.28160    2.66630   13.11610    0.20510 2254.74780 2214.14990 2049.68480    0.21070    1.84480
 5341.00000    0.02560   74.77800  133.45420  109.94360  109.95810   91.56490   10.84920    0.01310   14.79420   14.82030    3.75470    0.27620    2.66970   13.68910    0.19590 2254.74780 2205.01660 2049.68970    0.20390    1.84910
 5341.50000    0.01810   72.96350  131.42390  104.09750  103.86400   89.84440   10.88220    0.01630   14.79170   14.81820    3.69570    0.28320    2.67800   14.10040    0.18190 2249.34380 2204.73830 2049.69480    0.20570    1.85330
 5342.00000    0.01180   71.99150  130.67860   99.52180  100.22580   86.64000   10.91530    0.01860   14.78950   14.81610    3.65200    0.29020    2.68640   14.26920    0.17520 2241.93210 2204.73830 2047.96780    0.20840    1.85760
 5342.50000    0.00750   70.94370  129.93330   96.66670   97.34350   83.27440   10.92200    0.01500   14.78740   14.81390    3.63130    0.29360    2.69310   14.43800    0.17010 2252.47360 2204.73830 2045.80760    0.20860    1.85750
