~Version ---------------------------------------------------
VERS.   2.0 : CWLS log ASCII Standard -VERSION 2.0
WRAP.    NO : One line per depth step
DLM . SPACE : Column Data Section Delimiter
~Well ------------------------------------------------------
STRT .FT                 408.0 : START DEPTH
STOP .FT                5705.0 : STOP DEPTH
STEP .FT                   0.5 : STEP
NULL .                -9999.25 : NULL VALUE
COMP .                         : COMPANY
WELL .                         : WELL
FLD  .                         : FIELD
LOC  .                         : LOCATION
PROV .                         : PROVINCE
CNTY .                         : COUNTY
STAT .                         : STATE
CTRY .                         : COUNTRY
SRVC .                         : SERVICE COMPANY
DATE .                         : DATE
UWI  .                         : UNIQUE WELL ID
API  .                         : API NUMBER
SLAT .WGS84 1.4511292693435998 : SURFACE LATITUDE
SLON .WGS84  7.402666333495006 : SURFACE LONGITUDE
DATUM.F                2449.11 : DEPTH DATUM ELEV
~Curve Information -----------------------------------------
DEPT   .FT        : DEPTH FEET
DPHZ_LS.DEC       : DENSITY POROSITY LIMESTONE [M=2.71, F=1] FROM CNL-LDT LOG
DTCO   .US/F      : DELTA TIME FROM DAC LOG
DTSM   .US/F      : DELTA TIME FROM DAC LOG
GRD    .GAPI      : GAMMA RAY FROM CNL-LDT LOG
GRR    .GAPI      : GAMMA RAY FROM ALAT-MCFL LOG
GRS    .GAPI      : GAMMA RAY FROM DAC LOG
HCALR  .IN        : HRCC CALIPER FROM ALAT-MCFL LOG
HDRA   .G/C3      : DENSITY CORRECTION FROM CNL-LDT LOG
HLLD   .OHMM      : DEEP LATEROLOG RESISTIVITY FROM ALAT-MCFL LOG
HLLS   .OHMM      : SHALLOW LATEROLOG RESISTIVITY FROM ALAT-MCFL LOG
PEFZ   .B/E       : PHOTOELECTRIC FACTOR STANDARD RESOLUTION FROM CNL-LDT LOG
PR     .UNITLESS  : POISSON RATIO FROM DAC LOG
RHOB   .G/C3      : BULK DENSITY FROM CNL-LDT LOG
RXOZ   .OHMM      : STANDARD RESOLUTION INVADED ZONE RESISTIVITY FROM ALAT-MCFL LOG
SPHI_LS.DEC       : SONIC POROSITY LIMESTONE [DTM=47.6, DTF=189] FROM DAC LOG
TEND   .LB        : TENSION FROM CNL-LDT LOG
TENR   .LB        : TENSION FROM FROM ALAT-MCFL LOG
TENS   .LB        : TENSION FROM DAC LOG
TNPH_LS.DEC       : THERMAL NEUTRON POROSITY LIMESTONE FROM CNL-LDT LOG
VPVS   .UNITLESS  : RATIO OF COMPRESSIONAL TO SHEAR VELOCITIES FROM DAC LOG
~Params ----------------------------------------------------
~Other -----------------------------------------------------
~ASCII -----------------------------------------------------
# ...
 5010.50000    0.00760   51.80950   95.80660   31.42620   31.50610   28.80330    9.15260    0.01320   40.38380   44.26700    4.18140    0.29840    2.72600   32.06710    0.03030 2148.90600 2178.61040 1949.17910    0.03760    1.86040
 5011.00000   -0.00630   51.31450   94.52140   29.47290   30.14900   26.81440    9.12720    0.00640  383.18670  212.14510    4.34890    0.29720    2.75530  100.62590    0.02590 2148.90600 2170.31810 1948.50990    0.01380    1.86040
 5011.50000   -0.02620   51.01920   94.50930   28.43620   28.79190   25.18770    9.10170    0.00240  720.96110  449.01180    4.55960    0.29800    2.73500 1201.85830    0.02470 2148.90600 2160.32320 1947.84060    0.01420    1.86350
 5012.00000   -0.03010   51.63580   95.49960   30.28840   29.35900   25.56410    9.07630    0.00310  497.18170  249.76990    4.73780    0.29730    2.70230 1616.37920    0.02930 2148.90600 2150.32840 1947.17130    0.02780    1.86740
 5012.50000   -0.01690   52.20000   97.15670   33.86800   33.32200   26.70010    9.06580    0.00620  243.49660   83.57810    4.57790    0.29660    2.66950  613.57970    0.03420 2148.90600 2140.33350 1946.50210    0.05330    1.86290
 5013.00000    0.01880   53.92330   98.37940   35.83240   35.30490   27.43530    9.06560    0.00750  110.63840   11.30310    4.33300    0.29540    2.63680    7.19270    0.04540 2148.90600 2130.33890 1945.83280    0.10030    1.84990
 5013.50000    0.04010   55.29010   99.31260   35.24710   36.09350   28.15970    9.06450    0.00950    4.35210    3.57240    4.01390    0.28920    2.61060    2.19110    0.05350 2156.59890 2120.34400 1945.16360    0.13870    1.83690
 5014.00000    0.06140   56.13460  100.24580   33.80230   34.99640   29.46670    9.09020    0.00950    4.35320    4.51920    3.88850    0.28400    2.61530    2.25500    0.05840 2144.57350 2116.04910 1944.49430    0.16570    1.82390
 5014.50000    0.05040   56.39520  101.17900   32.96490   33.17540   31.05710    9.11950    0.00950    8.51400    6.88470    3.82670    0.28300    2.63850    4.18070    0.06030 2155.42310 2111.75390 1943.82500    0.15780    1.81380
 5015.00000    0.02110   56.34040  102.11210   32.60320   31.71640   32.04970    9.12520    0.01290   12.67480    9.25030    3.76480    0.28500    2.66180   10.83270    0.06220 2155.42310 2107.45900 1943.15580    0.15000    1.82370
 5015.50000    0.02090   56.28550  103.11300   34.84070   33.88320   32.79820    9.13080    0.01730   12.23560    9.42180    3.77290    0.28700    2.68510    7.94250    0.06450 2155.42310 2108.71850 1942.48650    0.15620    1.83110
 5016.00000    0.03610   56.57600  105.09080   40.59140   39.31180   34.65670    9.13640    0.02210    5.86830    4.74820    3.78660    0.28900    2.65700    2.87690    0.07050 2155.42310 2118.30980 1941.81730    0.19090    1.83850
 5016.50000    0.08060   58.01130  106.80500   45.24510   44.74040   36.98570    9.14290    0.02320    3.32190    2.87920    3.81680    0.29070    2.61020    1.78090    0.07650 2155.42310 2127.90090 1941.14790    0.16820    1.84450
 5017.00000    0.09430   58.52930  106.83940   46.36800   44.73360   37.32070    9.15890    0.01810    5.21450    3.89670    3.95750    0.29060    2.56340    2.53050    0.07780 2155.42310 2181.16800 1940.47880    0.11820    1.84440
 5017.50000    0.06480   57.28910  105.27240   41.60020   42.62730   34.98140    9.17500    0.01020   23.10540    5.09560    4.26740    0.29060    2.55300   23.12240    0.07410 2145.74270 2183.69870 1939.80940    0.07890    1.84730
 5018.00000    0.00920   53.84150  100.94050   38.47740   39.12440   29.63190    9.19110    0.00300   63.25400  502.09830    4.89260    0.29060    2.62450  118.42810    0.05480 2137.46440 2186.22970 1939.14030    0.03970    1.85200
 5018.50000   -0.01490   52.31620   96.90190   35.79710   35.62160   27.34420    9.20720   -0.00630  460.94320  999.10090    5.18470    0.29530    2.71380 2005.71520    0.03730 2150.95430 2188.76050 1938.47090    0.00040    1.86170
 5019.00000   -0.02580   50.09620   93.49450   34.67410   34.67140   26.03350    9.22330   -0.01400 1394.94340 1559.64180    5.32670    0.30290    2.76740 2006.19410    0.02030 2150.95430 2191.29150 1937.80180   -0.00690    1.86990
 5019.50000   -0.02220   49.89320   93.98940   33.32960   33.08920   26.36420    9.23940   -0.02130 1473.17070 1833.96980    5.26400    0.30450    2.76740 2006.67300    0.01700 2150.95430 2190.77910 1937.13240   -0.00760    1.87650
 5020.00000   -0.01910   51.85210   96.50370   33.76850   32.11960   28.28080    9.25540   -0.02910 1072.62670 1059.18230    5.06210    0.30130    2.74860 2007.15210    0.01740 2150.95430 2180.96240 1936.46310    0.00140    1.86750
 5020.50000   -0.01060   52.86860   99.01810   35.75780   35.37120   30.19740    9.27150   -0.03080  233.76700   32.62760    4.79010    0.29660    2.70160  222.33040    0.03770 2150.95430 2165.09910 1935.79390    0.02840    1.86090
 5021.00000    0.00210   53.74770  100.34110   38.61520   38.83820   31.82790    9.28760   -0.02710   42.05740   20.37840    4.55070    0.29720    2.65460    8.95270    0.04490 2150.95430 2168.33910 1935.12460    0.06730    1.86500
 5021.50000    0.02630   54.21000  100.58590   41.30070   41.16880   32.03570    9.30500   -0.01070   12.13540    8.12920    4.23710    0.29710    2.65500    5.70430    0.04820 2150.95430 2143.89890 1934.45530    0.09840    1.86990
 5022.00000    0.04090   54.98130  100.49490   41.47440   41.73120   31.21830    9.32560   -0.00280    6.26160   10.84440    4.00690    0.29680    2.67720    5.60490    0.04910 2150.95430 2143.84380 1933.78610    0.09230    1.86720
 5022.50000    0.03290   54.04480   99.93690   38.25210   38.59700   29.86960    9.34480   -0.00010   25.13590   23.75890    3.95040    0.29650    2.69930   26.58820    0.04670 2150.95430 2149.88480 1933.11680    0.06200    1.86170
 5023.00000   -0.00080   53.07900   97.65850   34.60460   33.57460   27.97560    9.35710    0.00270   44.01030   36.67350    4.02550    0.29600    2.72140   70.34290    0.03890 2176.00560 2179.32130 1932.44760    0.04190    1.85160
 5023.50000   -0.02280   52.00280   95.68520   29.39320   28.49640   25.68950    9.36480    0.00540   59.64420   49.58800    4.10070    0.29540    2.74360   65.14100    0.03100 2190.99880 2167.12620 1931.77830    0.03220    1.84770
 5024.00000   -0.03510   51.67900   93.71200   26.12760   26.72950   24.00990    9.37250    0.01010   60.71790   62.50260    4.05230    0.29500    2.75970   54.28190    0.02630 2205.99170 2154.93070 1931.10900    0.03220    1.84390
 5024.50000   -0.03630   51.00560   92.90870   25.77660   26.00840   22.52830    9.38020    0.01780   47.71810   63.62770    3.92620    0.29150    2.76000   69.75120    0.02400 2201.09990 2142.73540 1930.42860    0.04480    1.84000
 5025.00000   -0.02370   51.05760   93.23020   26.71120   26.88160   22.77660    9.38780    0.01720   32.15670   48.54520    3.81540    0.28960    2.74700   41.95560    0.02520 2182.95140 2130.54000 1929.73140    0.06590    1.83610
 5025.50000   -0.00800   51.88710   95.09360   27.95410   28.02660   24.36870    9.39570    0.01400   16.59530   26.26150    3.74680    0.28760    2.72070   10.39910    0.03370 2164.80300 2118.34450 1929.03420    0.08710    1.83180
 5026.00000    0.00790   53.55530   97.23450   31.04800   29.67460   28.96880    9.40360    0.01130    9.44370    8.27870    3.70860    0.28570    2.69440    8.52350    0.04440 2146.65480 2106.14920 1928.33700    0.10820    1.82580
 5026.50000    0.02430   55.25450   99.37540   32.38000   32.39200   32.38210    9.41150    0.01030    7.89870    7.49980    3.71630    0.28480    2.66800    7.76690    0.05810 2136.82960 2101.37180 1927.63980    0.12930    1.81980
 5027.00000    0.03460   56.27000  101.51630   31.75120   31.26200   33.04910    9.41950    0.00930    7.75420    7.03140    3.72390    0.28210    2.65230    5.88660    0.06390 2160.29860 2126.26680 1926.94260    0.13770    1.80200
 5027.50000    0.03290   56.58640  101.00530   28.61540   27.85220   30.66060    9.42740    0.00860    8.81510    7.35460    3.73150    0.28030    2.67460    4.93440    0.06600 2178.91090 2151.16160 1926.24520    0.12900    1.79910
