~Version ---------------------------------------------------
VERS.   2.0 : CWLS log ASCII Standard -VERSION 2.0
WRAP.    NO : One line per depth step
DLM . SPACE : Column Data Section Delimiter
~Well ------------------------------------------------------
STRT .FT                 408.0 : START DEPTH
STOP .FT                5705.0 : STOP DEPTH
STEP .FT                   0.5 : STEP
NULL .                -9999.25 : NULL VALUE
COMP .                         : COMPANY
WELL .                         : WELL
FLD  .                         : FIELD
LOC  .                         : LOCATION
PROV .                         : PROVINCE
CNTY .                         : COUNTY
STAT .                         : STATE
CTRY .                         : COUNTRY
SRVC .                         : SERVICE COMPANY
DATE .                         : DATE
UWI  .                         : UNIQUE WELL ID
API  .                         : API NUMBER
SLAT .WGS84 1.4511292693435998 : SURFACE LATITUDE
SLON .WGS84  7.402666333495006 : SURFACE LONGITUDE
DATUM.F                2449.11 : DEPTH DATUM ELEV
~Curve Information -----------------------------------------
DEPT   .FT        : DEPTH FEET
DPHZ_LS.DEC       : DENSITY POROSITY LIMESTONE [M=2.71, F=1] FROM CNL-LDT LOG
DTCO   .US/F      : DELTA TIME FROM DAC LOG
DTSM   .US/F      : DELTA TIME FROM DAC LOG
GRD    .GAPI      : GAMMA RAY FROM CNL-LDT LOG
GRR    .GAPI      : GAMMA RAY FROM ALAT-MCFL LOG
GRS    .GAPI      : GAMMA RAY FROM DAC LOG
HCALR  .IN        : HRCC CALIPER FROM ALAT-MCFL LOG
HDRA   .G/C3      : DENSITY CORRECTION FROM CNL-LDT LOG
HLLD   .OHMM      : DEEP LATEROLOG RESISTIVITY FROM ALAT-MCFL LOG
HLLS   .OHMM      : SHALLOW LATEROLOG RESISTIVITY FROM ALAT-MCFL LOG
PEFZ   .B/E       : PHOTOELECTRIC FACTOR STANDARD RESOLUTION FROM CNL-LDT LOG
PR     .UNITLESS  : POISSON RATIO FROM DAC LOG
RHOB   .G/C3      : BULK DENSITY FROM CNL-LDT LOG
RXOZ   .OHMM      : STANDARD RESOLUTION INVADED ZONE RESISTIVITY FROM ALAT-MCFL LOG
SPHI_LS.DEC       : SONIC POROSITY LIMESTONE [DTM=47.6, DTF=189] FROM DAC LOG
TEND   .LB        : TENSION FROM CNL-LDT LOG
TENR   .LB        : TENSION FROM FROM ALAT-MCFL LOG
TENS   .LB        : TENSION FROM DAC LOG
TNPH_LS.DEC       : THERMAL NEUTRON POROSITY LIMESTONE FROM CNL-LDT LOG
VPVS   .UNITLESS  : RATIO OF COMPRESSIONAL TO SHEAR VELOCITIES FROM DAC LOG
~Params ----------------------------------------------------
~Other -----------------------------------------------------
~ASCII -----------------------------------------------------
# ...
 5185.50000   -0.00970   52.37260   95.32380   48.54580   49.86970   37.55810    8.99560    0.01680  131.62080   87.93430    4.36460    0.29070    2.72860   50.96080    0.03440 2170.89090 2115.28200 1956.38400    0.03720    1.84360
 5186.00000   -0.01780   52.46470   94.98630   45.62510   45.95680   36.69240    8.99180    0.00540  523.39430  289.16260    4.51460    0.28520    2.73180  476.95460    0.03640 2164.96850 2115.28200 1956.38400    0.03630    1.81050
 5186.50000   -0.02820   52.98730   94.64870   43.63470   43.71730   36.35890    8.98810   -0.00370  527.88400  548.38020    4.66470    0.28090    2.74370  837.60900    0.04140 2159.04640 2115.28200 1956.38400    0.03630    1.80060
 5187.00000   -0.03450   52.33970   93.73250   44.00760   43.69910   37.77760    8.98430   -0.00030  442.33570  473.97570    4.68590    0.27900    2.75960  406.11380    0.03450 2153.12430 2115.28200 1956.38400    0.03470    1.81620
 5187.50000   -0.04100   51.22090   92.88200   44.01060   44.34420   38.81160    8.98050    0.00790  390.96570  497.35520    4.63660    0.28300    2.76790  420.89540    0.02750 2148.38650 2115.28200 1956.38400    0.03230    1.82430
 5188.00000   -0.05070   50.48900   92.03140   44.08750   44.30920   37.66700    8.97680    0.01620  492.18890  598.27640    4.55560    0.28700    2.78100  621.32370    0.02270 2149.10740 2115.28200 1956.38400    0.02760    1.83250
 5188.50000   -0.05500   50.26120   91.18090   42.37540   43.25090   36.45070    8.97300    0.01740  517.29610  592.38710    4.47460    0.29100    2.79590 1444.92830    0.01900 2154.16530 2133.81100 1956.38400    0.01480    1.84060
 5189.00000   -0.05460   50.26330   90.82270   39.89320   41.39290   35.37710    8.96930    0.02360  348.73950  361.77640    4.45350    0.29180    2.79590  517.42010    0.01950 2165.03130 2156.02080 1956.38400    0.00960    1.84060
 5189.50000   -0.05060   50.26700   91.68120   36.96010   38.41290   33.68920    8.96550    0.02600  220.30960  262.21510    4.41590    0.29180    2.79590  250.43840    0.02000 2175.89720 2178.23050 1956.38400    0.01390    1.84060
 5190.00000   -0.04690   50.49790   92.77660   34.13920   35.43290   31.42820    8.93430    0.02530  216.23660  226.29490    4.36510    0.28880    2.79390  319.68090    0.02050 2186.76320 2178.23510 1956.38400    0.01930    1.83980
 5190.50000   -0.03650   51.31150   93.43430   32.81620   33.00650   29.56980    8.89750    0.02420  186.91990  195.05750    4.28690    0.28500    2.77250  281.67920    0.02910 2197.62890 2199.68600 1956.38400    0.03550    1.82750
 5191.00000   -0.02070   52.45200   93.43540   31.76010   31.21720   28.14290    8.89580    0.02760  134.69220  126.43980    4.19180    0.27900    2.75110  106.60910    0.03380 2203.90330 2204.90330 1956.38400    0.05880    1.80300
 5191.50000   -0.00560   52.95150   93.76250   29.95280   29.23490   27.36350    8.89410    0.03210   92.91010   71.54230    4.08320    0.27550    2.72960   74.63880    0.03900 2197.57150 2187.76610 1956.38400    0.07280    1.80290
 5192.00000   -0.00460   53.14360   94.66000   28.74250   28.14010   25.58720    8.89240    0.03660  116.53960   75.52750    3.97470    0.27490    2.70820   57.87650    0.04000 2191.23970 2170.62840 1956.38400    0.07840    1.80380
 5192.50000   -0.01670   53.33560   95.05120   30.48530   28.81400   23.92970    8.87870    0.03690  106.02160   79.01830    3.93040    0.27690    2.71660   69.98920    0.04260 2198.14330 2153.49100 1956.38400    0.08030    1.80470
 5193.00000   -0.02850   53.55690   95.23430   34.32110   33.07460   25.34310    8.86200    0.02960   85.38650   70.80350    3.97430    0.28070    2.73130   79.67580    0.04310 2177.92310 2136.35350 1956.38400    0.08360    1.80550
 5193.50000   -0.02370   53.30850   95.41750   38.79010   37.32170   30.50850    8.84220    0.02450   52.26670   57.34160    3.98570    0.28450    2.74600   47.71980    0.04160 2156.72270 2126.07100 1956.38400    0.08680    1.80580
 5194.00000   -0.00590   53.03340   95.60060   40.61710   40.87820   34.87940    8.82180    0.01950   32.39140   49.25960    3.98420    0.28830    2.75190   22.15390    0.03800 2131.60060 2126.07100 1956.38400    0.08630    1.83510
 5194.50000   -0.00450   52.91220   96.36410   39.13990   40.76150   36.10300    8.81760    0.01660   50.90550   49.24770    4.00880    0.28960    2.71500   25.09510    0.03920 2121.30710 2126.46070 1956.38400    0.05480    1.83490
 5195.00000   -0.01820   53.36550   96.82650   37.30440   38.06410   34.15960    8.81350    0.01520  123.19460  113.36100    4.13770    0.28870    2.71730   68.84590    0.04340 2134.83150 2126.46070 1956.38400    0.04820    1.82800
 5195.50000   -0.02740   53.91870   98.04050   37.68240   37.20300   32.49390    8.80510    0.01370  228.49270  177.47430    4.27170    0.28780    2.73480  275.99420    0.04950 2152.04320 2126.46070 1956.38400    0.04590    1.82770
 5196.00000   -0.01930   54.35080   98.46980   39.09370   38.18760   31.98420    8.79390    0.01220  273.05020  169.04040    4.40700    0.28690    2.75390  396.64120    0.05250 2169.25440 2148.69680 1956.38400    0.05520    1.82730
 5196.50000   -0.00180   54.78280   98.67950   37.11170   38.62410   30.51930    8.78280    0.01080   90.93930   62.86700    4.48080    0.28600    2.75390   14.31060    0.05400 2186.46610 2158.74460 1956.38400    0.05330    1.82690
 5197.00000   -0.01240   55.03490   97.97940   33.25520   35.22880   27.55920    8.77170    0.00770   18.25680   20.39430    4.45780    0.28130    2.72820   14.30650    0.05490 2196.54810 2172.25270 2002.03770    0.02300    1.80800
 5197.50000   -0.06540   54.85810   99.20320   28.80650   29.62830   24.07020    8.77170    0.00370   30.26330  211.84030    4.51310    0.27830    2.71470   15.24050    0.05250 2190.21630 2199.60130 2000.87440    0.00710    1.81090
 5198.00000   -0.09620   53.62540   95.22110   23.34490   25.65420   20.18760    8.76510   -0.00020  619.70340  530.92080    4.62120    0.27760    2.82400  211.88310    0.04160 2183.88430 2194.42550 1999.71110   -0.00990    1.81380
 5198.50000   -0.10120   52.12360   93.62540   16.92170   19.93340   15.42090    8.74940   -0.00420 1352.80320  850.00130    4.76460    0.28230    2.95930  921.87680    0.03240 2194.83200 2168.88530 1998.54760   -0.01700    1.81670
 5199.00000   -0.16580   51.06820   92.36620   13.08340   14.84640   11.81400    8.73370   -0.00820 2085.90310 1395.41060    4.92990    0.28710    2.98640 1308.76200    0.02640 2171.48320 2143.34470 1997.38420   -0.01830    1.81960
 5199.50000   -0.17360   51.09630   91.10690   11.68890   11.40670    9.66770    8.71790   -0.01210 59433.43750 1940.82010    4.98650    0.27870    2.98140 2042.41380    0.02710 2148.13430 2128.02050 1996.22080   -0.01420    1.80640
 5200.00000   -0.16860   51.23200   90.30230   16.33860   10.71670    9.46930    8.69920   -0.01550 24998.32420 2049.74000    4.82500    0.27640    2.95680 2031.52160    0.02780 2114.93260 2128.02050 1995.05750   -0.00220    1.80760
 5200.50000   -0.14400   50.25300   90.18000   22.99780   18.46210   12.79940    8.67590   -0.01240 1936.81020 1248.16630    4.62860    0.27920    2.93220 1040.27510    0.01940 2130.65990 2128.02050 1993.89400    0.01140    1.81910
 5201.00000   -0.11930   49.72670   90.05760   27.51540   24.77040   16.12950    8.65250   -0.00720  229.21910  246.70110    4.35690    0.28410    2.90760  275.34500    0.01610 2130.42580 2128.02050 1992.73070    0.02510    1.83140
 5201.50000   -0.09960   50.28870   90.03320   28.87250   28.14110   18.30450    8.64320   -0.00200  184.20190  233.34720    4.07420    0.28320    2.88290  218.45310    0.01880 2130.42580 2128.02050 1991.56730    0.03880    1.82170
 5202.00000   -0.07900   50.67370   90.72910   28.65030   27.53890   20.33360    8.63390    0.00110  139.18470  164.11560    3.97030    0.27870    2.85830  165.28490    0.02290 2130.42580 2128.02050 1990.40390    0.04130    1.81610
 5202.50000   -0.08440   50.90960   91.53320   27.44520   26.93660   21.95690    8.62460   -0.00130   94.16750   94.88410    3.86650    0.27930    2.84250   79.21420    0.02520 2130.42580 2128.02050 1989.24060    0.04270    1.80200
