~Version ---------------------------------------------------
VERS.   2.0 : CWLS log ASCII Standard -VERSION 2.0
WRAP.    NO : One line per depth step
DLM . SPACE : Column Data Section Delimiter
~Well ------------------------------------------------------
STRT .FT                 408.0 : START DEPTH
STOP .FT                5705.0 : STOP DEPTH
STEP .FT                   0.5 : STEP
NULL .                -9999.25 : NULL VALUE
COMP .                         : COMPANY
WELL .                         : WELL
FLD  .                         : FIELD
LOC  .                         : LOCATION
PROV .                         : PROVINCE
CNTY .                         : COUNTY
STAT .                         : STATE
CTRY .                         : COUNTRY
SRVC .                         : SERVICE COMPANY
DATE .                         : DATE
UWI  .                         : UNIQUE WELL ID
API  .                         : API NUMBER
SLAT .WGS84 1.4511292693435998 : SURFACE LATITUDE
SLON .WGS84  7.402666333495006 : SURFACE LONGITUDE
DATUM.F                2449.11 : DEPTH DATUM ELEV
~Curve Information -----------------------------------------
DEPT   .FT        : DEPTH FEET
DPHZ_LS.DEC       : DENSITY POROSITY LIMESTONE [M=2.71, F=1] FROM CNL-LDT LOG
DTCO   .US/F      : DELTA TIME FROM DAC LOG
DTSM   .US/F      : DELTA TIME FROM DAC LOG
GRD    .GAPI      : GAMMA RAY FROM CNL-LDT LOG
GRR    .GAPI      : GAMMA RAY FROM ALAT-MCFL LOG
GRS    .GAPI      : GAMMA RAY FROM DAC LOG
HCALR  .IN        : HRCC CALIPER FROM ALAT-MCFL LOG
HDRA   .G/C3      : DENSITY CORRECTION FROM CNL-LDT LOG
HLLD   .OHMM      : DEEP LATEROLOG RESISTIVITY FROM ALAT-MCFL LOG
HLLS   .OHMM      : SHALLOW LATEROLOG RESISTIVITY FROM ALAT-MCFL LOG
PEFZ   .B/E       : PHOTOELECTRIC FACTOR STANDARD RESOLUTION FROM CNL-LDT LOG
PR     .UNITLESS  : POISSON RATIO FROM DAC LOG
RHOB   .G/C3      : BULK DENSITY FROM CNL-LDT LOG
RXOZ   .OHMM      : STANDARD RESOLUTION INVADED ZONE RESISTIVITY FROM ALAT-MCFL LOG
SPHI_LS.DEC       : SONIC POROSITY LIMESTONE [DTM=47.6, DTF=189] FROM DAC LOG
TEND   .LB        : TENSION FROM CNL-LDT LOG
TENR   .LB        : TENSION FROM FROM ALAT-MCFL LOG
TENS   .LB        : TENSION FROM DAC LOG
TNPH_LS.DEC       : THERMAL NEUTRON POROSITY LIMESTONE FROM CNL-LDT LOG
VPVS   .UNITLESS  : RATIO OF COMPRESSIONAL TO SHEAR VELOCITIES FROM DAC LOG
~Params ----------------------------------------------------
~Other -----------------------------------------------------
~ASCII -----------------------------------------------------
# ...
 5098.00000   -0.06490   51.75090   92.55420   33.63170   33.88030   30.13000    9.26400    0.00050  255.26450  219.24320    3.80740    0.28700    2.79870  288.21550    0.02870 2129.17580 2081.48730 1964.96000    0.04780    1.83190
 5098.50000   -0.06400   52.19170   94.05230   31.68370   32.24940   31.01220    9.26280    0.00490  255.19130  113.55930    3.82180    0.28770    2.81140  298.27910    0.03330 2144.93410 2125.49050 1964.96000    0.05780    1.83350
 5099.00000   -0.04690   53.07540   96.10860   28.44570   28.32360   30.90540    9.26150    0.01160  147.89050   35.37870    3.79330    0.28770    2.81090   74.99800    0.04010 2151.23730 2140.52080 1964.96000    0.07220    1.83090
 5099.50000   -0.02880   53.94190   97.39800   24.99310   25.37840   29.15710    9.26020    0.01370   40.58970   24.69140    3.74120    0.28050    2.80440   21.08010    0.05060 2151.23730 2155.55100 1964.96000    0.08660    1.81530
 5100.00000   -0.01490   54.50820   98.17590   22.97420   23.87430   26.45020    9.25900    0.01370   19.09590   20.38280    3.63420    0.27330    2.77900   18.71990    0.05680 2151.23730 2170.58130 1964.96000    0.09820    1.79710
 5100.50000   -0.01830   55.94100   98.95390   24.01530   24.23250   23.10330    9.25770    0.01370   22.90740   21.00020    3.55620    0.27150    2.76510   17.45920    0.06170 2151.23730 2166.05030 1964.96000    0.09840    1.79380
 5101.00000   -0.02400   55.68720   99.73190   28.30770   28.08700   24.11660    9.25650    0.01660   27.45580   24.11080    3.45250    0.27970    2.74560   17.53290    0.05870 2151.23730 2161.51930 1964.96000    0.09840    1.81680
 5101.50000   -0.02260   54.95390  102.07660   36.28210   36.10100   29.78950    9.26280    0.02090   32.00430   27.22140    3.36990    0.28220    2.73070   21.65500    0.05810 2151.23730 2156.98830 1964.96000    0.10870    1.83310
 5102.00000   -0.01200   56.71910  104.13430   48.29000   44.44600   38.22700    9.26840    0.02190   35.64120   30.33200    3.34840    0.28480    2.69790   28.39410    0.06780 2151.23730 2152.45730 1964.96000    0.13330    1.83620
 5102.50000    0.01450   58.62280  106.23860   51.88580   53.75520   47.26550    9.26570    0.02100   15.87070   22.94850    3.36340    0.28680    2.66520   12.64980    0.08150 2151.23730 2147.92630 1964.96000    0.15800    1.82980
 5103.00000    0.04090   59.50370  107.48210   47.56170   50.93020   46.20200    9.26290    0.02190    7.34750   13.37630    3.40280    0.28690    2.63240    3.41730    0.08870 2151.23730 2143.39530 1964.96000    0.18270    1.82340
 5103.50000    0.06210   60.52840  108.47700   38.13760   38.82180   37.84400    9.26020    0.02420    4.08280    3.80410    3.44230    0.28660    2.61260    2.91510    0.09260 2151.23730 2139.17630 1964.96000    0.19260    1.81700
 5104.00000    0.04960   60.95650  108.87670   29.72660   30.82550   27.32840    9.25750    0.02350    6.38430    6.31690    3.48170    0.28780    2.61570    4.01410    0.09650 2151.23730 2129.84590 1964.96000    0.16980    1.82170
 5104.50000    0.02940   60.61720  108.82430   24.74620   25.15240   20.46300    9.25480    0.01570    7.53660    6.37220    3.52110    0.28900    2.62960    6.08640    0.09450 2174.87500 2125.16160 1964.96000    0.14700    1.82280
 5105.00000    0.03070   59.99480  108.41020   26.08200   25.62640   19.02350    9.25210    0.01550    6.39570    5.77140    3.52890    0.29020    2.66940    3.83240    0.08900 2184.04960 2141.53270 1964.96000    0.14500    1.83170
 5105.50000    0.04480   59.30550  108.69880   29.91750   28.51890   21.08240    9.23040    0.01620    5.25480    5.02090    3.47040    0.29010    2.66040    3.47890    0.08500 2193.22410 2167.29470 1964.96000    0.15570    1.83700
 5106.00000    0.06340   59.54480  109.46210   36.09700   32.77650   24.91110    9.18000    0.01690    4.97460    4.71980    3.41190    0.28810    2.63800    3.60060    0.08600 2202.39840 2167.29470 1964.96000    0.16640    1.83360
 5106.50000    0.07040   60.71640  111.01470   38.76130   38.79000   28.70490    9.12970    0.01600    6.52680    5.75700    3.38130    0.28690    2.61550    3.99050    0.09500 2211.57300 2167.29470 1964.96000    0.17650    1.82820
 5107.00000    0.07310   62.03460  113.75150   40.20000   41.93510   31.87360    9.07940    0.01360    6.52460    6.25110    3.37180    0.28760    2.59540    4.05940    0.10690 2218.91260 2168.02250 1964.96000    0.18200    1.81700
 5107.50000    0.07490   63.57930  115.62160   37.17140   38.54160   32.91200    9.02910    0.01220    5.66060    5.11740    3.39500    0.28830    2.58470    3.72110    0.11880 2204.43040 2156.97240 1964.96000    0.18960    1.82050
 5108.00000    0.08200   64.00380  116.19160   33.61890   34.37650   32.77960    8.97870    0.01020    4.79660    3.98360    3.42400    0.28900    2.57410    3.46290    0.12040 2185.82540 2145.92210 1964.96000    0.19270    1.82840
 5108.50000    0.09270   63.93750  116.76170   33.96210   32.70610   32.29110    8.92840    0.01090    4.10510    3.75580    3.43280    0.28970    2.56510    3.31910    0.11990 2206.92870 2134.87180 1964.96000    0.19020    1.83630
 5109.00000    0.09920   64.01760  117.33170   37.94410   33.09270   33.48820    8.91700    0.01370    4.87760    4.53710    3.43640    0.29150    2.55610    3.68030    0.12120 2192.91990 2123.82150 1964.96000    0.18950    1.84410
 5109.50000    0.09500   64.26160  117.19540   42.86310   43.31070   35.71700    8.91190    0.01660    6.62410    5.47130    3.44010    0.29320    2.56180    4.58560    0.12310 2173.70530 2096.60550 1964.96000    0.19270    1.84800
 5110.00000    0.08470   63.71120  115.99970   45.97700   46.09620   38.18970    8.90670    0.02580    7.84030    6.40560    3.44380    0.29140    2.57600    5.52560    0.11740 2146.68160 2091.91580 1964.96000    0.19390    1.84910
 5110.50000    0.08050   62.76990  114.80400   43.04570   43.99420   37.97180    8.90160    0.02580    6.93530    5.77060    3.44740    0.28960    2.58170    5.43210    0.10530 2132.95630 2087.22610 1985.60520    0.18940    1.85030
 5111.00000    0.08200   61.95370  111.02080   37.66810   40.29710   34.89180    8.89810    0.02030    6.21090    5.46640    3.45110    0.28780    2.58170    4.25740    0.09910 2139.17800 2082.53640 1982.11320    0.17580    1.83380
 5111.50000    0.08250   60.26110  106.57640   32.97490   34.22360   30.88780    8.89690    0.02140    6.92140    7.08080    3.52820    0.28370    2.58170    5.05360    0.08840 2145.39990 2077.84670 1978.62120    0.13800    1.81290
 5112.00000    0.04570   57.81530   99.27470   30.40100   29.97790   27.21540    8.90650    0.02400   40.70030    8.69520    3.64850    0.28320    2.58340   26.53090    0.06740 2151.62180 2075.77050 1975.12920    0.09230    1.81660
 5112.50000    0.01010   54.96540   96.14960   29.52270   29.97070   25.40300    8.91880    0.02450  136.76900   52.26800    3.79930    0.28550    2.63560  137.64060    0.04460 2157.84380 2077.61550 1971.63720    0.04590    1.83110
 5113.00000   -0.01320   52.11550   96.13930   30.10640   31.02650   25.91440    8.93110    0.01550   93.23670   65.63610    3.99230    0.29110    2.72050  544.34310    0.03330 2164.06570 2079.46020 1968.14530    0.04390    1.85390
 5113.50000   -0.00880   51.60490   98.33000   31.36790   32.32520   27.55580    8.94340    0.00920   38.82890   27.49600    4.20870    0.29670    2.72670   21.51200    0.03120 2165.19240 2081.30490 1964.65330    0.04350    1.86140
 5114.00000    0.00100   52.40530   99.84880   31.57240   33.09730   29.82510    8.95570    0.00260   29.79880   29.71910    4.33850    0.30220    2.69980   13.24040    0.04050 2162.92260 2083.14970 1961.16130    0.05020    1.86890
 5114.50000    0.01650   54.64270  101.26320   30.09740   31.15420   30.72880    8.96810    0.00600   56.58550   35.28860    4.24280    0.30030    2.68370   12.93520    0.05650 2160.65280 2084.99440 1957.66930    0.04830    1.86580
 5115.00000    0.00390   55.42060  101.87490   28.62250   27.87440   28.45260    8.96540    0.01050  162.68700  117.41440    4.13800    0.29860    2.70520  525.14590    0.05650 2158.38310 2086.83940 1954.17720    0.03880    1.86680
