~Version ---------------------------------------------------
VERS.   2.0 : CWLS log ASCII Standard -VERSION 2.0
WRAP.    NO : One line per depth step
DLM . SPACE : Column Data Section Delimiter
~Well ------------------------------------------------------
STRT .FT                 408.0 : START DEPTH
STOP .FT                5705.0 : STOP DEPTH
STEP .FT                   0.5 : STEP
NULL .                -9999.25 : NULL VALUE
COMP .                         : COMPANY
WELL .                         : WELL
FLD  .                         : FIELD
LOC  .                         : LOCATION
PROV .                         : PROVINCE
CNTY .                         : COUNTY
STAT .                         : STATE
CTRY .                         : COUNTRY
SRVC .                         : SERVICE COMPANY
DATE .                         : DATE
UWI  .                         : UNIQUE WELL ID
API  .                         : API NUMBER
SLAT .WGS84 1.4511292693435998 : SURFACE LATITUDE
SLON .WGS84  7.402666333495006 : SURFACE LONGITUDE
DATUM.F                2449.11 : DEPTH DATUM ELEV
~Curve Information -----------------------------------------
DEPT   .FT        : DEPTH FEET
DPHZ_LS.DEC       : DENSITY POROSITY LIMESTONE [M=2.71, F=1] FROM CNL-LDT LOG
DTCO   .US/F      : DELTA TIME FROM DAC LOG
DTSM   .US/F      : DELTA TIME FROM DAC LOG
GRD    .GAPI      : GAMMA RAY FROM CNL-LDT LOG
GRR    .GAPI      : GAMMA RAY FROM ALAT-MCFL LOG
GRS    .GAPI      : GAMMA RAY FROM DAC LOG
HCALR  .IN        : HRCC CALIPER FROM ALAT-MCFL LOG
HDRA   .G/C3      : DENSITY CORRECTION FROM CNL-LDT LOG
HLLD   .OHMM      : DEEP LATEROLOG RESISTIVITY FROM ALAT-MCFL LOG
HLLS   .OHMM      : SHALLOW LATEROLOG RESISTIVITY FROM ALAT-MCFL LOG
PEFZ   .B/E       : PHOTOELECTRIC FACTOR STANDARD RESOLUTION FROM CNL-LDT LOG
PR     .UNITLESS  : POISSON RATIO FROM DAC LOG
RHOB   .G/C3      : BULK DENSITY FROM CNL-LDT LOG
RXOZ   .OHMM      : STANDARD RESOLUTION INVADED ZONE RESISTIVITY FROM ALAT-MCFL LOG
SPHI_LS.DEC       : SONIC POROSITY LIMESTONE [DTM=47.6, DTF=189] FROM DAC LOG
TEND   .LB        : TENSION FROM CNL-LDT LOG
TENR   .LB        : TENSION FROM FROM ALAT-MCFL LOG
TENS   .LB        : TENSION FROM DAC LOG
TNPH_LS.DEC       : THERMAL NEUTRON POROSITY LIMESTONE FROM CNL-LDT LOG
VPVS   .UNITLESS  : RATIO OF COMPRESSIONAL TO SHEAR VELOCITIES FROM DAC LOG
~Params ----------------------------------------------------
~Other -----------------------------------------------------
~ASCII -----------------------------------------------------
# ...
 5238.00000   -0.10060   52.01880   95.79270   54.79340   64.43780   45.28660    8.55970    0.01900  202.24820  229.27360    3.95380    0.28530    2.85860  240.36080    0.03460 2198.73510 2137.81370 1946.70980    0.03820    1.81110
 5238.50000   -0.09890   52.39370   95.78750   69.26790   71.42410   58.31220    8.55970    0.01900   35.55380   67.09800    3.99990    0.28730    2.84360   30.25240    0.03820 2198.73510 2139.75950 1946.70980    0.04760    1.83310
 5239.00000   -0.07070   52.76850   95.78230   68.96320   63.32950   65.82240    8.55970    0.01900   35.22530   34.65790    3.99860    0.28620    2.83340   28.90890    0.03850 2198.73510 2142.42990 1946.70980    0.05410    1.82500
 5239.50000   -0.06740   52.71550   93.99040   55.73230   51.68370   60.26650    8.56520    0.02200  132.47020   51.28010    3.97880    0.28330    2.82450   47.76790    0.03520 2198.73510 2146.18700 1946.70980    0.04940    1.81400
 5240.00000   -0.06890   52.04230   92.19850   45.25580   40.57350   42.40530    8.55880    0.02550  254.02890  286.57540    3.95900    0.27640    2.81560  288.25900    0.03100 2198.73510 2149.94380 1946.70980    0.03960    1.79670
 5240.50000   -0.06570   51.12870   90.40650   37.47390   36.16980   35.14070    8.55240    0.02900  508.69090  575.49890    3.93910    0.27070    2.80670  582.97910    0.02800 2198.73510 2153.70070 1946.70980    0.03360    1.78040
 5241.00000   -0.05860   51.03160   89.68980   33.62290   33.26610   30.84210    8.54600    0.03160  852.08840  864.42240    3.92740    0.27240    2.80180 1104.56340    0.02410 2198.73510 2157.45780 1946.70980    0.02760    1.77990
 5241.50000   -0.05510   50.83670   89.68740   31.88120   31.82190   29.67350    8.54340    0.03150 1054.87190 1105.65500    3.92770    0.27210    2.81180 1220.66200    0.02090 2198.73510 2159.71190 1946.70980    0.02250    1.78310
 5242.00000   -0.06420   50.19170   90.66640   30.76010   30.37760   28.89830    8.55600    0.03280 1036.41500 1126.28030    3.92800    0.27480    2.82130 1000.89520    0.01920 2198.73510 2159.71190 1946.70980    0.02110    1.78630
 5242.50000   -0.07480   50.39810   91.64540   30.21790   30.12000   27.94670    8.56100    0.03410  930.22690  992.77270    3.92830    0.27930    2.82870 1281.42370    0.02090 2198.73510 2158.18360 1946.70980    0.02350    1.78960
 5243.00000   -0.08100   51.13350   92.62440   31.74960   32.33390   28.88420    8.56100    0.02780 1000.45290 1039.14490    3.88990    0.27890    2.83610 1362.44530    0.02620 2198.73510 2177.31840 1946.70980    0.02850    1.79280
 5243.50000   -0.07610   51.69220   93.79980   34.24700   35.67390   31.06910    8.56110    0.02320  252.87660  556.71060    3.85530    0.27950    2.84050  624.59430    0.02900 2198.73510 2196.45290 1946.70980    0.03930    1.79770
 5244.00000   -0.05110   52.14380   95.10580   36.17090   36.93800   32.45080    8.56110    0.02090   40.08770   65.55200    3.77250    0.28390    2.81770  151.57540    0.03230 2198.73510 2196.19820 1946.70980    0.05620    1.80950
 5244.50000   -0.03030   52.36640   95.92130   35.94520   35.33640   30.75860    8.56110    0.01960   27.51660   44.19280    3.68960    0.28660    2.76050   31.11230    0.03590 2198.73510 2196.19820 1946.70980    0.08020    1.82120
 5245.00000   -0.01650   52.99770   97.35980   33.47970   30.41060   27.57710    8.56120    0.01720   25.90160   26.66180    3.58820    0.28660    2.73840   28.34010    0.03920 2198.73510 2193.08150 1946.70980    0.09950    1.82960
 5245.50000   -0.01890   54.50080   99.86060   30.72850   30.61040   25.76940    8.56890    0.01570   26.85760   29.18860    3.48220    0.28290    2.75610   25.56790    0.04760 2198.73510 2185.14500 1946.70980    0.09690    1.81180
 5246.00000   -0.03330   56.32150  102.17500   41.86490   48.64660   31.95320    8.57670    0.01440   25.46560   32.24610    3.41870    0.27940    2.77780   25.01430    0.07250 2198.73510 2177.20850 1946.70980    0.09590    1.79050
 5246.50000   -0.03930   58.87170  106.29880   54.82650   60.26110   43.57520    8.58450    0.01230   22.09710   24.30110    3.48360    0.28220    2.77690   23.87900    0.08250 2198.73510 2169.27220 1946.70980    0.11170    1.80390
 5247.00000   -0.03050   58.80170  108.06960   67.14310   69.60670   53.56030    8.59230    0.01060   18.72870   16.35610    3.58330    0.28940    2.74820   17.20290    0.08210 2198.73510 2161.33570 1946.70980    0.12750    1.82070
 5247.50000   -0.01800   58.16020  108.06400   66.17520   60.61740   52.80810    8.58510    0.00920   16.03390   25.39320    3.59080    0.29180    2.73680   14.27160    0.07470 2198.73510 2153.39940 2004.06770    0.14020    1.83870
 5248.00000   -0.01620   57.29920  101.01690   49.21210   46.14100   39.87370    8.58340    0.00780   32.65750   36.50350    3.55250    0.27520    2.73680   26.66860    0.06350 2198.73510 2151.30270 2004.06770    0.11420    1.81930
 5248.50000   -0.03340   55.56000   95.76070   35.91690   31.29120   29.60030    8.58550    0.00650   49.73050   47.61390    3.47210    0.26060    2.73780   39.06570    0.05230 2198.73510 2150.66630 2004.06770    0.08830    1.76060
 5249.00000   -0.05410   53.82080   92.89140   27.55600   24.76700   22.53140    8.58760    0.00850   56.60380   47.61920    3.37920    0.26070    2.75910   45.00930    0.04110 2198.73510 2165.16650 2004.06770    0.06870    1.75690
 5249.50000   -0.06640   52.08160   91.89100   24.17340   23.48700   20.05200    8.58980    0.01210   59.50540   46.34790    3.27610    0.26680    2.79300   45.66950    0.02980 2198.73510 2164.52980 2004.06770    0.05950    1.77920
 5250.00000   -0.07080   51.42420   92.80840   24.17340   23.72650   21.77720    8.59190    0.01310   61.53510   44.28020    3.23940    0.27280    2.82690   42.98720    0.02300 2204.04790 2151.04690 2004.06770    0.05950    1.80500
 5250.50000   -0.06780   50.76690   94.73350   26.24110   28.17260   23.93400    8.59400    0.01410   59.11790   39.91610    3.24130    0.27880    2.81500   38.71550    0.02020 2207.95000 2153.27390 2004.06770    0.06380    1.83080
 5251.00000   -0.05810   51.07430   96.65850   31.03110   35.57220   30.84410    8.59620    0.01640   53.80890   41.09940    3.24310    0.28480    2.79500   42.18000    0.02590 2211.85210 2155.50100 2004.06770    0.07140    1.85670
 5251.50000   -0.04520   52.20770   98.34700   38.94190   44.70490   38.40950    8.59830    0.01760   43.98800   39.01950    3.27050    0.28960    2.77510   37.24350    0.03460 2215.75420 2157.72800 2004.06770    0.08920    1.86440
 5252.00000   -0.03020   53.34110   97.53450   44.53470   46.52470   41.51180    8.60040    0.01280   27.39920   25.89160    3.33630    0.28950    2.75760   24.77660    0.04340 2219.65600 2159.95510 2004.06770    0.10960    1.84860
 5252.50000   -0.02160   54.07910   98.00710   41.09550   39.11650   45.14530    8.60260    0.00690   24.07980   23.26490    3.38050    0.28800    2.74370   24.55110    0.04550 2223.55810 2162.18240 2004.06770    0.11440    1.83440
 5253.00000   -0.01910   54.07830   96.69190   32.51800   26.68380   29.75290    8.60470    0.00100   47.38600   42.57120    3.39620    0.28310    2.74500   33.50420    0.04660 2227.46020 2164.40940 2004.06770    0.09810    1.81660
 5253.50000   -0.02110   54.07830   95.57240   23.55930   21.64700   19.72600    8.60680   -0.00020   76.51930   62.43970    3.42830    0.27590    2.75380   68.24190    0.04700 2212.12180 2166.63650 2004.06770    0.08180    1.79540
 5254.00000   -0.02920   54.07360   95.37740   20.35030   20.81310   18.41990    8.60890    0.00450  102.41910   78.41640    3.42940    0.26870    2.76580   93.16770    0.04580 2191.97340 2168.86350 2004.06770    0.06560    1.77340
 5254.50000   -0.03940   53.55180   95.85410   21.64780   25.60430   21.82160    8.61110    0.00940  115.38470   98.19790    3.47510    0.27370    2.76810   99.03940    0.04180 2187.51100 2171.09080 2004.06770    0.05580    1.79010
 5255.00000   -0.03560   53.18970   96.99750   30.86520   34.44280   33.54830    8.61590    0.01100  116.42490   88.83360    3.48250    0.27890    2.75440   71.66280    0.04190 2195.95630 2173.31790 2004.06770    0.06750    1.81090
