~Version ---------------------------------------------------
VERS.   2.0 : CWLS log ASCII Standard -VERSION 2.0
WRAP.    NO : One line per depth step
DLM . SPACE : Column Data Section Delimiter
~Well ------------------------------------------------------
STRT .FT                 408.0 : START DEPTH
STOP .FT                5705.0 : STOP DEPTH
STEP .FT                   0.5 : STEP
NULL .                -9999.25 : NULL VALUE
COMP .                         : COMPANY
WELL .                         : WELL
FLD  .                         : FIELD
LOC  .                         : LOCATION
PROV .                         : PROVINCE
CNTY .                         : COUNTY
STAT .                         : STATE
CTRY .                         : COUNTRY
SRVC .                         : SERVICE COMPANY
DATE .                         : DATE
UWI  .                         : UNIQUE WELL ID
API  .                         : API NUMBER
SLAT .WGS84 1.4511292693435998 : SURFACE LATITUDE
SLON .WGS84  7.402666333495006 : SURFACE LONGITUDE
DATUM.F                2449.11 : DEPTH DATUM ELEV
~Curve Information -----------------------------------------
DEPT   .FT        : DEPTH FEET
DPHZ_LS.DEC       : DENSITY POROSITY LIMESTONE [M=2.71, F=1] FROM CNL-LDT LOG
DTCO   .US/F      : DELTA TIME FROM DAC LOG
DTSM   .US/F      : DELTA TIME FROM DAC LOG
GRD    .GAPI      : GAMMA RAY FROM CNL-LDT LOG
GRR    .GAPI      : GAMMA RAY FROM ALAT-MCFL LOG
GRS    .GAPI      : GAMMA RAY FROM DAC LOG
HCALR  .IN        : HRCC CALIPER FROM ALAT-MCFL LOG
HDRA   .G/C3      : DENSITY CORRECTION FROM CNL-LDT LOG
HLLD   .OHMM      : DEEP LATEROLOG RESISTIVITY FROM ALAT-MCFL LOG
HLLS   .OHMM      : SHALLOW LATEROLOG RESISTIVITY FROM ALAT-MCFL LOG
PEFZ   .B/E       : PHOTOELECTRIC FACTOR STANDARD RESOLUTION FROM CNL-LDT LOG
PR     .UNITLESS  : POISSON RATIO FROM DAC LOG
RHOB   .G/C3      : BULK DENSITY FROM CNL-LDT LOG
RXOZ   .OHMM      : STANDARD RESOLUTION INVADED ZONE RESISTIVITY FROM ALAT-MCFL LOG
SPHI_LS.DEC       : SONIC POROSITY LIMESTONE [DTM=47.6, DTF=189] FROM DAC LOG
TEND   .LB        : TENSION FROM CNL-LDT LOG
TENR   .LB        : TENSION FROM FROM ALAT-MCFL LOG
TENS   .LB        : TENSION FROM DAC LOG
TNPH_LS.DEC       : THERMAL NEUTRON POROSITY LIMESTONE FROM CNL-LDT LOG
VPVS   .UNITLESS  : RATIO OF COMPRESSIONAL TO SHEAR VELOCITIES FROM DAC LOG
~Params ----------------------------------------------------
~Other -----------------------------------------------------
~ASCII -----------------------------------------------------
# ...
 5045.50000   -0.07520   50.20960   91.13310   30.95680   30.78350   23.86570    9.29930    0.01550  224.12110  266.51430    4.09250    0.28660    2.83390  363.49680    0.01920 2127.46390 2116.51490 1916.96480    0.02880    1.82620
 5046.00000   -0.07600   50.54000   92.12150   30.50280   32.48920   26.20000    9.29890    0.01860  125.25400  188.00620    4.10600    0.28730    2.83330  211.24840    0.02210 2138.97000 2124.00630 1917.39750    0.03190    1.83390
 5046.50000   -0.06750   51.82930   94.50020   35.51600   37.23530   28.53430    9.29860    0.02050   91.71110   84.78250    4.14470    0.28730    2.80580  104.98440    0.03970 2156.30030 2131.49760 1917.83020    0.03580    1.83250
 5047.00000   -0.04830   53.21420   96.87890   41.00390   43.36380   32.87890    9.29820    0.01720   70.23390   59.97280    4.14730    0.28690    2.77840   67.69720    0.04250 2170.16460 2134.23560 1918.26290    0.08050    1.82600
 5047.50000   -0.01690   55.91290  102.15840   46.01420   46.70640   36.09060    9.29780    0.01380   45.91320   35.16310    4.15730    0.28560    2.72910   38.84320    0.06230 2170.16460 2133.80470 1918.69560    0.12520    1.81940
 5048.00000    0.01610   56.97360  108.14370   46.23060   47.83760   37.34500    9.29750    0.01150   21.59250   10.35340    4.18700    0.28430    2.66910    9.98920    0.07780 2170.16460 2133.37400 1919.12830    0.16100    1.81280
 5048.50000    0.04610   62.13590  110.70060   46.44700   46.21400   39.74430    9.29710    0.01290    6.99910    5.43930    4.20240    0.28300    2.64240    3.12640    0.10560 2170.16460 2132.94310 1919.56120    0.14910    1.80840
 5049.00000    0.03840   62.08040  109.99210   44.68950   42.96270   43.22460    9.29670    0.01100    7.38780    6.88320    4.21780    0.28370    2.64240    3.68920    0.10560 2170.16460 2132.51250 1919.99380    0.12040    1.81080
 5049.50000   -0.00020   61.05840  107.64100   41.55160   38.50270   44.42770    9.29640    0.00320   29.17870   39.14610    4.23310    0.28370    2.68140   36.23690    0.09360 2170.16460 2132.08150 1920.42650    0.09170    1.81080
 5050.00000   -0.04970   58.64220  103.31600   39.96940   29.23660   38.30310    9.29600   -0.00460   55.16790   71.40900    4.27720    0.27760    2.77640   89.85720    0.07920 2170.16460 2131.65090 1920.85930    0.06290    1.80410
 5050.50000   -0.08930   56.98110   99.57960   29.25610   28.12970   32.93550    9.29560   -0.01120   75.96360   72.72450    4.39580    0.27420    2.85270   86.64130    0.06910 2160.21340 2131.22000 1921.29190    0.05720    1.79940
 5051.00000   -0.07920   56.02040   99.57130   29.92940   30.55600   27.96090    9.28380   -0.01470   54.48690   51.02070    4.42980    0.27790    2.81000   45.53460    0.06060 2152.15940 2131.22000 1921.72460    0.06550    1.79590
 5051.50000   -0.03050   55.39300   99.56310   34.08310   35.79500   28.61800    9.28150   -0.00110   33.01020   29.31680    4.32650    0.28160    2.73770   22.93950    0.05710 2144.10520 2131.22000 1922.15730    0.10660    1.80140
 5052.00000    0.01820   55.02660  100.03190   39.18940   40.84520   32.67160    9.28150    0.00940   15.82980   16.29630    4.09650    0.28520    2.66550   12.68560    0.05530 2136.05130 2131.22000 1922.59000    0.13170    1.80700
 5052.50000    0.02760   54.94960   99.65070   44.40550   44.85250   37.36300    9.28150    0.01150   16.27110   19.01880    3.98110    0.28660    2.69020   11.27160    0.05490 2127.99710 2131.22000 1923.02280    0.11280    1.81250
 5053.00000    0.00540   54.87540   99.26950   45.22670   44.90490   40.26060    9.28300    0.01280   30.62330   47.96310    3.82810    0.28320    2.71500   19.81430    0.05390 2119.94310 2132.49190 1923.45540    0.08330    1.81810
 5053.50000   -0.01130   54.31810   98.24530   44.43930   44.08720   40.00720    9.29510    0.01350   64.63230   66.23310    3.79740    0.28530    2.73970   53.16980    0.04780 2111.88890 2111.56960 1923.88820    0.05380    1.82360
 5054.00000   -0.02360   53.03000   96.56850   43.65390   43.66100   39.43560    9.30720    0.01420   68.88910   71.94730    3.88080    0.28810    2.75450   60.74830    0.03910 2103.83500 2090.64750 1924.32090    0.04870    1.84140
 5054.50000   -0.02770   52.36620   95.98030   43.38220   42.72670   38.91520    9.31930    0.01550   91.08510   92.84840    3.98710    0.29100    2.75450   70.25700    0.03470 2074.15480 2069.72530 1924.75350    0.04670    1.84640
 5055.00000   -0.02700   52.60920   95.98020   41.44790   41.28530   40.01490    9.31930    0.01750  113.28110  113.74950    4.04910    0.28780    2.75400  151.93710    0.03660 2072.99120 2048.80300 1925.18630    0.04710    1.83200
 5055.50000   -0.02240   53.50550   98.12020   38.13170   37.65660   39.11590    9.31930    0.02160  117.74750  121.21110    3.96950    0.28250    2.74590  137.56990    0.04320 2071.82740 2027.88090 1925.61900    0.05530    1.81590
 5056.00000   -0.01070   54.60900   99.49010   35.59570   34.75250   36.98490    9.31930    0.02570   86.09360  104.87380    3.79780    0.27890    2.70740   94.98350    0.04990 2070.66360 2015.39870 1926.05180    0.08410    1.80110
 5056.50000    0.00920   56.61120  101.76120   35.96370   34.74840   34.27420    9.31930    0.02980   44.84810   77.41660    3.67150    0.27890    2.66890   30.74400    0.06800 2069.49980 2028.26930 1926.48450    0.11800    1.79630
 5057.00000    0.04230   58.61340  105.35240   40.37760   41.43440   33.63930    9.31170    0.03180   27.12410   49.95950    3.57240    0.28070    2.63040   13.62060    0.07970 2086.31420 2049.48510 1926.91720    0.15200    1.80210
 5057.50000    0.06890   59.90510  108.35560   47.68540   48.88580   37.05240    9.29560    0.03230    9.40010   22.50240    3.56200    0.28220    2.59190    5.22200    0.09140 2103.12840 2070.70070 1927.34990    0.18590    1.81370
 5058.00000    0.08490   60.63130  107.93400   51.00590   52.53200   42.82270    9.27960    0.02420    5.80370    6.08380    3.59830    0.27690    2.57650    4.44290    0.09460 2119.94240 2091.91650 1927.78260    0.19910    1.81110
 5058.50000    0.07350   60.14070  106.69340   48.66930   49.36580   44.38920    9.26350    0.02230   17.32270   16.41360    3.63460    0.27180    2.58500    5.16590    0.09320 2136.75680 2113.13230 1928.21530    0.16600    1.80850
 5059.00000    0.03100   59.23500  105.35490   41.49360   41.58910   38.29470    9.24740    0.02320   32.54080   26.74350    3.67090    0.27290    2.62310   62.60440    0.08590 2150.20830 2135.56490 1928.64790    0.13300    1.80590
 5059.50000    0.01480   58.20380  104.01640   37.62410   37.21160   31.85960    9.19980    0.02400   26.11960   26.70270    3.63200    0.27620    2.66120   23.29970    0.07500 2149.97000 2132.99830 1929.08070    0.12890    1.80420
 5060.00000    0.01550   57.08110  102.67790   38.38660   36.57910   28.91880    9.15830    0.02110   18.09080   19.74820    3.59610    0.27950    2.68410   16.81010    0.06810 2149.97000 2129.65770 1929.51350    0.12480    1.80630
 5060.50000    0.02440   56.37180  101.33940   39.03350   39.24980   30.36830    9.11830    0.01570   23.85180   25.45790    3.59090    0.28280    2.69580   12.91310    0.06420 2155.28880 2126.31740 1929.94620    0.11310    1.80840
 5061.00000    0.01110   55.91650  100.00090   37.96170   38.16050   32.30200    9.05600    0.01270   42.27890   39.61050    3.71980    0.28340    2.72010   35.31900    0.06020 2131.98120 2122.97710 1930.37890    0.09630    1.81050
 5061.50000   -0.01830   55.39910   99.20940   35.48920   35.33220   31.77380    9.05160    0.01120   55.53100   53.76310    3.87870    0.28440    2.75720   53.83470    0.05680 2079.67310 2119.63670 1930.81160    0.07960    1.81250
 5062.00000   -0.03800   54.74530   98.41790   33.18010   32.58110   30.38120    9.04710    0.00970   48.08240   50.94070    3.96210    0.28590    2.76690   57.02730    0.05230 2079.56030 2116.29610 1931.24430    0.07130    1.81460
 5062.50000   -0.03520   54.09140   97.36590   31.97960   31.51920   28.98860    9.04270    0.00830   40.63380   40.67260    3.93500    0.28740    2.76510   39.66480    0.04700 2076.43770 2112.95580 1931.67700    0.07170    1.81670
