~Version ---------------------------------------------------
VERS.   2.0 : CWLS log ASCII Standard -VERSION 2.0
WRAP.    NO : One line per depth step
DLM . SPACE : Column Data Section Delimiter
~Well ------------------------------------------------------
STRT .FT                 408.0 : START DEPTH
STOP .FT                5705.0 : STOP DEPTH
STEP .FT                   0.5 : STEP
NULL .                -9999.25 : NULL VALUE
COMP .                         : COMPANY
WELL .                         : WELL
FLD  .                         : FIELD
LOC  .                         : LOCATION
PROV .                         : PROVINCE
CNTY .                         : COUNTY
STAT .                         : STATE
CTRY .                         : COUNTRY
SRVC .                         : SERVICE COMPANY
DATE .                         : DATE
UWI  .                         : UNIQUE WELL ID
API  .                         : API NUMBER
SLAT .WGS84 1.4511292693435998 : SURFACE LATITUDE
SLON .WGS84  7.402666333495006 : SURFACE LONGITUDE
DATUM.F                2449.11 : DEPTH DATUM ELEV
~Curve Information -----------------------------------------
DEPT   .FT        : DEPTH FEET
DPHZ_LS.DEC       : DENSITY POROSITY LIMESTONE [M=2.71, F=1] FROM CNL-LDT LOG
DTCO   .US/F      : DELTA TIME FROM DAC LOG
DTSM   .US/F      : DELTA TIME FROM DAC LOG
GRD    .GAPI      : GAMMA RAY FROM CNL-LDT LOG
GRR    .GAPI      : GAMMA RAY FROM ALAT-MCFL LOG
GRS    .GAPI      : GAMMA RAY FROM DAC LOG
HCALR  .IN        : HRCC CALIPER FROM ALAT-MCFL LOG
HDRA   .G/C3      : DENSITY CORRECTION FROM CNL-LDT LOG
HLLD   .OHMM      : DEEP LATEROLOG RESISTIVITY FROM ALAT-MCFL LOG
HLLS   .OHMM      : SHALLOW LATEROLOG RESISTIVITY FROM ALAT-MCFL LOG
PEFZ   .B/E       : PHOTOELECTRIC FACTOR STANDARD RESOLUTION FROM CNL-LDT LOG
PR     .UNITLESS  : POISSON RATIO FROM DAC LOG
RHOB   .G/C3      : BULK DENSITY FROM CNL-LDT LOG
RXOZ   .OHMM      : STANDARD RESOLUTION INVADED ZONE RESISTIVITY FROM ALAT-MCFL LOG
SPHI_LS.DEC       : SONIC POROSITY LIMESTONE [DTM=47.6, DTF=189] FROM DAC LOG
TEND   .LB        : TENSION FROM CNL-LDT LOG
TENR   .LB        : TENSION FROM FROM ALAT-MCFL LOG
TENS   .LB        : TENSION FROM DAC LOG
TNPH_LS.DEC       : THERMAL NEUTRON POROSITY LIMESTONE FROM CNL-LDT LOG
VPVS   .UNITLESS  : RATIO OF COMPRESSIONAL TO SHEAR VELOCITIES FROM DAC LOG
~Params ----------------------------------------------------
~Other -----------------------------------------------------
~ASCII -----------------------------------------------------
# ...
 5378.00000    0.02860   71.82260  131.98460   87.07760   87.03230   78.88560   11.42550    0.02290   19.89630   19.46570    3.76180    0.30200    2.65900   21.21360    0.17440 2177.61280 2172.91700 2052.51680    0.16940    1.87500
 5378.50000    0.02880   71.10190  131.92920   83.90800   83.31860   75.87240   11.45280    0.01330   21.25560   20.75200    3.81130    0.30300    2.66540   23.33380    0.17080 2170.31200 2172.95730 2054.20310    0.15340    1.88390
 5379.00000    0.03160   70.20110  130.93120   80.73840   80.80600   73.22690   11.48010    0.00760   22.85990   22.03830    3.80870    0.30400    2.66790   24.93880    0.16510 2163.01120 2172.99730 2055.88940    0.14480    1.88860
 5379.50000    0.03690   69.83850  128.51930   77.56890   77.79810   70.87630   11.50730    0.00770   24.14330   23.32470    3.79960    0.30590    2.66790   26.20030    0.15790 2169.93800 2173.03760 2057.57540    0.13890    1.88570
 5380.00000    0.04240   68.39150  126.90210   75.37040   76.21160   68.55330   11.53460    0.00780   24.13800   23.53180    3.76180    0.30780    2.65620   25.94680    0.14980 2219.43330 2173.07790 2059.26170    0.13650    1.88580
 5380.50000    0.04550   67.32360  126.35370   75.11260   75.73440   66.15570   11.56180    0.00790   23.91120   23.54670    3.72390    0.30970    2.64440   24.68340    0.14350 2208.54980 2173.11820 2057.68550    0.12790    1.89680
 5381.00000    0.04360   66.75070  126.13700   76.45720   76.85890   63.94880   11.59860    0.00800   23.31550   23.13150    3.72390    0.31080    2.64190   23.42000    0.13940 2217.79660 2173.15820 2056.10940    0.12900    1.90230
 5381.50000    0.04320   66.29260  125.92030   77.80190   77.98350   63.09580   11.61340    0.00210   22.71980   22.72330    3.72460    0.30740    2.64140   22.15660    0.14130 2227.04370 2173.19850 2054.53320    0.13060    1.89310
 5382.00000    0.04260   66.29360  125.70360   79.87780   80.55270   63.96450   11.63060   -0.00030   22.12410   21.85750    3.68550    0.30210    2.64390   21.90990    0.14320 2236.29050 2173.23880 2052.95700    0.13210    1.88160
 5382.50000    0.04180   67.72520  126.24280   82.44130   83.75720   64.83310   11.64790    0.00060   20.94170   20.75100    3.64650    0.29900    2.64710   21.77200    0.14640 2245.53760 2173.27910 2051.38110    0.13350    1.87000
 5383.00000    0.04000   68.82400  127.91590   85.00480   86.19270   66.88030   11.66520    0.00600   19.36820   19.64460    3.60750    0.29900    2.65030   21.05440    0.15390 2251.51610 2173.31910 2049.80470    0.13520    1.86380
 5383.50000    0.03730   69.10250  129.58890   85.52020   86.93070   68.73530   11.67890    0.01500   18.31050   18.98340    3.58230    0.30160    2.65360   20.77160    0.16190 2236.25050 2173.35940 2048.22880    0.13770    1.87100
 5384.00000    0.03410   69.38100  130.39180   83.05630   84.03580   68.91740   11.67880    0.01590   19.31580   18.98980    3.61240    0.30430    2.65680   22.38490    0.16210 2220.98510 2173.39970 2046.65250    0.14020    1.88200
 5384.50000    0.03050   69.34570  129.42460   79.15140   81.14100   65.89620   11.68020    0.01200   20.32100   20.19290    3.64250    0.30690    2.66000   24.80690    0.15750 2246.47050 2173.43990 2045.07640    0.14070    1.88920
 5385.00000    0.02640   68.49630  126.22860   76.91230   78.24610   62.03480   11.68150    0.00720   21.32620   22.32280    3.64880    0.30210    2.66330   24.99680    0.15040 2252.14310 2173.48000 2043.50020    0.13660    1.86960
 5385.50000    0.02290   66.68610  123.44130   75.64620   76.61170   58.94890   11.68280    0.00230   22.59370   24.45270    3.62960    0.29920    2.66650   24.75410    0.14070 2256.89650 2173.52030 2041.92410    0.13250    1.87990
 5386.00000    0.02290   65.89030  124.29270   74.38010   75.68790   59.24120   11.68410    0.00040   24.90990   26.58250    3.61040    0.30720    2.66970   27.54760    0.13410 2257.97220 2173.56050 2040.34800    0.13130    1.90280
 5386.50000    0.02340   65.58940  125.86170   75.68420   75.68650   63.11220   11.68540   -0.00050   26.30310   24.09240    3.59120    0.31300    2.67290   29.89560    0.13130 2259.04810 2173.60080 2038.77190    0.13950    1.91390
 5387.00000    0.02920   66.23660  128.74790   83.01070   78.50950   68.55010   11.68670   -0.00050   22.88400   20.97750    3.57200    0.31520    2.67000   19.24160    0.13950 2256.20210 2173.64110 2037.19570    0.14960    1.93230
 5387.50000    0.04050   68.49890  133.89800   90.09650   88.67590   74.06190   11.68800    0.00050   18.60800   17.86260    3.54980    0.32070    2.65780   15.95230    0.14810 2247.47340 2173.68120 2035.61950    0.17410    1.95080
 5388.00000    0.05190   72.00420  139.23990   98.00800   98.84220   78.16110   11.68940    0.00420   14.33210   14.74770    3.52770    0.32190    2.64550   13.47650    0.18110 2238.74460 2173.72140 2034.04350    0.20050    1.96210
 5388.50000    0.06060   75.61540  144.58190  102.80430  104.94120   80.86560   11.69070    0.01090   13.48100   13.50490    3.50560    0.31780    2.63330   13.38180    0.21110 2230.01610 2173.76170 2032.46720    0.21630    1.93950
 5389.00000    0.06440   77.06330  146.22160   99.68840  101.38110   83.42760   11.67500    0.01010   13.79060   14.12420    3.50510    0.31540    2.62110   13.94120    0.21340 2225.20900 2173.80200 2030.89110    0.21510    1.91960
 5389.50000    0.06470   76.31710  142.51660   95.11600   95.80360   82.33130   11.64810    0.00730   15.31830   15.66500    3.57360    0.30750    2.60890   16.41100    0.20810 2230.45460 2173.84200 2029.31490    0.20900    1.89660
 5390.00000    0.05650   74.87270  135.41780   89.64370   89.24060   78.97090   11.62110    0.00400   16.84600   17.20580    3.65420    0.28720    2.61150   20.99920    0.19710 2235.70020 2173.88230 2027.73880    0.19650    1.85590
 5390.50000    0.04650   73.37450  130.25830   81.71050   80.88320   71.41650   11.59420   -0.00300   18.37370   18.74660    3.70300    0.27360    2.63720   22.62040    0.18820 2240.94580 2173.92260 2027.33890    0.17840    1.81530
 5391.00000    0.02410   70.99250  123.88760   73.77730   73.86160   63.27910   11.55630   -0.00170   18.66990   20.10770    3.67070    0.26920    2.66280   21.19040    0.17290 2246.19140 2173.96260 2027.33890    0.16040    1.78260
 5391.50000    0.01250   69.33450  119.75490   68.31160   68.34450   57.65420   11.53470    0.00330   19.34830   20.83580    3.58490    0.26920    2.68840   20.26780    0.15700 2250.38770 2174.00290 2027.33890    0.14920    1.78550
 5392.00000    0.01070   67.26500  118.09110   67.53570   68.19430   53.06950   11.51220    0.00820   21.16810   23.00180    3.44100    0.27320    2.69010   20.25520    0.13990 2250.38770 2174.04320 2027.33890    0.14840    1.80150
 5392.50000    0.02620   65.55490  117.26100   70.14780   71.57300   53.11390   11.48960    0.01190   22.74560   23.83760    3.17780    0.28360    2.67280   27.86280    0.12930 2250.38770 2174.08350 2027.33890    0.14740    1.83360
 5393.00000    0.04100   64.39390  119.48220   74.20670   75.48370   56.05080   11.46710    0.01480   23.35310   24.25770    2.94230    0.30340    2.65550   28.26490    0.12310 2250.38770 2174.12350 2027.33890    0.13900    1.87530
 5393.50000    0.05080   64.39660  121.90390   76.63610   78.30410   60.42220   11.45350    0.01770   22.10540   24.24260    2.77150    0.31360    2.63820   23.58620    0.12290 2250.38770 2174.16380 2027.33890    0.13300    1.92040
 5394.00000    0.06090   64.98790  122.60780   76.30680   75.91870   63.93550   11.40400    0.01900   21.89270   24.00930    2.65670    0.31570    2.62090   22.56410    0.12690 2250.38770 2174.20410 2027.33890    0.12770    1.92970
 5394.50000    0.07310   65.65300  121.04550   73.37950   73.34180   65.02110   11.37030    0.01410   23.25700   23.99430    2.59010    0.30120    2.60360   24.58670    0.13090 2250.38770 2174.24440 2027.33890    0.13000    1.87960
 5395.00000    0.07770   65.70690  119.57500   70.73990   70.48600   62.10640   11.34660    0.00920   24.96580   24.81520    2.63270    0.28830    2.58640   29.39910    0.13220 2250.38770 2174.28440 2027.33890    0.13090    1.83750
