~Version ---------------------------------------------------
VERS.   2.0 : CWLS log ASCII Standard -VERSION 2.0
WRAP.    NO : One line per depth step
DLM . SPACE : Column Data Section Delimiter
~Well ------------------------------------------------------
STRT .FT                 408.0 : START DEPTH
STOP .FT                5705.0 : STOP DEPTH
STEP .FT                   0.5 : STEP
NULL .                -9999.25 : NULL VALUE
COMP .                         : COMPANY
WELL .                         : WELL
FLD  .                         : FIELD
LOC  .                         : LOCATION
PROV .                         : PROVINCE
CNTY .                         : COUNTY
STAT .                         : STATE
CTRY .                         : COUNTRY
SRVC .                         : SERVICE COMPANY
DATE .                         : DATE
UWI  .                         : UNIQUE WELL ID
API  .                         : API NUMBER
SLAT .WGS84 1.4511292693435998 : SURFACE LATITUDE
SLON .WGS84  7.402666333495006 : SURFACE LONGITUDE
DATUM.F                2449.11 : DEPTH DATUM ELEV
~Curve Information -----------------------------------------
DEPT   .FT        : DEPTH FEET
DPHZ_LS.DEC       : DENSITY POROSITY LIMESTONE [M=2.71, F=1] FROM CNL-LDT LOG
DTCO   .US/F      : DELTA TIME FROM DAC LOG
DTSM   .US/F      : DELTA TIME FROM DAC LOG
GRD    .GAPI      : GAMMA RAY FROM CNL-LDT LOG
GRR    .GAPI      : GAMMA RAY FROM ALAT-MCFL LOG
GRS    .GAPI      : GAMMA RAY FROM DAC LOG
HCALR  .IN        : HRCC CALIPER FROM ALAT-MCFL LOG
HDRA   .G/C3      : DENSITY CORRECTION FROM CNL-LDT LOG
HLLD   .OHMM      : DEEP LATEROLOG RESISTIVITY FROM ALAT-MCFL LOG
HLLS   .OHMM      : SHALLOW LATEROLOG RESISTIVITY FROM ALAT-MCFL LOG
PEFZ   .B/E       : PHOTOELECTRIC FACTOR STANDARD RESOLUTION FROM CNL-LDT LOG
PR     .UNITLESS  : POISSON RATIO FROM DAC LOG
RHOB   .G/C3      : BULK DENSITY FROM CNL-LDT LOG
RXOZ   .OHMM      : STANDARD RESOLUTION INVADED ZONE RESISTIVITY FROM ALAT-MCFL LOG
SPHI_LS.DEC       : SONIC POROSITY LIMESTONE [DTM=47.6, DTF=189] FROM DAC LOG
TEND   .LB        : TENSION FROM CNL-LDT LOG
TENR   .LB        : TENSION FROM FROM ALAT-MCFL LOG
TENS   .LB        : TENSION FROM DAC LOG
TNPH_LS.DEC       : THERMAL NEUTRON POROSITY LIMESTONE FROM CNL-LDT LOG
VPVS   .UNITLESS  : RATIO OF COMPRESSIONAL TO SHEAR VELOCITIES FROM DAC LOG
~Params ----------------------------------------------------
~Other -----------------------------------------------------
~ASCII -----------------------------------------------------
# ...
 5150.50000   -0.02340   55.82410  102.84120   66.61600   58.83100   42.23410    9.30500    0.03760   25.18280   30.23380    3.66950    0.28650    2.76560   24.16630    0.06090 2199.03710 2146.05200 1934.36720    0.11450    1.82850
 5151.00000    0.00360   58.85560  106.50090   67.78940   67.96860   51.71100    9.29780    0.03140   17.18910   21.68810    3.67380    0.28280    2.71960   14.12390    0.07980 2200.76830 2146.05200 1932.11720    0.14690    1.82040
 5151.50000    0.03170   61.79110  109.56190   61.18170   62.23400   53.27030    9.29870    0.03040   12.08200   13.14230    3.69340    0.28150    2.67360    6.14090    0.09360 2202.49930 2146.05200 1929.86720    0.17930    1.81360
 5152.00000    0.05830   62.33840  111.45250   49.68090   47.91200   45.20900    9.28740    0.02940    6.97490    4.59660    3.71690    0.28500    2.62760    2.33880    0.10430 2204.23050 2146.05200 1927.61720    0.19910    1.82060
 5152.50000    0.07650   62.01880  111.64400   41.89670   42.52700   35.71810    9.26470    0.02330    4.88600    4.51150    3.75450    0.28840    2.59080    2.32700    0.10600 2205.96140 2146.05200 1926.26730    0.17970    1.82760
 5153.00000    0.05660   61.05810  109.95470   39.05060   39.30360   30.94860    9.24900    0.01550    6.19510    4.50960    3.81330    0.28850    2.59080    3.18540    0.09520 2207.69260 2150.04220 1926.26730    0.14740    1.82760
 5153.50000    0.02090   59.45290  105.72530   38.18230   38.11780   30.44530    9.24380    0.01700   10.91530   19.19110    3.87220    0.28640    2.63800    6.78710    0.08650 2209.42360 2126.35940 1926.26730    0.11160    1.82600
 5154.00000   -0.02190   57.96100  101.49590   38.60550   38.14120   30.35910    9.23860    0.01940   41.21040   30.61120    3.88010    0.28420    2.74170   10.94010    0.07740 2211.15480 2126.77220 1926.26730    0.08310    1.82210
 5154.50000   -0.01920   56.48700   99.86840   38.92350   39.07270   30.45480    9.23340    0.01510   27.91310   24.80370    3.88960    0.28240    2.73090   35.73680    0.06480 2212.88570 2126.77220 1926.26730    0.10850    1.81820
 5155.00000    0.01570   55.60960   99.85870   38.44030   38.44970   29.80210    9.22820    0.01120   11.99770   14.90840    3.89900    0.28240    2.67570    5.97030    0.05760 2214.61690 2163.00220 1926.26730    0.14020    1.81420
 5155.50000    0.05740   55.87810   99.82010   34.70800   34.75330   27.84340    9.20970    0.00730    5.63030    5.01320    3.86330    0.28240    2.64060    4.37870    0.06310 2216.34790 2165.61130 1926.26730    0.17200    1.81180
 5156.00000    0.07810   57.26070  101.62960   28.51750   30.02400   23.79110    9.21670    0.00850    5.62720    5.05610    3.79760    0.27800    2.61850    3.42300    0.06860 2218.07910 2168.22020 1926.26730    0.17200    1.79970
 5156.50000    0.06730   57.88930  102.09460   27.26410   27.57870   22.63710    9.20680    0.01350    9.66570   11.86870    3.75510    0.27230    2.59480    7.30320    0.07310 2217.98340 2170.82930 1926.26730    0.15220    1.79030
 5157.00000    0.03300   57.12780  101.35170   31.97780   33.19110   24.34010    9.21510    0.01840   31.22960   24.38170    3.80580    0.27630    2.61580   16.40860    0.06850 2216.66990 2172.91650 1926.26730    0.11200    1.79920
 5157.50000    0.01500   56.07880   99.62770   38.90350   38.80360   28.81600    9.22350    0.02330   70.18000   59.69630    3.88230    0.28100    2.65790   34.31390    0.06160 2215.35670 2164.06300 1926.26730    0.07170    1.81380
 5158.00000    0.00470   54.96570   99.36390   42.46270   42.16700   33.99080    9.23190    0.01990  109.13030   95.01100    4.06210    0.28580    2.70500   73.48460    0.05500 2214.04320 2148.61840 1926.26730    0.04600    1.82840
 5158.50000   -0.00370   54.23460   99.10010   36.86590   38.48260   32.82330    9.24030    0.01410  145.02770  130.32560    4.22150    0.29060    2.72190  132.64270    0.05010 2212.72970 2136.26270 1926.26730    0.02990    1.83930
 5159.00000   -0.00930   53.92770   99.10350   32.42830   32.34540   29.35150    9.24020    0.01140  178.53290  162.11450    4.39020    0.29240    2.72780  164.58210    0.04610 2211.41630 2142.49560 1926.26730    0.02350    1.84310
 5159.50000   -0.01440   54.69150  100.17570   34.61590   30.28190   27.61290    9.22460    0.00870  183.33590  193.90330    4.38780    0.29460    2.73220  220.89650    0.05070 2210.10280 2149.77150 1926.26730    0.03020    1.84050
 5160.00000   -0.01820   56.16420  101.62220   43.33700   45.89070   35.85290    9.22700    0.00680   99.43240  131.47690    4.30800    0.29390    2.73660   38.62480    0.05810 2207.61430 2157.04760 1926.26730    0.04070    1.83790
 5160.50000   -0.01760   56.82950  103.27960   51.22690   53.69440   42.00260    9.22940    0.00320   36.54500   35.30700    4.15490    0.29310    2.73880   33.11930    0.06650 2204.83180 2162.86840 1926.26730    0.05120    1.83520
 5161.00000   -0.01350   56.93390  103.32550   51.85930   50.93040   47.60310    9.23170   -0.00040   36.55670   35.96680    4.19120    0.29240    2.73930   33.43390    0.06750 2202.04960 2159.99830 1926.26730    0.05970    1.83260
 5161.50000   -0.01500   56.32630  102.08420   43.67200   44.40430   41.75980    9.23410   -0.00400   90.54380   95.36430    4.22760    0.29170    2.73980  100.89350    0.06200 2199.26710 2152.40040 1926.26730    0.05380    1.83190
 5162.00000   -0.02260   54.84540   97.91010   32.60640   34.76160   32.45790    9.23650   -0.00750  144.53100  207.65550    4.26390    0.28920    2.75990  143.34590    0.04800 2196.48490 2144.80250 1926.26730    0.04030    1.82670
 5162.50000   -0.04230   53.21240   95.23130   26.53170   26.89750   25.67850    9.23890   -0.01110  388.58650  472.13920    4.28540    0.28070    2.78770  241.64480    0.04040 2210.22360 2137.20460 1926.26730    0.02670    1.80650
 5163.00000   -0.06280   51.30510   93.43880   22.77050   23.24720   21.28420    9.24120   -0.01030  759.35410  736.62300    4.12970    0.28340    2.81870  515.42330    0.02490 2210.22360 2129.60670 1926.26730    0.02430    1.81600
 5163.50000   -0.07840   50.49010   91.64640   22.30110   23.14990   20.57180    9.24360   -0.00650  981.90550 1001.10670    3.99670    0.28430    2.84390 1233.49380    0.02180 2206.39230 2122.00880 1926.26730    0.02180    1.82300
 5164.00000   -0.09000   50.19380   89.85390   24.04150   25.18420   21.91670    9.24600   -0.00260  868.21870 1027.67710    3.95340    0.28520    2.85100 1700.53660    0.02030 2186.81910 2094.17870 1926.26730    0.02130    1.83160
 5164.50000   -0.09030   50.22470   90.23660   30.22780   30.34570   25.43260    9.24840    0.00130  583.09930  804.17800    4.02860    0.28670    2.84080  845.49330    0.02050 2175.08890 2085.47410 1926.26730    0.02470    1.82430
 5165.00000   -0.07970   51.17750   92.22510   36.10730   35.90240   32.78480    9.25920    0.00510  384.74860  580.67880    4.06280    0.28750    2.83240  420.78130    0.02460 2194.73120 2133.83540 1926.26730    0.03040    1.82000
 5165.50000   -0.06560   51.99790   93.72300   40.42050   40.44710   38.08130    9.28280    0.00900  208.09000  357.17970    4.09700    0.28510    2.82050  282.95690    0.03260 2210.44510 2164.98270 1926.26730    0.03190    1.81560
 5166.00000   -0.06620   52.52500   94.88750   41.05520   40.93630   40.57730    9.29590    0.01210  192.16650  223.11870    4.17080    0.28100    2.81470  255.48120    0.03780 2210.45830 2156.54350 1926.26730    0.02030    1.81120
 5166.50000   -0.09150   53.32350   95.26170   34.01000   35.51560   37.41220    9.30640    0.01210  265.17850  310.14050    4.30380    0.27750    2.84260  260.26630    0.04240 2210.45830 2165.40500 1971.60340    0.01150    1.80680
 5167.00000   -0.10110   53.59540   95.30360   30.70870   31.51130   31.79600    9.31690    0.01200  338.19050  418.89330    4.43690    0.27630    2.88820 1117.31630    0.04400 2210.45830 2165.57400 1971.60340    0.01230    1.80250
 5167.50000   -0.13380   53.75250   95.34540   32.34970   31.90350   29.95550    9.32740    0.01110  137.96360  339.91240    4.49520    0.27510    2.92470  925.25370    0.04420 2210.45830 2158.18120 1971.60340    0.01470    1.79810
