~Version ---------------------------------------------------
VERS.   2.0 : CWLS log ASCII Standard -VERSION 2.0
WRAP.    NO : One line per depth step
DLM . SPACE : Column Data Section Delimiter
~Well ------------------------------------------------------
STRT .FT                 408.0 : START DEPTH
STOP .FT                5705.0 : STOP DEPTH
STEP .FT                   0.5 : STEP
NULL .                -9999.25 : NULL VALUE
COMP .                         : COMPANY
WELL .                         : WELL
FLD  .                         : FIELD
LOC  .                         : LOCATION
PROV .                         : PROVINCE
CNTY .                         : COUNTY
STAT .                         : STATE
CTRY .                         : COUNTRY
SRVC .                         : SERVICE COMPANY
DATE .                         : DATE
UWI  .                         : UNIQUE WELL ID
API  .                         : API NUMBER
SLAT .WGS84 1.4511292693435998 : SURFACE LATITUDE
SLON .WGS84  7.402666333495006 : SURFACE LONGITUDE
DATUM.F                2449.11 : DEPTH DATUM ELEV
~Curve Information -----------------------------------------
DEPT   .FT        : DEPTH FEET
DPHZ_LS.DEC       : DENSITY POROSITY LIMESTONE [M=2.71, F=1] FROM CNL-LDT LOG
DTCO   .US/F      : DELTA TIME FROM DAC LOG
DTSM   .US/F      : DELTA TIME FROM DAC LOG
GRD    .GAPI      : GAMMA RAY FROM CNL-LDT LOG
GRR    .GAPI      : GAMMA RAY FROM ALAT-MCFL LOG
GRS    .GAPI      : GAMMA RAY FROM DAC LOG
HCALR  .IN        : HRCC CALIPER FROM ALAT-MCFL LOG
HDRA   .G/C3      : DENSITY CORRECTION FROM CNL-LDT LOG
HLLD   .OHMM      : DEEP LATEROLOG RESISTIVITY FROM ALAT-MCFL LOG
HLLS   .OHMM      : SHALLOW LATEROLOG RESISTIVITY FROM ALAT-MCFL LOG
PEFZ   .B/E       : PHOTOELECTRIC FACTOR STANDARD RESOLUTION FROM CNL-LDT LOG
PR     .UNITLESS  : POISSON RATIO FROM DAC LOG
RHOB   .G/C3      : BULK DENSITY FROM CNL-LDT LOG
RXOZ   .OHMM      : STANDARD RESOLUTION INVADED ZONE RESISTIVITY FROM ALAT-MCFL LOG
SPHI_LS.DEC       : SONIC POROSITY LIMESTONE [DTM=47.6, DTF=189] FROM DAC LOG
TEND   .LB        : TENSION FROM CNL-LDT LOG
TENR   .LB        : TENSION FROM FROM ALAT-MCFL LOG
TENS   .LB        : TENSION FROM DAC LOG
TNPH_LS.DEC       : THERMAL NEUTRON POROSITY LIMESTONE FROM CNL-LDT LOG
VPVS   .UNITLESS  : RATIO OF COMPRESSIONAL TO SHEAR VELOCITIES FROM DAC LOG
~Params ----------------------------------------------------
~Other -----------------------------------------------------
~ASCII -----------------------------------------------------
# ...
 5658.00000    0.00390   52.27100   96.49270   55.04910   55.10220   -9999.25    7.74690    0.01520  101.37090  106.44060    4.65580    0.30330    2.70130  105.14350    0.03350 2334.04420 2262.37840 2112.56030    0.02550    1.89180
 5658.50000    0.00370   51.97610   96.50980   52.89810   53.56900   -9999.25    7.74230    0.01550  117.57530  123.32040    4.72010    0.30580    2.69810  169.68680    0.03180 2333.38940 2281.74020 2113.64720    0.02350    1.89180
 5659.00000    0.00110   51.68130   96.52690   50.72660   51.72020   -9999.25    7.74740    0.02350  131.33890  135.31070    4.83310    0.30740    2.70200  181.94710    0.03020 2357.32420 2293.28740 2114.73410    0.02110    1.89180
 5659.50000   -0.00150   51.38710   96.54390   48.18320   -9999.25   -9999.25    7.75120    0.02700  126.65410  127.74330    4.91870    0.30830    2.71070  174.05780    0.02840 2364.20190 2299.62450 2115.82100    0.01960    1.89180
 5660.00000   -0.00400   51.40220   96.56100   45.29010   -9999.25   -9999.25    7.74340    0.02650  120.41140  121.69440    4.95260    0.30780    2.71120  165.72860    0.02830 2364.20190 2305.96190 2116.90800    0.02100    1.89180
 5660.50000   -0.00120   51.58440   96.57810   43.06840   -9999.25   -9999.25    7.73890    0.02240  128.67930  129.69070    4.94500    0.30700    2.70710  164.31090    0.02850 2364.20190 2312.29930 2117.99490    0.02160    1.89180
 5661.00000    0.00230   51.62150   96.59520   42.42950   -9999.25   -9999.25    7.73920    0.01750  140.62990  140.70370    4.94140    0.30620    2.70290  174.39940    0.02880 2364.20190 2318.63670 2119.08180    0.02290    1.88990
 5661.50000    0.00400   51.55880   96.61230   42.90450   -9999.25   -9999.25    7.73960    0.01650  143.02760  144.58540    4.93770    0.30610    2.69870  186.88660    0.02900 2364.20190 2319.90410 2120.16870    0.02490    1.88990
 5662.00000    0.00340   51.62740   96.62940   42.71380   -9999.25   -9999.25    7.74000    0.02390  128.94120  135.71290    4.93410    0.30740    2.69790  173.18300    0.02950 2364.20190 2319.90410 2121.25560    0.02760    1.88990
 5662.50000    0.00400   51.78520   96.70140   41.11290   -9999.25   -9999.25    7.74030    0.02690  105.45770  104.27910    4.93050    0.30400    2.69790  150.67200    0.03050 2361.27170 2317.17750 2122.34250    0.03120    1.88990
 5663.00000    0.00320   52.09970   97.30050   40.41580   -9999.25   -9999.25    7.74400    0.02810   96.06770   97.99690    4.92760    0.30020    2.70120  128.38580    0.03330 2342.62870 2283.25340 2123.42940    0.03400    1.88420
 5663.50000   -0.00430   52.31060   97.43460   40.47340   -9999.25   -9999.25    7.75000    0.02960  107.41280  133.29280    4.98020    0.29890    2.72390   83.22670    0.03630 2323.98560 2249.32910 2124.51640    0.03550    1.87620
 5664.00000   -0.01370   52.52160   97.33110   41.69140   -9999.25   -9999.25    7.73700    0.03100  146.90410  192.11540    5.04600    0.30220    2.73850   73.32690    0.03680 2305.34230 2235.17530 2125.60300    0.03610    1.88210
 5664.50000   -0.01950   52.49530   96.87140   42.90940   -9999.25   -9999.25    7.72400    0.03240  239.67810  233.67480    5.11180    0.30540    2.73890   86.62990    0.03580 2286.69920 2234.20140 2126.68990   -9999.25    1.89020
 5665.00000   -0.01300   51.79880   96.41160   42.04840   -9999.25   -9999.25    7.71110    0.03170  253.07160  253.52310    5.17760    0.30790    2.73280  154.12710    0.02980 2283.64720 2236.52290 2127.77690   -9999.25    1.89830
 5665.50000   -0.00330   51.36940   95.95180   40.69990   -9999.25   -9999.25    7.69810    0.02750  257.71330  282.57140    5.24340    0.31050    2.70870  299.34360    0.02540 2305.52420 2252.02490 2128.86380   -9999.25    1.90640
 5666.00000   -0.00190   50.79270   95.49210   40.95930   -9999.25   -9999.25    7.69290    0.02330  294.26320  319.34290    5.27590    0.31370    2.71120  388.20340    0.02310 2327.40110 2267.52660 2126.84960   -9999.25    1.91450
 5666.50000   -0.00590   50.45750   95.11880   42.15130   -9999.25   -9999.25    7.69290    0.02060  317.39970  334.71130    5.27560    0.31680    2.71770  666.88940    0.02120 2341.07740 2283.02860 2112.43090   -9999.25    1.91470
 5667.00000   -0.00950   50.27690   95.09150   43.57650   -9999.25   -9999.25    7.68900    0.01560  335.13880  354.47310    5.27530    0.31680    2.72410  821.60420    0.02130 2352.70340 2298.53050 2098.01200   -9999.25    1.91470
 5667.50000   -0.01090   50.17110   95.06420   45.22980   -9999.25   -9999.25    7.68090    0.01180  389.73630  499.10760    5.27500    0.31600    2.72860 1061.11690    0.02150 2359.73120 2307.83150 2102.48970   -9999.25    1.91470
 5668.00000   -0.01120   50.06530   94.85360   48.28800   -9999.25   -9999.25    7.67270    0.01000  460.12130  729.35420    5.18710    0.31490    2.72520 2016.25280    0.02130 2348.36670 2307.83150 2119.56540   -9999.25    1.91500
 5668.50000   -0.00950   49.95940   94.36790   50.95260   -9999.25   -9999.25    7.66450    0.00820  880.51960  959.60070    5.12560    0.31380    2.72190 2025.63100    0.01970 2362.15090 2305.49540 2133.22610   -9999.25    1.91120
 5669.00000   -0.00740   49.81620   93.58470   52.82590   -9999.25   -9999.25    7.78190    0.00710  964.35140  761.20040    5.12380    0.31400    2.71850 1507.63770    0.01820 2362.15090 2305.49540 2133.22610   -9999.25    1.91130
 5669.50000   -0.00820   49.81320   95.08470   53.28450   -9999.25   -9999.25    7.90110    0.00600  589.75720  562.80010    5.18190    0.31270    2.72050  425.74240    0.01660 2359.36650 2303.54830 2134.56980   -9999.25    1.91130
 5670.00000   -0.01290   49.88380   95.20910   53.07690   -9999.25   -9999.25    7.88000    0.00610  287.47240  364.39980    5.24490    0.31140    2.73420  374.23660    0.01720 2344.71140 2292.37210 2134.83840   -9999.25    1.91140
 5670.50000   -0.01540   49.90950   94.91900   -9999.25   -9999.25   -9999.25    7.82660    0.00620  306.52240  471.18560    5.33360    0.31010    2.73300  398.99510    0.01730 2330.05660 2281.19580 2134.83840   -9999.25    1.90610
 5671.00000   -0.01210   50.14050   94.62890   -9999.25   -9999.25   -9999.25    7.77320    0.00640  562.45910  604.55270    5.31380    0.30320    2.72730 1338.53800    0.01820 2321.68850 2282.31420 2118.92530   -9999.25    1.90080
 5671.50000   -0.00680   50.50840   93.89070   -9999.25   -9999.25   -9999.25    7.75180    0.00660  680.88530  737.91990    5.27220    0.30180    2.72150 1795.04550    0.02180 2339.09350 2291.62920 2107.79050   -9999.25    1.89540
 5672.00000   -0.00260   50.46250   93.11100   -9999.25   -9999.25   -9999.25    7.73330    0.00670  799.31150  871.28700    5.23060    0.30410    2.71570 2020.95240    0.02200 2356.49830 2300.94380 2096.65550   -9999.25    1.89000
 5672.50000   -0.00170   49.83120   92.26680   -9999.25   -9999.25   -9999.25    7.75000    0.01000  878.28630  904.01180    5.18900    0.30550    2.71000 1513.80320    0.01810 2363.46020 2310.25880 2085.52050   -9999.25    1.88460
 5673.00000    0.00010   49.21600   91.42970   -9999.25   -9999.25   -9999.25    7.74470    0.01230  903.02510  929.51640    5.15480    0.30760    2.70680 1531.42900    0.01060 2365.16140 2319.57350 2074.38550   -9999.25    1.90400
 5673.50000    0.00160   48.86870   91.19050   -9999.25   -9999.25   -9999.25    7.73300    0.01180  920.13510  968.47310    5.12070    0.30970    2.70590 1720.94060    0.00760 2348.13600 2306.47780 2068.11450   -9999.25    1.90630
 5674.00000    0.00440   48.71180   90.95140   -9999.25   -9999.25   -9999.25    7.72120    0.01130  987.73560 1075.82360    5.08650    0.31180    2.70530 1954.51680    0.00660 2319.05220 2287.77950 2109.68480   -9999.25    1.91260
 5674.50000    0.00500   48.47820   90.86460   -9999.25   -9999.25   -9999.25    7.70950    0.01160 1055.37430 1096.21790    5.06540    0.31310    2.70470 1955.87440    0.00560 2328.91820 2284.90040 2126.31270   -9999.25    1.91890
 5675.00000    0.00250   48.32310   91.01020   -9999.25   -9999.25   -9999.25    7.72100    0.01500  829.06700  852.80470    5.06380    0.31310    2.70520 1552.00590    0.00520 2328.91820 2305.74950 2126.31270   -9999.25    1.91890
