~Version ---------------------------------------------------
VERS.   2.0 : CWLS log ASCII Standard -VERSION 2.0
WRAP.    NO : One line per depth step
DLM . SPACE : Column Data Section Delimiter
~Well ------------------------------------------------------
STRT .FT                 408.0 : START DEPTH
STOP .FT                5705.0 : STOP DEPTH
STEP .FT                   0.5 : STEP
NULL .                -9999.25 : NULL VALUE
COMP .                         : COMPANY
WELL .                         : WELL
FLD  .                         : FIELD
LOC  .                         : LOCATION
PROV .                         : PROVINCE
CNTY .                         : COUNTY
STAT .                         : STATE
CTRY .                         : COUNTRY
SRVC .                         : SERVICE COMPANY
DATE .                         : DATE
UWI  .                         : UNIQUE WELL ID
API  .                         : API NUMBER
SLAT .WGS84 1.4511292693435998 : SURFACE LATITUDE
SLON .WGS84  7.402666333495006 : SURFACE LONGITUDE
DATUM.F                2449.11 : DEPTH DATUM ELEV
~Curve Information -----------------------------------------
DEPT   .FT        : DEPTH FEET
DPHZ_LS.DEC       : DENSITY POROSITY LIMESTONE [M=2.71, F=1] FROM CNL-LDT LOG
DTCO   .US/F      : DELTA TIME FROM DAC LOG
DTSM   .US/F      : DELTA TIME FROM DAC LOG
GRD    .GAPI      : GAMMA RAY FROM CNL-LDT LOG
GRR    .GAPI      : GAMMA RAY FROM ALAT-MCFL LOG
GRS    .GAPI      : GAMMA RAY FROM DAC LOG
HCALR  .IN        : HRCC CALIPER FROM ALAT-MCFL LOG
HDRA   .G/C3      : DENSITY CORRECTION FROM CNL-LDT LOG
HLLD   .OHMM      : DEEP LATEROLOG RESISTIVITY FROM ALAT-MCFL LOG
HLLS   .OHMM      : SHALLOW LATEROLOG RESISTIVITY FROM ALAT-MCFL LOG
PEFZ   .B/E       : PHOTOELECTRIC FACTOR STANDARD RESOLUTION FROM CNL-LDT LOG
PR     .UNITLESS  : POISSON RATIO FROM DAC LOG
RHOB   .G/C3      : BULK DENSITY FROM CNL-LDT LOG
RXOZ   .OHMM      : STANDARD RESOLUTION INVADED ZONE RESISTIVITY FROM ALAT-MCFL LOG
SPHI_LS.DEC       : SONIC POROSITY LIMESTONE [DTM=47.6, DTF=189] FROM DAC LOG
TEND   .LB        : TENSION FROM CNL-LDT LOG
TENR   .LB        : TENSION FROM FROM ALAT-MCFL LOG
TENS   .LB        : TENSION FROM DAC LOG
TNPH_LS.DEC       : THERMAL NEUTRON POROSITY LIMESTONE FROM CNL-LDT LOG
VPVS   .UNITLESS  : RATIO OF COMPRESSIONAL TO SHEAR VELOCITIES FROM DAC LOG
~Params ----------------------------------------------------
~Other -----------------------------------------------------
~ASCII -----------------------------------------------------
# ...
 5605.50000   -0.00140   64.25220  114.81670  116.90720  119.16580  100.67000    8.02380    0.01860   33.28680   36.55790    3.81950    0.27170    2.71160   30.21570    0.12480 2319.81080 2234.37380 2115.05960    0.12390    1.79280
 5606.00000    0.00400   65.35480  116.34790  122.50620  123.88110  106.88780    8.02380    0.01940   31.52820   34.00050    3.69900    0.26790    2.69940   26.98300    0.13200 2318.63090 2260.04660 2115.05960    0.13080    1.79660
 5606.50000    0.00890   66.90120  118.36830  126.36780  126.46460  108.53340    8.02380    0.02210   29.76950   31.05590    3.52940    0.26720    2.69010   25.66870    0.13810 2342.22530 2245.12990 2115.05960    0.13600    1.79210
 5607.00000    0.00850   67.58400  120.59630  127.45030  128.51270  110.15770    8.02380    0.02370   28.01090   29.94850    3.47300    0.26900    2.69780   25.66540    0.14610 2324.44950 2230.21340 2115.05960    0.13930    1.79250
 5607.50000   -0.00040   68.80220  124.08670  131.63390  132.06810  115.62060    8.02380    0.02130   26.18620   26.62180    3.51830    0.27070    2.70680   15.75940    0.15700 2320.89430 2224.24680 2115.05960    0.14360    1.79430
 5608.00000   -0.00740   70.37740  124.87480  146.86560  140.50740  127.03840    8.02380    0.01060   24.31730   24.31500    3.59900    0.27250    2.71580   14.51420    0.16620 2320.89430 2224.24680 2115.05960    0.14650    1.79600
 5608.50000   -0.00160   71.29850  124.98940  149.77730  150.29160  135.11170    8.02380    0.00170   22.98580   23.87580    3.66690    0.27170    2.71440   14.24680    0.17220 2320.89430 2224.24680 2145.26150    0.14710    1.79770
 5609.00000    0.00800   71.31210  124.88310  157.38680  154.79590  138.53490    8.02380    0.00130   23.17500   25.77940    3.66900    0.26720    2.70200   20.63050    0.17220 2320.89430 2224.24680 2129.94410    0.14710    1.78860
 5609.50000    0.01640   71.19440  124.28410  159.48160  159.54410  138.36320    8.02380    0.00080   26.19430   28.95410    3.64960    0.26440    2.69200   26.73710    0.17130 2320.89430 2224.24680 2114.62700    0.14740    1.76840
 5610.00000    0.01820   70.91500  124.27180  164.30660  162.85700  141.30660    8.02380    0.00040   29.21370   32.12880    3.63010    0.26400    2.68250   29.37460    0.17010 2320.89430 2224.24680 2115.08350    0.14770    1.76840
 5610.50000    0.01990   71.43900  124.25950  170.46140  168.16880  148.42380    8.02380   -0.00010   30.42570   32.76990    3.61780    0.26360    2.67520   29.91830    0.17060 2320.89430 2224.24680 2115.54030    0.14920    1.76840
 5611.00000    0.02420   71.32330  124.24720  174.34410  173.48070  150.78960    8.02380   -0.00050   30.43310   32.00820    3.63410    0.26330    2.66940   29.02170    0.17190 2320.89430 2224.24680 2115.99680    0.14650    1.77500
 5611.50000    0.02820   71.20770  124.23490  160.30740  170.72010  151.61920    8.02380   -0.00100   29.89440   29.64430    3.65050    0.26130    2.66360   28.09540    0.17070 2320.89430 2224.24680 2116.45360    0.14120    1.76460
 5612.00000    0.02710   70.97210  122.81300  149.70870  161.16530  137.91340    8.02380   -0.00140   28.84900   27.28040    3.66680    0.25940    2.66130   27.68260    0.16730 2311.74580 2224.24680 2116.91020    0.13750    1.76110
 5612.50000    0.01940   70.12820  121.02620  129.61470  151.61050  123.50790    8.02380   -0.00120   26.89810   24.91650    3.68320    0.25950    2.67320   26.46950    0.16300 2302.05880 2224.24680 2117.36670    0.13430    1.76230
 5613.00000    0.00440   67.92640  118.81160  115.26510  118.99290  114.56320    8.02380    0.00310   24.94720   22.55260    3.68530    0.26310    2.69520   23.30350    0.15350 2292.37160 2224.24680 2117.82320    0.13380    1.77150
 5613.50000   -0.01250   66.84470  116.59700  104.45190  106.56850  102.55920    8.02380    0.01090   22.99630   20.18870    3.61340    0.26670    2.71780   20.48920    0.13950 2282.68480 2224.24680 2118.50950    0.13320    1.78080
 5614.00000   -0.02330   65.99030  114.38240   97.29230   99.84780   92.91060    8.02380    0.01810   21.04540   19.24610    3.54140    0.27020    2.73020   19.25080    0.13300 2272.99780 2224.24680 2119.53960    0.12800    1.79010
 5614.50000   -0.02230   64.92250  112.16780   93.95820   95.21780   85.86210    8.02380    0.03060   20.65830   19.33850    3.46950    0.27380    2.74250   18.72630    0.12480 2278.16380 2224.24680 2120.56980    0.12050    1.79940
 5615.00000   -0.01510   63.10560  109.90310   92.19360   93.05420   80.20630    8.02380    0.03660   21.53900   20.51480    3.42850    0.27480    2.74740   19.34500    0.11270 2287.04300 2224.24680 2121.60010    0.11590    1.80860
 5615.50000   -0.00990   62.21740  108.28170   90.24430   91.69970   76.66990    8.02380    0.03660   23.73040   21.66570    3.43410    0.27360    2.74150   20.11730    0.10590 2295.92210 2224.24680 2122.63010    0.11220    1.80890
 5616.00000   -0.00770   61.88680  107.69860   89.13140   90.34530   74.28730    8.02380    0.02840   25.92180   22.46970    3.43970    0.27160    2.73160   20.88960    0.10020 2297.68680 2224.24680 2123.66040    0.11260    1.79670
 5616.50000   -0.00610   61.73120  108.14940   88.38260   89.67860   76.32440    8.02380    0.01710   24.81160   22.47520    3.40750    0.27100    2.72180   21.08470    0.10110 2288.77950 2224.24680 2124.69070    0.11620    1.78540
 5617.00000   -0.00650   62.32050  109.71000   86.80950   87.97810   77.69330    8.02380    0.01150   23.70130   21.42940    3.39470    0.27030    2.71920   20.71190    0.10560 2313.81790 2224.24680 2125.72090    0.12080    1.78510
 5617.50000   -0.00680   62.93820  110.09400   84.83790   86.08450   75.81550    8.02380    0.01380   22.81610   20.38360    3.38190    0.26810    2.71890   19.11000    0.11160 2309.85350 2224.24680 2126.75120    0.12680    1.78240
 5618.00000   -0.00680   63.48210  110.47810   85.35470   84.91120   75.55700    8.02380    0.02010   21.98710   20.17850    3.38990    0.26670    2.71800   18.33340    0.11560 2305.88920 2224.24680 2127.78130    0.12880    1.77960
 5618.50000   -0.00680   63.77590  111.02040   87.76970   87.56960   76.52600    8.02380    0.02540   21.65760   20.09280    3.41780    0.26460    2.71700   18.01440    0.11760 2301.92480 2224.24680 2128.81150    0.12600    1.77190
 5619.00000   -0.00510   63.76090  111.60240   91.58840   92.33360   77.07060    8.02380    0.02040   21.66300   19.29610    3.46860    0.26650    2.71610   18.30540    0.11680 2297.96040 2224.24680 2129.84180    0.11880    1.77420
 5619.50000   -0.00280   63.74600  112.18430   88.67360   90.94720   75.73450    8.02380    0.01500   21.67060   18.78430    3.55450    0.26960    2.71520   18.32230    0.11610 2293.99610 2242.87060 2122.04910    0.11520    1.77720
 5620.00000   -0.00300   63.73100  112.76630   85.63260   87.64920   74.39840    8.02380    0.00840   21.67560   18.28600    3.64330    0.27270    2.71420   18.72370    0.11700 2290.03200 2227.05470 2108.37450    0.11710    1.78020
 5620.50000   -0.00580   63.75530  112.88760   84.23200   84.26540   78.00490    8.02380    0.00350   21.67250   17.95540    3.65980    0.27340    2.71620   18.62120    0.11800 2286.06760 2224.13750 2075.34060    0.11890    1.78320
 5621.00000   -0.01120   63.93640  112.89370   87.44520   87.33120   83.71340    8.02380    0.00350   21.66940   17.95270    3.57840    0.27330    2.73180   18.13080    0.11880 2278.52810 2225.24610 2076.85420    0.12080    1.78620
 5621.50000   -0.01160   64.08130  112.89980   91.77000   92.00400   87.40350    8.02380    0.00490   22.26230   17.95050    3.47970    0.27080    2.73150   18.96370    0.11970 2258.22190 2216.13990 2078.36820    0.12200    1.78750
 5622.00000   -0.00980   64.32100  112.03450   92.79760   93.51730   90.27780    8.03010    0.00660   22.25980   17.94780    3.41770    0.26670    2.72300   19.14130    0.12150 2251.94600 2208.85470 2079.88210    0.11980    1.78780
 5622.50000   -0.00910   64.19370  111.31330   92.80750   93.51790   88.49770    8.02360    0.00830   22.25660   18.02600    3.48150    0.26540    2.72500   19.38980    0.12030 2270.85350 2217.69800 2081.39580    0.11170    1.77910
