~Version ---------------------------------------------------
VERS.   2.0 : CWLS log ASCII Standard -VERSION 2.0
WRAP.    NO : One line per depth step
DLM . SPACE : Column Data Section Delimiter
~Well ------------------------------------------------------
STRT .FT                 408.0 : START DEPTH
STOP .FT                5705.0 : STOP DEPTH
STEP .FT                   0.5 : STEP
NULL .                -9999.25 : NULL VALUE
COMP .                         : COMPANY
WELL .                         : WELL
FLD  .                         : FIELD
LOC  .                         : LOCATION
PROV .                         : PROVINCE
CNTY .                         : COUNTY
STAT .                         : STATE
CTRY .                         : COUNTRY
SRVC .                         : SERVICE COMPANY
DATE .                         : DATE
UWI  .                         : UNIQUE WELL ID
API  .                         : API NUMBER
SLAT .WGS84 1.4511292693435998 : SURFACE LATITUDE
SLON .WGS84  7.402666333495006 : SURFACE LONGITUDE
DATUM.F                2449.11 : DEPTH DATUM ELEV
~Curve Information -----------------------------------------
DEPT   .FT        : DEPTH FEET
DPHZ_LS.DEC       : DENSITY POROSITY LIMESTONE [M=2.71, F=1] FROM CNL-LDT LOG
DTCO   .US/F      : DELTA TIME FROM DAC LOG
DTSM   .US/F      : DELTA TIME FROM DAC LOG
GRD    .GAPI      : GAMMA RAY FROM CNL-LDT LOG
GRR    .GAPI      : GAMMA RAY FROM ALAT-MCFL LOG
GRS    .GAPI      : GAMMA RAY FROM DAC LOG
HCALR  .IN        : HRCC CALIPER FROM ALAT-MCFL LOG
HDRA   .G/C3      : DENSITY CORRECTION FROM CNL-LDT LOG
HLLD   .OHMM      : DEEP LATEROLOG RESISTIVITY FROM ALAT-MCFL LOG
HLLS   .OHMM      : SHALLOW LATEROLOG RESISTIVITY FROM ALAT-MCFL LOG
PEFZ   .B/E       : PHOTOELECTRIC FACTOR STANDARD RESOLUTION FROM CNL-LDT LOG
PR     .UNITLESS  : POISSON RATIO FROM DAC LOG
RHOB   .G/C3      : BULK DENSITY FROM CNL-LDT LOG
RXOZ   .OHMM      : STANDARD RESOLUTION INVADED ZONE RESISTIVITY FROM ALAT-MCFL LOG
SPHI_LS.DEC       : SONIC POROSITY LIMESTONE [DTM=47.6, DTF=189] FROM DAC LOG
TEND   .LB        : TENSION FROM CNL-LDT LOG
TENR   .LB        : TENSION FROM FROM ALAT-MCFL LOG
TENS   .LB        : TENSION FROM DAC LOG
TNPH_LS.DEC       : THERMAL NEUTRON POROSITY LIMESTONE FROM CNL-LDT LOG
VPVS   .UNITLESS  : RATIO OF COMPRESSIONAL TO SHEAR VELOCITIES FROM DAC LOG
~Params ----------------------------------------------------
~Other -----------------------------------------------------
~ASCII -----------------------------------------------------
# ...
 5518.00000    0.09860   60.49500   95.43940   11.98800   12.03330    8.29240    7.73920   -0.00500   20.11130   16.17510    2.41400    0.20830    2.54200    9.42740    0.09370 2329.68530 2289.26880 2042.79470    0.08820    1.64920
 5518.50000    0.10960   59.66470   93.83980   12.77240   12.75040    9.69380    7.73000   -0.00630   29.01850   24.08490    2.39270    0.19560    2.54470    7.51890    0.08690 2339.96190 2301.71830 2044.45870    0.07570    1.62820
 5519.00000    0.10870   58.58050   90.92250   14.26160   14.02200   11.09520    7.72070   -0.00480   46.77540   50.60390    2.37620    0.18290    2.54740    7.21640    0.07730 2380.28710 2326.15260 2046.12280    0.06230    1.60490
 5519.50000    0.08810   56.72710   88.71500   15.75080   14.91420   11.87000    7.71140   -0.00160   99.93140  111.77780    2.35970    0.17740    2.56640   27.52240    0.06270 2412.54740 2358.03810 2047.78690    0.04890    1.59800
 5520.00000    0.06360   55.32170   87.09550   17.23990   16.81280   13.00570    7.75460    0.00150  153.08730  172.95180    2.34320    0.18050    2.60980   33.66030    0.05570 2391.91090 2368.61060 2049.45090    0.03560    1.60140
 5520.50000    0.04980   53.96210   85.47590   18.72910   19.11890   13.28470    7.83290    0.00470  206.24330  234.12580    2.38650    0.19580    2.63020  181.71230    0.04580 2365.56200 2356.12480 2051.11500    0.02900    1.61610
 5521.00000    0.04740   53.11870   84.82980   20.68840   20.88780   14.03160    7.84680    0.00740  242.51800  225.96340    2.46470    0.20080    2.63320  209.02650    0.03550 2351.23900 2343.63890 2052.77930    0.02740    1.63080
 5521.50000    0.05560   52.98440   85.53570   21.07910   21.29250   14.07480    7.81490    0.00820  234.03500  216.09350    2.49510    0.19910    2.62460  223.93990    0.03680 2355.07470 2331.15310 2054.44310    0.02520    1.64030
 5522.00000    0.06660   53.64380   87.29220   20.50220   20.86720   14.11800    7.79560    0.00890  249.85480  238.35080    2.54340    0.19810    2.61570  192.12560    0.04370 2351.42410 2318.66720 2056.10740    0.01960    1.64210
 5522.50000    0.07280   54.91330   89.04870   19.92540   20.15550   14.83680    7.80850    0.01020  328.36910  349.09700    2.69290    0.19880    2.60300  292.38000    0.05370 2347.77340 2306.18140 2057.77150    0.01500    1.64050
 5523.00000    0.06900   56.56120   90.80520   20.23950   20.13950   15.01140    7.82760    0.01220  375.57050  415.59590    2.86830    0.19950    2.60150  596.03840    0.06350 2344.12260 2293.69560 2059.43550    0.01170    1.64170
 5523.50000    0.04990   56.79490   92.56170   20.10250   20.12340   15.29930    7.85100    0.01360  328.50240  404.75460    2.99180    0.20030    2.62120  623.66580    0.06810 2367.99320 2334.47340 2061.09960    0.00730    1.65040
 5524.00000    0.04320   56.43830   91.36960   18.47970   19.01800   15.66280    7.86040    0.01400  281.38770  394.14690    3.20680    0.20880    2.63370  439.20440    0.06520 2433.14530 2410.76070 2062.76370    0.00290    1.66100
 5524.50000    0.04230   55.53270   91.06030   17.74070   17.50700   15.66520    7.86040    0.01630  570.91160  603.65680    3.13410    0.21820    2.64110  735.53630    0.05780 2472.02370 2472.58250 2064.42770    0.00130    1.66600
 5525.00000    0.04360   54.72990   90.97160   17.54170   17.29090   14.99770    7.82800    0.02620 1016.65260  620.65940    3.04740    0.22800    2.64190 1228.91980    0.05360 2455.15310 2437.98750 2066.09180   -0.00020    1.68560
 5525.50000    0.04370   53.98650   90.00530   17.53770   17.76810   14.60880    7.81300    0.03020 1029.57930  568.09980    3.03170    0.23110    2.64160  415.52320    0.04560 2438.28270 2403.72090 2067.75590    0.00230    1.69390
 5526.00000    0.04400   53.54210   89.57720   16.49380   17.51630   13.76590    7.79790    0.03490 1030.19460  469.36270    3.05400    0.23610    2.63840  386.25400    0.04130 2430.73070 2403.72090 2069.41990    0.00480    1.70430
 5526.50000    0.04650   53.22340   90.36660   15.23900   16.69510   13.11890    7.76200    0.03580 1030.81040  946.78570    3.13090    0.24110    2.63430  892.94320    0.04040 2429.39160 2403.72090 2071.08400    0.00680    1.71470
 5527.00000    0.05020   53.20960   90.79820   13.97740   15.12830   12.80100    7.74570    0.03740 1013.03480 1042.39510    3.14870    0.24420    2.62950  164.27770    0.04040 2428.05200 2397.63770 2060.78490    0.00930    1.72300
 5527.50000    0.05470   53.45150   91.14490   13.95330   14.42990   12.70020    7.73910    0.03800  752.14880  932.82830    3.16870    0.24120    2.61990   54.49570    0.04220 2407.08860 2380.34180 2058.75370    0.01080    1.71430
 5528.00000    0.05870   53.82420   91.15190   14.30220   13.61700   12.59940    7.74240    0.03460  331.26470  520.43790    3.20880    0.23250    2.61600   51.84520    0.04450 2381.21900 2363.04590 2056.72220    0.01100    1.69150
 5528.50000    0.06130   54.62360   91.15890   15.74340   17.01940   13.34150    7.74610    0.02970  264.93320  330.76330    3.24890    0.22280    2.61620   99.47890    0.04960 2365.42430 2345.75000 2054.69090    0.01130    1.67560
 5529.00000    0.05600   54.97720   91.16590   20.69720   21.27130   15.48650    7.74990    0.02080  232.08670  299.58960    3.28900    0.21740    2.62250  115.78270    0.05420 2352.14820 2328.45410 2052.65940    0.01150    1.67450
 5529.50000    0.04440   54.70960   91.17280   25.90020   24.81680   19.14470    7.75360    0.01360  221.95240  297.07380    3.34310    0.22390    2.63180  115.52790    0.05280 2349.06810 2327.00880 2050.62820    0.01230    1.69370
 5530.00000    0.03890   54.46820   94.27830   30.59880   27.89140   24.99090    7.79390    0.01850  219.98580  300.09340    3.41810    0.23620    2.65000  135.08790    0.05100 2382.41240 2349.33940 2048.59670    0.01810    1.71700
 5530.50000    0.02730   55.93440   97.10540   39.16820   39.93890   33.09150    7.84410    0.02590  316.15750  302.68480    3.46240    0.24880    2.67060  264.11810    0.05150 2403.07890 2371.67020 2046.56540    0.02690    1.72620
 5531.00000    0.00780   60.14980  101.39800   65.68200   57.87620   49.62030    7.89430    0.02930  259.92720  224.48040    3.46180    0.25130    2.69110  220.47620    0.09050 2392.77320 2354.49100 2044.53410    0.04420    1.74460
 5531.50000   -0.00130   63.72730  114.03720  106.57870   99.37260   86.26510    7.93450    0.03260  137.32940  122.69180    3.37480    0.27050    2.70750  100.19350    0.11250 2374.49760 2337.31180 2042.50270    0.09540    1.76300
 5532.00000    0.02530   67.08690  123.00970  142.17010  140.86900  116.03740    7.96080    0.02850   85.51100   69.85570    3.33340    0.27070    2.64960   79.88010    0.13950 2356.22170 2320.13230 2040.47130    0.14670    1.78170
 5532.50000    0.10470   71.31840  126.92470  173.84980  173.87440  150.37090    7.99920    0.02020   52.64270   44.84490    3.29600    0.26900    2.55310   53.25260    0.16740 2337.94600 2302.95310 2038.43990    0.19790    1.77970
 5533.00000    0.12160   75.54990  128.09040  168.47790  162.74030  155.09860    8.03760    0.01670   32.40790   26.79040    3.27480    0.25970    2.51460   27.22130    0.19670 2323.42360 2298.20680 2036.40860    0.18850    1.75030
 5533.50000    0.08000   75.32010  127.16640  153.39600  151.60610  150.67660    8.07600    0.01370   16.07350   15.74200    3.25790    0.25030    2.59080   16.85710    0.19960 2323.91460 2307.24000 2034.37720    0.17270    1.74250
 5534.00000    0.03620   73.30680  123.55300  127.13460  128.67860  127.79770    8.09510    0.01130   16.07140   15.52770    3.27640    0.25840    2.66710   14.26320    0.17830 2324.40530 2316.27340 2032.34590    0.15690    1.77110
 5534.50000   -0.00730   69.94810  119.80740  109.21530  109.83110  113.01680    8.11420    0.00830   16.66120   16.48390    3.30040    0.26720    2.72690   15.14960    0.15470 2324.89620 2325.30690 2030.31450    0.15910    1.79920
 5535.00000   -0.00790   67.55120  118.33140  103.95730  104.16680  103.47910    8.13340    0.00830   16.96300   18.07900    3.32430    0.26900    2.72090   16.34000    0.14600 2325.38720 2334.34010 2028.28310    0.16200    1.80870
