~Version ---------------------------------------------------
VERS.   2.0 : CWLS log ASCII Standard -VERSION 2.0
WRAP.    NO : One line per depth step
DLM . SPACE : Column Data Section Delimiter
~Well ------------------------------------------------------
STRT .FT                 408.0 : START DEPTH
STOP .FT                5705.0 : STOP DEPTH
STEP .FT                   0.5 : STEP
NULL .                -9999.25 : NULL VALUE
COMP .                         : COMPANY
WELL .                         : WELL
FLD  .                         : FIELD
LOC  .                         : LOCATION
PROV .                         : PROVINCE
CNTY .                         : COUNTY
STAT .                         : STATE
CTRY .                         : COUNTRY
SRVC .                         : SERVICE COMPANY
DATE .                         : DATE
UWI  .                         : UNIQUE WELL ID
API  .                         : API NUMBER
SLAT .WGS84 1.4511292693435998 : SURFACE LATITUDE
SLON .WGS84  7.402666333495006 : SURFACE LONGITUDE
DATUM.F                2449.11 : DEPTH DATUM ELEV
~Curve Information -----------------------------------------
DEPT   .FT        : DEPTH FEET
DPHZ_LS.DEC       : DENSITY POROSITY LIMESTONE [M=2.71, F=1] FROM CNL-LDT LOG
DTCO   .US/F      : DELTA TIME FROM DAC LOG
DTSM   .US/F      : DELTA TIME FROM DAC LOG
GRD    .GAPI      : GAMMA RAY FROM CNL-LDT LOG
GRR    .GAPI      : GAMMA RAY FROM ALAT-MCFL LOG
GRS    .GAPI      : GAMMA RAY FROM DAC LOG
HCALR  .IN        : HRCC CALIPER FROM ALAT-MCFL LOG
HDRA   .G/C3      : DENSITY CORRECTION FROM CNL-LDT LOG
HLLD   .OHMM      : DEEP LATEROLOG RESISTIVITY FROM ALAT-MCFL LOG
HLLS   .OHMM      : SHALLOW LATEROLOG RESISTIVITY FROM ALAT-MCFL LOG
PEFZ   .B/E       : PHOTOELECTRIC FACTOR STANDARD RESOLUTION FROM CNL-LDT LOG
PR     .UNITLESS  : POISSON RATIO FROM DAC LOG
RHOB   .G/C3      : BULK DENSITY FROM CNL-LDT LOG
RXOZ   .OHMM      : STANDARD RESOLUTION INVADED ZONE RESISTIVITY FROM ALAT-MCFL LOG
SPHI_LS.DEC       : SONIC POROSITY LIMESTONE [DTM=47.6, DTF=189] FROM DAC LOG
TEND   .LB        : TENSION FROM CNL-LDT LOG
TENR   .LB        : TENSION FROM FROM ALAT-MCFL LOG
TENS   .LB        : TENSION FROM DAC LOG
TNPH_LS.DEC       : THERMAL NEUTRON POROSITY LIMESTONE FROM CNL-LDT LOG
VPVS   .UNITLESS  : RATIO OF COMPRESSIONAL TO SHEAR VELOCITIES FROM DAC LOG
~Params ----------------------------------------------------
~Other -----------------------------------------------------
~ASCII -----------------------------------------------------
# ...
 5465.50000    0.38540   85.12930  152.33220    8.19940    8.46490    6.10030    8.29500   -0.00310    1.38880    0.67840    1.73080    0.28110    2.07910    0.45060    0.27430 2253.84130 2222.44750 2005.98460    0.24850    1.81040
 5466.00000    0.39390   85.36020  151.57210    8.19940    8.07360    6.47220    8.30140   -0.00370    1.53620    0.67840    1.76110    0.27270    2.06960    0.44690    0.27560 2254.70040 2223.36550 2005.98460    0.23680    1.79430
 5466.50000    0.39360   85.81940  150.66430    8.19940    8.63290    7.18700    8.30780   -0.00440    1.68370    0.71380    1.77350    0.26420    2.07500    0.49300    0.27870 2255.55960 2224.28320 2005.98460    0.23360    1.77830
 5467.00000    0.38580   87.84400  151.10170    8.70740    9.21820    8.17250    8.31420   -0.00340    1.80720    0.74910    1.75730    0.25430    2.09240    0.53110    0.28800 2256.41870 2225.20090 2005.98460    0.23600    1.75140
 5467.50000    0.37810   88.71000  151.84530    9.22710    9.87800    8.36090    8.29500   -0.00130    1.83500    0.78440    1.73160    0.24870    2.10280    0.56270    0.29630 2257.27760 2226.11890 2005.98460    0.23610    1.73260
 5468.00000    0.37500   90.01900  152.58880    9.64240   10.12380    7.66110    8.26950    0.00080    1.86280    0.77340    1.70590    0.24310    2.10280    0.53020    0.31310 2258.13670 2227.03660 2005.98460    0.22610    1.72000
 5468.50000    0.38140   91.37290  153.33240   10.05770   10.36960    7.22940    8.24400    0.00280    1.83540    0.73150    1.68020    0.23750    2.09800    0.48730    0.32320 2258.99580 2227.95460 2005.98460    0.21810    1.70750
 5469.00000    0.38760   91.80560  153.86950   10.39930   10.97260    7.19980    8.21850    0.00490    1.58700    0.68960    1.66040    0.23500    2.08590    0.44940    0.32170 2259.85500 2228.87230 2005.98460    0.22110    1.69800
 5469.50000    0.39280   91.13280  153.58110   11.17830   11.42680    7.17020    8.19300    0.00490    1.58690    0.64770    1.71980    0.24070    2.07860    0.43180    0.31580 2260.71410 2229.79000 2005.98460    0.23600    1.71190
 5470.00000    0.39080   90.32990  151.72030   11.61010   12.18250    7.14050    8.17800    0.00440    1.61490    0.63040    1.77920    0.24760    2.07990    0.43990    0.30810 2261.57300 2230.70800 2005.98460    0.25090    1.69780
 5470.50000    0.38350   89.07170  148.81130   12.04180   12.77160    7.11090    8.16550    0.00440    1.87120    0.71340    1.83860    0.22800    2.08190    0.48110    0.30030 2262.43210 2231.62570 2005.98460    0.26020    1.68360
 5471.00000    0.37190   88.47920  145.18080   11.93600   12.21500    7.08130    8.15300    0.00450    2.17020    0.87760    1.88610    0.20940    2.11560    0.52630    0.29830 2263.29130 2232.54350 2005.98460    0.24780    1.65970
 5471.50000    0.35240   86.45880  141.06930   11.33120   11.84190    7.05170    8.07070    0.00350    2.46920    1.04180    1.86230    0.19460    2.16630    0.65490    0.29070 2264.15040 2233.46120 2005.98460    0.21870    1.62930
 5472.00000    0.31090   82.94730  133.18500   10.69130   11.10860    6.44710    7.98830    0.00260    3.71050    1.38260    1.83240    0.17750    2.23130    0.94720    0.27330 2245.11470 2234.37920 2005.98460    0.18960    1.60270
 5472.50000    0.28810   79.02070  124.05350   10.21650   10.37540    5.84250    7.91520    0.00100    3.77670    1.76760    1.80480    0.15840    2.30280    1.52400    0.23850 2256.29810 2235.29690 2005.98460    0.16050    1.57620
 5473.00000    0.22600   78.28420  120.62520   10.40230   10.73940    6.42310    7.88860   -0.00060    3.47660    2.45930    1.79560    0.13930    2.34300    2.38550    0.22490 2267.48170 2236.21460 2005.98460    0.16050    1.54970
 5473.50000    0.22600   78.99140  120.05600   10.58810   10.94080    6.94350    7.88370    0.00060    3.17670    2.16790    1.83080    0.12020    2.34700    2.03610    0.22650 2278.66530 2257.25240 2005.98460    0.16300    1.52850
 5474.00000    0.23790   79.05480  119.48680   11.00220   11.56230    7.50700    7.88160    0.00510    3.32240    1.62700    1.90730    0.11940    2.34230    1.39190    0.22720 2289.84890 2291.70340 2005.98460    0.16810    1.54200
 5474.50000    0.25280   77.52250  118.91770   11.47330   12.18430    8.07040    7.89030    0.00960    3.50650    1.67120    2.01760    0.14100    2.32780    1.04280    0.22080 2301.03250 2298.60130 2005.98460    0.17330    1.55750
 5475.00000    0.25530   74.41100  118.34850   10.97780   11.59510    8.07040    7.89900    0.01410    4.06560    2.10870    2.17860    0.17530    2.31560    1.32880    0.19880 2271.01810 2262.51390 2005.98460    0.17840    1.58730
 5475.50000    0.24060   71.50100  117.03230    9.70880   10.73360    8.01630    7.90780    0.01870    5.05970    3.12730    2.33960    0.20350    2.31000    1.74350    0.17810 2241.00390 2226.42650 2018.84630    0.18360    1.61700
 5476.00000    0.23180   70.75030  114.59550    9.58390   10.27820    7.46150    7.91650    0.02320    6.05380    3.73790    2.50060    0.21460    2.30550    1.86510    0.16910 2241.00390 2184.01250 2018.26180    0.18550    1.65060
 5476.50000    0.24840   70.34860  112.90830    9.74490    9.82280    6.90670    7.92520    0.02770    5.67880    3.55210    2.50100    0.19500    2.27570    1.37610    0.16390 2239.84230 2193.39430 2017.67750    0.19400    1.63500
 5477.00000    0.26930   70.21450  114.32370    9.90590   10.36850    6.77450    7.92690    0.03220    4.38810    2.63010    2.40230    0.20170    2.20810    0.85130    0.16250 2246.26440 2203.19140 2017.09310    0.21120    1.65500
 5477.50000    0.29010   73.20780  118.68740   10.38320   10.93870    6.74790    7.95310    0.03410    2.83970    1.87520    2.23750    0.21780    2.19110    0.73060    0.17870 2252.68630 2212.98850 2016.50870    0.23880    1.67040
 5478.00000    0.32230   76.32830  123.05110   10.38570   10.95350    7.18710    7.97930    0.03510    3.77830    1.89140    2.07270    0.22430    2.19020    0.83470    0.20840 2259.10820 2222.78540 2015.92430    0.23400    1.66950
 5478.50000    0.31840   77.53590  127.41480   10.38820   10.96840    7.74290    7.97930    0.02800    6.12650    4.19790    2.15570    0.21830    2.19020    3.57920    0.21700 2265.53000 2232.58250 2015.33980    0.22600    1.66850
 5479.00000    0.29960   75.85900  126.87150   10.39070   10.98330    7.96180    7.97890    0.01860    8.47470    6.50430    2.31390    0.22030    2.22400   15.48420    0.20900 2271.95190 2242.37960 2014.75560    0.21800    1.67430
 5479.50000    0.17370   73.77980  125.86290   10.39320   10.99810    8.09660    7.97870    0.01660   10.44650    8.81070    2.47200    0.24770    2.42060   23.37970    0.19000 2287.64600 2236.80130 2014.17110    0.20430    1.69920
 5480.00000    0.15370   72.48660  125.86290   10.60900   11.01300    8.23140    7.96380    0.01490   10.44290    8.96870    2.50400    0.25170    2.45910    6.89250    0.18150 2317.24830 2220.97270 2013.58680    0.18730    1.72440
 5480.50000    0.16420   72.85820  125.86290   10.82490   11.02790    8.36620    7.94520    0.01210    9.98230    7.90340    2.45110    0.24940    2.45820    6.49520    0.18310 2335.41870 2205.14400 2013.00240    0.17040    1.74870
 5481.00000    0.17480   73.60150  123.74770   11.81140   11.32900    8.97540    7.92670    0.00930   10.38640    7.69180    2.35230    0.23490    2.44440    6.09780    0.18930 2275.65970 2189.31540 2012.41800    0.15340    1.71690
 5481.50000    0.17170   72.54340  120.34460   13.23830   12.77520   10.55810    7.90810    0.00650   12.85100    9.48840    2.25360    0.22090    2.42920    5.86000    0.18120 2215.90060 2149.21660 2011.83360    0.13650    1.68500
 5482.00000    0.17660   71.85010  118.29600   13.67880   13.98200   12.78350    7.88950    0.00370   14.61130   10.56500    2.15490    0.22590    2.41980    6.07740    0.16970 2200.74830 2106.87720 2011.24910    0.12140    1.67630
 5482.50000    0.18390   68.85500  115.19160   14.11940   14.23120   14.28050    7.87840    0.00200   15.29140   12.01500    2.05620    0.23090    2.41360    3.97170    0.15810 2174.81200 2064.53760 2010.66490    0.10740    1.68840
