~Version ---------------------------------------------------
VERS.   2.0 : CWLS log ASCII Standard -VERSION 2.0
WRAP.    NO : One line per depth step
DLM . SPACE : Column Data Section Delimiter
~Well ------------------------------------------------------
STRT .FT                 408.0 : START DEPTH
STOP .FT                5705.0 : STOP DEPTH
STEP .FT                   0.5 : STEP
NULL .                -9999.25 : NULL VALUE
COMP .                         : COMPANY
WELL .                         : WELL
FLD  .                         : FIELD
LOC  .                         : LOCATION
PROV .                         : PROVINCE
CNTY .                         : COUNTY
STAT .                         : STATE
CTRY .                         : COUNTRY
SRVC .                         : SERVICE COMPANY
DATE .                         : DATE
UWI  .                         : UNIQUE WELL ID
API  .                         : API NUMBER
SLAT .WGS84 1.4511292693435998 : SURFACE LATITUDE
SLON .WGS84  7.402666333495006 : SURFACE LONGITUDE
DATUM.F                2449.11 : DEPTH DATUM ELEV
~Curve Information -----------------------------------------
DEPT   .FT        : DEPTH FEET
DPHZ_LS.DEC       : DENSITY POROSITY LIMESTONE [M=2.71, F=1] FROM CNL-LDT LOG
DTCO   .US/F      : DELTA TIME FROM DAC LOG
DTSM   .US/F      : DELTA TIME FROM DAC LOG
GRD    .GAPI      : GAMMA RAY FROM CNL-LDT LOG
GRR    .GAPI      : GAMMA RAY FROM ALAT-MCFL LOG
GRS    .GAPI      : GAMMA RAY FROM DAC LOG
HCALR  .IN        : HRCC CALIPER FROM ALAT-MCFL LOG
HDRA   .G/C3      : DENSITY CORRECTION FROM CNL-LDT LOG
HLLD   .OHMM      : DEEP LATEROLOG RESISTIVITY FROM ALAT-MCFL LOG
HLLS   .OHMM      : SHALLOW LATEROLOG RESISTIVITY FROM ALAT-MCFL LOG
PEFZ   .B/E       : PHOTOELECTRIC FACTOR STANDARD RESOLUTION FROM CNL-LDT LOG
PR     .UNITLESS  : POISSON RATIO FROM DAC LOG
RHOB   .G/C3      : BULK DENSITY FROM CNL-LDT LOG
RXOZ   .OHMM      : STANDARD RESOLUTION INVADED ZONE RESISTIVITY FROM ALAT-MCFL LOG
SPHI_LS.DEC       : SONIC POROSITY LIMESTONE [DTM=47.6, DTF=189] FROM DAC LOG
TEND   .LB        : TENSION FROM CNL-LDT LOG
TENR   .LB        : TENSION FROM FROM ALAT-MCFL LOG
TENS   .LB        : TENSION FROM DAC LOG
TNPH_LS.DEC       : THERMAL NEUTRON POROSITY LIMESTONE FROM CNL-LDT LOG
VPVS   .UNITLESS  : RATIO OF COMPRESSIONAL TO SHEAR VELOCITIES FROM DAC LOG
~Params ----------------------------------------------------
~Other -----------------------------------------------------
~ASCII -----------------------------------------------------
# ...
 5290.50000   -0.06510   54.22210  100.57970   41.55430   42.76950   34.12740    8.59880   -0.00380   65.81320   44.58260    3.39240    0.29530    2.81200   53.91830    0.04850 2279.50760 2215.89700 2086.48880    0.08040    1.85480
 5291.00000   -0.06100   55.31310  104.38670   45.38190   42.81270   35.44200    8.59590   -0.01130   41.45230   33.34860    3.39450    0.29770    2.79690   22.29990    0.05600 2274.64210 2209.13870 2085.64210    0.08340    1.85930
 5291.50000   -0.04360   58.24860  108.99980   58.13400   55.56800   44.82350    8.59300   -0.00630   24.79930   22.11450    3.43290    0.29760    2.76290   13.59500    0.07450 2266.90410 2190.32570 2084.79570    0.09640    1.86750
 5292.00000   -0.01600   61.47870  114.53090   78.12170   75.90780   60.33000    8.59010    0.00030   12.75240   10.88050    3.45310    0.29570    2.72890    4.25950    0.09290 2259.16600 2179.03780 2083.94900    0.13440    1.85880
 5292.50000    0.00990   64.70890  117.84660   92.17580   93.77220   74.42030    8.59980    0.00410   11.42210   10.00250    3.45280    0.28610    2.68420    4.06340    0.11640 2251.42770 2179.03780 2083.10230    0.17230    1.81490
 5293.00000    0.02840   67.93910  117.95960   87.55570   93.23250   82.20750    8.58220    0.00820   10.09180    9.18700    3.41300    0.27720    2.65630    4.60640    0.14490 2243.68970 2179.03780 2082.25590    0.20910    1.77050
 5293.50000    0.03300   68.15640  118.25370   77.89010   81.16070   75.86920    8.56110    0.00610    9.47150    8.37150    3.37310    0.27350    2.65660    7.42790    0.15180 2235.95170 2179.03780 2081.40920    0.24500    1.76190
 5294.00000    0.02930   66.99670  118.54780   68.22460   66.47700   69.26710    8.55640    0.00410    8.64870    8.20620    3.33320    0.27430    2.66800    7.09540    0.14460 2228.21340 2179.03780 2080.56250    0.24610    1.79850
 5294.50000    0.02030   66.16810  119.17770   73.83360   71.67810   64.76920    8.55170    0.00210    8.41410    8.35330    3.30430    0.28060    2.67650    7.65120    0.13830 2225.76460 2179.03780 2079.71610    0.21340    1.83250
 5295.00000    0.02040   66.73900  119.76890   84.71150   84.70060   72.60920    8.54690    0.00000    8.78930    8.50310    3.31920    0.29050    2.67650    8.20700    0.13590 2230.11010 2179.03780 2078.86940    0.21570    1.83970
 5295.50000    0.02390   67.40320  119.87000   92.20540   92.51400   79.46960    8.54220   -0.00200    9.51820    8.97470    3.33420    0.28840    2.67170    8.76430    0.14420 2234.45560 2179.03780 2078.02270    0.22690    1.83510
 5296.00000    0.02530   67.40810  119.82200   91.28740   90.61740   76.09630    8.53750   -0.00250   10.24710    9.47240    3.34910    0.28630    2.66680    9.32710    0.14390 2238.80100 2179.03780 2077.17630    0.23540    1.83040
 5296.50000    0.02150   66.97180  120.31680   76.33030   74.72870   69.88290    8.53010   -0.00250   10.76220    9.99120    3.36410    0.28580    2.66680    9.55030    0.14160 2242.27730 2179.03780 2076.32960    0.21160    1.82580
 5297.00000    0.01360   66.59250  121.77480   76.33580   75.23290   66.21710    8.51950   -0.00060   11.88700   10.51000    3.37900    0.28870    2.67480    8.80030    0.13940 2242.27730 2179.03780 2075.48290    0.18770    1.82960
 5297.50000    0.00920   66.90760  123.23270   81.99750   82.84870   74.05040    8.51950    0.00410   13.01180   11.02880    3.43360    0.29020    2.68820   10.86500    0.13970 2242.27730 2179.03780 2074.63650    0.17170    1.84210
 5298.00000    0.01420   68.21460  125.83520   89.07330   92.05000   85.98470    8.51950    0.00870   13.24360   11.54350    3.45230    0.29390    2.69620   13.44660    0.14760 2242.27730 2199.92460 2073.78980    0.16910    1.85450
 5298.50000    0.02240   68.82010  126.90380   88.51800   85.72650   92.43420    8.51950    0.01340   12.13590   11.85640    3.47100    0.29830    2.68600   13.85970    0.15430 2242.27730 2197.13130 2072.94310    0.17950    1.86700
 5299.00000    0.02400   68.66820  126.65000   78.64490   77.82630   85.76780    8.51950    0.01800   11.02820   11.96080    3.44410    0.30110    2.67330   11.01990    0.15540 2242.27730 2194.33810 2072.09670    0.18740    1.86630
 5299.50000    0.01620   68.86130  127.93120   70.45310   69.92610   75.58920    8.51950    0.02270   10.14140   11.53150    3.38100    0.30030    2.67720    9.28610    0.15540 2231.42920 2184.99610 2071.25000    0.18320    1.86070
 5300.00000    0.00870   69.53760  130.31140   69.86810   76.37070   72.17060    8.51950    0.02950   10.94120   11.21880    3.37760    0.30040    2.69620    8.28970    0.15990 2212.65500 2171.28860 2070.40360    0.17900    1.87910
 5300.50000    0.01050   69.89210  132.69160   85.13870   87.12040   77.37610    8.51950    0.03700   11.82660   11.10820    3.37430    0.30950    2.69690    8.59250    0.16270 2215.52660 2157.58110 2069.55690    0.18450    1.90590
 5301.00000    0.01750   69.60040  133.50260   89.97520   91.41990   83.54790    8.51950    0.04440   12.35640   11.10510    3.48710    0.31310    2.66710    9.22020    0.16020 2215.52660 2143.87330 2068.71020    0.20290    1.93270
 5301.50000    0.02880   68.94760  133.97360   85.89380   86.04590   84.13180    8.51740    0.06010   11.78190    9.93860    3.58190    0.31310    2.62990    7.52600    0.15700 2217.56860 2141.53220 2067.86380    0.22060    1.93260
 5302.00000    0.04530   67.97110  126.91010   77.52640   76.92060   76.61890    8.50850    0.08380    9.93890    8.77210    3.62040    0.31210    2.60010    1.43520    0.15230 2234.93140 2157.75200 2067.01710    0.23550    1.92030
 5302.50000    0.06820   66.50890  122.56740   65.65940   64.34330   66.43380    8.49960    0.10270   10.58580    8.88950    3.60540    0.30770    2.60050    1.32240    0.13830 2252.29420 2173.97170 2066.49000    0.23730    1.90180
 5303.00000    0.06600   63.22270  115.13650   56.50380   56.23190   55.02020    8.49070    0.08110   15.48510   11.67880    3.61490    0.30340    2.64080    1.50490    0.12400 2259.23950 2177.21580 2066.04250    0.18910    1.88110
 5303.50000    0.03970   60.95830  108.25690   51.68740   53.08830   46.75430    8.48180    0.04660   22.48790   27.69900    3.64430    0.29900    2.70690    9.41930    0.08670 2259.23950 2177.21580 2065.59520    0.14100    1.86390
 5304.00000   -0.01710   56.13540  101.40740   52.03950   52.88150   42.75330    8.47280    0.01210   49.14180   52.10800    3.71020    0.30020    2.76270   56.27800    0.04300 2259.23950 2176.54910 2065.14790    0.10250    1.88480
 5304.50000   -0.03900   53.24250   99.74850   51.48160   52.10150   43.61220    8.46390   -0.00170   53.03400   40.41980    3.73360    0.30510    2.77110   40.27470    0.04270 2259.23950 2176.29250 2064.70070    0.10810    1.89040
 5305.00000   -0.03060   54.97380  100.12210   49.91480   50.21470   43.67820    8.48500    0.00170   33.97430   25.22040    3.65510    0.29580    2.75000   15.10560    0.05260 2263.73170 2176.03610 2064.25320    0.13620    1.86650
 5305.50000   -0.00120   58.56540  106.02570   50.93730   51.19650   43.74420    8.51370    0.00250   14.91460   10.02100    3.56990    0.28640    2.69780    8.48840    0.08290 2249.26900 2159.96260 2063.80590    0.16430    1.84270
 5306.00000    0.04870   63.02420  118.50550   59.22600   57.94130   46.26210    8.52410    0.00630    7.28940    6.97940    3.49790    0.28730    2.64560    2.88470    0.11320 2211.07010 2139.93510 2063.35860    0.18810    1.83220
 5306.50000    0.07750   67.69340  123.71800   73.91110   77.21760   53.79740    8.53440    0.00800    7.55590    7.10480    3.39950    0.29620    2.59340    0.58910    0.13970 2188.55910 2119.90720 2062.91110    0.18890    1.84790
 5307.00000    0.07280   70.89080  128.26640   88.37530   87.98350   65.97900    8.54470    0.01520    9.41740    7.36460    3.30100    0.28150    2.59130    0.58890    0.17850 2188.55910 2099.87960 2062.46390    0.19830    1.82820
 5307.50000    0.05640   72.94640  131.13070  100.65150  101.17820   83.37750    8.56850    0.02010   14.89110   13.50320    3.20260    0.27170    2.61530   11.32800    0.18550 2190.60080 2095.87400 2062.01660    0.20620    1.81240
