~Version ---------------------------------------------------
VERS.   2.0 : CWLS log ASCII Standard -VERSION 2.0
WRAP.    NO : One line per depth step
DLM . SPACE : Column Data Section Delimiter
~Well ------------------------------------------------------
STRT .FT                 408.0 : START DEPTH
STOP .FT                5705.0 : STOP DEPTH
STEP .FT                   0.5 : STEP
NULL .                -9999.25 : NULL VALUE
COMP .                         : COMPANY
WELL .                         : WELL
FLD  .                         : FIELD
LOC  .                         : LOCATION
PROV .                         : PROVINCE
CNTY .                         : COUNTY
STAT .                         : STATE
CTRY .                         : COUNTRY
SRVC .                         : SERVICE COMPANY
DATE .                         : DATE
UWI  .                         : UNIQUE WELL ID
API  .                         : API NUMBER
SLAT .WGS84 1.4511292693435998 : SURFACE LATITUDE
SLON .WGS84  7.402666333495006 : SURFACE LONGITUDE
DATUM.F                2449.11 : DEPTH DATUM ELEV
~Curve Information -----------------------------------------
DEPT   .FT        : DEPTH FEET
DPHZ_LS.DEC       : DENSITY POROSITY LIMESTONE [M=2.71, F=1] FROM CNL-LDT LOG
DTCO   .US/F      : DELTA TIME FROM DAC LOG
DTSM   .US/F      : DELTA TIME FROM DAC LOG
GRD    .GAPI      : GAMMA RAY FROM CNL-LDT LOG
GRR    .GAPI      : GAMMA RAY FROM ALAT-MCFL LOG
GRS    .GAPI      : GAMMA RAY FROM DAC LOG
HCALR  .IN        : HRCC CALIPER FROM ALAT-MCFL LOG
HDRA   .G/C3      : DENSITY CORRECTION FROM CNL-LDT LOG
HLLD   .OHMM      : DEEP LATEROLOG RESISTIVITY FROM ALAT-MCFL LOG
HLLS   .OHMM      : SHALLOW LATEROLOG RESISTIVITY FROM ALAT-MCFL LOG
PEFZ   .B/E       : PHOTOELECTRIC FACTOR STANDARD RESOLUTION FROM CNL-LDT LOG
PR     .UNITLESS  : POISSON RATIO FROM DAC LOG
RHOB   .G/C3      : BULK DENSITY FROM CNL-LDT LOG
RXOZ   .OHMM      : STANDARD RESOLUTION INVADED ZONE RESISTIVITY FROM ALAT-MCFL LOG
SPHI_LS.DEC       : SONIC POROSITY LIMESTONE [DTM=47.6, DTF=189] FROM DAC LOG
TEND   .LB        : TENSION FROM CNL-LDT LOG
TENR   .LB        : TENSION FROM FROM ALAT-MCFL LOG
TENS   .LB        : TENSION FROM DAC LOG
TNPH_LS.DEC       : THERMAL NEUTRON POROSITY LIMESTONE FROM CNL-LDT LOG
VPVS   .UNITLESS  : RATIO OF COMPRESSIONAL TO SHEAR VELOCITIES FROM DAC LOG
~Params ----------------------------------------------------
~Other -----------------------------------------------------
~ASCII -----------------------------------------------------
# ...
 5570.50000    0.00920   67.86860  121.12050  120.60880  123.05630  101.90130    8.29070    0.02360   22.49760   26.29110    3.51340    0.27650    2.69030   20.51870    0.14790 2311.07470 2259.68020 2094.94460    0.13060    1.80480
 5571.00000    0.01300   67.47580  119.91520  129.95810  130.50060  108.74760    8.28980    0.02010   22.08440   24.19930    3.54710    0.27750    2.68790   20.96130    0.14370 2295.43580 2244.92600 2092.90480    0.13430    1.80170
 5571.50000    0.01500   67.39720  119.73900  132.26060  134.69320  116.31690    8.28890    0.01840   24.62540   22.17780    3.60420    0.27470    2.68600   21.06020    0.14370 2311.99980 2255.61890 2093.70580    0.13820    1.80080
 5572.00000    0.01620   66.89860  119.45070  131.38190  132.27610  118.99150    8.27230    0.01730   26.68990   20.55890    3.66140    0.27190    2.68570   24.40930    0.14330 2358.06200 2272.90360 2098.76730    0.13760    1.80140
 5572.50000    0.01500   66.06290  119.16240  127.16270  126.54630  115.99340    8.25570    0.01620   24.36750   22.49980    3.70180    0.27070    2.68800   24.39920    0.13520 2383.53540 2286.73120 2103.82910    0.13250    1.80210
 5573.00000    0.01300   65.37200  116.84660  117.27180  115.67100  107.84380    8.23910    0.01480   27.02760   25.73650    3.74370    0.27370    2.69240   26.16420    0.12880 2383.53540 2286.73120 2108.89090    0.12370    1.80270
 5573.50000    0.00950   64.81320  115.17110  107.38090  107.03290  100.17490    8.22260    0.01330   29.18650   28.97310    3.79480    0.27520    2.69620   28.47460    0.12550 2383.53540 2286.73120 2113.95240    0.11430    1.80330
 5574.00000    0.00610   64.86540  114.77030  103.32950  103.78220   95.22050    8.23070    0.01180   27.41130   29.49020    3.79930    0.27460    2.70010   26.39400    0.12640 2383.53540 2305.13130 2119.01420    0.10680    1.80400
 5574.50000    0.00380   65.19880  114.75880  102.67100  102.63530   92.76630    8.22450    0.00520   22.99840   19.43260    3.75890    0.27280    2.70160   21.40770    0.12970 2383.53540 2325.71040 2124.07570    0.11480    1.80460
 5575.00000    0.00380   65.53310  115.00460   99.17230  100.24090   89.81750    8.21830    0.00480   22.37280   19.42490    3.64720    0.27100    2.70180   19.27760    0.13240 2383.53540 2330.14920 2129.13750    0.11910    1.80490
 5575.50000    0.00500   65.37520  115.56980   93.79870   94.34820   86.34830    8.20090    0.00620   25.22590   23.93340    3.57950    0.26930    2.70200   21.37430    0.13200 2383.53540 2330.14920 2134.19920    0.12630    1.79850
 5576.00000    0.00570   64.94920  115.88840   87.64620   89.60560   83.74230    8.18340    0.00750   27.08750   28.44180    3.56860    0.26750    2.70200   22.83440    0.12500 2383.53540 2322.20020 2139.26100    0.12500    1.79720
 5576.50000    0.00440   64.74120  116.20690   87.36050   88.22010   84.15290    8.16600    0.00330   27.32130   30.51240    3.59950    0.26570    2.70340   23.63550    0.12390 2383.53540 2310.64940 2144.32250    0.11880    1.80430
 5577.00000    0.00240   65.92170  118.30050   91.46030   92.58900   86.60500    8.14860    0.00160   23.50690   30.49920    3.63040    0.26400    2.70670   23.89730    0.13370 2383.53540 2299.09890 2149.38430    0.11860    1.81310
 5577.50000    0.00080   67.35930  119.83620   95.84680   96.95790   89.86680    8.13810    0.00400   21.57110   25.05420    3.65520    0.26220    2.71000   20.72450    0.14380 2411.28080 2294.47850 2154.44580    0.12420    1.80530
 5578.00000   -0.00080   67.74510  120.59780   97.48830   98.98070   91.90160    8.13530    0.00650   19.26640   19.60910    3.61380    0.26040    2.71210   16.94620    0.14700 2404.64260 2294.47850 2159.50760    0.13150    1.80080
 5578.50000   -0.00150   66.94190  119.89220   94.48520   95.36880   93.49850    8.13080    0.01250   17.34760   22.11920    3.57520    0.25860    2.71290   17.68610    0.14230 2405.84840 2296.41600 2177.82980    0.12910    1.79620
 5579.00000   -0.00180   64.43870  115.09840   86.78390   88.14580   87.83240    8.12640    0.01900   24.14420   31.12410    3.61410    0.25720    2.71550   23.18750    0.12920 2418.81980 2296.41600 2176.48750    0.10610    1.79170
 5579.50000   -0.00460   61.24630  111.49530   76.89160   80.37400   78.85190    8.12200    0.02550   39.31720   40.12910    3.76270    0.25950    2.71960   38.75010    0.10580 2413.21610 2296.41600 2156.00730    0.08300    1.79380
 5580.00000   -0.00940   60.12760  107.89220   74.31580   74.37320   71.51140    8.11750    0.02290   52.93570   49.13400    3.99170    0.26520    2.72570   50.78040    0.09130 2394.42920 2300.90770 2131.68210    0.06000    1.79900
 5580.50000   -0.01280   59.59570  107.14740   78.51290   79.72620   69.18660    8.11310    0.01650   51.75070   45.81110    4.10640    0.27080    2.73280   51.25840    0.08890 2375.64230 2313.68210 2107.35720    0.06560    1.80520
 5581.00000   -0.00860   60.53520  108.68530   90.52480   89.84850   75.17720    8.10860    0.01020   40.74090   37.27920    4.02490    0.27650    2.72600   36.58990    0.09580 2364.25390 2314.32980 2092.76220    0.07950    1.81010
 5581.50000    0.00110   61.41600  110.61540   96.31290   97.61840   83.15240    8.10420    0.00900   23.95670   28.74730    3.93420    0.28100    2.70880   24.40580    0.10260 2345.80200 2293.71260 2092.76220    0.09350    1.81830
 5582.00000    0.00940   62.29690  111.76130   93.73020   95.55080   79.71680    8.09970    0.01590   25.89650   28.52930    3.84360    0.28110    2.69470   21.42920    0.10950 2327.34990 2273.09520 2092.76220    0.10740    1.80680
 5582.50000    0.00610   63.17770  111.73100   85.50970   86.74350   75.40640    8.09530    0.02220   30.76250   33.85380    3.82480    0.27410    2.69180   26.70320    0.11550 2308.89770 2252.47780 2092.76220    0.10630    1.79140
 5583.00000   -0.00610   63.24190  111.53610   79.77010   81.06250   70.27140    8.09090    0.02600   35.62860   39.17830    3.82400    0.26910    2.70910   31.97720    0.11180 2290.44580 2235.98410 2092.76220    0.10100    1.79650
 5583.50000   -0.01840   62.76180  111.34120   79.25940   79.76610   69.32230    8.08640    0.02970   33.75200   39.79060    3.82320    0.27240    2.73980   34.07720    0.10750 2294.72050 2241.55880 2092.76220    0.09880    1.80280
 5584.00000   -0.01660   62.47380  111.14630   82.32690   82.23880   72.30800    8.08200    0.02750   30.18970   33.33460    3.71090    0.27450    2.73980   29.79250    0.10530 2318.60160 2257.18800 2092.76220    0.10270    1.81180
 5584.50000   -0.00790   62.47400  110.95140   84.61180   84.95290   78.05180    8.07930    0.02020   26.62730   28.16720    3.64060    0.27440    2.73310   24.24970    0.10730 2336.85570 2272.81710 2100.00590    0.10860    1.80890
 5585.00000   -0.00490   62.34210  110.78940   84.81720   85.70020   81.20240    8.07720    0.01990   26.25950   28.15410    3.64480    0.27380    2.72460   25.12650    0.10600 2351.35860 2291.74150 2118.94020    0.10310    1.80530
 5585.50000   -0.00380   61.76340  110.56310   82.09520   84.18370   78.97830    8.07500    0.01960   39.83200   38.21490    3.79360    0.27310    2.71770   32.92160    0.10310 2365.86180 2310.66580 2137.87430    0.09530    1.80120
 5586.00000   -0.00380   61.09500  109.73360   77.10060   80.51170   72.23410    8.07290    0.01680   56.65220   62.74690    4.00590    0.27530    2.71700   46.22260    0.09210 2361.56450 2299.93360 2141.66110    0.07590    1.79560
 5586.50000   -0.00420   60.42660  108.94940   75.26910   76.99710   65.42230    8.07070    0.01210   64.51920   69.48830    4.13470    0.28320    2.71860   62.52050    0.08580 2357.26710 2282.61210 2141.66110    0.06040    1.82100
 5587.00000   -0.00720   59.77450  108.31590   75.00050   75.20110   65.16490    8.06850    0.00770   59.28250   59.69890    4.12850    0.29060    2.72180   54.09410    0.08930 2325.14180 2268.58570 2143.94800    0.06430    1.85260
 5587.50000   -0.00920   60.12630  110.38850   79.20150   79.87870   69.22810    8.06640    0.00330   46.23730   43.40560    3.97970    0.29060    2.72340   35.45210    0.09970 2325.14180 2267.73950 2143.94800    0.08360    1.85280
