~Version ---------------------------------------------------
VERS.   2.0 : CWLS log ASCII Standard -VERSION 2.0
WRAP.    NO : One line per depth step
DLM . SPACE : Column Data Section Delimiter
~Well ------------------------------------------------------
STRT .FT                 408.0 : START DEPTH
STOP .FT                5705.0 : STOP DEPTH
STEP .FT                   0.5 : STEP
NULL .                -9999.25 : NULL VALUE
COMP .                         : COMPANY
WELL .                         : WELL
FLD  .                         : FIELD
LOC  .                         : LOCATION
PROV .                         : PROVINCE
CNTY .                         : COUNTY
STAT .                         : STATE
CTRY .                         : COUNTRY
SRVC .                         : SERVICE COMPANY
DATE .                         : DATE
UWI  .                         : UNIQUE WELL ID
API  .                         : API NUMBER
SLAT .WGS84 1.4511292693435998 : SURFACE LATITUDE
SLON .WGS84  7.402666333495006 : SURFACE LONGITUDE
DATUM.F                2449.11 : DEPTH DATUM ELEV
~Curve Information -----------------------------------------
DEPT   .FT        : DEPTH FEET
DPHZ_LS.DEC       : DENSITY POROSITY LIMESTONE [M=2.71, F=1] FROM CNL-LDT LOG
DTCO   .US/F      : DELTA TIME FROM DAC LOG
DTSM   .US/F      : DELTA TIME FROM DAC LOG
GRD    .GAPI      : GAMMA RAY FROM CNL-LDT LOG
GRR    .GAPI      : GAMMA RAY FROM ALAT-MCFL LOG
GRS    .GAPI      : GAMMA RAY FROM DAC LOG
HCALR  .IN        : HRCC CALIPER FROM ALAT-MCFL LOG
HDRA   .G/C3      : DENSITY CORRECTION FROM CNL-LDT LOG
HLLD   .OHMM      : DEEP LATEROLOG RESISTIVITY FROM ALAT-MCFL LOG
HLLS   .OHMM      : SHALLOW LATEROLOG RESISTIVITY FROM ALAT-MCFL LOG
PEFZ   .B/E       : PHOTOELECTRIC FACTOR STANDARD RESOLUTION FROM CNL-LDT LOG
PR     .UNITLESS  : POISSON RATIO FROM DAC LOG
RHOB   .G/C3      : BULK DENSITY FROM CNL-LDT LOG
RXOZ   .OHMM      : STANDARD RESOLUTION INVADED ZONE RESISTIVITY FROM ALAT-MCFL LOG
SPHI_LS.DEC       : SONIC POROSITY LIMESTONE [DTM=47.6, DTF=189] FROM DAC LOG
TEND   .LB        : TENSION FROM CNL-LDT LOG
TENR   .LB        : TENSION FROM FROM ALAT-MCFL LOG
TENS   .LB        : TENSION FROM DAC LOG
TNPH_LS.DEC       : THERMAL NEUTRON POROSITY LIMESTONE FROM CNL-LDT LOG
VPVS   .UNITLESS  : RATIO OF COMPRESSIONAL TO SHEAR VELOCITIES FROM DAC LOG
~Params ----------------------------------------------------
~Other -----------------------------------------------------
~ASCII -----------------------------------------------------
# ...
 4958.00000   -9999.25   -9999.25   -9999.25   -9999.25   32.27830   -9999.25    9.59010   -9999.25    8.27450    7.78800   -9999.25   -9999.25   -9999.25    6.00730   -9999.25   -9999.25 2137.76610   -9999.25   -9999.25   -9999.25
 4958.50000   -9999.25   -9999.25   -9999.25   -9999.25   34.83810   -9999.25    9.59010   -9999.25    7.01870    6.78130   -9999.25   -9999.25   -9999.25    5.16670   -9999.25   -9999.25 2149.59060   -9999.25   -9999.25   -9999.25
 4959.00000   -9999.25   -9999.25   -9999.25   -9999.25   41.67710   -9999.25    9.57550   -9999.25    7.10490    6.78210   -9999.25   -9999.25   -9999.25    5.12090   -9999.25   -9999.25 2161.41500   -9999.25   -9999.25   -9999.25
 4959.50000   -9999.25   -9999.25   -9999.25   -9999.25   47.60440   -9999.25    9.54650   -9999.25    9.10280    8.58890   -9999.25   -9999.25   -9999.25    7.33980   -9999.25   -9999.25 2168.75100   -9999.25   -9999.25   -9999.25
 4960.00000    0.00780   -9999.25   -9999.25   42.35160   49.70890   -9999.25    9.52890    0.00860   11.54670   10.39560    3.78400   -9999.25    2.70400    9.55870   -9999.25 2137.39720 2158.13280   -9999.25    0.08010   -9999.25
 4960.50000   -0.00430   -9999.25   -9999.25   38.76350   45.07920   -9999.25    9.51120    0.01540   20.97860   17.79460    3.89050   -9999.25    2.71610   18.91990   -9999.25 2138.64920 2147.51440   -9999.25    0.06620   -9999.25
 4961.00000   -0.01660   -9999.25   -9999.25   35.17540   36.98070   -9999.25    9.50420    0.02220   44.56370   26.59160    3.99710   -9999.25    2.72820   28.28110   -9999.25 2139.58740 2145.39090   -9999.25    0.05010   -9999.25
 4961.50000   -0.02890   -9999.25   -9999.25   31.58740   31.10740   -9999.25    9.50420    0.02910  124.76200   52.93220    4.10360   -9999.25    2.74030  113.29460   -9999.25 2139.12380 2145.39090   -9999.25    0.03360   -9999.25
 4962.00000   -0.03720   -9999.25   -9999.25   28.70560   28.25450   -9999.25    9.49110    0.02810  204.96020  149.44750    4.16690   -9999.25    2.75240  217.22110   -9999.25 2137.37040 2145.39090   -9999.25    0.02040   -9999.25
 4962.50000   -0.04160   -9999.25   -9999.25   28.24840   27.38710   -9999.25    9.46830    0.02520  271.57790  207.37230    4.18590   -9999.25    2.76460  297.68460   -9999.25 2135.61720 2145.39090   -9999.25    0.02120   -9999.25
 4963.00000   -0.04280   -9999.25   -9999.25   29.28270   27.64730   -9999.25    9.48410    0.02350  233.18920  165.60040    4.18200   -9999.25    2.77430  213.58700   -9999.25 2133.86400 2145.39090   -9999.25    0.02340   -9999.25
 4963.50000   -0.04040   -9999.25   -9999.25   29.57120   28.33820   -9999.25    9.49980    0.02540  130.95010  123.82860    4.17730   -9999.25    2.77430  101.42200   -9999.25 2132.11080 2145.39090   -9999.25    0.02560   -9999.25
 4964.00000   -0.03670   -9999.25   -9999.25   29.32710   27.99850   -9999.25    9.50610    0.03530   90.06090  100.57520    4.17260   -9999.25    2.77430  108.23490   -9999.25 2130.35770 2145.39090   -9999.25    0.02790   -9999.25
 4964.50000   -0.03550   -9999.25   -9999.25   28.65250   27.76010   -9999.25    9.50610    0.02680  101.32190  112.13200    4.16880   -9999.25    2.76880  137.63400   -9999.25 2128.60420 2145.39090   -9999.25    0.03750   -9999.25
 4965.00000   -0.03520   -9999.25   -9999.25   29.47010   27.88740   -9999.25    9.50610    0.01940   74.10680   80.23680    4.10890   -9999.25    2.76140  127.08880   -9999.25 2126.85110 2145.39090   -9999.25    0.04850   -9999.25
 4965.50000   -0.02930   -9999.25   -9999.25   33.02220   29.73020   -9999.25    9.50730    0.01070   46.89180   48.34150    4.00830   -9999.25    2.75390   56.62700   -9999.25 2126.89890 2145.39090   -9999.25    0.05510   -9999.25
 4966.00000   -0.02220   -9999.25   -9999.25   36.02900   33.56350   -9999.25    9.51750    0.01110   19.67680   16.44620    3.91320   -9999.25    2.74650   12.55080   -9999.25 2126.89890 2145.39090   -9999.25    0.06290   -9999.25
 4966.50000   -0.02590   -9999.25   -9999.25   35.51690   36.04290   -9999.25    9.52780    0.01610   19.85500   16.44530    3.78190   -9999.25    2.74500   11.33800   -9999.25 2127.43800 2134.51440   -9999.25    0.06920   -9999.25
 4967.00000   -0.04150   -9999.25   -9999.25   32.97760   34.28910   -9999.25    9.53800    0.01730   30.52920   23.45080    3.84530   -9999.25    2.74500   17.42020   -9999.25 2127.43800 2141.84620   -9999.25    0.06290   -9999.25
 4967.50000   -0.05600   -9999.25   -9999.25   30.46510   31.52670   -9999.25    9.54820    0.01200   42.48600   30.45630    3.90880   -9999.25    2.77500   28.31450   -9999.25 2128.00610 2149.17800   -9999.25    0.05230   -9999.25
 4968.00000   -0.06310   -9999.25   -9999.25   29.00380   28.29360   -9999.25    9.56830    0.00670   54.44270   43.23170    3.97220   -9999.25    2.81260   40.60150   -9999.25 2162.55740 2173.81050   -9999.25    0.04180   -9999.25
 4968.50000   -0.06540   -9999.25   -9999.25   30.33760   28.21210   -9999.25    9.58840    0.00710   63.54200   57.44960    3.96590   -9999.25    2.81460   52.88850   -9999.25 2197.10840 2209.97750   -9999.25    0.03790   -9999.25
 4969.00000   -0.06450   -9999.25   -9999.25   33.37270   31.03490   -9999.25    9.60440    0.00890   68.35500   68.82530    3.86950   -9999.25    2.81670   58.85440   -9999.25 2207.58400 2206.45020   -9999.25    0.03800   -9999.25
 4969.50000   -0.06120   -9999.25   -9999.25   35.62850   34.10610   -9999.25    9.62050    0.01070   71.24500   62.13670    3.79830   -9999.25    2.81750   59.50920   -9999.25 2190.38430 2201.17500   -9999.25    0.03880   -9999.25
 4970.00000   -0.05450   -9999.25  102.36760   35.44060   35.33650   24.80310    9.63650    0.01250   53.25260   45.40550    3.71220    0.27740    2.80760   45.82940   -9999.25 2173.18460 2195.89990 1988.08500    0.05290    1.80390
 4970.50000   -0.04560   -9999.25  102.37230   33.19390   33.60960   24.80310    9.65260    0.01440   35.26030   28.67430    3.63870    0.27780    2.79100   32.68650   -9999.25 2155.98490 2190.62450 1987.82500    0.06500    1.80410
 4971.00000   -0.03680   -9999.25  102.61560   30.73130   30.83440   24.80310    9.65920    0.02170   24.69000   21.98510    3.56650    0.27840    2.77440   21.97320   -9999.25 2138.78490 2185.34940 1987.56490    0.07650    1.80400
 4971.50000   -0.02680   -9999.25  102.85880   33.58780   29.72080   24.80310    9.69980    0.02230   26.07570   23.85910    3.52450    0.27890    2.75790   25.61790   -9999.25 2135.34500 2154.44210 1987.30480    0.08800    1.80390
 4972.00000   -0.01530   -9999.25  103.10210   38.56180   34.33880   24.76930    9.73060    0.02330   23.47840   23.70680    3.51780    0.27940    2.74130   23.88630   -9999.25 2135.34500 2154.44210 1987.04480    0.09840    1.80390
 4972.50000   -0.00420   -9999.25  103.34540   42.91430   39.62540   33.77800    9.75910    0.02430   20.52440   19.38050    3.58890    0.28000    2.72480   20.17970   -9999.25 2135.34500 2154.44210 1986.78470    0.10790    1.80380
 4973.00000    0.00870   -9999.25  103.62970   46.45870   44.71660   38.79590    9.78760    0.02510   18.16210   19.38460    3.65990    0.28050    2.70820   16.47300   -9999.25 2135.34500 2154.44210 1986.52470    0.11740    1.80370
 4973.50000    0.01520   -9999.25  104.07850   48.23250   47.66110   42.56800    9.81030    0.02680   18.16690   20.10600    3.73090    0.28100    2.69170   15.59320   -9999.25 2135.34500 2154.44210 1986.26460    0.12420    1.80360
 4974.00000    0.01960   -9999.25  104.52720   49.24490   49.56800   44.62920    9.82140    0.02970   17.21050   21.23440    3.80200    0.28070    2.67510   17.07630   -9999.25 2135.34500 2154.44210 1986.00450    0.12540    1.80530
 4974.50000    0.02160   -9999.25  104.97600   47.07480   48.28240   45.23190    9.85050    0.03260   16.75360   18.88050    4.04180    0.27970    2.67510    5.40750   -9999.25 2135.34500 2154.44210 1985.74450    0.11550    1.80730
 4975.00000    0.00980   -9999.25  105.42480   41.20930   43.06660   38.64720    9.87640    0.02330   19.88820   22.17470    4.39430    0.27870    2.67510    5.40950   -9999.25 2146.20830 2178.26710 1985.48440    0.09760    1.80940
