~Version ---------------------------------------------------
VERS.   2.0 : CWLS log ASCII Standard -VERSION 2.0
WRAP.    NO : One line per depth step
DLM . SPACE : Column Data Section Delimiter
~Well ------------------------------------------------------
STRT .FT                 408.0 : START DEPTH
STOP .FT                5705.0 : STOP DEPTH
STEP .FT                   0.5 : STEP
NULL .                -9999.25 : NULL VALUE
COMP .                         : COMPANY
WELL .                         : WELL
FLD  .                         : FIELD
LOC  .                         : LOCATION
PROV .                         : PROVINCE
CNTY .                         : COUNTY
STAT .                         : STATE
CTRY .                         : COUNTRY
SRVC .                         : SERVICE COMPANY
DATE .                         : DATE
UWI  .                         : UNIQUE WELL ID
API  .                         : API NUMBER
SLAT .WGS84 1.4511292693435998 : SURFACE LATITUDE
SLON .WGS84  7.402666333495006 : SURFACE LONGITUDE
DATUM.F                2449.11 : DEPTH DATUM ELEV
~Curve Information -----------------------------------------
DEPT   .FT        : DEPTH FEET
DPHZ_LS.DEC       : DENSITY POROSITY LIMESTONE [M=2.71, F=1] FROM CNL-LDT LOG
DTCO   .US/F      : DELTA TIME FROM DAC LOG
DTSM   .US/F      : DELTA TIME FROM DAC LOG
GRD    .GAPI      : GAMMA RAY FROM CNL-LDT LOG
GRR    .GAPI      : GAMMA RAY FROM ALAT-MCFL LOG
GRS    .GAPI      : GAMMA RAY FROM DAC LOG
HCALR  .IN        : HRCC CALIPER FROM ALAT-MCFL LOG
HDRA   .G/C3      : DENSITY CORRECTION FROM CNL-LDT LOG
HLLD   .OHMM      : DEEP LATEROLOG RESISTIVITY FROM ALAT-MCFL LOG
HLLS   .OHMM      : SHALLOW LATEROLOG RESISTIVITY FROM ALAT-MCFL LOG
PEFZ   .B/E       : PHOTOELECTRIC FACTOR STANDARD RESOLUTION FROM CNL-LDT LOG
PR     .UNITLESS  : POISSON RATIO FROM DAC LOG
RHOB   .G/C3      : BULK DENSITY FROM CNL-LDT LOG
RXOZ   .OHMM      : STANDARD RESOLUTION INVADED ZONE RESISTIVITY FROM ALAT-MCFL LOG
SPHI_LS.DEC       : SONIC POROSITY LIMESTONE [DTM=47.6, DTF=189] FROM DAC LOG
TEND   .LB        : TENSION FROM CNL-LDT LOG
TENR   .LB        : TENSION FROM FROM ALAT-MCFL LOG
TENS   .LB        : TENSION FROM DAC LOG
TNPH_LS.DEC       : THERMAL NEUTRON POROSITY LIMESTONE FROM CNL-LDT LOG
VPVS   .UNITLESS  : RATIO OF COMPRESSIONAL TO SHEAR VELOCITIES FROM DAC LOG
~Params ----------------------------------------------------
~Other -----------------------------------------------------
~ASCII -----------------------------------------------------
# ...
 5430.50000    0.12480   60.26150   96.16700   11.30990   11.00620    7.31000    7.88240   -0.00470   26.37730   28.38290    2.99720    0.18620    2.50890   16.94600    0.09150 2235.91410 2140.38180 2011.95540    0.06080    1.61220
 5431.00000    0.11210   60.65070   96.16700   11.85750   12.08720    8.58840    7.88350   -0.00120   40.73830   34.29620    2.89620    0.18410    2.52170   24.65570    0.09510 2228.02030 2156.81910 2011.78630    0.06010    1.60530
 5431.50000    0.10290   60.66010   97.49300   11.19100   12.08640    9.04000    7.88460    0.00300   40.73080   29.26730    2.88320    0.18180    2.54310   31.78420    0.09560 2227.79170 2169.06320 2011.61710    0.06010    1.61540
 5432.00000    0.10640   60.95370   98.82400   10.05560   11.13080    8.22310    7.88570    0.01030   33.16020   22.98290    2.89530    0.19400    2.54320   22.23830    0.09780 2227.79170 2183.97510 2011.44790    0.06640    1.62990
 5432.50000    0.12170   62.51830  101.24600    8.92020    9.93680    7.40610    7.88700    0.01760   25.58960   16.69850    2.91250    0.19770    2.51940   14.92390    0.10660 2258.46190 2198.88670 2011.27870    0.07630    1.63290
 5433.00000    0.13970   63.95210  103.29890    8.99330    9.19790    6.28690    7.88920    0.02490   18.01900   12.94640    2.99210    0.19790    2.49560    9.82620    0.11910 2261.80980 2198.88670 2011.10950    0.08610    1.63190
 5433.50000    0.15770   64.83200  105.10550    9.49460    9.47110    6.25580    7.89150    0.03220   10.44840    9.82750    2.99100    0.19690    2.47180    6.20630    0.12680 2267.94920 2198.88670 2010.94020    0.09600    1.62490
 5434.00000    0.16930   65.94660  105.39480    8.91250    9.42300    6.22480    7.89370    0.03000    5.98630    6.70860    2.98990    0.19520    2.45480    4.03390    0.13460 2285.25340 2218.26730 2010.77100    0.10580    1.61790
 5434.50000    0.17250   67.02770  105.68410    8.18590    8.70830    6.19370    7.89590    0.01200    9.54400    5.02810    2.98880    0.18790    2.43780    5.26720    0.14080 2302.55760 2241.58470 2010.60180    0.11560    1.61260
 5435.00000    0.17690   67.48610  105.97340    7.90990    8.08490    6.16270    7.89820    0.00710    9.54170    5.50540    2.98760    0.18510    2.42730    4.71450    0.14410 2292.58810 2241.90040 2010.43260    0.12150    1.60850
 5435.50000    0.18310   67.11420  106.29620    8.30980    8.29740    6.40860    7.90040    0.00410    7.59630    5.98270    2.98650    0.18330    2.42120    3.27200    0.14350 2276.35350 2241.90040 2010.26340    0.11960    1.60680
 5436.00000    0.18390   67.05250  106.66930    8.89600    8.82850    6.83920    7.90260    0.00190    8.76560    5.69320    2.98540    0.18160    2.41700    3.61400    0.14550 2260.11840 2217.74580 2010.09420    0.11650    1.60780
 5436.50000    0.18080   67.42930  107.28740    9.48210    9.55750    7.26980    7.90480    0.00710    9.21910    4.89230    2.98430    0.18030    2.41570    3.75330    0.14750 2243.88350 2185.58110 2009.92500    0.11500    1.60870
 5437.00000    0.17930   67.89840  108.27310    8.91990    9.70250    7.38200    7.90710    0.01240    8.41870    4.29300    2.96210    0.18230    2.40960    3.50610    0.14960 2227.64870 2166.28220 2009.75590    0.12550    1.61110
 5437.50000    0.19280   68.41470  110.12150    8.41800    8.82000    7.41450    7.90930    0.01760    7.92560    4.29210    2.85550    0.18550    2.39940    2.88350    0.15210 2221.15480 2177.27270 2009.58650    0.14230    1.62900
 5438.00000    0.20960   69.49290  111.94030    8.38840    8.64900    7.44710    7.91150    0.02230    7.49220    4.02750    2.74900    0.18830    2.38560    2.55960    0.15760 2221.15480 2194.53810 2009.41740    0.14640    1.63840
 5438.50000    0.21710   70.42910  113.05350    8.35870    8.65590    7.47970    7.91380    0.01760    6.94720    3.71030    2.70890    0.19100    2.36800    2.22480    0.16500 2221.15480 2208.50810 2009.24800    0.14690    1.64070
 5439.00000    0.22400   71.71910  114.09220    8.58180    8.66280    8.28200    7.91970    0.01330    6.08240    3.30290    2.70760    0.19050    2.35600    1.90560    0.17310 2221.15480 2209.29640 2009.07890    0.14970    1.63380
 5439.50000    0.23180   73.00910  117.20600    9.40840    9.60010    8.58610    7.93120    0.00910    5.28170    2.89540    2.70620    0.18480    2.34390    1.67440    0.18830 2221.15480 2210.08450 2008.90970    0.15340    1.62690
 5440.00000    0.24540   75.94850  119.99670    9.09790    9.45580    7.89370    7.94280    0.00480    4.96140    2.62670    2.71100    0.18210    2.33190    1.47490    0.20040 2239.50270 2221.59280 2008.74050    0.15910    1.62010
 5440.50000    0.25690   76.90040  122.26740    8.53430    8.70510    6.73390    7.95430    0.00060    5.08770    2.49460    2.71580    0.17940    2.31090    1.40620    0.21410 2274.65990 2232.94310 2008.57130    0.16470    1.61890
 5441.00000    0.26660   77.54540  123.53820    8.27480    8.55440    6.27260    7.96590   -0.00280    4.79000    2.28170    2.72050    0.17720    2.28980    1.31960    0.21960 2266.69140 2232.61870 2008.40210    0.16790    1.61510
 5441.50000    0.27770   78.08420  123.72810    8.26020    8.55370    6.27690    7.97740   -0.00380    4.42340    2.06870    2.77620    0.17730    2.26880    1.11660    0.22190 2252.18650 2232.61870 2008.23280    0.17600    1.60860
 5442.00000    0.29030   78.19830  124.31320    8.24550    8.55300    6.56190    7.98900   -0.00250    4.10160    1.85580    2.86570    0.18220    2.25290    1.00320    0.22240 2246.15820 2219.04390 2008.06360    0.18410    1.61440
 5442.50000    0.29810   78.38410  125.00410    8.23090    8.55240    7.03400    8.00050    0.00390    3.97870    1.83010    2.93740    0.18510    2.24030    0.93520    0.22330 2252.59010 2204.10890 2007.89440    0.19230    1.62130
 5443.00000    0.30050   78.49630  125.06480    7.30800    7.96070    6.55500    8.01200    0.01020    3.98850    1.83060    2.93740    0.18520    2.22780    1.01430    0.22380 2253.66040 2189.17380 2007.72520    0.19730    1.62750
 5443.50000    0.30260   78.69560  125.66190    6.55790    7.04520    5.96840    8.02360    0.01470    3.99820    1.79820    2.87310    0.18520    2.22530    1.01970    0.22490 2254.73070 2182.59420 2007.55600    0.20050    1.62960
 5444.00000    0.30000   78.16610  123.47100    6.20880    6.56360    5.67700    8.03510    0.02210    4.14320    1.73470    2.79850    0.18530    2.23550    1.00310    0.21640 2255.80080 2176.01460 2007.38680    0.20270    1.63170
 5444.50000    0.29850   76.09420  122.03270    6.35130    6.36670    5.71110    8.04280    0.02080    4.28820    1.82890    2.72390    0.18540    2.25000    1.10310    0.20870 2256.87110 2186.24050 2007.21770    0.20310    1.63380
 5445.00000    0.27650   74.94930  120.11380    6.88000    7.13890    6.21180    8.05040    0.01860    4.51200    2.06370    2.66420    0.18610    2.26730    1.25970    0.19760 2257.94140 2207.66990 2007.04830    0.20250    1.63600
 5445.50000    0.26530   73.79120  118.19480    7.60390    7.63150    6.20820    8.05810    0.01630    4.71970    2.11450    2.68910    0.19180    2.27680    1.39200    0.19120 2259.01170 2224.81370 2007.00290    0.19960    1.63810
 5446.00000    0.25960   72.78670  116.27590    8.25140    8.59640    6.20460    8.06580    0.01410    4.50650    2.10060    2.75120    0.19000    2.28370    1.38860    0.18430 2260.08180 2224.81370 2006.95740    0.19670    1.64020
 5446.50000    0.25650   71.77800  115.45730    8.89900    9.56140    6.20110    8.07340    0.01390    4.29340    2.16290    2.80100    0.19250    2.29240    1.34710    0.17710 2261.15210 2224.81370 2006.91200    0.18960    1.63690
 5447.00000    0.24940   71.22990  113.83380    9.66570    9.93380    6.19750    8.14170    0.01310    4.48420    2.36520    2.80100    0.19500    2.30110    1.43520    0.17170 2262.22240 2224.81370 2006.86650    0.18280    1.63690
 5447.50000    0.24750   70.81350  112.59200    9.93100   10.35150    6.19390    8.15610    0.01220    4.71550    2.56740    2.72780    0.19760    2.30980    1.56210    0.16700 2263.29250 2224.81370 2006.82100    0.17430    1.63690
