~Version ---------------------------------------------------
VERS.   2.0 : CWLS log ASCII Standard -VERSION 2.0
WRAP.    NO : One line per depth step
DLM . SPACE : Column Data Section Delimiter
~Well ------------------------------------------------------
STRT .F                5765.0 : START DEPTH
STOP .F                9795.0 : STOP DEPTH
STEP .F                   0.5 : STEP
NULL .               -9999.25 : NULL VALUE
COMP .                        : COMPANY
WELL .                        : WELL
FLD  .                        : FIELD
LOC  .                        : LOCATION
PROV .                        : PROVINCE
CNTY .                        : COUNTY
STAT .                        : STATE
CTRY .                        : COUNTRY
SRVC .                        : SERVICE COMPANY
DATE .                        : DATE
UWI  .                        : UNIQUE WELL ID
API  .                        : API NUMBER
SLAT .WGS84 2.517293603676997 : SURFACE LATITUDE
SLON .WGS84 6.045269258181008 : SURFACE LONGITUDE
DATUM.F                   nan : DEPTH DATUM ELEV
~Curve Information -----------------------------------------
DEPT    .F     : 
DTCO    .US/F  : DELTA-T COMPRESSIONAL
DTSM    .US/F  : DELTA-T SHEAR
ECGRS   .GAPI  : ENVIRONMENTALLY CORRECTED GAMMA RAY FROM SONIC LOG
HD2_PPC1.IN    : PPC1 HOLE DIAMETER 2
~Params ----------------------------------------------------
~Other -----------------------------------------------------
~ASCII -----------------------------------------------------
# ...
 6265.50000   70.85000  123.74940   95.93400    8.17450
 6266.00000   71.46680  123.92650   97.44000    8.16950
 6266.50000   71.89080  124.32010   93.37300    8.16450
 6267.00000   72.00580  124.47410   87.19900    8.15930
 6267.50000   72.05740  124.95590   83.73500    8.15430
 6268.00000   71.90850  125.09390   82.41000    8.14930
 6268.50000   71.65020  124.62790   81.77700    8.14430
 6269.00000   71.42550  124.38140   83.28300    8.13930
 6269.50000   71.09900  123.86540   86.89800    8.13420
 6270.00000   70.56080  123.78640   89.30700    8.12920
 6270.50000   70.58470  123.72120   89.91000    8.12420
 6271.00000   71.40400  123.82840   91.41600    8.11920
 6271.50000   71.49650  124.12990   91.11400    8.11620
 6272.00000   71.22910  124.51470   92.31900    8.12420
 6272.50000   71.73700  124.21900   96.53600    8.12420
 6273.00000   71.85290  123.73020  115.21100    8.12410
 6273.50000   72.17660  124.59230  127.25900    8.12400
 6274.00000   72.10350  125.56700  115.02300    8.12400
 6274.50000   71.70740  125.04180  105.61000    8.13310
 6275.00000   71.78110  125.45190   97.13900    8.14210
 6275.50000   71.96070  124.90170  101.16200    8.15110
 6276.00000   71.66900  124.56390  105.27100    8.16020
 6276.50000   71.45310  124.55120  106.17500    8.16920
 6277.00000   71.70190  124.91800  102.41000    8.17820
 6277.50000   71.94180  124.52480   99.24700    8.18800
 6278.00000   72.39210  125.00560   96.80700    8.19600
 6278.50000   72.26050  125.00370   95.03000    8.21200
 6279.00000   72.41790  125.63540   99.09600    8.22000
 6279.50000   72.80790  125.84110  105.27100    8.22000
 6280.00000   73.19440  125.78670  108.88600    8.22800
 6280.50000   73.48140  126.55150  110.69300    8.25200
 6281.00000   73.18120  127.02920  107.07800    8.30020
 6281.50000   73.20100  127.37360  103.31300    8.38030
 6282.00000   72.85920  127.42100  103.76500    8.38030
 6282.50000   72.96940  127.46420  106.77700    8.34720
 6283.00000   72.92900  127.09580  103.76500    8.30550
 6283.50000   73.43360  127.19480   99.54800    8.26370
 6284.00000   73.45840  126.91950   96.64900    8.22190
 6284.50000   73.30480  127.01810   95.03000    8.18020
 6285.00000   72.63970  127.22560   97.74100    8.15170
 6285.50000   72.48660  126.81540   99.84900    8.13570
 6286.00000   72.06610  127.37450  101.65700    8.12360
 6286.50000   71.93190  126.53760   95.93400    8.10760
 6287.00000   71.94910  127.42860   89.30700    8.09930
 6287.50000   70.85100  126.05970   86.44600    8.09810
 6288.00000   70.29580  125.91590   86.62700    8.09690
 6288.50000   70.12770  125.59970   88.70500    8.09560
 6289.00000   69.88070  125.28350   88.25300    8.09440
 6289.50000   70.00100  126.19540   90.51200    8.09310
 6290.00000   70.29300  127.80390   92.31900    8.09190
 6290.50000   70.30700  127.82930   89.91000    8.09140
 6291.00000   70.29330  128.41020   84.48800    8.09940
 6291.50000   70.22390  128.31150   81.62700    8.10740
 6292.00000   70.03880  127.79150   82.68100    8.10740
 6292.50000   69.89770  128.39920   85.39200    8.11810
 6293.00000   69.56270  129.95030   85.09000    8.13140
 6293.50000   68.53990  128.31050   76.35500    8.13940
 6294.00000   68.00110  128.35430   73.38100    8.15540
 6294.50000   67.68760  128.44180   74.24700    8.15570
 6295.00000   66.37210  127.37670   76.35500    8.15590
 6295.50000   65.48130  126.18560   74.69900    8.15610
 6296.00000   65.10470  125.93570   71.83700    8.15630
 6296.50000   64.69790  125.24610   70.93400    8.15650
 6297.00000   64.32270  124.92810   71.23500    8.15670
 6297.50000   63.96660  124.68620   70.78300    8.15700
 6298.00000   63.80820  124.22750   68.16300    8.15720
 6298.50000   64.11210  123.43320   64.60800    8.15750
 6299.00000   64.51000  124.90990   64.30700    8.15770
 6299.50000   65.66730  124.53620   66.11400    8.15790
 6300.00000   66.25650  125.88100   68.05600    8.15820
 6300.50000   66.87210  125.52180   70.63300    8.15830
 6301.00000   67.66540  127.83440   73.94600    8.15850
 6301.50000   68.84210  129.06300   78.46400    8.15880
 6302.00000   69.33620  128.97040   76.05400    8.15900
 6302.50000   69.62060  128.53740   72.28900    8.15920
 6303.00000   70.01350  130.47810   66.86700    8.15950
 6303.50000   70.53390  128.30080   68.82500    8.15970
 6304.00000   70.75020  126.12340   70.14300    8.16000
 6304.50000   70.82420  124.71280   71.23500    8.16020
 6305.00000   70.85210  124.64420   72.19700    8.16030
 6305.50000   71.02140  124.50200   74.12100    8.16060
 6306.00000   71.00710  124.45270   76.04600    8.16080
 6306.50000   70.72580  123.63460   78.16300    8.16100
 6307.00000   70.40850  124.16650   82.56800    8.16130
 6307.50000   69.83070  123.83190   89.51800    8.16150
 6308.00000   69.44280  123.85840   98.19300    8.16170
 6308.50000   69.23210  124.03390   99.54800    8.16200
 6309.00000   68.41650  122.67470  100.15100    8.16210
 6309.50000   68.10990  123.12110   95.63300    8.16240
 6310.00000   67.96610  121.91670   90.61200    8.16260
 6310.50000   67.85490  122.63000   86.59600    8.16280
 6311.00000   68.01500  123.34330   85.69300    8.16280
 6311.50000   67.94500  123.11720   88.25300    8.16280
 6312.00000   67.94810  122.47450   90.87300    8.16280
 6312.50000   67.98440  122.04180   91.56600    8.17080
 6313.00000   67.69450  123.62660   90.36100    8.18680
 6313.50000   67.67770  123.44530   86.89800    8.32710
 6314.00000   67.67630  122.95470   83.09500    8.50740
 6314.50000   67.66140  122.93380   76.20500    8.57950
 6315.00000   67.72770  124.07180   74.09600    8.58350
 6315.50000   67.77850  124.71520   69.57800    8.58750
 6316.00000   68.04890  125.35860   67.01800    8.58750
 6316.50000   68.28960  124.12940   62.19900    8.57140
 6317.00000   68.57080  123.75440   66.71700    8.51100
 6317.50000   68.88460  124.52610   71.98800    8.38010
 6318.00000   69.08580  126.65540   77.53000    8.24920
 6318.50000   69.19690  129.47870   80.27100    8.16250
 6319.00000   69.26570  131.40790   76.65700    8.14650
 6319.50000   69.40420  131.97550   72.89200    8.13850
 6320.00000   69.45770  132.60240   70.33100    8.13850
 6320.50000   69.72480  135.47300   66.56600    8.13840
 6321.00000   70.12790  135.97160   68.22300    8.14640
 6321.50000   70.01970  136.72850   73.19300    8.15440
 6322.00000   70.04880  137.36610   74.88000    8.15440
 6322.50000   70.06830  136.61120   73.34300    8.16240
 6323.00000   70.05700  136.44590   67.01800    8.16240
 6323.50000   69.95160  136.03670   64.00600    8.16240
 6324.00000   69.89810  134.26080   66.64200    8.16240
 6324.50000   69.99910  132.50030   77.71100    8.16240
 6325.00000   70.12060  131.59160   85.69300    8.16240
 6325.50000   70.10790  130.09580   91.86700    8.16260
 6326.00000   70.03610  129.36970   92.62000    8.16270
 6326.50000   70.11360  126.32510   96.83700    8.16290
 6327.00000   70.29830  124.88400  106.73600    8.16310
 6327.50000   70.45350  123.70120  116.73100    8.16340
 6328.00000   70.48640  123.18690  120.93400    8.16360
 6328.50000   70.60340  121.66100  116.58300    8.16380
 6329.00000   70.63890  121.33750  111.52100    8.16400
 6329.50000   70.53190  120.75830  106.66400    8.16420
 6330.00000   70.49270  120.23310  106.58300    8.16450
 6330.50000   70.65830  119.90370  106.77700    8.16460
 6331.00000   70.00520  119.37480  105.87300    8.16480
 6331.50000   69.56000  118.68700  107.68100    8.16500
 6332.00000   69.00810  117.29810  107.89200    8.16520
 6332.50000   68.19890  116.95300  107.83100    8.16550
 6333.00000   67.67000  113.82340  108.28300    8.16570
 6333.50000   66.91990  113.74590  104.06600    8.16590
 6334.00000   66.58050  113.42150   95.59500    8.16610
 6334.50000   66.31760  113.29600   86.18200    8.16630
 6335.00000   66.12060  114.12830   81.77700    8.16650
 6335.50000   66.22060  115.89380   89.60800    8.16670
 6336.00000   66.40610  117.12310   94.12700    8.16690
 6336.50000   66.95050  117.52880   93.52400    8.16710
