~Version ---------------------------------------------------
VERS.   2.0 : CWLS log ASCII Standard -VERSION 2.0
WRAP.    NO : One line per depth step
DLM . SPACE : Column Data Section Delimiter
~Well ------------------------------------------------------
STRT .F                5765.0 : START DEPTH
STOP .F                9795.0 : STOP DEPTH
STEP .F                   0.5 : STEP
NULL .               -9999.25 : NULL VALUE
COMP .                        : COMPANY
WELL .                        : WELL
FLD  .                        : FIELD
LOC  .                        : LOCATION
PROV .                        : PROVINCE
CNTY .                        : COUNTY
STAT .                        : STATE
CTRY .                        : COUNTRY
SRVC .                        : SERVICE COMPANY
DATE .                        : DATE
UWI  .                        : UNIQUE WELL ID
API  .                        : API NUMBER
SLAT .WGS84 2.517293603676997 : SURFACE LATITUDE
SLON .WGS84 6.045269258181008 : SURFACE LONGITUDE
DATUM.F                   nan : DEPTH DATUM ELEV
~Curve Information -----------------------------------------
DEPT    .F     : 
DTCO    .US/F  : DELTA-T COMPRESSIONAL
DTSM    .US/F  : DELTA-T SHEAR
ECGRS   .GAPI  : ENVIRONMENTALLY CORRECTED GAMMA RAY FROM SONIC LOG
HD2_PPC1.IN    : PPC1 HOLE DIAMETER 2
~Params ----------------------------------------------------
~Other -----------------------------------------------------
~ASCII -----------------------------------------------------
# ...
 8625.00000   80.68260  140.22170  106.47600    8.07800
 8625.50000   80.82710  140.75450  109.63900    8.07790
 8626.00000   80.98510  140.97850  109.78900    8.06990
 8626.50000   81.36990  141.83680  109.78900    8.06990
 8627.00000   81.53160  141.99790  107.53000    8.06980
 8627.50000   81.91160  142.15630  110.09000    8.06980
 8628.00000   82.23500  142.91340  112.59000    8.06980
 8628.50000   82.51470  144.58050  115.21100    8.07780
 8629.00000   82.98210  144.60810  113.70500    8.10170
 8629.50000   83.07690  144.81880  110.99400    8.15880
 8630.00000   83.37940  145.53970  108.28300    8.20400
 8630.50000   83.54040  145.87910  108.13300    8.24910
 8631.00000   83.67550  146.09500  104.36700    8.29430
 8631.50000   83.89600  146.99070  105.57200    8.33950
 8632.00000   83.82270  146.92920  104.72900    8.37350
 8632.50000   83.70140  146.75940  106.47600    8.38950
 8633.00000   83.57740  146.70540  112.04800    8.38950
 8633.50000   83.46400  146.90470  117.01800    8.34070
 8634.00000   83.31740  146.75800  119.99200    8.29940
 8634.50000   83.05720  146.50640  121.23500    8.25810
 8635.00000   81.81570  144.82850  120.33100    8.21690
 8635.50000   81.50810  143.97770  115.96400    8.17560
 8636.00000   81.25190  142.84170  112.50000    8.13430
 8636.50000   80.77750  142.65530  109.03600    8.10950
 8637.00000   80.44310  142.04480  107.07800    8.10950
 8637.50000   79.67010  139.82080  107.98200    8.11750
 8638.00000   79.47010  139.51320  108.34300    8.11740
 8638.50000   79.39790  139.16410  106.47600    8.11740
 8639.00000   79.33200  139.02110  106.02400    8.11740
 8639.50000   79.28040  138.76900  104.21700    8.11740
 8640.00000   79.38440  138.56390  102.86100    8.12530
 8640.50000   79.58820  138.43330  104.51800    8.12530
 8641.00000   79.74800  139.06370  107.38000    8.12360
 8641.50000   79.99540  139.45000  112.95200    8.12190
 8642.00000   80.20620  139.71890  114.12700    8.12020
 8642.50000   80.57160  140.67240  116.56600    8.11850
 8643.00000   81.48290  141.33840  119.72900    8.11680
 8643.50000   81.76730  142.57240  117.92200    8.11510
 8644.00000   82.21880  143.06920  114.45800    8.11340
 8644.50000   82.36680  143.63960  111.59600    8.11170
 8645.00000   82.43970  143.79020  112.50000    8.10980
 8645.50000   82.64460  144.27080  112.19900    8.10920
 8646.00000   82.66800  144.55280  110.69300    8.10910
 8646.50000   82.67780  145.41580  107.68100    8.11710
 8647.00000   82.64580  145.49310  107.38000    8.12510
 8647.50000   82.58000  145.58190  108.28300    8.14510
 8648.00000   82.65980  145.67910  109.00600    8.16510
 8648.50000   82.62020  146.12190  108.58400    8.18910
 8649.00000   82.44720  145.81080  105.27100    8.18910
 8649.50000   82.42740  145.50610  109.03600    8.18900
 8650.00000   82.38960  145.67420  113.93900    8.17300
 8650.50000   82.11580  145.60300  120.93400    8.15700
 8651.00000   81.64970  144.74300  121.53600    8.14100
 8651.50000   80.58640  142.38720  120.78300    8.13300
 8652.00000   80.46940  142.12110  115.27100    8.12200
 8652.50000   80.35220  141.78240  108.58400    8.11450
 8653.00000   79.51110  140.39340  103.76500    8.10700
 8653.50000   79.26830  139.77710  102.86100    8.10100
 8654.00000   79.34910  139.02210  105.91100    8.10080
 8654.50000   79.27710  138.83510  108.88600    8.11690
 8655.00000   79.29160  138.38350  111.44600    8.15340
 8655.50000   79.48450  138.56010  112.19900    8.17620
 8656.00000   80.24220  139.21800  109.48800    8.19910
 8656.50000   82.18190  143.09470  108.58400    8.22180
 8657.00000   82.44390  144.41700  110.39200    8.24470
 8657.50000   82.41340  144.84300  113.10200    8.24470
 8658.00000   82.49670  144.98080  116.23500    8.22250
 8658.50000   82.62240  145.33150  118.52400    8.19480
 8659.00000   82.79320  146.76340  118.67500    8.16460
 8659.50000   82.87470  147.65820  113.85500    8.15660
 8660.00000   82.83440  148.12520  109.78900    8.16460
 8660.50000   82.76910  148.33910  105.42200    8.18860
 8661.00000   82.74140  148.19000  105.87300    8.21180
 8661.50000   82.90390  148.86710  110.39200    8.24990
 8662.00000   83.21950  149.16240  114.00600    8.28790
 8662.50000   83.33570  149.47650  116.56600    8.32600
 8663.00000   83.41570  149.74150  118.82500    8.35640
 8663.50000   83.54440  149.51370  116.71700    8.36440
 8664.00000   84.17680  149.92510  114.08100    8.37240
 8664.50000   84.37900  149.93410  109.78900    8.38040
 8665.00000   84.38670  150.01450  110.09000    8.38830
 8665.50000   84.41510  150.05990  113.25300    8.38830
 8666.00000   84.35450  150.29770  114.60800    8.35700
 8666.50000   84.15290  149.52660  111.59600    8.30460
 8667.00000   83.97640  148.90400  107.22900    8.25240
 8667.50000   83.99230  147.93400  104.97000    8.20000
 8668.00000   83.83550  148.15720  106.08400    8.14780
 8668.50000   83.78410  147.92190  107.98200    8.11640
 8669.00000   83.75570  147.99050  111.59600    8.11640
 8669.50000   83.78710  147.61250  109.18700    8.11640
 8670.00000   84.25240  148.50710  111.29500    8.11650
 8670.50000   84.39940  148.96180  113.40400    8.11780
 8671.00000   84.50050  149.79130  115.21100    8.11910
 8671.50000   84.45990  149.70900  113.70500    8.12040
 8672.00000   84.68500  150.19740  113.40400    8.12170
 8672.50000   85.26080  152.33690  113.25300    8.12300
 8673.00000   85.39580  152.69870  113.40400    8.12420
 8673.50000   85.33800  152.90770  112.19900    8.12420
 8674.00000   85.28190  152.90490  107.75600    8.12410
 8674.50000   85.17770  153.11960  101.20500    8.11610
 8675.00000   84.95010  152.53900  101.95800    8.10810
 8675.50000   84.63870  151.93160  108.43400    8.10860
 8676.00000   84.51690  151.09870  112.50000    8.10900
 8676.50000   84.46980  150.98990  106.32500    8.10950
 8677.00000   84.31560  150.75900  102.56000    8.10990
 8677.50000   84.04890  149.35570  103.61400    8.11030
 8678.00000   83.97810  148.90280  107.83100    8.11080
 8678.50000   84.03200  148.66490  114.00600    8.11110
 8679.00000   84.04570  148.66910  115.21100    8.11160
 8679.50000   84.13710  148.86220  111.74700    8.11200
 8680.00000   84.43180  149.37890  109.18700    8.11250
 8680.50000   84.58560  149.21680  106.02400    8.11290
 8681.00000   84.79460  149.55930  105.57200    8.11340
 8681.50000   84.81530  149.71120  104.51800    8.11380
 8682.00000   84.85090  149.88320  103.91600    8.11430
 8682.50000   85.17300  150.61270  105.72300    8.11460
 8683.00000   85.24110  149.99890  109.48800    8.11510
 8683.50000   85.17550  149.29090  112.50000    8.11550
 8684.00000   85.22480  149.17090  112.53800    8.12380
 8684.50000   85.24550  149.18520  109.48800    8.12780
 8685.00000   85.32680  148.92260  109.03600    8.13180
 8685.50000   85.88940  148.12650  111.89800    8.13180
 8686.00000   86.61730  148.55770  115.51200    8.13170
 8686.50000   86.73410  148.16420  115.96400    8.13170
 8687.00000   86.75610  148.27670  120.18100    8.13170
 8687.50000   86.75280  148.16910  124.09600    8.13000
 8688.00000   86.83040  148.05640  126.47600    8.12830
 8688.50000   86.83640  148.28110  120.03000    8.12650
 8689.00000   86.76660  148.49120  110.24100    8.12480
 8689.50000   86.04170  147.58440  103.61400    8.12310
 8690.00000   85.67840  145.97700  100.45200    8.12140
 8690.50000   85.64970  146.00110   99.69900    8.11970
 8691.00000   85.86610  146.10880  101.35500    8.11790
 8691.50000   86.02610  146.32560  110.24100    8.11620
 8692.00000   86.35170  145.84210  120.81300    8.11550
 8692.50000   86.93740  145.77660  132.38000    8.12350
 8693.00000   87.12070  145.81620  145.48200    8.14750
 8693.50000   87.10830  145.91940  149.24700    8.17140
 8694.00000   87.04530  145.58310  137.31900    8.19540
 8694.50000   87.17620  145.10080  124.06600    8.22730
 8695.00000   88.21150  145.39010  109.48800    8.23530
 8695.50000   87.74960  145.18940  109.48800    8.23530
 8696.00000   87.58880  145.18230  112.19900    8.23530
