~Version ---------------------------------------------------
VERS.   2.0 : CWLS log ASCII Standard -VERSION 2.0
WRAP.    NO : One line per depth step
DLM . SPACE : Column Data Section Delimiter
~Well ------------------------------------------------------
STRT .F                5765.0 : START DEPTH
STOP .F                9795.0 : STOP DEPTH
STEP .F                   0.5 : STEP
NULL .               -9999.25 : NULL VALUE
COMP .                        : COMPANY
WELL .                        : WELL
FLD  .                        : FIELD
LOC  .                        : LOCATION
PROV .                        : PROVINCE
CNTY .                        : COUNTY
STAT .                        : STATE
CTRY .                        : COUNTRY
SRVC .                        : SERVICE COMPANY
DATE .                        : DATE
UWI  .                        : UNIQUE WELL ID
API  .                        : API NUMBER
SLAT .WGS84 2.517293603676997 : SURFACE LATITUDE
SLON .WGS84 6.045269258181008 : SURFACE LONGITUDE
DATUM.F                   nan : DEPTH DATUM ELEV
~Curve Information -----------------------------------------
DEPT    .F     : 
DTCO    .US/F  : DELTA-T COMPRESSIONAL
DTSM    .US/F  : DELTA-T SHEAR
ECGRS   .GAPI  : ENVIRONMENTALLY CORRECTED GAMMA RAY FROM SONIC LOG
HD2_PPC1.IN    : PPC1 HOLE DIAMETER 2
~Params ----------------------------------------------------
~Other -----------------------------------------------------
~ASCII -----------------------------------------------------
# ...
 8124.50000   80.16790  137.63060  104.66900    8.08900
 8125.00000   80.35090  137.26840  104.97000    8.08820
 8125.50000   80.57010  137.01840  102.86100    8.08750
 8126.00000   80.60150  137.30660  101.95800    8.08680
 8126.50000   80.62700  137.74160  101.65700    8.08610
 8127.00000   80.60220  137.83050  104.81900    8.08540
 8127.50000   80.61140  137.63580  105.87300    8.08470
 8128.00000   80.63210  137.56610  106.23500    8.08390
 8128.50000   80.92360  137.36180  107.38000    8.08320
 8129.00000   80.94200  137.21470  106.02400    8.08250
 8129.50000   80.97550  137.14440  103.46400    8.08180
 8130.00000   80.82790  137.69170  100.45200    8.08110
 8130.50000   80.95120  137.74400   97.44000    8.08040
 8131.00000   80.95100  137.59890   97.74100    8.07960
 8131.50000   80.88510  137.11360   96.98800    8.07890
 8132.00000   80.92790  137.22290   96.44600    8.07820
 8132.50000   80.84160  137.37470   96.83700    8.07740
 8133.00000   80.56070  137.48280   99.84900    8.07670
 8133.50000   80.77710  137.19260  102.56000    8.07600
 8134.00000   80.75460  137.37570  104.21700    8.07530
 8134.50000   80.91060  137.56480  104.66900    8.07460
 8135.00000   80.97980  138.45180  105.72300    8.07390
 8135.50000   81.35410  138.91410  107.98200    8.07320
 8136.00000   81.45530  139.05890  113.40400    8.07250
 8136.50000   81.46060  139.11360  118.22300    8.07180
 8137.00000   81.67740  140.09730  118.52400    8.07170
 8137.50000   81.92650  139.87820  113.10200    8.07160
 8138.00000   81.91300  141.23530  108.40400    8.06360
 8138.50000   81.90990  141.43440  105.87300    8.06360
 8139.00000   81.91310  141.20240  105.12000    8.06360
 8139.50000   81.83200  141.14060  104.66900    8.05550
 8140.00000   81.92350  141.38060  106.47600    8.05520
 8140.50000   82.15740  141.62500  111.59600    8.05490
 8141.00000   82.16130  142.80150  114.91000    8.05460
 8141.50000   82.19750  142.81780  115.36100    8.05420
 8142.00000   82.23520  142.84250  115.54200    8.05390
 8142.50000   82.09370  143.65680  117.47000    8.05360
 8143.00000   81.34090  144.77500  118.82500    8.05330
 8143.50000   81.21440  143.94050  118.22300    8.05300
 8144.00000   81.21130  144.89730  113.70500    8.05270
 8144.50000   81.27660  144.58960  108.88600    8.05240
 8145.00000   80.60500  145.10010  109.03600    8.05210
 8145.50000   80.14680  144.03660  107.98200    8.05180
 8146.00000   80.00060  143.51840  105.27100    8.05140
 8146.50000   79.87880  143.84980  102.86100    8.05110
 8147.00000   79.85540  143.73090  101.20500    8.05080
 8147.50000   79.19510  142.15120  101.80700    8.05050
 8148.00000   78.93750  141.07390  101.26500    8.05020
 8148.50000   79.52880  139.67720  101.05400    8.04980
 8149.00000   79.35010  139.31690  102.10800    8.04950
 8149.50000   79.38670  139.47830  103.46400    8.04920
 8150.00000   79.46810  139.75320  103.69800    8.04890
 8150.50000   79.98950  140.13410  104.06600    8.04850
 8151.00000   81.48800  142.68610  102.56000    8.04820
 8151.50000   81.87700  144.18040  106.02400    8.04790
 8152.00000   81.93700  144.03180  111.92800    8.04760
 8152.50000   82.05520  144.21320  116.56600    8.04730
 8153.00000   82.87120  146.90790  120.63300    8.04710
 8153.50000   83.20850  147.03550  121.23500    8.04710
 8154.00000   83.51720  148.99800  120.52000    8.04710
 8154.50000   83.92270  149.73400  122.89200    8.04700
 8155.00000   83.88950  149.74890  123.34300    8.04700
 8155.50000   85.25980  149.86360  121.08400    8.04700
 8156.00000   85.61390  151.55010  120.93400    8.04700
 8156.50000   86.20210  154.29530  120.93400    8.04700
 8157.00000   86.05900  154.61020  123.49400    8.04700
 8157.50000   86.16000  153.99830  121.98800    8.04770
 8158.00000   85.93850  152.51900  120.54200    8.04940
 8158.50000   83.76130  149.87900  120.33100    8.05110
 8159.00000   82.99910  147.23820  120.33100    8.05280
 8159.50000   82.93220  144.05400  120.78300    8.05450
 8160.00000   82.91950  143.84450  120.93400    8.05490
 8160.50000   82.37450  141.31470  122.44000    8.05490
 8161.00000   80.13340  139.24040  121.23500    8.05490
 8161.50000   79.71700  137.54850  120.93400    8.05490
 8162.00000   79.68340  137.41010  123.70500    8.05480
 8162.50000   79.67940  137.48270  127.10800    8.05480
 8163.00000   79.45950  137.53900  124.54800    8.04670
 8163.50000   79.91680  136.48160  120.33100    8.04670
 8164.00000   80.73160  139.10220  116.56600    8.04180
 8164.50000   80.78310  138.96680  114.60800    8.03560
 8165.00000   80.84790  139.22700  114.15700    8.02950
 8165.50000   81.38810  140.32120  115.96400    8.02330
 8166.00000   82.58320  143.02750  118.52400    8.01710
 8166.50000   83.35930  145.57340  119.88000    8.01100
 8167.00000   84.08870  148.35160  117.62000    8.00480
 8167.50000   86.24510  150.15500  117.47000    7.99860
 8168.00000   86.52730  152.78100  117.47000    7.99250
 8168.50000   87.41990  152.27030  119.72900    7.98630
 8169.00000   86.25090  151.83660  118.22300    7.99050
 8169.50000   85.99120  152.13810  114.30700    8.00650
 8170.00000   84.36060  151.53100  111.59600    8.01850
 8170.50000   80.26540  146.55220  107.38000    8.03050
 8171.00000   79.99570  144.12900  102.25900    8.03100
 8171.50000   79.94640  144.00400   97.74100    8.03330
 8172.00000   79.91030  144.11870   97.74100    8.03550
 8172.50000   79.88990  143.98910  101.05400    8.03780
 8173.00000   79.89330  144.03650  104.21700    8.04010
 8173.50000   79.89560  144.07380  106.17500    8.04240
 8174.00000   79.89580  144.01670  109.94000    8.04470
 8174.50000   79.59160  144.24140  113.25300    8.04700
 8175.00000   82.48940  145.61800  112.50000    8.04930
 8175.50000   85.38730  155.22600  110.99400    8.05150
 8176.00000   85.42390  159.80870  114.91000    8.05380
 8176.50000   85.37420  160.24220  122.28900    8.05430
 8177.00000   85.35370  160.28150  129.51800    8.05430
 8177.50000   85.32370  160.50990  134.78900    8.07830
 8178.00000   85.12180  160.46560  136.29500    8.15020
 8178.50000   85.12760  160.34670  133.88600    8.21360
 8179.00000   84.96520  160.27040  129.06600    8.27680
 8179.50000   85.43590  161.35390  128.76500    8.30220
 8180.00000   85.60570  160.45990  130.27100    8.28620
 8180.50000   86.03230  160.35210  130.87300    8.26300
 8181.00000   85.13820  156.75380  127.86100    8.25090
 8181.50000   83.38270  153.75400  119.12700    8.24610
 8182.00000   81.36600  151.51570  107.07800    8.31010
 8182.50000   80.43990  148.42320   98.04200    8.74200
 8183.00000   79.29060  147.51860   92.01800    8.72600
 8183.50000   78.92820  144.70340   83.28300    8.53850
 8184.00000   76.86840  141.28400   81.32500    8.35100
 8184.50000   76.11670  137.46530   84.18700    8.16350
 8185.00000   75.24380  136.96330   86.74700    8.12600
 8185.50000   75.88870  135.86270   94.88000    8.13390
 8186.00000   75.85060  135.21790  103.16300    8.19790
 8186.50000   76.72880  133.77560  112.34900    8.27420
 8187.00000   77.14920  134.21150  114.30700    8.35070
 8187.50000   77.02240  133.55420  116.41600    8.42700
 8188.00000   76.53310  133.81580  119.12700    8.50330
 8188.50000   75.95450  132.99690  121.83700    8.53380
 8189.00000   74.26610  128.99270  110.12300    8.35840
 8189.50000   73.51740  127.78870   99.47300    8.18300
 8190.00000   73.21800  125.78760   92.01800    8.06980
 8190.50000   72.47500  124.86520   96.53600    8.06980
 8191.00000   72.40700  124.22410   99.84900    8.07780
 8191.50000   71.92420  124.55300  102.10800    8.09370
 8192.00000   73.00970  124.94070  100.45200    8.10970
 8192.50000   72.86070  124.79760  103.16300    8.12570
 8193.00000   72.83000  124.57860  105.57200    8.12570
 8193.50000   72.65870  124.76620   98.94600    8.13370
 8194.00000   72.54730  125.46310   92.05600    8.12570
 8194.50000   71.23160  123.85700   76.80700    8.11760
 8195.00000   70.10970  120.18100   75.45200    8.10220
 8195.50000   69.94710  120.58810   73.64500    8.08990
