~Version ---------------------------------------------------
VERS.   2.0 : CWLS log ASCII Standard -VERSION 2.0
WRAP.    NO : One line per depth step
DLM . SPACE : Column Data Section Delimiter
~Well ------------------------------------------------------
STRT .F                5765.0 : START DEPTH
STOP .F                9795.0 : STOP DEPTH
STEP .F                   0.5 : STEP
NULL .               -9999.25 : NULL VALUE
COMP .                        : COMPANY
WELL .                        : WELL
FLD  .                        : FIELD
LOC  .                        : LOCATION
PROV .                        : PROVINCE
CNTY .                        : COUNTY
STAT .                        : STATE
CTRY .                        : COUNTRY
SRVC .                        : SERVICE COMPANY
DATE .                        : DATE
UWI  .                        : UNIQUE WELL ID
API  .                        : API NUMBER
SLAT .WGS84 2.517293603676997 : SURFACE LATITUDE
SLON .WGS84 6.045269258181008 : SURFACE LONGITUDE
DATUM.F                   nan : DEPTH DATUM ELEV
~Curve Information -----------------------------------------
DEPT    .F     : 
DTCO    .US/F  : DELTA-T COMPRESSIONAL
DTSM    .US/F  : DELTA-T SHEAR
ECGRS   .GAPI  : ENVIRONMENTALLY CORRECTED GAMMA RAY FROM SONIC LOG
HD2_PPC1.IN    : PPC1 HOLE DIAMETER 2
~Params ----------------------------------------------------
~Other -----------------------------------------------------
~ASCII -----------------------------------------------------
# ...
 7338.00000   76.10600  131.28640   92.34900    8.15700
 7338.50000   76.83320  132.02760   96.53600    8.15700
 7339.00000   77.19550  132.26140   97.13900    8.15690
 7339.50000   77.18610  132.10430   96.38600    8.15690
 7340.00000   77.37810  132.72590   94.72900    8.17290
 7340.50000   78.05140  132.84550   92.62000    8.18090
 7341.00000   78.17830  132.35170   94.42800    8.18080
 7341.50000   78.46000  132.58050   95.93400    8.18880
 7342.00000   78.33730  132.68980   96.29500    8.18880
 7342.50000   77.62610  132.20340   97.59000    8.18880
 7343.00000   77.14740  129.98040   99.54800    8.18880
 7343.50000   75.62030  129.12730  100.75300    8.18480
 7344.00000   74.29300  127.57310   97.55300    8.17680
 7344.50000   73.24590  125.92890   91.26500    8.16480
 7345.00000   71.63340  123.64480   88.85500    8.15670
 7345.50000   71.24580  123.34980   88.70500    8.14870
 7346.00000   70.15790  122.36130   81.85900    8.14070
 7346.50000   69.57190  121.16650   71.18000    8.14070
 7347.00000   68.77800  122.11250   63.70500    8.14060
 7347.50000   68.34310  120.77720   78.06200    8.14560
 7348.00000   67.94960  120.95220   84.14900    8.15060
 7348.50000   67.96300  121.27750   75.46100    8.15560
 7349.00000   67.67020  122.48220   62.56600    8.16060
 7349.50000   68.64690  122.90880   49.67100    8.16550
 7350.00000   69.86410  126.59230   43.22300    8.17050
 7350.50000   70.58540  126.58730   57.98200    8.17550
 7351.00000   71.52970  128.14550   75.15100    8.18050
 7351.50000   73.50930  129.70370   96.53600    8.18550
 7352.00000   75.97710  131.40260  105.12000    8.19050
 7352.50000   76.62760  132.76050  105.72300    8.19550
 7353.00000   77.99590  134.32930  102.41000    8.20050
 7353.50000   78.73070  137.31840  101.65700    8.20450
 7354.00000   78.87640  136.98680  104.89500    8.21240
 7354.50000   79.02870  136.98400  107.83100    8.21240
 7355.00000   79.20510  137.20480  106.62700    8.21240
 7355.50000   79.60120  137.13080  106.47600    8.19640
 7356.00000   79.82670  136.05890  108.58400    8.18840
 7356.50000   79.98270  136.47020  112.65100    8.18040
 7357.00000   80.20300  135.85430  112.50000    8.17230
 7357.50000   80.56520  134.81320  114.00600    8.16430
 7358.00000   80.72660  135.92660  115.45200    8.16420
 7358.50000   81.07510  138.89860  113.70500    8.16420
 7359.00000   80.52830  136.25400  115.06000    8.16420
 7359.50000   80.44200  136.36240  118.37300    8.17220
 7360.00000   79.73100  134.02840  121.53600    8.18020
 7360.50000   78.18180  135.92680  121.53600    8.19620
 7361.00000   78.02760  132.70650  110.69300    8.20420
 7361.50000   77.50990  130.91410  100.30100    8.21220
 7362.00000   76.37440  130.55580   92.89200    8.21220
 7362.50000   76.20210  126.70740   89.60800    8.18890
 7363.00000   76.18440  126.19240   91.26500    8.15260
 7363.50000   76.06970  124.09660   94.42800    8.11640
 7364.00000   75.90590  123.47200   97.74100    8.08020
 7364.50000   75.80200  123.76480  100.45200    8.04400
 7365.00000   75.92520  123.82950   99.24700    8.04400
 7365.50000   75.49080  123.46250   93.67500    8.05200
 7366.00000   75.01420  124.76100   88.40400    8.07190
 7366.50000   74.73300  123.80950   82.68100    8.09190
 7367.00000   74.29070  123.23850   81.47600    8.11190
 7367.50000   74.11160  122.53140   82.68100    8.11160
 7368.00000   73.48510  120.46150   81.56600    8.10630
 7368.50000   72.94270  119.75980   79.06600    8.10090
 7369.00000   72.35420  119.11080   76.65700    8.09560
 7369.50000   71.44820  116.72360   79.06600    8.09020
 7370.00000   70.86830  117.26290   80.27100    8.08480
 7370.50000   70.86730  116.78820   80.87300    8.08370
 7371.00000   70.33280  116.52580   82.07800    8.08370
 7371.50000   70.27060  115.53580   77.56000    8.08370
 7372.00000   71.10170  116.05920   71.44600    8.08370
 7372.50000   71.18570  116.49200   66.11400    8.09170
 7373.00000   71.54830  116.23080   64.00600    8.10770
 7373.50000   72.11570  116.24580   70.33100    8.12370
 7374.00000   72.80470  118.57050   75.48900    8.13970
 7374.50000   74.21110  119.32890   81.92800    8.14760
 7375.00000   74.46840  120.77880   85.99400    8.15560
 7375.50000   75.09880  122.50030   92.01800    8.15560
 7376.00000   76.05210  123.18070   97.13900    8.15560
 7376.50000   76.27390  124.07330   99.84900    8.15560
 7377.00000   76.71560  125.62140   96.83700    8.13960
 7377.50000   76.80990  125.40880   91.86700    8.13160
 7378.00000   77.07190  125.89590   87.50000    8.12360
 7378.50000   77.45540  127.43410   90.51200    8.11560
 7379.00000   77.39080  126.55880   96.83700    8.10740
 7379.50000   77.33280  126.46790   98.64500    8.09940
 7380.00000   77.24020  125.95640   95.33100    8.09940
 7380.50000   77.21320  125.67430   93.82500    8.09940
 7381.00000   76.62550  124.18300   99.84900    8.09940
 7381.50000   76.61030  123.73440  100.90400    8.10740
 7382.00000   76.48780  123.56830   95.99400    8.12340
 7382.50000   76.15140  122.59080   92.16900    8.13140
 7383.00000   75.93480  122.48330   92.92200    8.13130
 7383.50000   75.67350  122.91620   95.03000    8.13960
 7384.00000   75.62050  122.55400   93.90100    8.14130
 7384.50000   75.66510  123.66870   97.44000    8.14300
 7385.00000   75.52980  123.35670  103.01200    8.14460
 7385.50000   74.91790  121.89610  109.78900    8.14630
 7386.00000   76.02160  119.00470  111.29500    8.14730
 7386.50000   75.35290  118.08200  112.50000    8.13930
 7387.00000   75.49270  117.42500  111.29500    8.11520
 7387.50000   77.26720  117.20680  106.87800    8.09910
 7388.00000   77.24180  114.42700   92.95200    8.08310
 7388.50000   63.39410  111.37190   65.96400    8.07510
 7389.00000   60.72240  110.65370   64.60800    8.07510
 7389.50000   60.63480  109.46550   82.68100    8.07510
 7390.00000   60.17810  107.42770   93.52400    8.07510
 7390.50000   58.76830  106.72170   93.52400    8.08310
 7391.00000   58.72930  107.02470   65.28600    8.09910
 7391.50000   59.42450  106.81640   46.46100    8.11500
 7392.00000   59.39550  107.18350   37.36300    8.13900
 7392.50000   59.32580  106.22180   32.43400    8.14580
 7393.00000   57.54510  105.27440   29.36700    8.15700
 7393.50000   55.89580  103.10080   34.78900    8.16830
 7394.00000   55.06080  103.03870   40.21100    8.17950
 7394.50000   53.34380  101.87860   40.81300    8.19080
 7395.00000   52.40060  100.21080   26.27200    8.20200
 7395.50000   52.52510  101.65030   16.21500    8.21100
 7396.00000   52.10210  103.82860   13.53700    8.21090
 7396.50000   64.84440  104.60060   12.19900    8.21090
 7397.00000   77.58680  111.40110   22.50700    8.21090
 7397.50000   90.32910  118.28550   35.81100    8.21090
 7398.00000   92.38040  126.20050   58.29400    8.21090
 7398.50000   90.89490  133.43410   80.77700    8.21090
 7399.00000   90.27620  138.86010  101.43100    8.21090
 7399.50000   90.79550  146.59480  122.13900    8.21090
 7400.00000   89.10870  149.36850  124.24700    8.21090
 7400.50000   88.33030  153.52230  120.63300    8.21080
 7401.00000   87.39510  157.95340  118.22300    8.21070
 7401.50000   87.37810  157.78780  118.52400    8.21070
 7402.00000   87.45320  157.89030  117.59000    8.21070
 7402.50000   84.69950  154.15410  114.75900    8.21070
 7403.00000   83.80590  153.10880  109.48800    8.21070
 7403.50000   83.46060  151.32760  108.88600    8.21070
 7404.00000   82.94360  151.66220  108.32100    8.20270
 7404.50000   82.74640  151.35560  104.66900    8.20260
 7405.00000   82.14080  150.79770  101.05400    8.20260
 7405.50000   81.99260  151.82700   95.78300    8.20260
 7406.00000   81.84930  151.55730   94.72900    8.20260
 7406.50000   81.84890  151.72250   93.82500    8.20260
 7407.00000   81.87170  151.72340   92.62000    8.20010
 7407.50000   82.13910  151.87250   94.12700    8.19700
 7408.00000   82.33330  153.37320   96.38600    8.19390
 7408.50000   82.04960  153.82540   97.44000    8.19080
 7409.00000   81.85870  154.19090   92.16900    8.18770
