~Version ---------------------------------------------------
VERS.   2.0 : CWLS log ASCII Standard -VERSION 2.0
WRAP.    NO : One line per depth step
DLM . SPACE : Column Data Section Delimiter
~Well ------------------------------------------------------
STRT .F                5765.0 : START DEPTH
STOP .F                9795.0 : STOP DEPTH
STEP .F                   0.5 : STEP
NULL .               -9999.25 : NULL VALUE
COMP .                        : COMPANY
WELL .                        : WELL
FLD  .                        : FIELD
LOC  .                        : LOCATION
PROV .                        : PROVINCE
CNTY .                        : COUNTY
STAT .                        : STATE
CTRY .                        : COUNTRY
SRVC .                        : SERVICE COMPANY
DATE .                        : DATE
UWI  .                        : UNIQUE WELL ID
API  .                        : API NUMBER
SLAT .WGS84 2.517293603676997 : SURFACE LATITUDE
SLON .WGS84 6.045269258181008 : SURFACE LONGITUDE
DATUM.F                   nan : DEPTH DATUM ELEV
~Curve Information -----------------------------------------
DEPT    .F     : 
DTCO    .US/F  : DELTA-T COMPRESSIONAL
DTSM    .US/F  : DELTA-T SHEAR
ECGRS   .GAPI  : ENVIRONMENTALLY CORRECTED GAMMA RAY FROM SONIC LOG
HD2_PPC1.IN    : PPC1 HOLE DIAMETER 2
~Params ----------------------------------------------------
~Other -----------------------------------------------------
~ASCII -----------------------------------------------------
# ...
 9697.50000   51.85610   89.68150   57.07800    8.01950
 9698.00000   51.99070   90.29950   73.80100    8.01160
 9698.50000   52.04030   91.62220   91.71700    8.01170
 9699.00000   51.96790   92.15630  109.78900    8.01180
 9699.50000   51.84400   92.16040  104.61700    8.02790
 9700.00000   51.63250   93.31280   97.04600    8.04400
 9700.50000   50.64760   93.81020   80.67800    8.05970
 9701.00000   49.79450   94.18890   55.33100    8.07240
 9701.50000   49.51100   94.87160   29.98500    8.08510
 9702.00000   49.06330   94.30540   16.72700    8.09780
 9702.50000   48.53430   94.11400   11.71400    8.10050
 9703.00000   48.43820   93.43210   10.05700    8.10050
 9703.50000   48.40140   93.56360   10.70000    8.10060
 9704.00000   48.40810   93.15910   15.81300    8.10880
 9704.50000   48.50470   92.49830   14.98400    8.11730
 9705.00000   48.47980   91.26820   14.17000    8.12810
 9705.50000   48.40580   91.99500   13.15400    8.13890
 9706.00000   48.56640   91.59210   14.04800    8.15710
 9706.50000   49.20930   92.06190   14.35500    8.20220
 9707.00000   49.72970   92.23930   13.67700    8.23730
 9707.50000   49.78730   91.94410   14.21100    8.27240
 9708.00000   50.17830   92.26690   21.53100    8.29340
 9708.50000   50.22100   91.84360   29.36700    8.27370
 9709.00000   50.36880   92.30830   48.76500    8.24410
 9709.50000   50.33580   92.76280   67.31900    8.21460
 9710.00000   50.50760   92.96290   63.34300    8.18160
 9710.50000   50.66060   93.47140   55.47000    8.15200
 9711.00000   51.46450   93.45260   47.59800    8.12240
 9711.50000   51.49840   93.38600   40.51200    8.09870
 9712.00000   51.15130   93.48530   32.98200    8.09890
 9712.50000   51.21580   93.50970   40.84300    8.09890
 9713.00000   51.16870   93.40450   50.45200    8.10700
 9713.50000   51.13180   93.64990   50.45200    8.10720
 9714.00000   51.08530   93.58670   39.96300    8.10720
 9714.50000   50.88780   94.04900   32.97100    8.10730
 9715.00000   50.56100   93.90990   29.64400    8.10750
 9715.50000   49.90070   93.47020   28.01200    8.11050
 9716.00000   49.47870   93.37410   26.50600    8.11360
 9716.50000   49.17650   92.56380   25.00000    8.11670
 9717.00000   48.80760   92.10390   21.53600    8.11980
 9717.50000   48.77440   91.73130   18.22300    8.12290
 9718.00000   48.78900   91.43880   14.18700    8.12600
 9718.50000   48.78210   91.15160   10.39200    8.12910
 9719.00000   48.66330   90.94220   10.84300    8.13210
 9719.50000   48.61710   91.17570   12.50000    8.13230
 9720.00000   48.71130   91.19490   13.70500    8.13240
 9720.50000   48.76860   91.19140   13.70500    8.13240
 9721.00000   48.69250   91.34720   12.80100    8.13260
 9721.50000   48.66560   91.47160   12.19900    8.13370
 9722.00000   49.06320   90.97100   13.52400    8.13870
 9722.50000   49.21170   91.41330   15.51200    8.14390
 9723.00000   49.55320   91.32950   18.07200    8.14890
 9723.50000   49.98230   91.24360   20.93400    8.15400
 9724.00000   50.68180   91.09400   27.56000    8.15720
 9724.50000   50.94330   92.07420   38.25300    8.16520
 9725.00000   51.08340   91.25080   48.49400    8.17330
 9725.50000   50.98760   91.41440   55.72300    8.20540
 9726.00000   50.75300   91.05060   56.32500    8.22950
 9726.50000   50.55930   91.36690   47.89200    8.23760
 9727.00000   50.11170   90.68580   42.77100    8.20570
 9727.50000   49.65970   91.24190   28.76500    8.18080
 9728.00000   49.62290   90.36070   21.08400    8.15860
 9728.50000   49.78750   90.78480   15.51200    8.13620
 9729.00000   50.05290   90.55220   15.06000    8.11390
 9729.50000   50.25430   90.64340   25.68200    8.09160
 9730.00000   50.45650   91.37330   36.31300    8.08630
 9730.50000   50.80750   91.23780   46.94400    8.09430
 9731.00000   51.34850   91.74600   53.01200    8.10250
 9731.50000   52.01120   91.97440   54.66900    8.11050
 9732.00000   51.91060   92.40990   56.99200    8.12270
 9732.50000   51.56450   91.79430   59.57400    8.13470
 9733.00000   51.26820   91.20930   61.89800    8.13480
 9733.50000   50.03440   91.12240   61.89800    8.13500
 9734.00000   49.65890   90.77070   58.25300    8.13500
 9734.50000   49.13900   90.69280   55.27100    8.12710
 9735.00000   48.84980   90.06550   54.06600    8.12720
 9735.50000   48.50100   89.62230   49.69900    8.12730
 9736.00000   47.69630   88.82620   45.03000    8.12710
 9736.50000   47.27790   88.64340   40.21100    8.12580
 9737.00000   47.23440   87.81450   36.20700    8.12440
 9737.50000   47.25370   87.46410   32.56800    8.12300
 9738.00000   48.24200   87.24210   30.87300    8.12170
 9738.50000   50.09540   88.20200   40.51200    8.12030
 9739.00000   50.70730   88.68500   40.51200    8.11900
 9739.50000   50.94530   88.31990   31.73200    8.11750
 9740.00000   51.17160   88.61890   24.54800    8.11280
 9740.50000   51.55980   88.74990   22.89200    8.11150
 9741.00000   51.96790   90.00170   21.53600    8.11010
 9741.50000   52.30920   90.07210   21.63400    8.10900
 9742.00000   52.43080   90.39160   21.72200    8.10920
 9742.50000   53.23050   90.47620   21.81100    8.10920
 9743.00000   50.37800   90.19220   21.83700    8.10930
 9743.50000   49.63960   90.41670   21.83700    8.10940
 9744.00000   49.91810   89.79950   21.17500    8.10950
 9744.50000   49.20420   88.84590   20.57200    8.11760
 9745.00000   48.61210   88.83150   19.97000    8.12570
 9745.50000   48.33700   88.72120   19.42800    8.14180
 9746.00000   48.50520   88.57560   20.33100    8.14990
 9746.50000   48.35270   88.79480   -9999.25    8.15800
 9747.00000   49.05570   88.59150   -9999.25    8.16610
 9747.50000   48.87640   88.23540   -9999.25    8.16620
 9748.00000   49.00660   88.59730   -9999.25    8.16630
 9748.50000   49.02670   88.14820   -9999.25    8.16640
 9749.00000   49.63390   89.24280   -9999.25    8.16650
 9749.50000   50.25500   90.75700   -9999.25    8.16660
 9750.00000   50.82210   91.35930   -9999.25    8.16660
 9750.50000   52.13260   93.79500   -9999.25    8.16670
 9751.00000   53.27480   95.15480   -9999.25    8.16690
 9751.50000   53.45330   96.29350   -9999.25    8.16690
 9752.00000   55.04060   98.92250   -9999.25    8.16700
 9752.50000   57.36020  101.19790   -9999.25    8.16710
 9753.00000   58.78950  103.17440   -9999.25    8.16720
 9753.50000   59.52670  104.29820   -9999.25    8.16730
 9754.00000   59.89880  104.39380   -9999.25    8.16750
 9754.50000   60.30890  104.86680   -9999.25    8.15950
 9755.00000   60.09240  104.29720   -9999.25    8.14360
 9755.50000   59.81830  103.28780   -9999.25    8.13570
 9756.00000   58.81390  102.27040   -9999.25    8.12700
 9756.50000   57.93210  100.85020   -9999.25    8.12510
 9757.00000   55.87640   97.87140   -9999.25    8.12310
 9757.50000   54.12760   94.94560   -9999.25    8.12130
 9758.00000   52.73580   94.61100   -9999.25    8.12020
 9758.50000   51.98250   92.38370   -9999.25    8.12020
 9759.00000   51.60130   90.85580   -9999.25    8.12040
 9759.50000   51.85400   89.64110   -9999.25    8.12050
 9760.00000   52.00570   89.07150   -9999.25    8.11250
 9760.50000   52.19570   87.94610   -9999.25    8.11260
 9761.00000   54.05210   87.91740   -9999.25    8.10480
 9761.50000   53.94800   88.70660   -9999.25    8.10480
 9762.00000   54.56310   89.88080   -9999.25    8.10490
 9762.50000   55.90990   91.17070   -9999.25    8.11300
 9763.00000   56.12300   90.74910   -9999.25    8.11310
 9763.50000   55.95550   91.34850   -9999.25    8.11320
 9764.00000   56.34070   91.24050   -9999.25    8.11330
 9764.50000   56.51810   91.18980   -9999.25    8.11340
 9765.00000   56.48440   91.41900   -9999.25    8.10550
 9765.50000   56.39330   90.94840   -9999.25    8.09760
 9766.00000   56.41430   91.22490   -9999.25    8.09770
 9766.50000   56.45400   91.30700   -9999.25    8.08980
 9767.00000   56.63730   91.48720   -9999.25    8.09790
 9767.50000   56.41810   90.99330   -9999.25    8.12200
 9768.00000   56.40130   91.38090   -9999.25    8.14600
 9768.50000   56.30340   91.43060   -9999.25    8.17020
