~Version ---------------------------------------------------
VERS.   2.0 : CWLS log ASCII Standard -VERSION 2.0
WRAP.    NO : One line per depth step
DLM . SPACE : Column Data Section Delimiter
~Well ------------------------------------------------------
STRT .F                5765.0 : START DEPTH
STOP .F                9795.0 : STOP DEPTH
STEP .F                   0.5 : STEP
NULL .               -9999.25 : NULL VALUE
COMP .                        : COMPANY
WELL .                        : WELL
FLD  .                        : FIELD
LOC  .                        : LOCATION
PROV .                        : PROVINCE
CNTY .                        : COUNTY
STAT .                        : STATE
CTRY .                        : COUNTRY
SRVC .                        : SERVICE COMPANY
DATE .                        : DATE
UWI  .                        : UNIQUE WELL ID
API  .                        : API NUMBER
SLAT .WGS84 2.517293603676997 : SURFACE LATITUDE
SLON .WGS84 6.045269258181008 : SURFACE LONGITUDE
DATUM.F                   nan : DEPTH DATUM ELEV
~Curve Information -----------------------------------------
DEPT    .F     : 
DTCO    .US/F  : DELTA-T COMPRESSIONAL
DTSM    .US/F  : DELTA-T SHEAR
ECGRS   .GAPI  : ENVIRONMENTALLY CORRECTED GAMMA RAY FROM SONIC LOG
HD2_PPC1.IN    : PPC1 HOLE DIAMETER 2
~Params ----------------------------------------------------
~Other -----------------------------------------------------
~ASCII -----------------------------------------------------
# ...
 9197.00000   79.72980  129.38020   45.26700    8.99150
 9197.50000   79.08820  129.35270   44.59500    9.00750
 9198.00000   82.48290  130.19700   45.41500    9.05340
 9198.50000   82.22540  139.28110   46.47600    9.09930
 9199.00000   84.00450  148.36520   48.04200    9.14520
 9199.50000   86.76120  152.15420   48.56200    9.19110
 9200.00000   86.96840  152.92630   51.68300    9.15610
 9200.50000   86.88080  152.03800   60.62600    9.06130
 9201.00000   83.93380  159.03040   69.56800    8.96640
 9201.50000   83.70970  156.97700   78.51100    8.87150
 9202.00000   83.48570  155.25870   83.43400    8.87150
 9202.50000   88.43970  146.98820   85.39200    8.89540
 9203.00000   89.93310  142.31670   88.10200    8.90340
 9203.50000   75.25730  139.11380   75.91400    8.82770
 9204.00000   67.15760  135.26450   64.83400    8.73310
 9204.50000   67.98420  133.00520   57.07800    8.63850
 9205.00000   67.82160  132.00070   61.14500    8.54380
 9205.50000   67.99710  131.96320   65.36100    8.54380
 9206.00000   68.24780  132.33960   62.80100    8.55180
 9206.50000   68.32100  132.06700   54.66900    8.57570
 9207.00000   68.32970  132.49770   52.25900    8.59970
 9207.50000   75.49120  138.26170   58.88600    8.76140
 9208.00000   84.17630  168.89630   82.31500    8.97780
 9208.50000   88.05770  168.77610   90.39200    9.14290
 9209.00000   87.94590  167.63980   90.28600    9.07900
 9209.50000   87.92660  167.17110   88.63000    8.99900
 9210.00000   87.88360  166.10670   91.86700    8.91920
 9210.50000   87.85810  164.97710  100.15100    8.93510
 9211.00000   91.03380  159.60950  111.89800    9.16680
 9211.50000   51.51370  151.78630  114.30700    9.38640
 9212.00000   50.59100  149.59340   96.62000    9.51820
 9212.50000   48.81110  142.43900   68.82500    9.51820
 9213.00000   51.26370  133.76310   51.08200    9.49430
 9213.50000   50.55530  136.65300   31.36600    9.25250
 9214.00000   51.56960  116.68960   21.68700    8.90300
 9214.50000   49.90060  113.13710   16.30800    8.55350
 9215.00000   50.71610  109.66920   10.39200    8.32770
 9215.50000   49.80600  105.17310   10.19800    8.30380
 9216.00000   48.44750   94.82550   12.34900    8.29580
 9216.50000   51.20520   96.21740   16.86700    8.29580
 9217.00000  101.19890  124.81790   20.63300    8.30370
 9217.50000  100.04350  128.19690   23.94600    8.36260
 9218.00000   82.24720  126.73460   46.31000    8.45000
 9218.50000   82.36420  124.71320   63.70500    8.53730
 9219.00000   82.55580  126.91640   72.89200    8.62470
 9219.50000   83.84890  137.72650   93.52400    8.71210
 9220.00000   85.14190  155.64300   91.41600    8.79950
 9220.50000   83.72720  162.46170   90.21100    8.88680
 9221.00000   83.92670  168.16450   96.53600    8.90270
 9221.50000   84.82060  169.48850  101.65700    8.92670
 9222.00000   85.41750  169.79290  104.06600    8.97460
 9222.50000   85.48100  171.53810  101.20500    9.04650
 9223.00000   85.13650  172.42480   98.19300    9.13430
 9223.50000   85.15830  173.10190   95.63300    9.22220
 9224.00000   85.90670  169.78880   94.61600    9.31010
 9224.50000   86.82330  170.37000   93.37300    9.39800
 9225.00000   87.24580  172.96990   91.26500    9.40590
 9225.50000   88.42840  172.19400   92.62000    9.40590
 9226.00000   89.06760  171.22730   93.22300    9.44580
 9226.50000   89.50700  171.17990   95.18100    9.61360
 9227.00000   89.15550  169.82300  100.00000    9.73330
 9227.50000   88.73620  164.37210  102.10800    9.85320
 9228.00000   89.84640  157.35820   98.28300    9.86910
 9228.50000   90.99350  153.02710   92.31900    9.87710
 9229.00000   80.29390  147.61980   85.24100    9.67570
 9229.50000   74.33380  144.90860   74.54800    9.35320
 9230.00000   74.08490  142.67870   70.33100    9.03090
 9230.50000   73.65110  140.06380   62.19900    8.95030
 9231.00000   73.79220  139.24100   64.00600    8.95830
 9231.50000   74.34670  138.08000   70.78300    9.07020
 9232.00000   75.64920  138.68120   77.38000    9.18200
 9232.50000   76.11330  139.30030   81.77700    9.18190
 9233.00000   75.50140  139.11850   85.09000    9.18190
 9233.50000   77.43490  140.78600   87.50000    9.13330
 9234.00000   77.93810  141.87340   89.45800    9.07880
 9234.50000   78.98610  143.49930   91.56600    9.04600
 9235.00000   80.32830  146.61600   91.26500    9.05400
 9235.50000   80.54360  148.35460   93.52400    9.09400
 9236.00000   80.42940  148.58530   94.72900    9.13630
 9236.50000   80.99420  149.40050   97.44000    9.18020
 9237.00000   80.88230  149.77630   98.64500    9.19780
 9237.50000   82.23680  149.42160   99.09600    9.12430
 9238.00000   82.66310  149.65130   98.34300    9.04260
 9238.50000   82.38050  146.56290   98.64500    8.96070
 9239.00000   80.81800  145.18970   98.34300    8.87890
 9239.50000   76.77820  138.22500   93.97600    8.83030
 9240.00000   58.85160  131.26020   93.52400    8.79020
 9240.50000   58.42380  127.90800   76.20500    8.75830
 9241.00000   58.57380  126.83680   71.53600    8.72100
 9241.50000   60.28060  122.55160   58.58400    8.68800
 9242.00000   62.43730  116.28630   48.88600    8.65490
 9242.50000   61.03030  108.82210   41.71700    8.62180
 9243.00000   60.87480  108.38010   51.35500    8.58880
 9243.50000   61.00910  108.64220   58.28300    8.55570
 9244.00000   61.86520  108.78850   57.53000    8.53440
 9244.50000   62.56280  110.08540   52.41000    8.51050
 9245.00000   63.04490  110.39290   51.95800    8.49260
 9245.50000   63.21510  110.98880   58.73500    8.48300
 9246.00000   63.33150  111.65650   64.60800    8.47330
 9246.50000   63.68540  113.11880   70.18100    8.46370
 9247.00000   63.18550  112.47730   71.38600    8.45410
 9247.50000   63.05170  113.55980   64.91000    8.44640
 9248.00000   63.09370  113.52970   58.64500    8.45440
 9248.50000   63.20590  113.45990   55.27100    8.47040
 9249.00000   63.14540  113.65630   60.69300    8.48630
 9249.50000   63.67360  114.99100   62.50000    8.49430
 9250.00000   63.82120  113.80210   59.17000    8.49630
 9250.50000   64.07460  114.34850   56.77700    8.49970
 9251.00000   65.20710  115.31470   65.21100    8.50290
 9251.50000   65.16090  115.06550   77.41000    8.50620
 9252.00000   65.32500  116.38170   81.47600    8.50950
 9252.50000   65.37690  116.36750   78.16300    8.51290
 9253.00000   65.29900  116.51100   72.89200    8.51620
 9253.50000   65.24940  116.55200   67.31900    8.51940
 9254.00000   65.18550  115.75490   62.23600    8.52280
 9254.50000   65.00470  115.95690   57.53000    8.52610
 9255.00000   65.34720  116.48830   55.87300    8.52940
 9255.50000   66.40910  117.80680   55.27100    8.53280
 9256.00000   66.23990  118.28050   57.38000    8.54450
 9256.50000   67.15490  119.56210   60.54200    8.56200
 9257.00000   68.47250  120.87400   64.00600    8.57940
 9257.50000   68.62080  121.29050   68.37300    8.58990
 9258.00000   68.21240  123.08340   75.33100    8.59620
 9258.50000   68.24340  123.29020   83.28300    8.60650
 9259.00000   68.27010  122.84780   73.67500    8.61690
 9259.50000   68.34240  123.55430   64.94000    8.62740
 9260.00000   68.22390  124.00010   57.07800    8.63780
 9260.50000   68.03930  123.63800   62.50000    8.63770
 9261.00000   66.60450  122.92850   68.52400    8.64570
 9261.50000   66.13890  122.69680   73.34300    8.64970
 9262.00000   66.90500  122.42100   70.00000    8.63970
 9262.50000   69.17730  123.47770   66.56600    8.62970
 9263.00000   69.28670  124.67500   73.04200    8.63770
 9263.50000   69.65520  125.57320   84.18700    8.67820
 9264.00000   69.79460  126.04890   95.33100    8.73970
 9264.50000   69.91470  125.74500   87.87700    8.80100
 9265.00000   70.22610  127.06560   81.09900    8.81330
 9265.50000   71.16320  127.69240   73.94600    8.80530
 9266.00000   71.85440  128.95560   71.53600    8.65350
 9266.50000   72.30220  130.72630   76.50600    8.66540
 9267.00000   73.45310  131.52950   82.98200    8.68540
 9267.50000   73.93470  133.00260   87.50000    8.70130
 9268.00000   74.43200  134.48400   91.02400    8.71730
