~Version ---------------------------------------------------
VERS.   2.0 : CWLS log ASCII Standard -VERSION 2.0
WRAP.    NO : One line per depth step
DLM . SPACE : Column Data Section Delimiter
~Well ------------------------------------------------------
STRT .F                5765.0 : START DEPTH
STOP .F                9795.0 : STOP DEPTH
STEP .F                   0.5 : STEP
NULL .               -9999.25 : NULL VALUE
COMP .                        : COMPANY
WELL .                        : WELL
FLD  .                        : FIELD
LOC  .                        : LOCATION
PROV .                        : PROVINCE
CNTY .                        : COUNTY
STAT .                        : STATE
CTRY .                        : COUNTRY
SRVC .                        : SERVICE COMPANY
DATE .                        : DATE
UWI  .                        : UNIQUE WELL ID
API  .                        : API NUMBER
SLAT .WGS84 2.517293603676997 : SURFACE LATITUDE
SLON .WGS84 6.045269258181008 : SURFACE LONGITUDE
DATUM.F                   nan : DEPTH DATUM ELEV
~Curve Information -----------------------------------------
DEPT    .F     : 
DTCO    .US/F  : DELTA-T COMPRESSIONAL
DTSM    .US/F  : DELTA-T SHEAR
ECGRS   .GAPI  : ENVIRONMENTALLY CORRECTED GAMMA RAY FROM SONIC LOG
HD2_PPC1.IN    : PPC1 HOLE DIAMETER 2
~Params ----------------------------------------------------
~Other -----------------------------------------------------
~ASCII -----------------------------------------------------
# ...
 8410.50000   82.45580  147.77860   93.52400    8.19750
 8411.00000   82.58280  149.99120   99.54800    8.22150
 8411.50000   83.46800  150.56380  106.02400    8.24540
 8412.00000   82.81470  151.42960  106.77700    8.25340
 8412.50000   83.00770  150.59320   99.54800    8.25340
 8413.00000   83.17200  150.62190   95.63300    8.22320
 8413.50000   83.27450  150.08040  100.15100    8.18780
 8414.00000   82.94440  150.02480  106.92800    8.15250
 8414.50000   83.33810  150.93380  112.65100    8.11710
 8415.00000   83.31190  150.08260  112.19900    8.08170
 8415.50000   83.09040  149.49700  109.94000    8.05340
 8416.00000   82.95760  149.38350  107.98200    8.06130
 8416.50000   83.02570  149.38810  108.88600    8.10140
 8417.00000   83.13250  149.11110  108.88600    8.17040
 8417.50000   83.81400  147.82120  111.89800    8.24670
 8418.00000   84.06360  148.16770  112.50000    8.32300
 8418.50000   84.09050  149.63360  109.48800    8.39930
 8419.00000   84.21750  148.68270  103.16300    8.44500
 8419.50000   83.84460  148.51080   97.89200    8.38910
 8420.00000   83.94390  150.03950   98.34300    8.31900
 8420.50000   83.51390  148.59240  107.38000    8.24910
 8421.00000   84.21210  151.59780  112.80100    8.17920
 8421.50000   84.16720  150.38370  112.50000    8.16510
 8422.00000   84.54050  150.16800  104.27700    8.17310
 8422.50000   84.28720  154.98670  101.95800    8.25710
 8423.00000   83.59010  149.43490  105.87300    8.32500
 8423.50000   83.31340  148.38530  108.58400    8.27230
 8424.00000   83.34800  146.03960  111.40800    8.21140
 8424.50000   83.19660  146.47740  113.40400    8.15030
 8425.00000   83.17950  146.43170  115.96400    8.08930
 8425.50000   83.79220  146.44450  120.48200    8.06900
 8426.00000   84.28120  147.69750  124.54800    8.06900
 8426.50000   84.42810  148.61430  128.46400    8.06900
 8427.00000   84.48270  148.82910  128.61400    8.06900
 8427.50000   84.28190  149.36940  123.79500    8.06890
 8428.00000   85.23080  153.84150  118.07200    8.06890
 8428.50000   85.96410  155.70030  112.19900    8.07170
 8429.00000   86.84230  159.68650  108.28300    8.08550
 8429.50000   87.80950  160.59270  106.77700    8.09940
 8430.00000   88.16840  162.95060  107.98200    8.11310
 8430.50000   88.23580  158.84380  110.54200    8.12700
 8431.00000   88.24910  159.38050  109.78900    8.14080
 8431.50000   88.01570  158.42100  108.73500    8.16470
 8432.00000   87.02250  154.82000  110.75300    8.16470
 8432.50000   86.33570  153.36520  114.15700    8.16470
 8433.00000   85.88690  151.63440  114.91000    8.16470
 8433.50000   82.97010  149.20720  110.69300    8.16470
 8434.00000   81.30280  144.59500  105.68500    8.14870
 8434.50000   80.53850  141.70950  101.20500    8.13270
 8435.00000   80.54400  141.78840   98.34300    8.12470
 8435.50000   80.22050  142.82430   98.94600    8.11750
 8436.00000   81.04560  143.24760  100.45200    8.10860
 8436.50000   81.88760  144.48460  104.51800    8.09970
 8437.00000   82.13820  147.31920  105.57200    8.09260
 8437.50000   82.61090  147.91280  106.77700    8.08460
 8438.00000   83.52440  151.60510  106.38600    8.10860
 8438.50000   85.29960  153.38330  103.76500    8.13360
 8439.00000   85.57160  153.48650  100.60200    8.14880
 8439.50000   85.63330  153.79080  100.45200    8.16400
 8440.00000   85.64870  154.28360  101.95800    8.17900
 8440.50000   85.61080  154.21110  103.76500    8.19420
 8441.00000   85.51440  153.85660  104.66900    8.20940
 8441.50000   85.60020  152.59820  106.02400    8.30830
 8442.00000   83.71390  149.25570  108.01200    8.38820
 8442.50000   83.58420  148.89340  109.33700    8.36900
 8443.00000   83.62790  149.70350  106.62700    8.32110
 8443.50000   83.95380  149.45830  103.16300    8.27300
 8444.00000   83.66700  149.74510  101.77000    8.22510
 8444.50000   83.80150  150.27670  106.77700    8.17710
 8445.00000   84.10960  150.47970  112.80100    8.12910
 8445.50000   84.23720  151.14300  119.42800    8.10030
 8446.00000   84.29220  151.21460  115.51200    8.08830
 8446.50000   84.32540  151.19370  106.92800    8.07630
 8447.00000   84.39550  151.37450  101.05400    8.07360
 8447.50000   84.57850  151.17580  100.45200    8.06830
 8448.00000   85.36280  152.59270  105.06000    8.06830
 8448.50000   85.38240  152.94960  110.39200    8.06830
 8449.00000   85.32880  152.36910  113.40400    8.06820
 8449.50000   85.26450  152.27410  115.21100    8.06810
 8450.00000   85.22920  151.96390  112.63400    8.06810
 8450.50000   85.11920  151.77380  108.58400    8.06810
 8451.00000   84.62890  151.20610  104.36700    8.06810
 8451.50000   84.35150  150.88900  101.50600    8.08410
 8452.00000   84.07920  149.61940  100.27100    8.08410
 8452.50000   84.14700  149.66890  100.15100    8.08400
 8453.00000   84.08740  149.68960  103.61400    8.08400
 8453.50000   84.27680  149.73540  106.17500    8.08400
 8454.00000   84.56450  150.08720  106.55100    8.08400
 8454.50000   85.27590  150.60210  104.36700    8.09200
 8455.00000   84.40920  151.12290  105.27100    8.09200
 8455.50000   85.12020  151.73840  106.17500    8.09200
 8456.00000   84.54950  151.37740  107.68100    8.08400
 8456.50000   84.55900  151.24020  107.98200    8.07600
 8457.00000   84.46790  151.26430  109.18700    8.05190
 8457.50000   83.86700  150.76250  110.09000    8.04390
 8458.00000   84.18500  150.82680  109.45800    8.04390
 8458.50000   84.23980  150.58200  107.98200    8.04380
 8459.00000   84.31080  150.45590  106.02400    8.04380
 8459.50000   83.98180  150.87130  108.58400    8.05980
 8460.00000   84.14690  149.70590  110.69300    8.07580
 8460.50000   84.68620  150.09960  110.99400    8.09170
 8461.00000   85.08620  150.53020  107.38000    8.10770
 8461.50000   84.78050  151.04480  107.07800    8.11570
 8462.00000   84.84190  150.86530  112.56000    8.13170
 8462.50000   85.45380  150.50570  115.66300    8.14760
 8463.00000   85.38500  150.11340  113.25300    8.16360
 8463.50000   85.61240  150.63840  109.18700    8.17960
 8464.00000   86.50890  151.75950  105.23300    8.19560
 8464.50000   86.61230  151.88460  103.61400    8.20360
 8465.00000   86.90910  151.86300  112.04800    8.20350
 8465.50000   87.25550  151.97250  123.49400    8.19550
 8466.00000   87.02020  153.72970  126.35500    8.17950
 8466.50000   84.11120  151.49440  124.69900    8.16350
 8467.00000   82.84200  150.27550  123.49400    8.13150
 8467.50000   82.53980  148.51440  123.04200    8.11550
 8468.00000   83.21710  150.06540  119.00600    8.10750
 8468.50000   82.12510  148.67890  111.89800    8.11920
 8469.00000   82.09610  148.81030  107.68100    8.13090
 8469.50000   81.61730  147.96650  105.87300    8.14260
 8470.00000   82.57800  148.13460  105.87300    8.15420
 8470.50000   84.29010  148.70110  107.98200    8.16590
 8471.00000   84.04790  149.06190  109.78900    8.17760
 8471.50000   84.25460  149.02860  111.29500    8.18930
 8472.00000   85.92720  150.35720  114.78900    8.20090
 8472.50000   86.57920  153.10110  118.07200    8.20330
 8473.00000   85.59960  152.51590  121.08400    8.20330
 8473.50000   85.57790  152.32690  119.72900    8.18720
 8474.00000   85.30960  152.38870  118.29800    8.15680
 8474.50000   84.09930  152.51390  114.00600    8.13290
 8475.00000   84.97410  151.89730  108.58400    8.10890
 8475.50000   85.32890  152.49390  100.60200    8.08490
 8476.00000   84.84340  152.68850   95.33100    8.07120
 8476.50000   84.67360  152.83800  101.35500    8.05920
 8477.00000   85.18220  152.92460  111.44600    8.04320
 8477.50000   85.15200  152.01990  119.12700    8.03520
 8478.00000   86.40460  152.76290  122.74100    8.02720
 8478.50000   87.40240  152.92310  120.03000    8.02470
 8479.00000   87.32890  153.36570  116.11400    8.02160
 8479.50000   87.35170  153.12300  111.89800    8.01920
 8480.00000   88.22160  154.56290  109.48800    8.01920
 8480.50000   89.11570  154.33310  107.68100    8.02710
 8481.00000   89.58990  155.85170  125.90400    8.04310
 8481.50000   91.06550  155.76680  140.81300    8.05110
