~Version ---------------------------------------------------
VERS.   2.0 : CWLS log ASCII Standard -VERSION 2.0
WRAP.    NO : One line per depth step
DLM . SPACE : Column Data Section Delimiter
~Well ------------------------------------------------------
STRT .F                5765.0 : START DEPTH
STOP .F                9795.0 : STOP DEPTH
STEP .F                   0.5 : STEP
NULL .               -9999.25 : NULL VALUE
COMP .                        : COMPANY
WELL .                        : WELL
FLD  .                        : FIELD
LOC  .                        : LOCATION
PROV .                        : PROVINCE
CNTY .                        : COUNTY
STAT .                        : STATE
CTRY .                        : COUNTRY
SRVC .                        : SERVICE COMPANY
DATE .                        : DATE
UWI  .                        : UNIQUE WELL ID
API  .                        : API NUMBER
SLAT .WGS84 2.517293603676997 : SURFACE LATITUDE
SLON .WGS84 6.045269258181008 : SURFACE LONGITUDE
DATUM.F                   nan : DEPTH DATUM ELEV
~Curve Information -----------------------------------------
DEPT    .F     : 
DTCO    .US/F  : DELTA-T COMPRESSIONAL
DTSM    .US/F  : DELTA-T SHEAR
ECGRS   .GAPI  : ENVIRONMENTALLY CORRECTED GAMMA RAY FROM SONIC LOG
HD2_PPC1.IN    : PPC1 HOLE DIAMETER 2
~Params ----------------------------------------------------
~Other -----------------------------------------------------
~ASCII -----------------------------------------------------
# ...
 6051.00000   54.54110  101.61470   35.99400    8.08200
 6051.50000   54.10160   99.86600   24.87400    8.08380
 6052.00000   53.36120   98.77620   19.65400    8.08570
 6052.50000   52.42480   98.05580   22.13900    8.08750
 6053.00000   51.97760   97.84080   31.77700    8.08940
 6053.50000   51.91040   97.24440   39.60800    8.09130
 6054.00000   51.91270   97.00540   41.49100    8.09310
 6054.50000   52.34460   96.84260   41.41600    8.09460
 6055.00000   53.52060   97.96930   39.60800    8.10800
 6055.50000   53.63790   98.71200   37.19900    8.12410
 6056.00000   53.47250   98.52580   35.99400    8.14270
 6056.50000   53.23300   99.67760   42.77100    8.15870
 6057.00000   52.93910  100.18250   53.76500    8.17470
 6057.50000   52.70560   97.69200   65.81300    8.18280
 6058.00000   52.31930   98.66350   50.35100    8.19080
 6058.50000   52.36230   99.73380   36.29500    8.19880
 6059.00000   52.34340   98.72820   23.64500    8.19880
 6059.50000   53.29810   97.81140   21.83700    8.19070
 6060.00000   53.52880   99.94970   28.04600    8.17780
 6060.50000   54.15790   99.62770   37.80100    8.16490
 6061.00000   54.02710   99.28340   55.12000    8.15200
 6061.50000   54.55980  100.85130   72.44000    8.13900
 6062.00000   55.50980  101.72190   77.86100    8.12600
 6062.50000   55.96130  101.53310   62.74300    8.11310
 6063.00000   56.17350  101.64910   51.65700    8.10510
 6063.50000   55.84120  101.57540   45.63300    8.09840
 6064.00000   55.94400  101.21300   41.60400    8.09440
 6064.50000   55.75570  100.38740   40.51200    8.08110
 6065.00000   55.74750   99.92700   42.47000    8.07840
 6065.50000   56.00570  100.89370   43.52400    8.07040
 6066.00000   57.63490  101.60000   41.11400    8.06230
 6066.50000   58.10910  101.62040   39.60800    8.06230
 6067.00000   58.59610  101.31530   61.33600    8.06230
 6067.50000   58.97430  101.83360   79.54500    8.06220
 6068.00000   59.42040  101.98040   97.13900    8.06220
 6068.50000   59.49670  102.62120   87.85100    8.06220
 6069.00000   60.07760  102.85560   74.09600    8.06240
 6069.50000   60.38820  102.02980   60.34100    8.06260
 6070.00000   60.23500  101.81790   52.56000    8.06290
 6070.50000   60.06300  102.32690   50.75300    8.06310
 6071.00000   59.94440  100.92840   58.88600    8.06330
 6071.50000   60.09280  100.10580   72.59000    8.06350
 6072.00000   60.16660  100.34180   86.83700    8.06370
 6072.50000   60.30640  100.21800   91.86700    8.06400
 6073.00000   60.08810  100.20330   86.59600    8.06420
 6073.50000   59.79220  100.23080   84.18700    8.06440
 6074.00000   58.47520   99.65560   82.71800    8.06450
 6074.50000   57.38330   99.60820   79.21700    8.06470
 6075.00000   56.51450   98.91850   73.79500    8.06500
 6075.50000   55.65180   99.02910   64.45800    8.06520
 6076.00000   55.00700   98.68160   56.47600    8.06540
 6076.50000   53.10080   97.58800   47.74100    8.06560
 6077.00000   52.85150   97.60220   39.85500    8.06590
 6077.50000   52.79260   97.19480   32.46200    8.06610
 6078.00000   52.47090   96.52460   26.39800    8.06630
 6078.50000   52.25380   95.59620   22.13900    8.06650
 6079.00000   51.96270   95.88960   23.34300    8.06670
 6079.50000   52.46380   94.70180   25.90400    8.06700
 6080.00000   52.82280   94.13590   27.56000    8.06720
 6080.50000   53.04680   93.90560   30.27100    8.06740
 6081.00000   53.79330   94.34740   27.56000    8.06760
 6081.50000   54.92680   94.32460   27.25900    8.06780
 6082.00000   56.17940   94.73830   38.52400    8.06810
 6082.50000   56.48960   95.41680   49.84900    8.06830
 6083.00000   57.14830   96.11150   66.26500    8.06840
 6083.50000   57.73960   96.46780   74.84900    8.06860
 6084.00000   57.87770   98.28710   76.46800    8.06890
 6084.50000   58.60920   95.62560   74.09600    8.06910
 6085.00000   58.45470   98.84970   70.63300    8.06930
 6085.50000   59.45010   99.70400   68.22300    8.06950
 6086.00000   59.72680  100.56860   69.42800    8.06970
 6086.50000   60.23630  100.86120   68.37300    8.07780
 6087.00000   61.00020  101.13530   71.23500    8.07780
 6087.50000   61.46090  101.83060   75.30100    8.07780
 6088.00000   61.69060  102.56890   78.64500    8.08700
 6088.50000   61.45160  101.84150   81.17500    8.08820
 6089.00000   61.25710  102.20880   81.77700    8.08940
 6089.50000   60.22660  101.25690   83.13300    8.09060
 6090.00000   59.65360  100.41930   83.88600    8.09180
 6090.50000   59.39560  100.26780   79.28400    8.09300
 6091.00000   58.49700   99.15200   64.49500    8.09410
 6091.50000   57.44280   99.28550   40.96400    8.09530
 6092.00000   55.71100   97.23300   34.18700    8.09650
 6092.50000   55.31330   96.63120   40.06000    8.09770
 6093.00000   55.46650   97.28610   44.57800    8.09890
 6093.50000   55.61220   97.85950   43.52400    8.10010
 6094.00000   56.09880   97.18790   38.70500    8.10130
 6094.50000   57.92230   98.07900   33.28300    8.10180
 6095.00000   58.22070   99.16560   35.66300    8.09370
 6095.50000   58.59220   99.68560   45.60200    8.09360
 6096.00000   59.58360  101.28830   53.99500    8.08560
 6096.50000   60.50950  102.54980   58.77900    8.07760
 6097.00000   62.27810  103.59170   63.56300    8.06960
 6097.50000   62.06410  102.56560   68.82500    8.06960
 6098.00000   62.38910  103.28530   73.10200    8.06960
 6098.50000   62.61590  103.26460   73.94600    8.06960
 6099.00000   61.28070  103.43040   68.97600    8.06960
 6099.50000   60.74610  102.07860   65.81300    8.06960
 6100.00000   59.84780  103.88270   60.97200    8.06950
 6100.50000   59.02430  102.51580   53.57700    8.06950
 6101.00000   58.55060  102.23010   44.16400    8.06950
 6101.50000   58.46860  100.97030   34.48800    8.06950
 6102.00000   59.23830  101.58180   29.66900    8.06140
 6102.50000   58.71410  102.43490   33.73500    8.06140
 6103.00000   59.00990  102.05870   46.98800    8.05340
 6103.50000   58.96420   98.85210   60.09000    8.05340
 6104.00000   59.25760  126.62170   66.79200    8.05340
 6104.50000   59.35620  126.39110   71.23500    8.05340
 6105.00000   59.78440  121.19200   66.86700    8.05340
 6105.50000   59.25040  112.89930   59.03600    8.05340
 6106.00000   59.24320  113.01500   47.44000    8.05330
 6106.50000   59.13430  115.77010   45.03000    8.05330
 6107.00000   59.46140  117.06770   54.97000    8.05330
 6107.50000   59.55110  122.53650   55.87300    8.05330
 6108.00000   59.50290   80.07850   46.92800    8.05330
 6108.50000   59.21080   86.89340   39.60800    8.05330
 6109.00000   58.54450  100.45770   37.19900    8.05330
 6109.50000   58.16290  101.86000   36.68900    8.05330
 6110.00000   58.15720  102.59830   36.22600    8.05320
 6110.50000   58.15640  102.52310   35.09000    8.05320
 6111.00000   58.82490  103.72000   32.07800    8.05320
 6111.50000   60.01390  105.27930   34.63900    8.05320
 6112.00000   61.20370  106.03500   44.39800    8.05320
 6112.50000   63.54980  115.85400   57.83100    8.05320
 6113.00000   64.46250  117.28010   77.86100    8.05320
 6113.50000   64.93130  119.66340   94.12700    8.04510
 6114.00000   65.36570  135.90590  105.72300    8.03860
 6114.50000   66.09390  140.66140  119.88000    8.04610
 6115.00000   66.59300  147.98380  124.54800    8.05360
 6115.50000   66.49770  148.82220  102.10800    8.06110
 6116.00000   66.53480  154.23960   79.66900    8.06870
 6116.50000   67.60320  154.02640   58.28300    8.07620
 6117.00000   67.85000  152.45750   63.70500    8.08370
 6117.50000   68.38050  152.64230   76.13000    8.09120
 6118.00000   70.04220  150.16520   96.46100    8.09870
 6118.50000   70.50660  148.78970  114.08100    8.10620
 6119.00000   71.94060  147.89650  125.37700    8.11370
 6119.50000   73.14480  144.87470  136.67200    8.12120
 6120.00000   74.06950  138.90470  147.74100    8.12870
 6120.50000   74.23560  139.80960  142.31900    8.13620
 6121.00000   74.01540  136.14720  133.43400    8.14370
 6121.50000   72.93360  132.86080  124.54800    8.15120
 6122.00000   70.62360  128.97360  127.56000    8.15870
