~Version ---------------------------------------------------
VERS.   2.0 : CWLS log ASCII Standard -VERSION 2.0
WRAP.    NO : One line per depth step
DLM . SPACE : Column Data Section Delimiter
~Well ------------------------------------------------------
STRT .F                5765.0 : START DEPTH
STOP .F                9795.0 : STOP DEPTH
STEP .F                   0.5 : STEP
NULL .               -9999.25 : NULL VALUE
COMP .                        : COMPANY
WELL .                        : WELL
FLD  .                        : FIELD
LOC  .                        : LOCATION
PROV .                        : PROVINCE
CNTY .                        : COUNTY
STAT .                        : STATE
CTRY .                        : COUNTRY
SRVC .                        : SERVICE COMPANY
DATE .                        : DATE
UWI  .                        : UNIQUE WELL ID
API  .                        : API NUMBER
SLAT .WGS84 2.517293603676997 : SURFACE LATITUDE
SLON .WGS84 6.045269258181008 : SURFACE LONGITUDE
DATUM.F                   nan : DEPTH DATUM ELEV
~Curve Information -----------------------------------------
DEPT    .F     : 
DTCO    .US/F  : DELTA-T COMPRESSIONAL
DTSM    .US/F  : DELTA-T SHEAR
ECGRS   .GAPI  : ENVIRONMENTALLY CORRECTED GAMMA RAY FROM SONIC LOG
HD2_PPC1.IN    : PPC1 HOLE DIAMETER 2
~Params ----------------------------------------------------
~Other -----------------------------------------------------
~ASCII -----------------------------------------------------
# ...
 7052.00000   70.63440  114.55640   95.80300    8.13550
 7052.50000   70.54460  115.07190   86.14500    8.15150
 7053.00000   70.43910  114.53940   85.69300    8.16750
 7053.50000   70.25470  114.20650   95.63300    8.16750
 7054.00000   70.10960  114.27160  103.01200    8.17550
 7054.50000   70.20990  114.20610  109.94000    8.17550
 7055.00000   70.17000  113.98070  108.88600    8.17550
 7055.50000   69.80370  114.28650  112.50000    8.17550
 7056.00000   68.53640  114.12030  118.82500    8.17550
 7056.50000   67.70060  113.58320  124.84900    8.17540
 7057.00000   66.15500  112.48470  126.35500    8.16740
 7057.50000   65.27060  111.30920  110.99400    8.15940
 7058.00000   64.37610  109.10020   83.66000    8.15140
 7058.50000   64.03710  108.58220   58.81000    8.14340
 7059.00000   63.88290  107.50500   45.93400    8.14340
 7059.50000   63.81760  107.58370   52.41000    8.13530
 7060.00000   63.76530  106.98000   59.78900    8.13520
 7060.50000   64.04960  106.67370   81.62700    8.13520
 7061.00000   64.34920  106.53330  105.57200    8.13520
 7061.50000   65.35040  107.32320  121.08400    8.13520
 7062.00000   66.64060  108.73350  125.96400    8.13520
 7062.50000   66.68380  108.71490  124.54800    8.13520
 7063.00000   66.21220  108.47660  117.01800    8.13520
 7063.50000   65.48280  109.41620  108.88600    8.13520
 7064.00000   63.83610  108.45030  106.17500    8.13510
 7064.50000   63.55180  107.59440  116.41600    8.13510
 7065.00000   63.01590  108.24950  116.41600    8.13510
 7065.50000   62.92750  107.57090   87.80100    8.13510
 7066.00000   62.73130  107.45990   70.78300    8.13510
 7066.50000   62.37250  107.07060   71.23500    8.13510
 7067.00000   62.67850  106.81490   88.25300    8.11900
 7067.50000   63.12290  107.54230  103.16300    8.11090
 7068.00000   64.17390  108.10750  109.48800    8.10290
 7068.50000   66.25170  109.92600  101.95800    8.10290
 7069.00000   67.27830  110.54510   96.83700    8.10290
 7069.50000   68.24110  109.84940  105.27100    8.10290
 7070.00000   68.15890  113.23240  114.60800    8.11890
 7070.50000   69.23380  113.27180  134.63900    8.12690
 7071.00000   69.42660  113.74800  143.82500    8.13490
 7071.50000   69.83460  114.32650  145.93400    8.14290
 7072.00000   70.09250  114.17750  127.94300    8.14290
 7072.50000   70.18690  115.42360  113.23000    8.14280
 7073.00000   69.63350  114.81340  104.36700    8.14280
 7073.50000   68.90690  114.16150  118.11500    8.14280
 7074.00000   68.28840  112.69960  136.89800    8.14280
 7074.50000   67.37020  111.24360  131.53200    8.14280
 7075.00000   66.97940  111.44240  110.63600    8.14280
 7075.50000   67.12280  111.09240   89.74000    8.14280
 7076.00000   67.37130  109.46290   70.93400    8.14330
 7076.50000   65.85310  109.39480   70.48200    8.14620
 7077.00000   65.27670  108.78150   76.05400    8.14890
 7077.50000   64.68550  108.27460   83.43400    8.15060
 7078.00000   64.41200  108.05950   98.67500    8.15860
 7078.50000   63.62940  107.88290  110.69300    8.15860
 7079.00000   63.22110  107.68340   95.75100    8.15860
 7079.50000   63.17770  107.46310   84.25800    8.15860
 7080.00000   62.57370  107.01000   72.76500    8.15860
 7080.50000   62.67820  107.19980   64.91000    8.15860
 7081.00000   63.48170  106.75820   62.80100    8.15860
 7081.50000   64.25720  107.02930   65.06000    8.15850
 7082.00000   65.93510  108.03940   70.93400    8.15850
 7082.50000   67.89030  109.42980   78.55800    8.15050
 7083.00000   68.49950  111.15550   93.01600    8.14250
 7083.50000   68.94910  112.48400  121.44200    8.12650
 7084.00000   69.42130  113.30880  142.38600    8.12820
 7084.50000   69.47770  113.64110  161.89800    8.12990
 7085.00000   69.38520  113.96060  156.92800    8.13160
 7085.50000   68.86070  113.90640  132.38000    8.13330
 7086.00000   68.66260  113.52270  107.38000    8.13500
 7086.50000   68.02990  112.26070   89.60800    8.13680
 7087.00000   67.29120  111.74870   92.92200    8.13850
 7087.50000   67.14980  110.61740   98.04200    8.14020
 7088.00000   66.83690  110.08810  104.15700    8.14200
 7088.50000   66.97770  110.47210  109.18700    8.14370
 7089.00000   67.06000  109.89610  104.81900    8.14540
 7089.50000   67.02660  109.73130   99.54800    8.14710
 7090.00000   67.04820  109.54330  102.16900    8.14880
 7090.50000   67.30280  110.16210  104.06600    8.15020
 7091.00000   67.19090  110.18300   92.87900    8.15020
 7091.50000   67.13550  110.52480   84.27300    8.15020
 7092.00000   67.47900  110.86110   77.56000    8.14220
 7092.50000   67.44660  111.14650   85.54200    8.12620
 7093.00000   67.58530  111.58630  100.45200    8.12610
 7093.50000   67.30090  111.31840  113.70500    8.11800
 7094.00000   66.53040  111.49450  116.71700    8.11800
 7094.50000   65.62770  111.00650  107.68100    8.11800
 7095.00000   64.93040  109.45430  101.62900    8.11800
 7095.50000   63.67020  107.75170   94.51000    8.11800
 7096.00000   62.67770  106.58290   88.10200    8.11800
 7096.50000   61.46360  105.51940   56.41900    8.11800
 7097.00000   60.52190  103.85320   39.94700    8.11800
 7097.50000   60.32410  102.94890   38.40400    8.11790
 7098.00000   60.48700  102.41320   46.80700    8.11790
 7098.50000   61.06100  101.96940   57.07800    8.11790
 7099.00000   61.22070  102.07700   58.62700    8.11790
 7099.50000   61.72710  103.28440   64.82200    8.11790
 7100.00000   61.36800  103.21900   75.48900    8.11790
 7100.50000   61.10780  104.17300   85.09000    8.10980
 7101.00000   60.80160  104.05600   88.70500    8.10580
 7101.50000   60.61330  103.78800   73.46400    8.10170
 7102.00000   61.03550  103.74460   59.60800    8.09370
 7102.50000   61.76450  103.76350   47.13900    8.08970
 7103.00000   61.51000  103.68870   43.82500    8.08570
 7103.50000   60.68560  103.97930   48.04200    8.07770
 7104.00000   60.43230  103.48120   59.18700    8.07070
 7104.50000   59.51050  102.82680   79.06600    8.07230
 7105.00000   58.53900  101.82090   78.46400    8.07390
 7105.50000   58.02000  101.80490   58.55900    8.07560
 7106.00000   57.73000  101.86550   43.24800    8.07720
 7106.50000   56.65240  101.13150   27.93700    8.10960
 7107.00000   56.05340  100.65450   20.39200    8.17360
 7107.50000   55.91030  100.76440   18.07200    8.21370
 7108.00000   55.78690  100.30020   25.90400    8.24570
 7108.50000   55.71080   99.68580   36.59600    8.24570
 7109.00000   55.26900   99.45420   50.30100    8.22560
 7109.50000   55.50410   99.60530   54.21700    8.19760
 7110.00000   55.78370   99.90510   41.05700    8.17360
 7110.50000   56.32890  100.36490   30.05100    8.15000
 7111.00000   56.29930  100.16220   21.83700    8.13110
 7111.50000   56.21810   99.82130   35.38000    8.11220
 7112.00000   56.47270   99.80240   54.72700    8.09340
 7112.50000   56.19340   99.44270   72.13900    8.09340
 7113.00000   56.35830   99.94420   71.83700    8.09340
 7113.50000   56.89380   99.59760   54.51800    8.11740
 7114.00000   57.85090   99.55580   37.19900    8.14140
 7114.50000   58.68040  100.54900   37.65100    8.15740
 7115.00000   58.99230  101.33140   42.31900    8.15730
 7115.50000   60.76280  102.26040   52.70200    8.15730
 7116.00000   61.75530  103.19520   65.81300    8.15730
 7116.50000   62.73750  104.91580   78.92500    8.15730
 7117.00000   63.94220  106.09340   92.47000    8.15730
 7117.50000   65.73410  107.07270  100.75300    8.14930
 7118.00000   66.33510  108.56220  105.21100    8.14130
 7118.50000   66.66530  109.23260  103.76500    8.13320
 7119.00000   66.64550  110.02330   95.18100    8.11710
 7119.50000   67.03270  110.24700   88.55400    8.10910
 7120.00000   67.34720  110.49170   86.59600    8.10110
 7120.50000   67.10750  110.06580   86.29500    8.09310
 7121.00000   66.11060  109.68070   87.80100    8.09310
 7121.50000   65.85250  109.66120   89.60800    8.08510
 7122.00000   65.71640  109.18560   91.37800    8.08500
 7122.50000   66.12210  108.26470   90.81300    8.08500
 7123.00000   67.41520  109.96450   75.52100    8.08500
