~Version ---------------------------------------------------
VERS.   2.0 : CWLS log ASCII Standard -VERSION 2.0
WRAP.    NO : One line per depth step
DLM . SPACE : Column Data Section Delimiter
~Well ------------------------------------------------------
STRT .F                5765.0 : START DEPTH
STOP .F                9795.0 : STOP DEPTH
STEP .F                   0.5 : STEP
NULL .               -9999.25 : NULL VALUE
COMP .                        : COMPANY
WELL .                        : WELL
FLD  .                        : FIELD
LOC  .                        : LOCATION
PROV .                        : PROVINCE
CNTY .                        : COUNTY
STAT .                        : STATE
CTRY .                        : COUNTRY
SRVC .                        : SERVICE COMPANY
DATE .                        : DATE
UWI  .                        : UNIQUE WELL ID
API  .                        : API NUMBER
SLAT .WGS84 2.517293603676997 : SURFACE LATITUDE
SLON .WGS84 6.045269258181008 : SURFACE LONGITUDE
DATUM.F                   nan : DEPTH DATUM ELEV
~Curve Information -----------------------------------------
DEPT    .F     : 
DTCO    .US/F  : DELTA-T COMPRESSIONAL
DTSM    .US/F  : DELTA-T SHEAR
ECGRS   .GAPI  : ENVIRONMENTALLY CORRECTED GAMMA RAY FROM SONIC LOG
HD2_PPC1.IN    : PPC1 HOLE DIAMETER 2
~Params ----------------------------------------------------
~Other -----------------------------------------------------
~ASCII -----------------------------------------------------
 5765.00000   67.77890  126.14540   44.42800   -9999.25
 5765.50000   68.10850  127.71740   44.75900   -9999.25
 5766.00000   68.38110  128.73120   46.83700   -9999.25
 5766.50000   69.15000  128.57220   51.95800   -9999.25
 5767.00000   69.28040  128.70660   60.09000   -9999.25
 5767.50000   69.42480  128.67960   63.70500   -9999.25
 5768.00000   69.51330  127.97190   64.69300   -9999.25
 5768.50000   70.00920  127.47350   63.10200   -9999.25
 5769.00000   70.40530  125.33120   63.10200   -9999.25
 5769.50000   70.70380  124.92750   66.41600   -9999.25
 5770.00000   70.62650  125.15820   66.71700   -9999.25
 5770.50000   70.91260  123.06150   65.36100   -9999.25
 5771.00000   70.31210  121.91220   61.14500    8.21910
 5771.50000   70.70500  121.78010   57.83100    8.23610
 5772.00000   70.32920  121.89970   58.58400    8.27250
 5772.50000   70.47130  116.56160   64.91000    8.34740
 5773.00000   69.99630  114.86360   78.01200    8.62890
 5773.50000   69.05520  106.90330   92.92200    9.39470
 5774.00000   68.85650  109.77140   96.83700   10.16030
 5774.50000   68.45750  112.63950   94.72900   10.92610
 5775.00000   69.19300  116.31130   92.92200   11.38550
 5775.50000   69.75450  115.24490   92.01800   11.39620
 5776.00000   69.60370  116.02880   90.21100   11.39620
 5776.50000   69.31690  123.99890   89.30700   11.39620
 5777.00000   68.08720  114.46160   91.56600   11.38550
 5777.50000   67.38250  111.22960   94.12700   11.36950
 5778.00000   65.72710  107.99750   94.08900   11.35340
 5778.50000   65.46400  109.20580   84.73900   11.34270
 5779.00000   63.76760  110.68960   72.18900   11.33200
 5779.50000   62.29380  111.33790   59.63900   11.32670
 5780.00000   60.62670  106.62380   48.34300   11.32130
 5780.50000   59.59060  103.68110   46.21800   11.32130
 5781.00000   59.35020  102.08280   48.82500   11.32130
 5781.50000   59.78020   99.68070   50.15100   11.32120
 5782.00000   61.07020   97.57530   43.36700   11.31060
 5782.50000   62.03120   95.84760   38.70500   11.30520
 5783.00000   63.12170   96.96230   37.80100   11.29990
 5783.50000   64.04940   97.62090   51.35500   11.29280
 5784.00000   64.23210   96.15370   64.51100   11.28010
 5784.50000   65.06810   96.43640   83.88600   11.26850
 5785.00000   66.51100   98.93190   91.41600   11.25710
 5785.50000   66.72220   96.77030   91.71700   11.24570
 5786.00000   66.73620   97.32960   89.91000   11.23420
 5786.50000   67.16550   96.28310   87.19900   11.22500
 5787.00000   66.47380   97.42570   79.66900   11.21430
 5787.50000   66.12070   99.42050   74.84900   11.21430
 5788.00000   66.14140   97.78030   68.57800   11.21430
 5788.50000   66.31560   98.22630   67.01800   11.21430
 5789.00000   66.16660   98.52610   64.30700   11.21430
 5789.50000   66.02950  122.60410   61.59600   11.20360
 5790.00000   67.09540   98.98780   60.99400   11.20170
 5790.50000   67.34240  102.97980   68.22300   11.19860
 5791.00000   67.36400  103.87220   72.44000   11.19540
 5791.50000   67.63700  102.20760   71.23500   11.19290
 5792.00000   67.30330  104.04310   63.76500   11.18230
 5792.50000   67.10670  102.55010   62.80100   11.17150
 5793.00000   66.93500  103.13910   65.66300   11.16080
 5793.50000   66.89320  102.86180   69.12700   11.15370
 5794.00000   66.99540  102.95460   68.33600   11.14690
 5794.50000   67.01010  104.44200   65.21100   11.14160
 5795.00000   67.01160  106.26060   64.75900   11.13620
 5795.50000   66.66300  107.75930   68.82500   11.13080
 5796.00000   67.29820  109.48370   76.05400   11.12870
 5796.50000   67.94370  109.35710   77.56000   11.12870
 5797.00000   68.31220  109.65410   75.90400   11.12870
 5797.50000   68.77720  109.25310   75.00000   11.12870
 5798.00000   70.07160  106.89030   75.39200   11.15010
 5798.50000   70.29630  105.34220   76.65700   11.16080
 5799.00000   70.54360  105.89630   82.83100   11.18210
 5799.50000   70.57460  108.59800   90.21100   11.19420
 5800.00000   70.92630  109.74680   91.51600   11.19750
 5800.50000   71.32590  110.98790   92.62000   11.20080
 5801.00000   71.98720  111.60480   86.89800   11.20410
 5801.50000   71.42350  111.72450   83.43400   11.20740
 5802.00000   71.43110  110.15510   87.83100   11.21070
 5802.50000   70.54290  110.14010   92.16900   11.21410
 5803.00000   70.35760  109.43770   95.33100   11.21410
 5803.50000   69.29390  107.72900   92.31900   11.21410
 5804.00000   68.31750  107.49360   88.29100   11.21410
 5804.50000   67.45240  108.16130   78.91600   11.21400
 5805.00000   66.36750  105.68230   72.59000   11.21400
 5805.50000   64.73670  104.60460   65.51200   11.23550
 5806.00000   64.73250  105.43930   61.59600   11.27830
 5806.50000   64.76750  108.68010   61.44600   11.39750
 5807.00000   64.97800  108.60150   63.10200   11.51690
 5807.50000   64.79810  109.33500   65.06000   11.59920
 5808.00000   64.74440  108.12990   67.04800   11.64200
 5808.50000   65.10960  108.68150   68.52400   11.64200
 5809.00000   65.60690  109.77540   65.51200   11.63580
 5809.50000   66.04530  109.16670   60.54200   11.62030
 5810.00000   66.54760  112.09740   58.58400   11.60490
 5810.50000   66.83820  113.01250   68.97600   11.58940
 5811.00000   67.30340  112.75910   80.87300   11.57390
 5811.50000   67.65020  113.27020   89.30700   11.55850
 5812.00000   68.43500  114.68660   89.72900   11.54310
 5812.50000   68.61050  116.75140   89.91000   11.52760
 5813.00000   69.53380  118.16260   94.27700   11.51220
 5813.50000   69.95300  113.65610   98.04200   11.50290
 5814.00000   70.04540  112.61730   95.97100   11.50290
 5814.50000   70.28110  111.25440   89.75900   11.50290
 5815.00000   69.67000  114.72930   87.19900   11.49210
 5815.50000   69.18340  108.99090   88.25300   11.47080
 5816.00000   68.36800  103.25250   87.80100   11.44410
 5816.50000   67.59950  123.20540   84.33700   11.42800
 5817.00000   65.71870  121.42680   79.81900   11.41200
 5817.50000   64.30800  119.98750   75.90400   11.39590
 5818.00000   63.50030  116.60650   70.51200   11.39180
 5818.50000   63.53750  112.21420   63.70500   11.38770
 5819.00000   63.61990  111.75360   58.58400   11.38520
 5819.50000   63.68740  112.38590   60.69300   11.38520
 5820.00000   62.40830  109.98640   62.80100   11.38520
 5820.50000   62.01560  108.91080   72.37300   11.40660
 5821.00000   61.88940  112.70710   82.75600   11.42800
 5821.50000   61.59680  111.90050   90.51200   11.47080
 5822.00000   61.40400  111.60340   82.71500   11.50290
 5822.50000   61.93390  112.68610   65.91800   11.51360
 5823.00000   62.78980  113.15630   47.44000   11.52420
 5823.50000   62.87420  113.71190   46.53600   11.49210
 5824.00000   63.44970  112.79600   59.82700   11.49210
 5824.50000   65.74130   98.94510   73.00500   11.49210
 5825.00000   66.83740  103.03800   87.50000   11.49220
 5825.50000   67.66510  104.66610   88.40400   11.52420
 5826.00000   69.12680  108.01740   83.58400   11.55630
 5826.50000   69.49410  109.91510   83.88600   11.62320
 5827.00000   69.35700  111.30880   96.83700   11.65660
 5827.50000   69.71270  109.34350   98.64500   11.65260
 5828.00000   70.70610  108.32310   90.14200   11.60210
 5828.50000   71.88290  108.86790   80.69600   11.51000
 5829.00000   73.93240  108.63460   69.00600   11.41790
 5829.50000   74.79170  108.90810   63.70500   11.32580
 5830.00000   74.15920  110.21070   71.85000   11.27820
 5830.50000   74.52090  110.16960   79.25500   11.23540
 5831.00000   77.04500  109.67830   93.67500   10.78780
 5831.50000   75.58430  108.89230   99.39800    9.72220
 5832.00000   75.76330  108.10620  101.32500    8.65660
 5832.50000   75.96460  108.65360  101.80700    8.41130
 5833.00000   75.25130  106.37420  100.30100    8.35780
 5833.50000   74.06420  104.09470  101.65700    8.31500
 5834.00000   71.91540  115.33990  101.54400    8.30080
 5834.50000   71.02250  118.46720  102.56000    8.29210
 5835.00000   70.43920  119.63250  101.50600    8.28340
 5835.50000   69.52710  119.52940   95.48200    8.27470
 5836.00000   69.35600  119.42810   86.89800    8.26600
