~Version ---------------------------------------------------
VERS.   2.0 : CWLS log ASCII Standard -VERSION 2.0
WRAP.    NO : One line per depth step
DLM . SPACE : Column Data Section Delimiter
~Well ------------------------------------------------------
STRT .F                5765.0 : START DEPTH
STOP .F                9795.0 : STOP DEPTH
STEP .F                   0.5 : STEP
NULL .               -9999.25 : NULL VALUE
COMP .                        : COMPANY
WELL .                        : WELL
FLD  .                        : FIELD
LOC  .                        : LOCATION
PROV .                        : PROVINCE
CNTY .                        : COUNTY
STAT .                        : STATE
CTRY .                        : COUNTRY
SRVC .                        : SERVICE COMPANY
DATE .                        : DATE
UWI  .                        : UNIQUE WELL ID
API  .                        : API NUMBER
SLAT .WGS84 2.517293603676997 : SURFACE LATITUDE
SLON .WGS84 6.045269258181008 : SURFACE LONGITUDE
DATUM.F                   nan : DEPTH DATUM ELEV
~Curve Information -----------------------------------------
DEPT    .F     : 
DTCO    .US/F  : DELTA-T COMPRESSIONAL
DTSM    .US/F  : DELTA-T SHEAR
ECGRS   .GAPI  : ENVIRONMENTALLY CORRECTED GAMMA RAY FROM SONIC LOG
HD2_PPC1.IN    : PPC1 HOLE DIAMETER 2
~Params ----------------------------------------------------
~Other -----------------------------------------------------
~ASCII -----------------------------------------------------
# ...
 7838.50000   85.78910  153.52140  100.45200    8.19480
 7839.00000   86.38570  154.31490  104.97000    8.19480
 7839.50000   86.83480  155.55390  107.98200    8.19470
 7840.00000   87.20640  155.95640  110.39200    8.19470
 7840.50000   87.28150  155.45590  113.40400    8.19460
 7841.00000   86.00740  153.64260  115.51200    8.19460
 7841.50000   83.80840  149.22570  112.80100    8.19460
 7842.00000   82.58620  146.25540  108.43400    8.19460
 7842.50000   81.30120  143.28500  103.91600    8.19460
 7843.00000   80.28480  140.31470   96.53600    8.19460
 7843.50000   78.58640  137.34430   90.81300    8.19460
 7844.00000   78.39520  136.45280   86.71700    8.19460
 7844.50000   78.60050  134.72020   84.78900    8.19460
 7845.00000   78.49140  134.65010   87.50000    8.19450
 7845.50000   78.74690  135.02340   90.81300    8.19450
 7846.00000   79.81870  135.60040   92.62000    8.19450
 7846.50000   80.35480  136.53630   95.63300    8.19450
 7847.00000   81.24020  137.99860  100.45200    8.20250
 7847.50000   81.80960  139.13280  104.81900    8.21050
 7848.00000   82.47420  141.59420  107.47000    8.21050
 7848.50000   83.24620  142.15800  107.98200    8.21050
 7849.00000   83.52570  142.90460  106.32500    8.21030
 7849.50000   84.36400  144.30150  105.87300    8.20840
 7850.00000   84.83380  145.49290  105.75600    8.20590
 7850.50000   85.27100  145.88520  105.57200    8.20350
 7851.00000   85.78860  146.58050  107.38000    8.20100
 7851.50000   85.84250  147.32300  108.13300    8.19860
 7852.00000   86.10520  147.70940  108.34300    8.19620
 7852.50000   86.28330  148.32490  106.32500    8.19370
 7853.00000   85.26050  149.17110  102.86100    8.19130
 7853.50000   84.98570  149.06180  101.35500    8.18870
 7854.00000   84.56110  147.50740  100.00000    8.18630
 7854.50000   83.57590  146.96880   98.49400    8.18380
 7855.00000   82.75050  145.81810   97.44000    8.18140
 7855.50000   81.60900  144.06480   94.57800    8.17890
 7856.00000   81.17510  143.05290   94.42800    8.17650
 7856.50000   80.89480  141.31030   94.88000    8.17400
 7857.00000   80.96120  140.77260   97.59000    8.17160
 7857.50000   81.26430  140.92970  100.30100    8.17010
 7858.00000   82.75600  142.42580  103.97600    8.17000
 7858.50000   83.89430  144.16910  108.88600    8.17000
 7859.00000   84.68030  146.08350  114.00600    8.17000
 7859.50000   85.66710  147.31860  119.12700    8.17000
 7860.00000   85.75460  148.57350  121.83700    8.17800
 7860.50000   85.64680  148.73840  123.64500    8.17800
 7861.00000   83.42220  147.95930  119.72900    8.18600
 7861.50000   82.97150  146.83690  118.07200    8.18600
 7862.00000   79.75150  142.53520  112.77600    8.18590
 7862.50000   77.56480  138.80940  101.30800    8.18390
 7863.00000   75.94120  135.11040   86.15400    8.18130
 7863.50000   72.79400  127.82640   71.00000    8.17880
 7864.00000   71.79430  125.38620   58.47100    8.17630
 7864.50000   71.14920  123.83490   56.17500    8.17370
 7865.00000   70.54140  121.54280   56.77700    8.17120
 7865.50000   70.54540  121.94700   57.83100    8.16870
 7866.00000   70.72300  121.72130   57.98200    8.16610
 7866.50000   70.96150  121.23660   58.13300    8.16350
 7867.00000   70.78800  121.69950   55.27100    8.16100
 7867.50000   70.81550  121.72760   53.46400    8.15850
 7868.00000   70.55190  120.37240   51.95800    8.15590
 7868.50000   70.23870  120.24350   52.56000    8.15340
 7869.00000   69.96180  120.16640   51.95800    8.15090
 7869.50000   69.19820  118.48720   53.46400    8.14830
 7870.00000   68.04110  118.14910   54.66900    8.14580
 7870.50000   66.69020  116.35850   57.07800    8.14330
 7871.00000   66.20850  115.77510   55.27100    8.14060
 7871.50000   66.26520  115.24980   49.09600    8.13810
 7872.00000   67.17820  115.19670   42.98200    8.13560
 7872.50000   68.22480  119.11900   39.00600    8.13310
 7873.00000   71.33430  120.28780   37.80100    8.13050
 7873.50000   72.02870  121.40890   42.92200    8.12950
 7874.00000   73.08340  125.88020   53.01200    8.12950
 7874.50000   74.21050  126.37770   72.44000    8.12950
 7875.00000   74.36180  128.53800   90.96400    8.12940
 7875.50000   74.26560  129.03440  102.86100    8.13740
 7876.00000   73.83740  128.72970   84.94700    8.14540
 7876.50000   72.68940  128.85660   71.16700    8.14540
 7877.00000   71.62080  127.75770   57.38700    8.15340
 7877.50000   68.96590  123.25330   47.28900    8.15740
 7878.00000   68.26140  121.17390   45.63300    8.16260
 7878.50000   67.68270  119.89800   48.34300    8.16580
 7879.00000   66.68440  118.15090   52.59000    8.16880
 7879.50000   66.05940  116.80070   51.68700    8.17200
 7880.00000   65.85970  116.00160   49.39800    8.17520
 7880.50000   65.73170  115.49020   43.82500    8.17830
 7881.00000   65.84650  114.40910   37.50000    8.18150
 7881.50000   65.78900  114.32640   39.00600    8.18460
 7882.00000   65.47910  115.06280   44.72900    8.18520
 7882.50000   64.96940  114.39020   44.90500    8.19320
 7883.00000   64.79840  114.26020   44.65400    8.19310
 7883.50000   65.12460  113.70980   43.90100    8.19310
 7884.00000   65.36230  113.12420   41.33400    8.19310
 7884.50000   65.20930  113.21380   36.95200    8.19310
 7885.00000   64.60450  113.01220   34.18700    8.19300
 7885.50000   64.28610  113.65140   39.45800    8.19240
 7886.00000   64.89650  112.49130   46.23500    8.19170
 7886.50000   64.30880  111.88880   49.84900    8.19110
 7887.00000   63.91970  112.63310   44.88000    8.19040
 7887.50000   64.00510  111.74970   42.31900    8.18980
 7888.00000   63.37810  111.29820   43.85500    8.18920
 7888.50000   63.42160  111.61510   48.34300    8.18850
 7889.00000   63.25210  111.34020   44.42800    8.18790
 7889.50000   63.84650  110.64370   37.80100    8.18730
 7890.00000   63.86840  110.17170   34.18700    8.18670
 7890.50000   63.68950  109.91910   34.78900    8.18600
 7891.00000   63.04160  109.93800   41.71700    8.18540
 7891.50000   62.64580  108.44210   48.34300    8.18470
 7892.00000   62.01760  108.12000   49.84900    8.18410
 7892.50000   61.97050  108.46690   38.10200    8.18350
 7893.00000   61.61340  106.85750   31.94900    8.18280
 7893.50000   61.71310  107.81190   27.25900    8.18220
 7894.00000   61.23320  107.19960   28.76500    8.18160
 7894.50000   60.53610  106.71910   31.17500    8.18100
 7895.00000   60.43500  106.80880   32.07800    8.18040
 7895.50000   60.53420  106.91850   36.41100    8.17960
 7896.00000   60.60330  106.40340   40.35000    8.17900
 7896.50000   60.36020  106.72490   42.80100    8.17840
 7897.00000   60.77010  107.45920   41.19000    8.17780
 7897.50000   61.61020  108.02610   34.41300    8.17710
 7898.00000   61.77450  108.66280   29.61200    8.17660
 7898.50000   61.74520  108.58530   29.42400    8.18460
 7899.00000   62.28590  109.66320   35.09000    8.19260
 7899.50000   62.26260  109.34800   43.26600    8.19650
 7900.00000   62.75010  110.23110   52.25900    8.20050
 7900.50000   63.07830  110.50300   48.69100    8.20050
 7901.00000   63.25060  111.86240   43.59400    8.20850
 7901.50000   63.42020  113.06390   39.00600    8.20850
 7902.00000   63.76380  113.09050   38.10200    8.20920
 7902.50000   64.17030  114.27080   42.62000    8.21250
 7903.00000   64.22340  116.11550   45.93400    8.21580
 7903.50000   65.11760  116.74540   44.42800    8.21910
 7904.00000   65.88740  117.00970   43.11000    8.22240
 7904.50000   66.24400  119.05320   46.38600    8.22440
 7905.00000   66.82960  120.18340   52.56000    8.22440
 7905.50000   67.43880  120.64210   60.99400    8.22440
 7906.00000   66.92960  121.03070   64.60800    8.22370
 7906.50000   67.00400  121.30690   59.33700    8.22210
 7907.00000   66.76900  120.64860   54.21700    8.22040
 7907.50000   66.26510  119.40390   51.95800    8.21880
 7908.00000   65.68880  118.83600   50.63300    8.21700
 7908.50000   65.29060  117.04350   48.34300    8.21530
 7909.00000   65.38150  116.20910   45.48200    8.21370
 7909.50000   65.44180  116.03930   42.62000    8.21200
