~Version ---------------------------------------------------
VERS.   2.0 : CWLS log ASCII Standard -VERSION 2.0
WRAP.    NO : One line per depth step
DLM . SPACE : Column Data Section Delimiter
~Well ------------------------------------------------------
STRT .F                5765.0 : START DEPTH
STOP .F                9795.0 : STOP DEPTH
STEP .F                   0.5 : STEP
NULL .               -9999.25 : NULL VALUE
COMP .                        : COMPANY
WELL .                        : WELL
FLD  .                        : FIELD
LOC  .                        : LOCATION
PROV .                        : PROVINCE
CNTY .                        : COUNTY
STAT .                        : STATE
CTRY .                        : COUNTRY
SRVC .                        : SERVICE COMPANY
DATE .                        : DATE
UWI  .                        : UNIQUE WELL ID
API  .                        : API NUMBER
SLAT .WGS84 2.517293603676997 : SURFACE LATITUDE
SLON .WGS84 6.045269258181008 : SURFACE LONGITUDE
DATUM.F                   nan : DEPTH DATUM ELEV
~Curve Information -----------------------------------------
DEPT    .F     : 
DTCO    .US/F  : DELTA-T COMPRESSIONAL
DTSM    .US/F  : DELTA-T SHEAR
ECGRS   .GAPI  : ENVIRONMENTALLY CORRECTED GAMMA RAY FROM SONIC LOG
HD2_PPC1.IN    : PPC1 HOLE DIAMETER 2
~Params ----------------------------------------------------
~Other -----------------------------------------------------
~ASCII -----------------------------------------------------
# ...
 6551.50000   65.51660  121.74200   65.66300    8.10610
 6552.00000   65.38730  122.56300   70.99400    8.09950
 6552.50000   66.10380  123.70340   77.41000    8.10190
 6553.00000   67.62730  123.97350   85.39200    8.10420
 6553.50000   68.61450  123.97370   92.01800    8.10610
 6554.00000   69.17690  123.97780   97.77900    8.10610
 6554.50000   69.77910  123.99440  105.12000    8.12210
 6555.00000   70.63440  124.01100  106.02400    8.13810
 6555.50000   70.85600  124.97500  103.61400    8.15410
 6556.00000   70.84300  128.00200  100.45200    8.16750
 6556.50000   70.51630  127.76030   98.94600    8.18080
 6557.00000   70.00650  128.02070  100.60200    8.19410
 6557.50000   69.98110  128.63120   99.24700    8.18610
 6558.00000   70.03810  128.11480   93.43400    8.17010
 6558.50000   70.06450  128.41600   85.39200    8.16200
 6559.00000   70.35220  128.72320   82.68100    8.14600
 6559.50000   70.29170  128.64670   90.06000    8.10590
 6560.00000   70.40820  128.68820   96.53600    8.06580
 6560.50000   70.97620  129.05800  105.27100    8.06580
 6561.00000   71.08080  128.92610  106.17500    8.06580
 6561.50000   71.13020  128.45790  104.66900    8.07380
 6562.00000   70.71610  126.77840  100.72300    8.08180
 6562.50000   68.36390  125.90890   96.08400    8.08170
 6563.00000   67.06410  124.56400   91.71700    8.08970
 6563.50000   66.24580  123.47410   91.56600    8.09370
 6564.00000   64.54840  119.52400   86.49300    8.10530
 6564.50000   62.03420  116.40030   73.09800    8.10830
 6565.00000   61.69580  114.24940   59.70200    8.11330
 6565.50000   61.24680  113.68420   46.30600    8.11830
 6566.00000   61.31810  111.81910   39.60800    8.12330
 6566.50000   61.64380  112.02010   44.62300    8.12830
 6567.00000   62.16440  111.54730   50.75300    8.13730
 6567.50000   62.55410  110.82640   58.73500    8.14530
 6568.00000   64.19410  114.22870   69.97000    8.14520
 6568.50000   65.57460  117.16390   78.46400    8.15320
 6569.00000   66.00210  119.12370   83.43400    8.16270
 6569.50000   66.21680  120.56690   83.13300    8.17220
 6570.00000   66.62500  121.73150   83.88600    8.18170
 6570.50000   67.38440  122.95360   88.40400    8.19130
 6571.00000   67.32570  123.37100   93.22300    8.19320
 6571.50000   67.07970  122.77350   98.34300    8.19320
 6572.00000   66.61440  122.67020   98.64500    8.19320
 6572.50000   66.17820  121.36070   93.37300    8.19310
 6573.00000   65.46880  120.47540   85.99400    8.19310
 6573.50000   65.42570  120.00300   80.27100    8.19310
 6574.00000   65.32630  119.92050   75.48900    8.19130
 6574.50000   64.77830  119.85430   68.07200    8.18950
 6575.00000   64.28560  119.75540   64.75900    8.18780
 6575.50000   64.18710  118.34830   68.52400    8.18600
 6576.00000   64.73520  118.47130   78.16300    8.17700
 6576.50000   65.61790  119.35480   87.50000    8.15300
 6577.00000   66.51560  120.70610   82.83100    8.13690
 6577.50000   67.47350  121.35770   78.76500    8.12590
 6578.00000   68.72270  121.37540   72.74100    8.12230
 6578.50000   68.91170  122.13310   83.58400    8.12080
 6579.00000   69.18730  121.17140   97.44000    8.12880
 6579.50000   69.32340  120.58500  108.43400    8.14480
 6580.00000   69.27520  120.54850  111.59600    8.15280
 6580.50000   68.85370  119.43680  105.87300    8.15280
 6581.00000   68.55180  117.78510   98.04200    8.16080
 6581.50000   67.90320  116.12360   90.06000    8.16070
 6582.00000   66.89520  116.28830   85.75300    8.16070
 6582.50000   66.31780  117.30580   84.18700    8.15270
 6583.00000   65.89700  118.47810   82.98200    8.17330
 6583.50000   65.65530  117.92110   89.00600    8.19270
 6584.00000   64.41760  117.80430  100.35800    8.18470
 6584.50000   63.92190  116.64770  110.99400    8.16070
 6585.00000   63.79850  116.15730   94.42800    8.12700
 6585.50000   62.53760  116.30520   79.36700    8.10290
 6586.00000   61.89490  116.38570   65.81300    8.07890
 6586.50000   60.52540  115.40050   62.34900    8.06440
 6587.00000   59.79150  114.19970   60.09000    8.06440
 6587.50000   58.92070  112.44330   57.68100    8.06440
 6588.00000   58.15130  110.03270   54.66900    8.08840
 6588.50000   57.51200  109.06620   52.25900    8.10440
 6589.00000   57.21820  108.44260   49.84900    8.12370
 6589.50000   57.25640  107.61520   45.33100    8.14250
 6590.00000   57.73070  107.22870   42.01800    8.16140
 6590.50000   58.64530  107.42630   39.00600    8.17640
 6591.00000   59.37700  107.65730   41.41600    8.17640
 6591.50000   59.78140  107.85000   56.23100    8.17640
 6592.00000   60.25320  107.82340   72.23300    8.17640
 6592.50000   60.75310  109.46870   88.23400    8.17640
 6593.00000   61.67550  110.03500   99.54800    8.18440
 6593.50000   62.17860  111.22920   98.04200    8.18440
 6594.00000   62.97140  111.75310   92.62000    8.19240
 6594.50000   63.56780  113.10130   78.91600    8.20040
 6595.00000   64.76740  113.35700   70.63300    8.20840
 6595.50000   65.67620  114.87390   70.78300    8.21640
 6596.00000   66.50660  116.39090   72.13900    8.23240
 6596.50000   66.87210  118.50620   70.48200    8.24040
 6597.00000   68.11050  119.90710   73.79500    8.24840
 6597.50000   69.43930  121.33940   81.17500    8.25640
 6598.00000   70.19150  122.78710   96.53600    8.27240
 6598.50000   71.18010  125.96500  107.98200    8.27230
 6599.00000   73.15330  127.59490  107.98200    8.28030
 6599.50000   74.10710  129.11040  110.09000    8.28830
 6600.00000   74.50820  130.06070  114.84300    8.28830
 6600.50000   74.79860  130.60590  121.83700    8.28830
 6601.00000   76.08280  131.06270  121.53600    8.28830
 6601.50000   76.27810  131.75690  118.22300    8.28830
 6602.00000   76.24330  131.96140  115.33100    8.27220
 6602.50000   76.60000  131.54490  115.21100    8.25610
 6603.00000   76.15130  131.17400  116.41600    8.24460
 6603.50000   75.59830  130.91590  115.51200    8.22720
 6604.00000   75.58520  130.34030  110.01500    8.20980
 6604.50000   74.71800  129.41020  103.16300    8.19230
 6605.00000   74.72210  129.19330  104.36700    8.17490
 6605.50000   74.41160  129.02730  107.07800    8.17590
 6606.00000   73.87510  128.45090  107.68100    8.17590
 6606.50000   73.06210  128.13470  108.28300    8.17590
 6607.00000   73.18570  127.87660  106.77700    8.17590
 6607.50000   73.56330  128.15490  103.76500    8.17580
 6608.00000   73.27850  128.25480   97.04800    8.17580
 6608.50000   73.66290  128.67880   89.60800    8.17580
 6609.00000   73.75240  128.80270   91.86700    8.16780
 6609.50000   74.51940  129.13450   99.69900    8.15980
 6610.00000   74.95450  130.29840  105.27100    8.15180
 6610.50000   75.52520  130.85510  114.60800    8.14370
 6611.00000   76.15540  131.61150  119.12700    8.14370
 6611.50000   76.50430  132.27660  121.68700    8.14370
 6612.00000   76.74190  132.70580  122.80100    8.14360
 6612.50000   76.46460  132.84040  121.08400    8.14360
 6613.00000   76.19090  132.84670  122.13900    8.14360
 6613.50000   75.82370  132.62080  125.45200    8.14360
 6614.00000   75.69370  132.10550  131.47600    8.14360
 6614.50000   75.51480  132.11260  129.51800    8.15150
 6615.00000   75.54760  132.27750  125.15100    8.15150
 6615.50000   75.84880  132.61380  117.31900    8.15340
 6616.00000   76.28320  132.90660  107.68100    8.15660
 6616.50000   76.59260  133.18840  106.47600    8.15980
 6617.00000   76.70160  133.60490  120.03000    8.16300
 6617.50000   77.10350  133.62160  130.87300    8.16620
 6618.00000   77.12850  133.51760  137.83100    8.16750
 6618.50000   76.94560  133.61220  139.30700    8.16750
 6619.00000   76.73090  134.21930  134.18700    8.16750
 6619.50000   76.15380  133.27090  126.35500    8.16740
 6620.00000   75.69420  132.57460  121.53600    8.16740
 6620.50000   75.50070  131.49220  116.86700    8.16740
 6621.00000   73.88890  130.70620  117.01800    8.16740
 6621.50000   73.26190  129.99630  111.14500    8.16740
 6622.00000   72.64920  129.25450  105.39200    8.16730
 6622.50000   71.49610  126.82250   95.93400    8.16730
