~Version ---------------------------------------------------
VERS.   2.0 : CWLS log ASCII Standard -VERSION 2.0
WRAP.    NO : One line per depth step
DLM . SPACE : Column Data Section Delimiter
~Well ------------------------------------------------------
STRT .F                5765.0 : START DEPTH
STOP .F                9795.0 : STOP DEPTH
STEP .F                   0.5 : STEP
NULL .               -9999.25 : NULL VALUE
COMP .                        : COMPANY
WELL .                        : WELL
FLD  .                        : FIELD
LOC  .                        : LOCATION
PROV .                        : PROVINCE
CNTY .                        : COUNTY
STAT .                        : STATE
CTRY .                        : COUNTRY
SRVC .                        : SERVICE COMPANY
DATE .                        : DATE
UWI  .                        : UNIQUE WELL ID
API  .                        : API NUMBER
SLAT .WGS84 2.517293603676997 : SURFACE LATITUDE
SLON .WGS84 6.045269258181008 : SURFACE LONGITUDE
DATUM.F                   nan : DEPTH DATUM ELEV
~Curve Information -----------------------------------------
DEPT    .F     : 
DTCO    .US/F  : DELTA-T COMPRESSIONAL
DTSM    .US/F  : DELTA-T SHEAR
ECGRS   .GAPI  : ENVIRONMENTALLY CORRECTED GAMMA RAY FROM SONIC LOG
HD2_PPC1.IN    : PPC1 HOLE DIAMETER 2
~Params ----------------------------------------------------
~Other -----------------------------------------------------
~ASCII -----------------------------------------------------
# ...
 6837.50000   64.55090  107.28390   82.68100    8.13570
 6838.00000   64.65960  106.73170   83.58400    8.13560
 6838.50000   64.48810  106.84710   75.75300    8.13560
 6839.00000   64.58540  106.70620   69.12700    8.13560
 6839.50000   64.62140  106.79980   68.82500    8.13560
 6840.00000   64.64160  106.46290   71.53600    8.13550
 6840.50000   64.48000  106.51810   76.35500    8.13550
 6841.00000   64.32350  106.28960   79.66900    8.13550
 6841.50000   64.04290  106.07820   82.83100    8.13500
 6842.00000   63.80200  105.92610   84.51800    8.13420
 6842.50000   62.68090  104.70220   82.53000    8.13350
 6843.00000   62.01480  104.06170   75.90400    8.13270
 6843.50000   61.41070  103.77030   70.63300    8.13200
 6844.00000   60.58620  102.86670   68.93800    8.13130
 6844.50000   59.71160  101.73980   70.33100    8.13060
 6845.00000   58.63250   98.80560   70.48200    8.12990
 6845.50000   57.72440   98.48840   67.62000    8.12920
 6846.00000   57.45630   98.01160   61.59600    8.12840
 6846.50000   57.03750   96.96020   52.56000    8.12770
 6847.00000   56.77170   96.14440   46.83700    8.12700
 6847.50000   56.47770   96.21740   45.33100    8.12630
 6848.00000   56.07670   95.81100   42.62000    8.12560
 6848.50000   56.07660   95.54280   40.21100    8.12490
 6849.00000   55.94500   95.49300   37.95200    8.12410
 6849.50000   55.80300   95.26540   36.59600    8.12340
 6850.00000   55.41910   94.95080   35.77600    8.12260
 6850.50000   55.02430   94.68860   34.48800    8.12190
 6851.00000   55.06940   94.88630   34.43100    8.12120
 6851.50000   55.16490   94.46580   34.24300    8.12050
 6852.00000   55.06390   94.15850   32.07800    8.11980
 6852.50000   54.97840   94.54790   29.06600    8.11910
 6853.00000   54.77040   94.20250   29.02500    8.11910
 6853.50000   54.88860   94.41880   30.25700    8.11910
 6854.00000   55.18390   94.76070   30.95700    8.11900
 6854.50000   55.44110   95.16120   31.12400    8.12700
 6855.00000   56.57390   96.22650   31.29200    8.13500
 6855.50000   57.66370   96.97210   31.47600    8.13500
 6856.00000   58.49010   97.80020   35.69300    8.13500
 6856.50000   58.97150   98.62580   42.62000    8.14300
 6857.00000   59.68470  100.05900   56.53600    8.14300
 6857.50000   61.35210  100.58560   67.92200    8.14290
 6858.00000   62.20370  101.93540   74.54800    8.13490
 6858.50000   62.69940  102.80400   74.69900    8.13490
 6859.00000   63.63060  103.86440   74.84900    8.13480
 6859.50000   65.47220  104.75110   72.13900    8.13480
 6860.00000   65.84490  106.07520   72.98600    8.15080
 6860.50000   66.50070  106.51680   73.41900    8.16680
 6861.00000   66.84330  107.71520   72.66600    8.19090
 6861.50000   67.12770  108.10960   78.85300    8.21490
 6862.00000   67.28820  108.58280   88.01500    8.22290
 6862.50000   67.35660  108.38870   95.18100    8.22280
 6863.00000   67.26310  108.91100   95.33100    8.22280
 6863.50000   67.16830  108.83290   87.80100    8.21480
 6864.00000   66.98400  108.69390   83.73500    8.19080
 6864.50000   67.28050  109.44360   78.76500    8.18280
 6865.00000   67.28800  110.35100   76.35500    8.17720
 6865.50000   67.44480  110.32660   76.95800    8.17170
 6866.00000   67.77290  110.45540   81.77700    8.16620
 6866.50000   68.03990  110.77950   87.65100    8.16070
 6867.00000   68.20790  110.79600   90.81300    8.15520
 6867.50000   68.47120  111.18070   90.21100    8.14970
 6868.00000   68.64860  111.50460   87.07800    8.14410
 6868.50000   68.00850  110.83410   82.68100    8.13860
 6869.00000   66.56320  110.69090   79.81900    8.13310
 6869.50000   65.49570  110.12890   79.97000    8.12760
 6870.00000   64.26030  108.99140   83.58400    8.12650
 6870.50000   63.59590  107.82840   78.06900    8.13720
 6871.00000   61.73370  105.88400   65.83200    8.14250
 6871.50000   61.14320  105.04450   53.59600    8.14250
 6872.00000   61.29610  104.13620   44.94000    8.15050
 6872.50000   61.58300  102.91950   45.78300    8.15040
 6873.00000   62.45650  103.24580   51.80700    8.14960
 6873.50000   63.53060  103.48980   57.07800    8.14840
 6874.00000   64.25070  104.28320   62.53800    8.14720
 6874.50000   64.90710  105.72800   70.78300    8.14600
 6875.00000   67.26530  106.53680   74.09600    8.14480
 6875.50000   67.90410  107.49400   73.04200    8.14350
 6876.00000   67.75430  108.32180   74.84900    8.14230
 6876.50000   67.80220  109.70990   77.71100    8.12620
 6877.00000   68.21170  110.01880   83.43400    8.11820
 6877.50000   67.91810  110.18620   86.74700    8.11020
 6878.00000   67.87270  110.13500   88.40400    8.11020
 6878.50000   67.89510  110.38670   85.39200    8.11020
 6879.00000   67.88490  110.01060   82.22900    8.13420
 6879.50000   68.08020  109.99320   84.94000    8.15090
 6880.00000   68.08440  110.52490   87.50000    8.16750
 6880.50000   68.32570  111.02320   89.30700    8.18420
 6881.00000   68.45940  111.72780   88.40400    8.20090
 6881.50000   68.69220  111.47620   89.00600    8.21420
 6882.00000   69.13060  111.50690   91.14500    8.21420
 6882.50000   68.37850  111.33530   92.16900    8.21420
 6883.00000   68.14810  111.51520   88.10200    8.20610
 6883.50000   67.95660  110.75610   83.58400    8.20610
 6884.00000   67.78730  110.60960   81.02400    8.21410
 6884.50000   67.38910  110.49410   79.97000    8.24610
 6885.00000   67.49360  110.00050   77.56000    8.28770
 6885.50000   67.51660  109.88120   73.19300    8.32950
 6886.00000   67.36300  110.05120   70.93400    8.37130
 6886.50000   67.40550  110.04540   71.53600    8.41330
 6887.00000   67.26270  109.85540   74.84900    8.44160
 6887.50000   67.25530  109.54830   76.50600    8.44960
 6888.00000   66.85050  109.42570   79.18700    8.45440
 6888.50000   66.85630  108.99830   80.87300    8.35990
 6889.00000   66.57950  108.69110   81.77700    8.26550
 6889.50000   66.55180  108.80150   81.17500    8.18190
 6890.00000   66.63520  107.76920   79.66900    8.15460
 6890.50000   66.36530  107.41390   76.72400    8.14660
 6891.00000   66.44860  107.42530   75.00000    8.14170
 6891.50000   66.49420  107.57300   77.22100    8.14170
 6892.00000   66.68350  107.62500   79.66900    8.14970
 6892.50000   65.94050  107.38550   79.66900    8.15700
 6893.00000   65.15290  107.15490   76.87800    8.16610
 6893.50000   64.17050  107.22240   73.77700    8.17520
 6894.00000   63.79040  106.32530   70.67700    8.18430
 6894.50000   62.88680  106.26050   63.70500    8.18970
 6895.00000   62.93380  105.99920   51.80700    8.18160
 6895.50000   62.99490  105.70780   39.91000    8.18160
 6896.00000   63.73010  106.23630   43.22300    8.16960
 6896.50000   64.16160  107.19250   52.86100    8.15580
 6897.00000   64.78000  107.40170   67.77100    8.14670
 6897.50000   65.60730  107.44810   76.95800    8.13750
 6898.00000   66.46470  110.16650   83.13300    8.12840
 6898.50000   68.14780  110.54220   89.60800    8.11930
 6899.00000   68.73710  111.13070   96.83700    8.11740
 6899.50000   68.97330  110.82020   94.27700    8.11740
 6900.00000   69.07570  112.48400   88.73800    8.11740
 6900.50000   69.63750  112.56250   80.27100    8.12540
 6901.00000   70.01680  112.72670   78.16300    8.14140
 6901.50000   70.22020  113.53760   79.81900    8.15740
 6902.00000   70.38100  113.64600   84.48800    8.15730
 6902.50000   70.39810  114.64570   90.06000    8.15730
 6903.00000   70.70810  115.09760   98.34300    8.15730
 6903.50000   70.76260  115.00280  107.98200    8.15730
 6904.00000   70.91030  115.75160  115.70000    8.15730
 6904.50000   70.87380  114.95710  119.42800    8.15730
 6905.00000   70.55460  115.20370  113.70500    8.14930
 6905.50000   70.40520  114.56250  104.66900    8.14130
 6906.00000   69.82970  114.21580   99.54800    8.14120
 6906.50000   68.95650  113.58030   97.74100    8.14120
 6907.00000   67.87130  111.71840   99.24700    8.14060
 6907.50000   63.68480  109.93680  100.67800    8.13930
 6908.00000   61.09870  107.74790   99.54800    8.13790
 6908.50000   59.87820  105.53650   79.27400    8.13660
