~Version ---------------------------------------------------
VERS.   2.0 : CWLS log ASCII Standard -VERSION 2.0
WRAP.    NO : One line per depth step
DLM . SPACE : Column Data Section Delimiter
~Well ------------------------------------------------------
STRT .F                5765.0 : START DEPTH
STOP .F                9795.0 : STOP DEPTH
STEP .F                   0.5 : STEP
NULL .               -9999.25 : NULL VALUE
COMP .                        : COMPANY
WELL .                        : WELL
FLD  .                        : FIELD
LOC  .                        : LOCATION
PROV .                        : PROVINCE
CNTY .                        : COUNTY
STAT .                        : STATE
CTRY .                        : COUNTRY
SRVC .                        : SERVICE COMPANY
DATE .                        : DATE
UWI  .                        : UNIQUE WELL ID
API  .                        : API NUMBER
SLAT .WGS84 2.517293603676997 : SURFACE LATITUDE
SLON .WGS84 6.045269258181008 : SURFACE LONGITUDE
DATUM.F                   nan : DEPTH DATUM ELEV
~Curve Information -----------------------------------------
DEPT    .F     : 
DTCO    .US/F  : DELTA-T COMPRESSIONAL
DTSM    .US/F  : DELTA-T SHEAR
ECGRS   .GAPI  : ENVIRONMENTALLY CORRECTED GAMMA RAY FROM SONIC LOG
HD2_PPC1.IN    : PPC1 HOLE DIAMETER 2
~Params ----------------------------------------------------
~Other -----------------------------------------------------
~ASCII -----------------------------------------------------
# ...
 8911.00000   86.12480  137.67710  137.50000    8.24320
 8911.50000   85.91750  137.43050  139.15700    8.23520
 8912.00000   84.15010  135.42430  140.39200    8.22720
 8912.50000   82.24450  133.74600  140.96400    8.22720
 8913.00000   81.11000  129.83390  140.81300    8.22720
 8913.50000   82.81150  126.31000  122.48600    8.22720
 8914.00000   83.21520  123.73310  105.10900    8.23510
 8914.50000   58.11590  121.21850   85.99400    8.23660
 8915.00000   57.67890  115.59860   74.93700    8.23920
 8915.50000   61.30080  112.48520   62.65100    8.24190
 8916.00000   62.74710  109.60310   50.36500    8.24450
 8916.50000   63.54170  109.69590   39.30700    8.24710
 8917.00000   64.46650  111.07050   40.21100    8.24960
 8917.50000   65.20380  113.43340   47.59000    8.25220
 8918.00000   70.56760  116.28450   62.25900    8.25480
 8918.50000   73.40960  118.83890   80.87300    8.25750
 8919.00000   74.84450  125.43970   98.79500    8.26010
 8919.50000   76.79490  126.62470  112.80100    8.26270
 8920.00000   77.37280  127.84060  117.62000    8.26530
 8920.50000   78.31260  131.36450  124.69900    8.26680
 8921.00000   80.29540  134.29710  127.56000    8.26680
 8921.50000   80.67600  135.42670  127.71100    8.26680
 8922.00000   80.88800  136.63600  123.34300    8.26680
 8922.50000   81.14020  136.51050  117.92200    8.26680
 8923.00000   81.17900  136.68060  112.19900    8.26680
 8923.50000   81.29540  136.69940  114.91000    8.26660
 8924.00000   81.24120  136.92160  117.62000    8.26590
 8924.50000   81.27870  136.31360  120.63300    8.26510
 8925.00000   81.36740  136.28300  118.52400    8.26440
 8925.50000   81.54610  136.32540  116.71700    8.26360
 8926.00000   81.62990  135.90890  114.91000    8.26290
 8926.50000   81.61000  136.64970  119.42800    8.26220
 8927.00000   81.69400  136.20490  126.80700    8.26150
 8927.50000   81.78170  135.78870  131.02400    8.26080
 8928.00000   82.11450  135.47490  132.68100    8.26010
 8928.50000   82.68810  136.37970  127.56000    8.25940
 8929.00000   83.47600  137.29450  123.04200    8.25850
 8929.50000   84.29620  137.16120  122.89200    8.25780
 8930.00000   84.67850  137.52820  123.04200    8.25710
 8930.50000   85.57600  138.56440  128.01200    8.25640
 8931.00000   86.11640  139.13140  128.76500    8.25570
 8931.50000   86.84250  139.78110  132.34300    8.25500
 8932.00000   88.01070  141.54460  138.24700    8.25420
 8932.50000   88.57000  141.55430  144.15100    8.25350
 8933.00000   88.89440  142.34420  150.05400    8.25280
 8933.50000   89.49890  143.86070  155.95800    8.25210
 8934.00000   88.90890  142.84650  167.01800    8.25130
 8934.50000   88.24420  141.87590  190.11000    8.25060
 8935.00000   88.01590  140.46680  203.61400    8.24980
 8935.50000   88.24000  139.85190  204.36700    8.24910
 8936.00000   90.07700  138.27940  184.30700    8.24840
 8936.50000   88.30330  133.03090  159.78900    8.24770
 8937.00000   83.29290  118.62460  132.07800    8.24700
 8937.50000  140.35370  119.34290   86.87900    8.24630
 8938.00000  117.10540  119.01310   50.45200    8.24550
 8938.50000   93.85710  118.98590   41.71700    8.24470
 8939.00000   70.60870  118.26570   69.59300    8.24400
 8939.50000   71.03640  118.53200   91.03600    8.24330
 8940.00000   70.76900  120.77780  112.47800    8.24260
 8940.50000   -9999.25  121.00390  131.77700    8.25010
 8941.00000   -9999.25  120.83910  111.98500    8.25010
 8941.50000   -9999.25  120.39460   93.99200    8.25010
 8942.00000   56.95210  118.42770   75.99900    8.24210
 8942.50000   56.04580  113.50950   61.44600    8.23410
 8943.00000   55.81210  109.96520   52.86100    8.23410
 8943.50000   55.73640  107.52740   51.05400    8.22610
 8944.00000   57.39140  102.90740   51.69400    8.21740
 8944.50000   54.91850  100.65640   53.76500    8.21370
 8945.00000   54.43860   99.02130   50.75300    8.21000
 8945.50000   54.13800   98.57290   45.63300    8.22600
 8946.00000   54.17630   98.62000   43.52400    8.25000
 8946.50000   54.11640   99.00530   47.59000    8.27390
 8947.00000   54.10140   98.82750   48.94600    8.28830
 8947.50000   54.26420   99.34770   45.93400    8.28990
 8948.00000   54.41990  100.35860   43.13300    8.28190
 8948.50000   54.83050  100.00260   42.92200    8.25790
 8949.00000   54.99200   99.73620   46.98800    8.24180
 8949.50000   55.15140   99.63560   52.10800    8.23380
 8950.00000   54.96460  101.19560   57.36300    8.21780
 8950.50000   55.48930  100.72980   64.91000    8.20980
 8951.00000   55.53000  100.25740   66.71700    8.21080
 8951.50000   56.12670  101.33640   61.14500    8.21180
 8952.00000   56.48450  101.86670   57.31900    8.21280
 8952.50000   56.22500  102.85210   57.53000    8.21380
 8953.00000   55.99910  102.21480   62.80100    8.21470
 8953.50000   55.79040  102.06210   64.00600    8.21570
 8954.00000   55.80500  101.91460   57.26700    8.21670
 8954.50000   55.86650  102.11810   49.54800    8.21770
 8955.00000   55.59430  103.42150   52.71100    8.23370
 8955.50000   56.08710  101.95570   58.43400    8.24960
 8956.00000   55.91720  102.62710   59.18700    8.24960
 8956.50000   55.93140  102.76960   56.47600    8.23350
 8957.00000   55.81210  102.91730   56.32500    8.20960
 8957.50000   56.33460  103.44320   59.94000    8.18560
 8958.00000   55.87670  103.71750   60.42200    8.16960
 8958.50000   55.97040  102.64990   59.48800    8.17030
 8959.00000   56.02440  104.49420   55.57200    8.17380
 8959.50000   56.01000  104.67390   51.05400    8.17730
 8960.00000   55.97380  103.83070   48.04200    8.18080
 8960.50000   55.98120  102.55320   45.93400    8.18430
 8961.00000   55.60060  102.75530   48.94600    8.18780
 8961.50000   55.85440  101.28110   54.21700    8.19130
 8962.00000   55.82840  102.93730   58.79500    8.19830
 8962.50000   55.50830  102.74370   60.54200    8.22220
 8963.00000   55.26890  102.34200   58.13300    8.24620
 8963.50000   55.78490  101.71670   54.66900    8.26530
 8964.00000   55.34060  102.80690   51.43100    8.27330
 8964.50000   55.20750  102.53780   47.59000    8.27330
 8965.00000   54.93860  101.19650   47.13900    8.25730
 8965.50000   55.11300  102.24920   45.63300    8.23320
 8966.00000   55.51740  103.22650   50.75300    8.22740
 8966.50000   55.62090  102.09520   55.42200    8.23300
 8967.00000   55.75050  103.11110   54.81900    8.23850
 8967.50000   55.36920  102.65120   54.06600    8.24400
 8968.00000   55.17220  102.75590   57.71100    8.24940
 8968.50000   55.38340  102.57340   64.60800    8.25490
 8969.00000   55.53030  103.21410   62.50000    8.25710
 8969.50000   55.21130  103.17120   48.64500    8.24910
 8970.00000   55.78940  103.24620   44.72900    8.23310
 8970.50000   55.68880  103.34790   48.04200    8.22770
 8971.00000   55.37970  101.41960   53.46400    8.24110
 8971.50000   55.23710  103.33030   60.24100    8.27300
 8972.00000   55.64150  102.79780   63.85500    8.29060
 8972.50000   55.52910  103.06370   64.00600    8.30250
 8973.00000   55.34700  103.02740   58.13300    8.28100
 8973.50000   55.40330  102.36250   51.95800    8.26500
 8974.00000   54.96350  101.79970   47.77900    8.24890
 8974.50000   54.76070  102.00430   50.00000    8.24290
 8975.00000   55.34410  102.12400   50.90400    8.23540
 8975.50000   56.45180  102.87820   47.28900    8.22790
 8976.00000   57.28730  103.52700   42.62000    8.22490
 8976.50000   57.21180  103.73010   41.71700    8.23290
 8977.00000   57.16540  103.63440   56.17500    8.24080
 8977.50000   56.79310  103.70790   81.43800    8.24880
 8978.00000   56.62230  104.29980   93.22300    8.25680
 8978.50000   56.46210  104.40020   77.21500    8.26480
 8979.00000   56.47670  103.12330   64.90100    8.27610
 8979.50000   55.69030  103.21620   51.35500    8.29040
 8980.00000   55.47330  102.23550   47.87000    8.30470
 8980.50000   55.28730  101.28200   46.23500    8.30470
 8981.00000   54.89320  102.61110   50.15100    8.28870
 8981.50000   55.03540  101.95120   58.58400    8.27000
 8982.00000   55.26120  102.00830   65.54200    8.25670
