~Version ---------------------------------------------------
VERS.   2.0 : CWLS log ASCII Standard -VERSION 2.0
WRAP.    NO : One line per depth step
DLM . SPACE : Column Data Section Delimiter
~Well ------------------------------------------------------
STRT .F                5765.0 : START DEPTH
STOP .F                9795.0 : STOP DEPTH
STEP .F                   0.5 : STEP
NULL .               -9999.25 : NULL VALUE
COMP .                        : COMPANY
WELL .                        : WELL
FLD  .                        : FIELD
LOC  .                        : LOCATION
PROV .                        : PROVINCE
CNTY .                        : COUNTY
STAT .                        : STATE
CTRY .                        : COUNTRY
SRVC .                        : SERVICE COMPANY
DATE .                        : DATE
UWI  .                        : UNIQUE WELL ID
API  .                        : API NUMBER
SLAT .WGS84 2.517293603676997 : SURFACE LATITUDE
SLON .WGS84 6.045269258181008 : SURFACE LONGITUDE
DATUM.F                   nan : DEPTH DATUM ELEV
~Curve Information -----------------------------------------
DEPT    .F     : 
DTCO    .US/F  : DELTA-T COMPRESSIONAL
DTSM    .US/F  : DELTA-T SHEAR
ECGRS   .GAPI  : ENVIRONMENTALLY CORRECTED GAMMA RAY FROM SONIC LOG
HD2_PPC1.IN    : PPC1 HOLE DIAMETER 2
~Params ----------------------------------------------------
~Other -----------------------------------------------------
~ASCII -----------------------------------------------------
# ...
 9411.50000   52.05150   87.94750   17.88400    8.08120
 9412.00000   52.03130   87.36100   17.75900    8.06520
 9412.50000   51.75760   87.74030   18.63700    8.06510
 9413.00000   51.63920   87.48340   19.42800    8.07300
 9413.50000   51.88440   87.63700   18.43400    8.08900
 9414.00000   51.48050   88.00210   17.62000    8.09940
 9414.50000   51.76510   87.77260   18.97600    8.11110
 9415.00000   51.42140   88.20280   21.53600    8.12280
 9415.50000   51.51910   87.33930   28.91600    8.13460
 9416.00000   51.53540   87.96480   35.99400    8.12890
 9416.50000   50.74720   88.62560   42.62000    8.12090
 9417.00000   50.51760   88.38120   38.55400    8.10890
 9417.50000   50.08550   88.66410   33.58400    8.09960
 9418.00000   50.05380   88.22990   19.44900    8.08890
 9418.50000   49.75940   88.73730   10.39200    8.08090
 9419.00000   49.67870   88.45710    7.98200    8.07820
 9419.50000   49.77590   87.77840    6.70900    8.07290
 9420.00000   50.42770   88.39190    6.57200    8.06920
 9420.50000   50.89310   88.30850    7.43000    8.06110
 9421.00000   51.21920   88.42660   10.60900    8.06100
 9421.50000   52.32580   88.54470   18.41100    8.05310
 9422.00000   52.30490   88.64040   30.83600    8.05670
 9422.50000   52.57050   89.10640   43.26100    8.06040
 9423.00000   52.47620   89.92660   55.68500    8.06420
 9423.50000   53.11290   91.09790   63.40400    8.06780
 9424.00000   53.22380   90.98490   48.78400    8.07150
 9424.50000   53.18940   91.11590   32.54100    8.07520
 9425.00000   53.64280   91.81030   17.92200    8.07890
 9425.50000   53.61800   91.77030   22.11000    8.08260
 9426.00000   53.60390   92.21470   34.06400    8.08630
 9426.50000   53.31820   91.80800   46.01800    8.09010
 9427.00000   52.94490   91.48770   57.98200    8.09300
 9427.50000   53.08410   91.23530   51.47100    8.09300
 9428.00000   53.00000   91.28000   42.16900    8.09300
 9428.50000   53.16760   90.76640   32.86700    8.09290
 9429.00000   52.91870   90.37180   26.20500    8.09300
 9429.50000   52.81310   89.84520   25.30100    8.09300
 9430.00000   52.78060   90.60720   30.54700    8.09300
 9430.50000   52.66450   90.30860   41.34000    8.09300
 9431.00000   52.57470   89.72740   52.10800    8.09300
 9431.50000   52.22650   89.92090   67.01800    8.09300
 9432.00000   52.21850   89.98300   59.58200    8.09300
 9432.50000   52.22100   90.43500   45.84000    8.09300
 9433.00000   51.73410   89.55190   29.80400    8.09300
 9433.50000   51.35930   88.98020   12.78600    8.10100
 9434.00000   50.89820   88.88170    6.09900    8.10090
 9434.50000   50.64200   89.06750    4.06600    8.10090
 9435.00000   50.52830   88.78620    4.30300    8.10100
 9435.50000   50.48690   89.20480    4.51800    8.10090
 9436.00000   50.46720   89.82410    6.54000    8.10090
 9436.50000   50.40710   90.47230   13.40400    8.10090
 9437.00000   50.46920   90.36630   23.79500    8.10090
 9437.50000   50.88670   91.69270   35.09000    8.10080
 9438.00000   50.59450   92.26290   39.00600    8.10090
 9438.50000   50.58220   92.74790   26.01700    8.10090
 9439.00000   51.80670   93.04120   14.75900    8.10090
 9439.50000   52.21490   92.83200    7.07800    8.09290
 9440.00000   52.72690   92.73140    6.47600    8.09250
 9440.50000   53.35280   91.66860    6.47600    8.09130
 9441.00000   53.37420   91.75100    6.17500    8.09020
 9441.50000   54.08240   91.41600    5.57200    8.08910
 9442.00000   53.74860   90.46850    5.18100    8.08800
 9442.50000   53.80890   91.15020    4.97000    8.08690
 9443.00000   53.52460   91.18670    5.57200    8.08580
 9443.50000   53.70340   91.40440    7.07800    8.08490
 9444.00000   53.18930   91.72650    8.43400    8.10090
 9444.50000   52.78540   92.36950    9.78900    8.10890
 9445.00000   52.68220   92.19490    9.94000    8.12480
 9445.50000   52.64510   92.60290    8.88600    8.13280
 9446.00000   52.21800   92.49680    6.85200    8.13280
 9446.50000   52.14670   92.27000    4.36700    8.12480
 9447.00000   52.02760   91.87430    4.36700    8.10890
 9447.50000   51.83180   91.19290    4.48000    8.10080
 9448.00000   51.60610   91.59830    4.85700    8.09280
 9448.50000   51.44530   91.72760    4.61800    8.08480
 9449.00000   51.75490   91.74820    4.11600    8.07680
 9449.50000   52.16710   92.07130    4.21700    8.07680
 9450.00000   52.74960   94.42980    7.10800    8.07690
 9450.50000   53.87790   96.00800   11.02400    8.07680
 9451.00000   55.73390   96.35740   28.53900    8.09260
 9451.50000   56.12820   97.80420   51.88300    8.10060
 9452.00000   56.26200   98.95810   86.42700    8.11660
 9452.50000   56.31020  100.31360  121.83700    8.13250
 9453.00000   56.16790   99.63160  154.14200    8.14050
 9453.50000   55.89400   99.76460  185.39200    8.14850
 9454.00000   55.08990   99.68940  154.06600    8.14850
 9454.50000   53.55650   98.38130  108.62200    8.14850
 9455.00000   51.87590   97.42490   62.87700    8.14850
 9455.50000   51.10580   95.45290   23.94600    8.14050
 9456.00000   50.82370   93.13710   15.46200    8.12460
 9456.50000   50.17950   92.93410   11.27800    8.11260
 9457.00000   49.92780   91.85690    8.73500    8.10860
 9457.50000   49.95820   91.43380    7.83100    8.10060
 9458.00000   50.14130   90.62860    6.92800    8.09250
 9458.50000   50.12890   89.91970    6.43800    8.08450
 9459.00000   50.14890   89.60820    6.31300    8.08050
 9459.50000   50.56170   89.67930    6.17500    8.07650
 9460.00000   51.65290   90.59720    5.49700    8.07660
 9460.50000   53.18830   91.35070    5.34000    8.07660
 9461.00000   54.28630   92.36070    6.57200    8.07660
 9461.50000   55.19870   94.39870    7.68100    8.07660
 9462.00000   56.28560   96.73560   24.43100    8.08450
 9462.50000   58.47450   99.04650   37.34900    8.09250
 9463.00000   58.80900  100.02190   56.31000    8.09250
 9463.50000   59.09150  100.41030   95.91900    8.09250
 9464.00000   58.67230  100.27680  129.21700    8.09250
 9464.50000   58.58720  100.84980  145.93400    8.09250
 9465.00000   58.11820  100.30440  139.00600    8.09260
 9465.50000   56.78040   98.57620  107.82200    8.09250
 9466.00000   54.17710   96.23270   79.47400    8.09250
 9466.50000   53.07690   94.54800   51.12500    8.09250
 9467.00000   52.10260   92.78160   37.34900    8.09250
 9467.50000   51.63180   91.40530   29.81900    8.09250
 9468.00000   51.53570   91.08080   22.28900    8.09250
 9468.50000   51.45280   90.46050   19.57800    8.09250
 9469.00000   51.59000   89.95490   22.39000    8.09250
 9469.50000   52.16240   90.23660   33.26600    8.09250
 9470.00000   52.52110   91.11360   38.70500    8.09260
 9470.50000   52.45480   90.96260   53.01200    8.09240
 9471.00000   52.64280   91.00260   61.29500    8.09240
 9471.50000   52.68370   90.79490   64.75900    8.09240
 9472.00000   52.67880   90.35930   65.03000    8.09240
 9472.50000   52.46340   89.45770   63.40400    8.09240
 9473.00000   51.98690   89.66730   56.17500    8.09240
 9473.50000   51.66790   89.63850   48.34300    8.09240
 9474.00000   51.55590   89.50180   41.77300    8.09240
 9474.50000   50.87620   89.80980   35.93700    8.09240
 9475.00000   50.44250   89.16490   28.91600    8.09400
 9475.50000   50.27780   89.44960   21.38600    8.09750
 9476.00000   49.81520   89.69930   13.85500    8.10110
 9476.50000   49.64020   90.04050   11.89800    8.10480
 9477.00000   49.36710   90.09530   15.95300    8.10840
 9477.50000   49.35780   90.22730   19.07300    8.10840
 9478.00000   49.57620   90.63300   20.63300    8.10840
 9478.50000   49.50060   89.54930   18.00100    8.11630
 9479.00000   49.56340   90.00230   15.60900    8.13230
 9479.50000   49.70520   89.67540   13.21800    8.13230
 9480.00000   49.89960   90.08160   13.34300    8.13240
 9480.50000   49.72460   89.77340   14.54800    8.12440
 9481.00000   49.98870   89.61600   15.75300    8.10840
 9481.50000   50.06510   89.85240   16.95800    8.10040
 9482.00000   49.87920   90.65570   17.62000    8.09230
 9482.50000   49.79640   89.90300   15.41800    8.08430
