~Version ---------------------------------------------------
VERS.   2.0 : CWLS log ASCII Standard -VERSION 2.0
WRAP.    NO : One line per depth step
DLM . SPACE : Column Data Section Delimiter
~Well ------------------------------------------------------
STRT .F                5765.0 : START DEPTH
STOP .F                9795.0 : STOP DEPTH
STEP .F                   0.5 : STEP
NULL .               -9999.25 : NULL VALUE
COMP .                        : COMPANY
WELL .                        : WELL
FLD  .                        : FIELD
LOC  .                        : LOCATION
PROV .                        : PROVINCE
CNTY .                        : COUNTY
STAT .                        : STATE
CTRY .                        : COUNTRY
SRVC .                        : SERVICE COMPANY
DATE .                        : DATE
UWI  .                        : UNIQUE WELL ID
API  .                        : API NUMBER
SLAT .WGS84 2.517293603676997 : SURFACE LATITUDE
SLON .WGS84 6.045269258181008 : SURFACE LONGITUDE
DATUM.F                   nan : DEPTH DATUM ELEV
~Curve Information -----------------------------------------
DEPT    .F     : 
DTCO    .US/F  : DELTA-T COMPRESSIONAL
DTSM    .US/F  : DELTA-T SHEAR
ECGRS   .GAPI  : ENVIRONMENTALLY CORRECTED GAMMA RAY FROM SONIC LOG
HD2_PPC1.IN    : PPC1 HOLE DIAMETER 2
~Params ----------------------------------------------------
~Other -----------------------------------------------------
~ASCII -----------------------------------------------------
# ...
 7624.00000   71.73320  122.86220   74.59800    8.13080
 7624.50000   66.38110  118.96590   59.17300    8.12920
 7625.00000   65.17000  115.80830   51.09500    8.12730
 7625.50000   63.91840  113.77620   43.22300    8.12540
 7626.00000   61.22920  107.49290   41.41600    8.12350
 7626.50000   60.19790  106.57070   37.95200    8.12160
 7627.00000   59.62130  104.88770   35.69300    8.11970
 7627.50000   59.18080  103.39960   37.34900    8.11780
 7628.00000   59.21420  104.75710   39.60800    8.11570
 7628.50000   59.35450  104.00030   41.71700    8.11460
 7629.00000   59.46070  103.82870   33.58400    8.11460
 7629.50000   59.67430  104.56140   26.65700    8.11460
 7630.00000   60.23380  105.49000   24.84900    8.11460
 7630.50000   60.90900  106.43070   33.28300    8.11460
 7631.00000   61.38410  108.25010   40.21100    8.10030
 7631.50000   62.44600  108.29770   46.38600    8.08250
 7632.00000   63.48310  109.32510   46.53600    8.06470
 7632.50000   63.96550  109.78110   44.72900    8.05040
 7633.00000   63.95340  110.23760   47.13900    8.05840
 7633.50000   62.44320  109.05850   50.15100    8.07040
 7634.00000   61.84920  108.10420   50.71500    8.09040
 7634.50000   61.49750  107.91030   45.78300    8.11440
 7635.00000   60.36520  106.31100   39.60800    8.13790
 7635.50000   59.46500  105.02740   31.02400    8.14590
 7636.00000   59.78230  103.94530   25.45200    8.14590
 7636.50000   59.93670  103.08710   22.44000    8.14590
 7637.00000   59.56510  103.51320   22.13900    8.14590
 7637.50000   60.63000  103.80240   27.93700    8.14590
 7638.00000   61.14950  104.75750   35.62800    8.14590
 7638.50000   61.49920  104.91040   42.01800    8.13790
 7639.00000   61.69710  105.03450   42.08500    8.13780
 7639.50000   61.75230  105.71960   40.41200    8.13780
 7640.00000   61.55950  105.60510   38.73800    8.13780
 7640.50000   61.96490  106.06300   36.89800    8.13780
 7641.00000   61.48330  105.56220   34.18700    8.13780
 7641.50000   61.21610  105.37410   30.27100    8.13780
 7642.00000   61.04540  104.86360   31.77700    8.13780
 7642.50000   60.81980  104.92490   34.78900    8.13780
 7643.00000   60.71760  104.64450   40.21100    8.13770
 7643.50000   60.15370  104.03800   40.51200    8.13770
 7644.00000   59.79900  104.28560   36.78500    8.13760
 7644.50000   60.39220  103.97270   30.12000    8.14960
 7645.00000   61.29670  102.70900   26.65700    8.16160
 7645.50000   61.97490  106.12700   22.44000    8.16960
 7646.00000   61.97170  105.93950   29.81000    8.17760
 7646.50000   62.02330  106.49100   37.99900    8.18550
 7647.00000   62.09170  107.31610   46.18800    8.18550
 7647.50000   62.11300  107.48990   52.10800    8.18550
 7648.00000   62.36020  108.02030   50.00000    8.18550
 7648.50000   62.79110  108.53810   39.60800    8.17750
 7649.00000   64.08880  110.81720   33.90200    8.16950
 7649.50000   64.37580  110.12950   29.66900    8.15350
 7650.00000   64.33060  110.03920   36.07500    8.14550
 7650.50000   64.15470  111.00070   45.22700    8.13740
 7651.00000   63.91570  110.34910   53.46400    8.13740
 7651.50000   63.97570  111.35940   56.17500    8.12930
 7652.00000   63.74710  111.15070   50.04500    8.13100
 7652.50000   62.73400  110.28430   44.47300    8.13520
 7653.00000   62.23380  109.16790   38.90100    8.13930
 7653.50000   61.29520  107.48440   33.88600    8.14350
 7654.00000   60.11950  106.47420   32.75000    8.14760
 7654.50000   60.54940  105.76190   31.12800    8.15180
 7655.00000   61.25840  106.80670   29.66900    8.15600
 7655.50000   62.40630  109.77700   29.25500    8.16000
 7656.00000   64.82630  111.49000   31.20000    8.16420
 7656.50000   65.82130  114.51670   40.06000    8.16840
 7657.00000   66.31870  117.54340   52.65600    8.16920
 7657.50000   66.68370  119.02550   70.31800    8.16920
 7658.00000   66.53770  119.72770   83.88600    8.16920
 7658.50000   66.82590  119.67950   66.21500    8.16920
 7659.00000   66.71490  119.35730   50.15100    8.16920
 7659.50000   67.60890  118.67300   35.69300    8.16910
 7660.00000   65.62810  118.84570   37.46200    8.16910
 7660.50000   65.10250  116.34530   45.48200    8.16900
 7661.00000   65.03250  115.45290   52.25900    8.16900
 7661.50000   65.06140  115.65230   53.16300    8.16900
 7662.00000   65.60140  116.67630   48.55400    8.16900
 7662.50000   66.72860  116.01990   46.68700    8.16900
 7663.00000   67.09430  116.38770   51.65700    8.16900
 7663.50000   67.26290  117.24680   56.77700    8.16890
 7664.00000   66.57990  117.05200   57.07800    8.16890
 7664.50000   66.89720  117.18850   49.09600    8.16890
 7665.00000   66.67300  116.96220   47.13900    8.16890
 7665.50000   67.08760  116.85890   51.35500    8.16890
 7666.00000   67.23520  117.77060   48.84200    8.16090
 7666.50000   66.68600  117.39710   45.25000    8.15690
 7667.00000   66.80470  117.48170   42.01800    8.15290
 7667.50000   66.76380  118.27190   48.04200    8.14490
 7668.00000   68.36070  119.16150   54.97000    8.13910
 7668.50000   68.59720  120.19280   52.86100    8.14280
 7669.00000   68.96880  121.26490   47.74100    8.14660
 7669.50000   69.33100  122.71220   45.03000    8.15040
 7670.00000   69.68010  121.80670   54.55800    8.15430
 7670.50000   69.57900  122.74920   61.88800    8.15810
 7671.00000   69.62460  123.34290   67.01800    8.16190
 7671.50000   70.59250  122.91500   58.40400    8.16570
 7672.00000   70.70760  122.74610   51.77700    8.16860
 7672.50000   70.60800  123.78800   47.13900    8.17660
 7673.00000   69.55120  121.33390   52.41000    8.17660
 7673.50000   66.71190  118.88110   60.39200    8.15890
 7674.00000   66.02180  117.39630   65.21100    8.15450
 7674.50000   65.04800  116.03730   58.63500    8.15020
 7675.00000   64.09470  114.41370   45.75000    8.14590
 7675.50000   63.04190  112.83410   36.42100    8.14150
 7676.00000   62.22760  111.88730   31.77700    8.13720
 7676.50000   61.82630  109.42310   32.07800    8.13290
 7677.00000   61.32820  106.54250   34.63900    8.12840
 7677.50000   61.10250  105.91550   37.48300    8.12840
 7678.00000   61.46040  106.04060   40.32800    8.13640
 7678.50000   61.96630  106.05290   42.31900    8.15240
 7679.00000   62.21620  105.32800   37.56500    8.17640
 7679.50000   62.29520  106.46680   33.90700    8.19240
 7680.00000   62.40540  105.50410   32.07800    8.20030
 7680.50000   62.40970  105.16120   35.90100    8.20030
 7681.00000   62.39930  105.72310   38.70500    8.20030
 7681.50000   62.12400  104.63000   39.00600    8.20030
 7682.00000   62.17130  104.81820   33.44500    8.18430
 7682.50000   61.89030  104.72340   29.36700    8.16830
 7683.00000   61.58250  104.27860   28.73500    8.14430
 7683.50000   60.75830  103.25680   30.22100    8.13630
 7684.00000   60.95620  104.39610   31.66400    8.12820
 7684.50000   61.16950  104.55030   30.30100    8.12820
 7685.00000   61.20400  102.89760   28.19300    8.12020
 7685.50000   61.03060  102.87410   25.75300    8.12010
 7686.00000   61.10140  103.89580   24.24700    8.12010
 7686.50000   60.60370  102.74820   28.46400    8.12010
 7687.00000   60.63630  102.73990   33.58400    8.12010
 7687.50000   60.50000  102.87660   31.17500    8.12010
 7688.00000   60.44250  102.58810   31.56600    8.12010
 7688.50000   60.66450  102.91850   30.57200    8.12010
 7689.00000   60.46740  102.14050   25.60200    8.12010
 7689.50000   60.55450  103.08400   25.90400    8.11200
 7690.00000   60.49910  103.41860   27.86100    8.11290
 7690.50000   60.44650  103.17410   33.43400    8.11380
 7691.00000   60.71160  102.80920   34.78900    8.11470
 7691.50000   60.66070  102.92440   32.38000    8.11570
 7692.00000   60.80690  102.76630   30.39200    8.11660
 7692.50000   60.82130  103.71540   30.57200    8.11750
 7693.00000   60.61480  102.60590   33.28300    8.11840
 7693.50000   60.61630  101.97320   30.08800    8.11930
 7694.00000   60.33550  102.30380   26.53800    8.12010
 7694.50000   59.38060  100.30380   23.34300    8.12110
 7695.00000   59.03010  100.25330   31.77700    8.12200
