~Version ---------------------------------------------------
VERS.   2.0 : CWLS log ASCII Standard -VERSION 2.0
WRAP.    NO : One line per depth step
DLM . SPACE : Column Data Section Delimiter
~Well ------------------------------------------------------
STRT .FT                8800.0 : START DEPTH
STOP .FT               15334.0 : STOP DEPTH
STEP .FT                   0.5 : STEP
NULL .                -9999.25 : NULL VALUE
COMP .                         : COMPANY
WELL .                         : WELL
FLD  .                         : FIELD
LOC  .                         : LOCATION
PROV .                         : PROVINCE
CNTY .                         : COUNTY
STAT .                         : STATE
CTRY .                         : COUNTRY
SRVC .                         : SERVICE COMPANY
DATE .                         : DATE
UWI  .                         : UNIQUE WELL ID
API  .                         : API NUMBER
SLAT .WGS84    6.0621870470735 : SURFACE LATITUDE
SLON .WGS84 2.8688390492602025 : SURFACE LONGITUDE
DATUM.F                 1282.0 : DEPTH DATUM ELEV
~Curve Information -----------------------------------------
DEPT   .FT    : Depth Curve
CALD   .IN    : CALIPER FROM DENSITY LOG
DPHI_LS.DEC   : DENSITY POROSITY LIMESTONE
DRHO   .G/C3  : BULK DENSITY CORRECTION
DTCO   .US/F  : DELTA-T COMPRESSIONAL
DTSM   .US/F  : DELTA-T SHEAR
GRD    .GAPI  : GAMMA RAY FROM DENSITY LOG
PEF    .B/E   : PHOTOELECTRIC FACTOR
PR     .VPVS  : POISSON'S RATIO
PYR    .VPVS  : AUTOMATICALLY ADDED BY PROCLASCURVE_INSERT.
RHOB   .G/C3  : BULK DENSITY
TBIT20 .OHMM  : AUTOMATICALLY ADDED BY PROCLASCURVE_INSERT.
TBIT30 .OHMM  : AUTOMATICALLY ADDED BY PROCLASCURVE_INSERT.
TBIT60 .OHMM  : AUTOMATICALLY ADDED BY PROCLASCURVE_INSERT.
TBIT90 .OHMM  : AUTOMATICALLY ADDED BY PROCLASCURVE_INSERT.
TNPH_LS.DEC   : THERMAL NEUTRON POROSITY [LIMESTONE]
VPVS_X .VPVS  : COMPRESSIONAL TO SHEAR VELOCITY RATIO - X
VPVS_Y .VPVS  : COMPRESSIONAL TO SHEAR VELOCITY RATIO - Y
~Params ----------------------------------------------------
~Other -----------------------------------------------------
~ASCII -----------------------------------------------------
# ...
 9292.00000    8.83450    0.00080    0.00470   -9999.25   -9999.25   27.70290    4.70430   -9999.25   -9999.25    2.70410   23.62500   26.01250   21.72380   17.28970    0.08250   -9999.25   -9999.25
 9292.50000    8.83450    0.01310    0.00520   -9999.25   -9999.25   33.79810    4.51040   -9999.25   -9999.25    2.68510   15.77340   18.20950   12.72230    8.29750    0.11470   -9999.25   -9999.25
 9293.00000    8.83450    0.02260    0.00570   -9999.25   -9999.25   38.05990    4.31660   -9999.25   -9999.25    2.66620    7.92170   10.40660    5.34210    5.12830    0.16210   -9999.25   -9999.25
 9293.50000    8.82110    0.02640    0.00620   -9999.25   -9999.25   39.81370    4.22730   -9999.25   -9999.25    2.66610    4.85580    5.29040    4.65720    4.28030    0.19560   -9999.25   -9999.25
 9294.00000    8.79890    0.02030    0.01560   -9999.25   -9999.25   39.96390    4.26060   -9999.25   -9999.25    2.68170    4.38760    4.61020    4.27540    4.13660    0.19070   -9999.25   -9999.25
 9294.50000    8.77660    0.01260    0.02500   -9999.25   -9999.25   40.56490    4.29390   -9999.25   -9999.25    2.69730    4.44360    4.56770    4.31380    4.22060    0.18260   -9999.25   -9999.25
 9295.00000    8.75440    0.00490    0.03430   -9999.25   -9999.25   41.16580    4.32720   -9999.25   -9999.25    2.71290    4.55350    4.59600    4.38600    4.32550    0.18150   -9999.25   -9999.25
 9295.50000    8.75440    0.00060    0.03810   -9999.25   -9999.25   41.76680    4.31140   -9999.25   -9999.25    2.71240    4.40080    4.54810    4.37000    4.24120    0.19710   -9999.25   -9999.25
 9296.00000    8.78110    0.00770    0.03370   -9999.25   -9999.25   42.89360    4.20020   -9999.25   -9999.25    2.68570    4.35570    4.49750    4.29000    4.11970    0.21580   -9999.25   -9999.25
 9296.50000    8.79440    0.02020    0.01820   -9999.25   -9999.25   44.58380    4.08900   -9999.25   -9999.25    2.65890    4.32790    4.49750    4.21000    4.08570    0.21820   -9999.25   -9999.25
 9297.00000    8.80080    0.03300    0.00890   -9999.25   -9999.25   45.37260    3.97770   -9999.25   -9999.25    2.64820    4.34180    4.49750    4.23750    4.11160    0.20210   -9999.25   -9999.25
 9297.50000    8.80880    0.02680    0.00480   -9999.25   -9999.25   43.48770    3.86650   -9999.25   -9999.25    2.65930    4.41170    4.51150    4.33030    4.24070    0.18870   -9999.25   -9999.25
 9298.00000    8.81690    0.01470    0.00380   -9999.25   -9999.25   41.60280    3.83410   -9999.25   -9999.25    2.68080    4.41240    4.53950    4.33030    4.26650    0.18260   -9999.25   -9999.25
 9298.50000    8.82490    0.00420    0.00380   -9999.25   -9999.25   39.71790    3.99000   -9999.25   -9999.25    2.70220    4.41410    4.53950    4.34140    4.16230    0.16830   -9999.25   -9999.25
 9299.00000    8.83290    0.00060    0.00370   -9999.25   -9999.25   37.83310    4.44130   -9999.25   -9999.25    2.70950    4.98470    5.68090    4.66350    4.18810    0.13430   -9999.25   -9999.25
 9299.50000    8.83230   -0.00530    0.00370   -9999.25   -9999.25   34.61350    5.01630   -9999.25   -9999.25    2.71690    9.09400   11.04510    6.55630    6.12860    0.10710   -9999.25   -9999.25
 9300.00000    8.82110   -0.01600    0.00370   -9999.25   -9999.25   30.50420    5.60390   -9999.25   -9999.25    2.74630   18.24410   20.44040   13.80720    8.06910    0.08720   -9999.25   -9999.25
 9300.50000    8.81000   -0.02940    0.00370   -9999.25   -9999.25   26.93090    5.87870   -9999.25   -9999.25    2.78570   27.02300   24.95900   22.40230   22.39490    0.07900   -9999.25   -9999.25
 9301.00000    8.79000   -0.03600    0.00370   -9999.25   -9999.25   29.57430    5.75330   -9999.25   -9999.25    2.78680   25.70170   21.58350   20.69330   18.15480    0.08720   -9999.25   -9999.25
 9301.50000    8.77610   -0.01950    0.00360   -9999.25   -9999.25   34.03820    5.41810   -9999.25   -9999.25    2.75760   19.09530   15.78950   13.62730    8.58410    0.12570   -9999.25   -9999.25
 9302.00000    8.76770   -0.00290    0.00440   -9999.25   -9999.25   39.60400    4.63080   -9999.25   -9999.25    2.73230   12.48880    9.99540    6.56130    6.45360    0.16770   -9999.25   -9999.25
 9302.50000    8.76100    0.00780    0.00620   -9999.25   -9999.25   43.32470    4.26190   -9999.25   -9999.25    2.70700    5.88240    6.15750    5.59210    5.53960    0.18590   -9999.25   -9999.25
 9303.00000    8.75440    0.01470    0.00430   -9999.25   -9999.25   44.02980    3.96530   -9999.25   -9999.25    2.68350    6.49500    5.94410    5.67740    5.60210    0.18350   -9999.25   -9999.25
 9303.50000    8.75850    0.01140    0.00420   -9999.25   -9999.25   42.57430    4.02390   -9999.25   -9999.25    2.69060    6.49500    6.12790    5.78400    5.67120    0.17680   -9999.25   -9999.25
 9304.00000    8.76270    0.00910    0.00410   -9999.25   -9999.25   41.11890    4.08680   -9999.25   -9999.25    2.70240    6.28590    5.99670    5.81090    5.63620    0.17120   -9999.25   -9999.25
 9304.50000    8.76690    0.01700    0.00450   -9999.25   -9999.25   39.66340    4.18090   -9999.25   -9999.25    2.68960    5.93750    5.78130    5.52100    5.49840    0.17810   -9999.25   -9999.25
 9305.00000    8.77110    0.02480    0.01010   -9999.25   -9999.25   39.95390    4.22290   -9999.25   -9999.25    2.67170    5.58910    5.58130    5.42660    5.35280    0.19070   -9999.25   -9999.25
 9305.50000    8.77520    0.03020    0.01270   -9999.25   -9999.25   41.40620    4.25700   -9999.25   -9999.25    2.65780    5.51810    5.38130    5.33210    5.23290    0.20020   -9999.25   -9999.25
 9306.00000    8.77940    0.02620    0.01530   -9999.25   -9999.25   42.85850    4.29110   -9999.25   -9999.25    2.66430    5.60700    5.38130    5.33030    5.23290    0.20020   -9999.25   -9999.25
 9306.50000    8.78110    0.01890    0.01800   -9999.25   -9999.25   44.17060    4.32520   -9999.25   -9999.25    2.67350    5.77060    5.53570    5.41620    5.39730    0.19660   -9999.25   -9999.25
 9307.00000    8.78110    0.01440    0.02060   -9999.25   -9999.25   43.41940    4.35930   -9999.25   -9999.25    2.68280    5.92010    5.68680    5.61920    5.56690    0.19240   -9999.25   -9999.25
 9307.50000    8.78200    0.01320    0.02320   -9999.25   -9999.25   41.54140    4.39450   -9999.25   -9999.25    2.68880    5.95810    5.83800    5.73690    5.63620    0.18820   -9999.25   -9999.25
 9308.00000    8.78360    0.01200    0.02610   -9999.25   -9999.25   39.66340    4.42690   -9999.25   -9999.25    2.69250    5.95810    5.91380    5.73690    5.63620    0.18410   -9999.25   -9999.25
 9308.50000    8.78510    0.01080    0.02250   -9999.25   -9999.25   39.06250    4.45920   -9999.25   -9999.25    2.69630    5.95810    5.94130    5.73260    5.63620    0.18310   -9999.25   -9999.25
 9309.00000    8.78670    0.00960    0.01780   -9999.25   -9999.25   38.91220    4.40100   -9999.25   -9999.25    2.69670    5.89900    5.95970    5.71080    5.60150    0.18680   -9999.25   -9999.25
 9309.50000    8.78820    0.01140    0.01320   -9999.25   -9999.25   37.82300    4.32010   -9999.25   -9999.25    2.69210    5.86390    5.97820    5.68900    5.55500    0.19110   -9999.25   -9999.25
 9310.00000    8.78980    0.01690    0.00860   -9999.25   -9999.25   36.22670    4.22210   -9999.25   -9999.25    2.68000    5.82870    5.97820    5.66720    5.54010    0.19740   -9999.25   -9999.25
 9310.50000    8.79130    0.02580    0.00450   -9999.25   -9999.25   36.41590    4.09200   -9999.25   -9999.25    2.66280    5.80760    6.01930    5.64540    5.52520    0.20500   -9999.25   -9999.25
 9311.00000    8.79290    0.03340    0.00290   -9999.25   -9999.25   37.45610    4.03180   -9999.25   -9999.25    2.64560    5.80760    6.07070    5.62800    5.51040    0.20910   -9999.25   -9999.25
 9311.50000    8.79440    0.03590    0.00310   -9999.25   -9999.25   38.49620    4.01570   -9999.25   -9999.25    2.64560    5.82630    6.12200    5.62800    5.51140    0.20230   -9999.25   -9999.25
 9312.00000    8.79790    0.02790    0.00330   -9999.25   -9999.25   39.36300    4.04470   -9999.25   -9999.25    2.66650    5.87300    6.17340    5.72700    5.57620    0.18870   -9999.25   -9999.25
