~Version ---------------------------------------------------
VERS.   2.0 : CWLS log ASCII Standard -VERSION 2.0
WRAP.    NO : One line per depth step
DLM . SPACE : Column Data Section Delimiter
~Well ------------------------------------------------------
STRT .FT                8800.0 : START DEPTH
STOP .FT               15334.0 : STOP DEPTH
STEP .FT                   0.5 : STEP
NULL .                -9999.25 : NULL VALUE
COMP .                         : COMPANY
WELL .                         : WELL
FLD  .                         : FIELD
LOC  .                         : LOCATION
PROV .                         : PROVINCE
CNTY .                         : COUNTY
STAT .                         : STATE
CTRY .                         : COUNTRY
SRVC .                         : SERVICE COMPANY
DATE .                         : DATE
UWI  .                         : UNIQUE WELL ID
API  .                         : API NUMBER
SLAT .WGS84    6.0621870470735 : SURFACE LATITUDE
SLON .WGS84 2.8688390492602025 : SURFACE LONGITUDE
DATUM.F                 1282.0 : DEPTH DATUM ELEV
~Curve Information -----------------------------------------
DEPT   .FT    : Depth Curve
CALD   .IN    : CALIPER FROM DENSITY LOG
DPHI_LS.DEC   : DENSITY POROSITY LIMESTONE
DRHO   .G/C3  : BULK DENSITY CORRECTION
DTCO   .US/F  : DELTA-T COMPRESSIONAL
DTSM   .US/F  : DELTA-T SHEAR
GRD    .GAPI  : GAMMA RAY FROM DENSITY LOG
PEF    .B/E   : PHOTOELECTRIC FACTOR
PR     .VPVS  : POISSON'S RATIO
PYR    .VPVS  : AUTOMATICALLY ADDED BY PROCLASCURVE_INSERT.
RHOB   .G/C3  : BULK DENSITY
TBIT20 .OHMM  : AUTOMATICALLY ADDED BY PROCLASCURVE_INSERT.
TBIT30 .OHMM  : AUTOMATICALLY ADDED BY PROCLASCURVE_INSERT.
TBIT60 .OHMM  : AUTOMATICALLY ADDED BY PROCLASCURVE_INSERT.
TBIT90 .OHMM  : AUTOMATICALLY ADDED BY PROCLASCURVE_INSERT.
TNPH_LS.DEC   : THERMAL NEUTRON POROSITY [LIMESTONE]
VPVS_X .VPVS  : COMPRESSIONAL TO SHEAR VELOCITY RATIO - X
VPVS_Y .VPVS  : COMPRESSIONAL TO SHEAR VELOCITY RATIO - Y
~Params ----------------------------------------------------
~Other -----------------------------------------------------
~ASCII -----------------------------------------------------
# ...
 15309.50000    8.62030    0.04870    0.04410   -9999.25   -9999.25   -9999.25    3.71570   -9999.25   -9999.25    2.62940  119.61120  128.48770  104.54580  101.41980    0.04780   -9999.25   -9999.25
 15310.00000    8.62030    0.04870    0.04420   -9999.25   -9999.25   -9999.25    3.71620   -9999.25   -9999.25    2.62940  119.61340  127.78560  103.75930  100.18820    0.04780   -9999.25   -9999.25
 15310.50000    8.62030    0.04870    0.04430   -9999.25   -9999.25   -9999.25    3.71660   -9999.25   -9999.25    2.62940  119.61340  127.17170  103.75930  100.18820    0.04780   -9999.25   -9999.25
 15311.00000    8.62030    0.04870    0.04430   -9999.25   -9999.25   -9999.25    3.71710   -9999.25   -9999.25    2.62940  118.91050  126.55770  103.75930  100.38170    0.04780   -9999.25   -9999.25
 15311.50000    8.62030    0.04870    0.04440   -9999.25   -9999.25   -9999.25    3.71100   -9999.25   -9999.25    2.62940  119.14110  125.94370  103.75930  100.62350    0.04780   -9999.25   -9999.25
 15312.00000    8.62030    0.04870    0.04440   -9999.25   -9999.25   -9999.25    3.71180   -9999.25   -9999.25    2.62940  119.37160  125.32980  103.75930  100.86540    0.04790   -9999.25   -9999.25
 15312.50000    8.62030    0.04870    0.04450   -9999.25   -9999.25   -9999.25    3.71260   -9999.25   -9999.25    2.62940  119.60210  126.25700  103.94930  101.84870    0.04790   -9999.25   -9999.25
 15313.00000    8.62030    0.04870    0.04500   -9999.25   -9999.25   -9999.25    3.71340   -9999.25   -9999.25    2.62940  117.93220  126.61930  104.18690  102.14080    0.04790   -9999.25   -9999.25
 15313.50000    8.62460    0.04870    0.04490   -9999.25   -9999.25   -9999.25    3.71420   -9999.25   -9999.25    2.62940  115.96020  125.95570  104.42450  101.11820    0.04790   -9999.25   -9999.25
 15314.00000    8.62700    0.04870    0.04480   -9999.25   -9999.25   -9999.25    3.71500   -9999.25   -9999.25    2.62940  114.69310  127.38730  101.91880  100.54020    0.04790   -9999.25   -9999.25
 15314.50000    8.62940    0.04870    0.04480   -9999.25   -9999.25   -9999.25    3.71580   -9999.25   -9999.25    2.62940  112.58140  123.05120   99.41310   97.13690    0.04800   -9999.25   -9999.25
 15315.00000    8.63180    0.04870    0.04470   -9999.25   -9999.25   -9999.25    3.71660   -9999.25   -9999.25    2.62930  111.73670  118.71500   96.90750   92.99960    0.04800   -9999.25   -9999.25
 15315.50000    8.63420    0.04870    0.04470   -9999.25   -9999.25   -9999.25    3.71740   -9999.25   -9999.25    2.62930  110.97950  115.04610   94.40180   88.86230    0.04800   -9999.25   -9999.25
 15316.00000    8.61390    0.04870    0.04460   -9999.25   -9999.25   -9999.25    3.71820   -9999.25   -9999.25    2.62930  110.03300  114.04680   91.89620   84.80380    0.04800   -9999.25   -9999.25
 15316.50000    8.62170    0.04870    0.04460   -9999.25   -9999.25   -9999.25    3.71880   -9999.25   -9999.25    2.62920  109.08650  113.04740   91.89620   82.86870    0.04800   -9999.25   -9999.25
 15317.00000    8.62170    0.04870    0.04460   -9999.25   -9999.25   -9999.25    3.71870   -9999.25   -9999.25    2.62920  108.13990  112.04800   91.89620   83.64520    0.04800   -9999.25   -9999.25
 15317.50000    8.62170    0.04870    0.04450   -9999.25   -9999.25   -9999.25    3.71870   -9999.25   -9999.25    2.62920  107.19340  111.04860   91.89620   84.48410    0.04810   -9999.25   -9999.25
 15318.00000    8.62170    0.04870    0.04450   -9999.25   -9999.25   -9999.25    3.71860   -9999.25   -9999.25    2.62920  107.30180  111.58500   92.48540   84.94260    0.04810   -9999.25   -9999.25
 15318.50000    8.62170    0.04870    0.04440   -9999.25   -9999.25   -9999.25    3.71850   -9999.25   -9999.25    2.62910  108.79010  112.92600   93.07830   87.48220    0.04810   -9999.25   -9999.25
 15319.00000    8.62170    0.04870    0.04440   -9999.25   -9999.25   -9999.25    3.71840   -9999.25   -9999.25    2.62910  109.68310  114.26700   92.96050   89.57950    0.04810   -9999.25   -9999.25
 15319.50000    8.62170    0.04870    0.04430   -9999.25   -9999.25   -9999.25    3.71840   -9999.25   -9999.25    2.62910  111.04860  114.53530   92.37160   88.73050    0.04810   -9999.25   -9999.25
 15320.00000    8.62170    0.04870    0.04430   -9999.25   -9999.25   -9999.25    3.71830   -9999.25   -9999.25    2.62900  110.36370  114.11000   91.78280   87.67720    0.04810   -9999.25   -9999.25
 15320.50000    8.62170    0.04870    0.04420   -9999.25   -9999.25   -9999.25    3.71820   -9999.25   -9999.25    2.62900  107.33040  113.04700   91.31160   89.64670    0.04820   -9999.25   -9999.25
 15321.00000    8.62160    0.04870    0.04420   -9999.25   -9999.25   -9999.25    3.71810   -9999.25   -9999.25    2.62900  104.38960  111.98400   91.31160   89.10550    0.04810   -9999.25   -9999.25
 15321.50000    8.62160    0.04870    0.04420   -9999.25   -9999.25   -9999.25    3.71800   -9999.25   -9999.25    2.62900  104.52840  110.92100   91.31160   88.56440    0.04810   -9999.25   -9999.25
 15322.00000    8.62160    0.04870    0.04410   -9999.25   -9999.25   -9999.25    3.71800   -9999.25   -9999.25    2.62890  104.75980  109.85800   91.31160   88.02330    0.04800   -9999.25   -9999.25
 15322.50000    8.62160    0.04870    0.04410   -9999.25   -9999.25   -9999.25    3.71790   -9999.25   -9999.25    2.62890  104.99110  109.00760   91.31160   87.48220    0.04800   -9999.25   -9999.25
 15323.00000    8.62160    0.04870    0.04400   -9999.25   -9999.25   -9999.25    3.71780   -9999.25   -9999.25    2.62890  105.03740  109.00760   91.31160   87.15460    0.04790   -9999.25   -9999.25
 15323.50000    8.62160    0.04870    0.04400   -9999.25   -9999.25   -9999.25    3.71770   -9999.25   -9999.25    2.62880  105.03740  109.00760   91.31160   87.68110    0.04790   -9999.25   -9999.25
 15324.00000    8.62160    0.04870    0.04390   -9999.25   -9999.25   -9999.25    3.71770   -9999.25   -9999.25    2.62880  104.84690  109.68310   91.31160   88.20770    0.04780   -9999.25   -9999.25
 15324.50000    8.62160    0.04870    0.04390   -9999.25   -9999.25   -9999.25    3.71160   -9999.25   -9999.25    2.62880  104.65630  111.94320   91.31160   88.73430    0.04780   -9999.25   -9999.25
 15325.00000    8.62160    0.04870    0.04380   -9999.25   -9999.25   -9999.25    3.71270   -9999.25   -9999.25    2.62880  104.46580  111.76270   90.30740   87.61620    0.04770   -9999.25   -9999.25
 15325.50000    8.62150    0.04860    0.04190   -9999.25   -9999.25   -9999.25    3.71390   -9999.25   -9999.25    2.62870  104.38960  108.34970   88.19440   84.85230    0.04770   -9999.25   -9999.25
 15326.00000    8.62150    0.04860    0.04240   -9999.25   -9999.25   -9999.25    3.71500   -9999.25   -9999.25    2.62870  103.96980  107.13670   86.08140   83.98480    0.04760   -9999.25   -9999.25
 15326.50000    8.62150    0.04860    0.04290   -9999.25   -9999.25   -9999.25    3.71610   -9999.25   -9999.25    2.62870  102.92020  106.84020   86.02610   84.22990    0.04760   -9999.25   -9999.25
 15327.00000    8.62150    0.04860    0.04330   -9999.25   -9999.25   -9999.25    3.71720   -9999.25   -9999.25    2.62860  101.87060  106.63530   86.48520   84.05950    0.04760   -9999.25   -9999.25
 15327.50000    8.62150    0.04850    0.04380   -9999.25   -9999.25   -9999.25    3.71160   -9999.25   -9999.25    2.62860  100.82100  106.43050   86.82610   83.88900    0.04750   -9999.25   -9999.25
 15328.00000    8.62150    0.04850    0.04400   -9999.25   -9999.25   -9999.25    3.71260   -9999.25   -9999.25    2.62860   99.77140  106.22560   86.98970   83.71860    0.04750   -9999.25   -9999.25
 15328.50000    8.62150    0.04860    0.04410   -9999.25   -9999.25   -9999.25    3.71360   -9999.25   -9999.25    2.62860   99.35160  106.02070   87.15330   83.54810    0.04760   -9999.25   -9999.25
 15329.00000    8.62150    0.04850    0.04410   -9999.25   -9999.25   -9999.25    3.71460   -9999.25   -9999.25    2.62850   99.35160  105.81590   87.31690   83.37770    0.04760   -9999.25   -9999.25
