~Version ---------------------------------------------------
VERS.   2.0 : CWLS log ASCII Standard -VERSION 2.0
WRAP.    NO : One line per depth step
DLM . SPACE : Column Data Section Delimiter
~Well ------------------------------------------------------
STRT .FT                8800.0 : START DEPTH
STOP .FT               15334.0 : STOP DEPTH
STEP .FT                   0.5 : STEP
NULL .                -9999.25 : NULL VALUE
COMP .                         : COMPANY
WELL .                         : WELL
FLD  .                         : FIELD
LOC  .                         : LOCATION
PROV .                         : PROVINCE
CNTY .                         : COUNTY
STAT .                         : STATE
CTRY .                         : COUNTRY
SRVC .                         : SERVICE COMPANY
DATE .                         : DATE
UWI  .                         : UNIQUE WELL ID
API  .                         : API NUMBER
SLAT .WGS84    6.0621870470735 : SURFACE LATITUDE
SLON .WGS84 2.8688390492602025 : SURFACE LONGITUDE
DATUM.F                 1282.0 : DEPTH DATUM ELEV
~Curve Information -----------------------------------------
DEPT   .FT    : Depth Curve
CALD   .IN    : CALIPER FROM DENSITY LOG
DPHI_LS.DEC   : DENSITY POROSITY LIMESTONE
DRHO   .G/C3  : BULK DENSITY CORRECTION
DTCO   .US/F  : DELTA-T COMPRESSIONAL
DTSM   .US/F  : DELTA-T SHEAR
GRD    .GAPI  : GAMMA RAY FROM DENSITY LOG
PEF    .B/E   : PHOTOELECTRIC FACTOR
PR     .VPVS  : POISSON'S RATIO
PYR    .VPVS  : AUTOMATICALLY ADDED BY PROCLASCURVE_INSERT.
RHOB   .G/C3  : BULK DENSITY
TBIT20 .OHMM  : AUTOMATICALLY ADDED BY PROCLASCURVE_INSERT.
TBIT30 .OHMM  : AUTOMATICALLY ADDED BY PROCLASCURVE_INSERT.
TBIT60 .OHMM  : AUTOMATICALLY ADDED BY PROCLASCURVE_INSERT.
TBIT90 .OHMM  : AUTOMATICALLY ADDED BY PROCLASCURVE_INSERT.
TNPH_LS.DEC   : THERMAL NEUTRON POROSITY [LIMESTONE]
VPVS_X .VPVS  : COMPRESSIONAL TO SHEAR VELOCITY RATIO - X
VPVS_Y .VPVS  : COMPRESSIONAL TO SHEAR VELOCITY RATIO - Y
~Params ----------------------------------------------------
~Other -----------------------------------------------------
~ASCII -----------------------------------------------------
# ...
 10169.50000    9.05630    0.04740    0.01280   55.06880  104.13080   59.13620    4.24680    0.26590    0.29180    2.62880   95.68480  106.27580   94.35910   79.81080    0.04480    1.79710    1.83580
 10170.00000    9.06420    0.04420    0.00910   54.15000  104.02760   57.59870    4.35630    0.27540    0.29690    2.64330  105.25320   83.15050   72.32520   65.75480    0.03950    1.83350    1.87150
 10170.50000    9.06580    0.03250    0.00490   53.23120  103.92450   53.13020    5.40470    0.28170    0.30190    2.65780  131.17210  108.21830   85.44450   74.37320    0.03420    1.84570    1.88340
 10171.00000    9.01910    0.02120    0.00290   52.32080  103.30490   47.59750    6.18900    0.28540    0.30700    2.67220  232.09260  162.70050  100.07970   96.47920    0.02970    1.84180    1.87950
 10171.50000    8.99900    0.02000    0.00590   52.31880  102.89710   42.06490    6.52880    0.28070    0.30380    2.68160  307.61000  235.57130  124.49990  117.54750    0.02990    1.83780    1.87570
 10172.00000    8.98120    0.02960    0.00900   53.81360  103.13680   38.48640    6.66470    0.26930    0.29750    2.66830  262.96510  300.41220  148.04960  140.47910    0.03420    1.81950    1.85770
 10172.50000    8.95160    0.03990    0.01200   55.68250  103.92070   41.61490    6.40200    0.25760    0.28240    2.64630  271.99470  365.64930  182.36520  168.06600    0.04300    1.77960    1.81870
 10173.00000    8.92190    0.05020    0.01510   57.55150  104.70450   46.07200    5.83480    0.24620    0.27290    2.62420  357.47090  414.88940  248.24400  195.65290    0.05170    1.75630    1.79590
 10173.50000    8.89220    0.04960    0.01810   59.16710  104.61190   51.41480    4.85380    0.23140    0.25670    2.62190  395.18030  314.85830  239.08230  202.45990    0.05750    1.69870    1.73940
 10174.00000    8.89220    0.04240    0.02120   59.76940  103.53090   56.03740    4.48560    0.21840    0.24510    2.63160  306.13700  249.35290  211.28510  190.81770    0.06040    1.67950    1.72070
 10174.50000    8.89220    0.03630    0.02420   59.72190  102.44990   58.71910    4.27670    0.21560    0.24270    2.64140  217.09380  200.87710  180.22620  151.82950    0.06080    1.68990    1.73080
 10175.00000    8.89220    0.03340    0.02480   58.69970  103.00390   59.24210    4.18760    0.22120    0.25060    2.65120  163.51420  160.98570  149.16720  121.94130    0.06020    1.67900    1.72160
 10175.50000    8.88510    0.03170    0.01880   57.54260  103.69690   58.79820    4.16720    0.24230    0.26620    2.65860  115.69910  121.09440  118.10820   98.11970    0.05600    1.70350    1.76350
 10176.00000    8.87620    0.02920    0.01280   56.16140  104.26350   58.27240    4.18710    0.25220    0.28190    2.66430   96.63370  107.82000   86.49470   83.29270    0.04940    1.72800    1.81310
 10176.50000    8.86730    0.02590    0.01020   55.25300  103.84250   57.51300    4.27670    0.25850    0.29160    2.67000   87.66170  121.23070   84.00440   80.68160    0.04280    1.75250    1.82170
 10177.00000    8.85840    0.02340    0.00930   54.34460  102.39680   54.33210    4.79930    0.25860    0.29250    2.67350   84.11730  134.64150   80.24670   78.13700    0.03610    1.77700    1.81810
 10177.50000    8.84950    0.02330    0.00810   53.39800  100.46820   50.11650    5.26920    0.26470    0.29340    2.67220   92.80410  152.58000   79.60070   78.13700    0.03350    1.80150    1.83280
 10178.00000    8.84060    0.02510    0.00700   52.42580   98.53950   45.90080    5.70790    0.27340    0.29570    2.66500  107.86100  195.14390   84.81100   78.95540    0.03090    1.82300    1.86120
 10178.50000    8.87880    0.02560    0.00580   51.50470   97.43240   42.69460    6.17900    0.28200    0.29680    2.66280  155.50350  227.34610   93.98660   94.36220    0.02830    1.84260    1.88040
 10179.00000    8.91890    0.01670    0.00490   50.39730   97.90750   41.51420    6.49290    0.28720    0.29800    2.67180  228.10440  282.79390   98.17170   95.86450    0.02610    1.84710    1.88570
 10179.50000    8.95350    0.00470    0.00490   50.99680   98.50180   38.00080    6.50130    0.28430    0.29910    2.69800  136.53290  329.28960  107.97760   91.08660    0.02560    1.84160    1.88170
 10180.00000    8.98010   -0.00630    0.00690   51.67280  100.12460   34.48750    6.36630    0.27930    0.30030    2.72420  241.36450  320.56190  126.70770  122.25100    0.02530    1.83600    1.87770
 10180.50000    9.00670   -0.00250    0.00920   52.34880  101.67340   32.15690    6.24630    0.27440    0.30140    2.72140  164.36200  231.83220  126.42470  120.97160    0.02590    1.83040    1.87370
 10181.00000    9.03330    0.00450    0.01350   53.02470  102.09820   32.02470    6.14010    0.27230    0.30260    2.70890  166.51620  214.08630  137.02260  120.65840    0.02810    1.82490    1.86350
 10181.50000    9.05990    0.00930    0.02170   53.58150  102.11160   33.17210    6.00320    0.27210    0.30370    2.69870  164.97750  248.33620  164.79450  151.59460    0.03150    1.81930    1.85340
 10182.00000    9.05610    0.01280    0.02980   53.66170  102.62370   35.49480    5.86630    0.27190    0.30180    2.68970  161.84860  246.21330  201.82330  187.06360    0.03480    1.81480    1.85170
 10182.50000    9.01160    0.01540    0.03150   54.05850  103.46840   38.83990    5.80020    0.27170    0.30410    2.68570  148.88010  230.57620  218.46130  211.72250    0.03790    1.81500    1.85220
 10183.00000    8.98480    0.01780    0.02610   54.93010  105.03590   42.77000    5.55720    0.26820    0.30260    2.68080  150.35680  295.27760  205.92270  209.70370    0.04220    1.80380    1.85270
 10183.50000    8.96750    0.02050    0.01950   55.80170  106.78420   46.31140    5.23410    0.26210    0.30180    2.67240  111.33120  124.74420  163.96260  151.31460    0.04600    1.78510    1.85320
 10184.00000    8.95780    0.02470    0.01290   57.37280  108.52300   51.15100    4.91100    0.25770    0.29700    2.66410  127.39450   90.07850  138.78650  127.80170    0.05530    1.76630    1.82670
 10184.50000    8.95760    0.02910    0.00890   58.97970  109.77270   56.74090    4.72040    0.24990    0.28870    2.65800  177.62450  282.71440  209.73040  218.59490    0.06120    1.74760    1.80030
 10185.00000    8.95760    0.02830    0.01380   60.72980  110.57510   63.15340    4.52820    0.24090    0.27330    2.66500  312.67450  590.20630  262.93830  276.12360    0.07590    1.72890    1.77380
 10185.50000    8.96180    0.02550    0.02000   61.12690  111.55390   70.35820    4.40290    0.24210    0.26400    2.67200  276.61240  353.15640  199.76820  228.67980    0.09080    1.71770    1.75800
 10186.00000    8.98370    0.02890    0.02610   61.52390  112.53270   77.75060    4.49110    0.24560    0.27200    2.66740  213.27960  171.41380  145.71920  138.02240    0.09750    1.75390    1.79360
 10186.50000    9.00570    0.03710    0.02560   61.39950  113.51140   83.19270    4.81340    0.25100    0.28000    2.65170  149.94690  127.85400   91.67020   68.31330    0.10050    1.77540    1.81540
 10187.00000    9.02760    0.04370    0.02470   61.24070  113.89620   86.79610    5.27360    0.25340    0.28450    2.63600   86.61410   84.29410   55.63420   50.26660    0.09720    1.77460    1.81680
 10187.50000    9.04960    0.04650    0.02390   60.94470  113.88480   87.45370    5.79300    0.25360    0.28960    2.63210   48.61450   49.15060   40.43500   38.68970    0.08520    1.77380    1.81810
 10188.00000    9.07160    0.04420    0.02300   60.64880  112.95970   86.16850    6.18300    0.25380    0.28940    2.63840   45.43530   47.67260   40.43500   38.68970    0.08000    1.77310    1.81950
 10188.50000    9.08910    0.03980    0.02210   60.54540  111.65100   84.28480    6.41600    0.25410    0.28920    2.64550   44.99860   46.19450   43.81380   42.50200    0.07530    1.77230    1.82080
 10189.00000    9.14240    0.03550    0.02130   60.44200  110.63000   81.80040    6.33890    0.25430    0.28810    2.65260   46.43020   46.41130   47.19250   47.26730    0.07450    1.77150    1.82220
