~Version ---------------------------------------------------
VERS.   2.0 : CWLS log ASCII Standard -VERSION 2.0
WRAP.    NO : One line per depth step
DLM . SPACE : Column Data Section Delimiter
~Well ------------------------------------------------------
STRT .FT                8800.0 : START DEPTH
STOP .FT               15334.0 : STOP DEPTH
STEP .FT                   0.5 : STEP
NULL .                -9999.25 : NULL VALUE
COMP .                         : COMPANY
WELL .                         : WELL
FLD  .                         : FIELD
LOC  .                         : LOCATION
PROV .                         : PROVINCE
CNTY .                         : COUNTY
STAT .                         : STATE
CTRY .                         : COUNTRY
SRVC .                         : SERVICE COMPANY
DATE .                         : DATE
UWI  .                         : UNIQUE WELL ID
API  .                         : API NUMBER
SLAT .WGS84    6.0621870470735 : SURFACE LATITUDE
SLON .WGS84 2.8688390492602025 : SURFACE LONGITUDE
DATUM.F                 1282.0 : DEPTH DATUM ELEV
~Curve Information -----------------------------------------
DEPT   .FT    : Depth Curve
CALD   .IN    : CALIPER FROM DENSITY LOG
DPHI_LS.DEC   : DENSITY POROSITY LIMESTONE
DRHO   .G/C3  : BULK DENSITY CORRECTION
DTCO   .US/F  : DELTA-T COMPRESSIONAL
DTSM   .US/F  : DELTA-T SHEAR
GRD    .GAPI  : GAMMA RAY FROM DENSITY LOG
PEF    .B/E   : PHOTOELECTRIC FACTOR
PR     .VPVS  : POISSON'S RATIO
PYR    .VPVS  : AUTOMATICALLY ADDED BY PROCLASCURVE_INSERT.
RHOB   .G/C3  : BULK DENSITY
TBIT20 .OHMM  : AUTOMATICALLY ADDED BY PROCLASCURVE_INSERT.
TBIT30 .OHMM  : AUTOMATICALLY ADDED BY PROCLASCURVE_INSERT.
TBIT60 .OHMM  : AUTOMATICALLY ADDED BY PROCLASCURVE_INSERT.
TBIT90 .OHMM  : AUTOMATICALLY ADDED BY PROCLASCURVE_INSERT.
TNPH_LS.DEC   : THERMAL NEUTRON POROSITY [LIMESTONE]
VPVS_X .VPVS  : COMPRESSIONAL TO SHEAR VELOCITY RATIO - X
VPVS_Y .VPVS  : COMPRESSIONAL TO SHEAR VELOCITY RATIO - Y
~Params ----------------------------------------------------
~Other -----------------------------------------------------
~ASCII -----------------------------------------------------
# ...
 14889.50000    8.63290    0.06020    0.01700   60.47180  107.71650   72.56610    3.36250    0.22670    0.26190    2.60650  138.11850  147.89670  117.75160  122.98820    0.07140    1.74190    1.78160
 14890.00000    8.63280    0.05670    0.01990   60.38560  108.03530   72.46640    3.39570    0.22580    0.26480    2.61230  137.70420  148.68420  117.74360  124.11060    0.06950    1.72520    1.76530
 14890.50000    8.63260    0.05510    0.02280   60.29940  108.35410   72.71730    3.42900    0.22620    0.26500    2.61420  139.03730  151.59350  118.25590  125.83630    0.06790    1.73610    1.77600
 14891.00000    8.63240    0.05270    0.02570   60.21320  108.67280   72.96830    3.46220    0.22660    0.26520    2.61970  140.37070  154.44060  118.89490  125.31400    0.06630    1.75400    1.79350
 14891.50000    8.63220    0.04810    0.02850   60.12700  108.99160   73.21920    3.44750    0.23100    0.26940    2.63050  141.70400  155.96500  120.04660  124.79160    0.06480    1.75640    1.79580
 14892.00000    8.63200    0.04160    0.03160   60.04080  109.31030   73.47010    3.39320    0.23290    0.26950    2.64140  143.03740  154.54910  120.81980  124.26930    0.06480    1.76040    1.79970
 14892.50000    8.63190    0.03460    0.03560   59.95460  109.37370   73.84150    3.39440    0.23540    0.27190    2.65220  143.83740  154.08770  120.83060  123.74690    0.06520    1.76430    1.80360
 14893.00000    8.63170    0.03010    0.03960   59.86840  109.15750   73.82610    3.44160    0.23610    0.27450    2.66090  143.85030  153.22590  120.84040  123.22460    0.06540    1.76830    1.80750
 14893.50000    8.63150    0.03130    0.04350   59.78220  108.79760   73.05890    3.48870    0.23850    0.27470    2.65970  143.85850  152.35130  120.99940  122.80900    0.06460    1.77230    1.81140
 14894.00000    8.63220    0.03280    0.04750   59.69600  108.71330   70.86130    3.49320    0.23770    0.27970    2.65750  143.86680  150.38620  121.76190  122.81560    0.06310    1.77630    1.81530
 14894.50000    8.63610    0.03460    0.04960   59.60980  108.81270   67.52070    3.49770    0.23930    0.28030    2.65540  146.44970  148.42100  122.52440  122.81560    0.06150    1.78020    1.81920
 14895.00000    8.64000    0.04290    0.04440   59.52360  108.91210   68.88930    3.50230    0.23700    0.28060    2.65330  148.72040  149.85660  123.28690  122.83200    0.06000    1.78420    1.82310
 14895.50000    8.64400    0.05220    0.03920   59.43730  108.97980   71.05930    3.50680    0.23560    0.27900    2.61420  152.13060  156.80050  124.04940  122.84080    0.05920    1.78280    1.82170
 14896.00000    8.64790    0.05990    0.03390   59.35110  108.92050   73.22930    3.47210    0.23410    0.27510    2.59900  154.78670  162.29010  124.81190  121.98720    0.06170    1.78140    1.82030
 14896.50000    8.65190    0.05700    0.02870   59.26490  108.86120   74.39920    3.39870    0.23220    0.27430    2.61390  159.20740  165.90880  124.81960  121.13350    0.06400    1.78000    1.81900
 14897.00000    8.63790    0.04960    0.03260   59.17870  108.80190   74.70200    3.30810    0.23040    0.27420    2.63210  158.88820  165.06550  125.89640  120.27990    0.06420    1.77860    1.81760
 14897.50000    8.63760    0.04640    0.03270   59.09250  108.74260   76.31020    3.21760    0.22870    0.27310    2.63770  155.97600  165.02950  127.53270  120.79870    0.06440    1.77720    1.81620
 14898.00000    8.63720    0.05250    0.02800   59.00630  108.68330   78.31980    3.18100    0.23120    0.27200    2.62830  155.03010  165.35160  129.35930  122.09750    0.06460    1.77580    1.81490
 14898.50000    8.63690    0.05870    0.02320   58.92010  108.62400   77.32100    3.17340    0.23420    0.27510    2.61680  152.18400  163.44330  130.56200  122.10620    0.06480    1.77440    1.81350
 14899.00000    8.63650    0.06480    0.01850   58.83390  108.56470   76.32210    3.18040    0.23680    0.27680    2.60540  150.13620  162.18430  131.40720  122.11280    0.06270    1.77300    1.81210
 14899.50000    8.63620    0.06480    0.01370   58.74770  108.53770   76.29610    3.20810    0.24100    0.27840    2.59860  149.40470  157.17020  131.41640  124.15440    0.06080    1.77730    1.81630
 14900.00000    8.63620    0.06450    0.00900   58.66150  108.55910   78.15800    3.22710    0.24540    0.28000    2.59890  150.47750  152.15610  131.42320  126.70370    0.05830    1.78300    1.82190
 14900.50000    8.63670    0.06340    0.00310   58.57530  108.58050   79.75040    3.27410    0.24700    0.28170    2.60150  151.28130  155.07660  134.68280  131.86920    0.05770    1.78880    1.82750
 14901.00000    8.63720    0.05860    0.00280   58.48910  108.93400   77.07330    3.35660    0.24990    0.28330    2.61090  153.63860  169.80030  140.70270  135.79270    0.05710    1.79450    1.83310
 14901.50000    8.63770    0.05400    0.00380   58.40290  109.28750   75.22550    3.43920    0.25320    0.28490    2.62030  155.07020  169.74150  141.90670  137.90230    0.05650    1.80020    1.83870
 14902.00000    8.63820    0.04950    0.00410   58.46750  109.32990   74.67550    3.52180    0.25290    0.28660    2.62970  156.03110  174.19110  141.00260  137.02390    0.05590    1.80590    1.84430
 14902.50000    8.63870    0.04550    0.00970   58.63260  109.37220   74.67730    3.59240    0.25410    0.28990    2.63540  156.03110  176.86920  140.38920  135.90870    0.05520    1.81160    1.85000
 14903.00000    8.63920    0.04560    0.01520   58.79780  109.41450   73.71050    3.61110    0.25540    0.28870    2.63540  156.03110  177.22430  139.77590  134.42180    0.05560    1.81210    1.85040
 14903.50000    8.63970    0.04490    0.02080   58.96290  109.45680   72.04250    3.54500    0.25970    0.28970    2.63460  156.03110  180.17420  139.16260  134.16890    0.05620    1.81260    1.85090
 14904.00000    8.64030    0.03950    0.02640   59.12810  109.28010   71.37620    3.45980    0.26380    0.28910    2.64310  156.03110  180.68920  138.54920  133.85280    0.05680    1.81310    1.85130
 14904.50000    8.64080    0.03420    0.03000   59.29320  109.10340   72.78930    3.37460    0.26370    0.28700    2.65650  156.03110  170.84600  137.93590  133.53670    0.05750    1.81350    1.85180
 14905.00000    8.64130    0.03370    0.03090   59.45840  108.92670   75.14350    3.30210    0.26360    0.28920    2.65740  157.24840  156.41940  137.44530  133.22060    0.05850    1.81400    1.85230
 14905.50000    8.64180    0.03810    0.03180   59.62350  108.75010   77.49770    3.22480    0.26350    0.28970    2.64910  158.46570  157.50840  137.44530  132.90450    0.05950    1.81450    1.85270
 14906.00000    8.64230    0.04200    0.03270   59.78870  108.57340   79.85190    3.15660    0.26340    0.28890    2.64080  158.95260  168.72210  139.21320  133.56560    0.06050    1.81490    1.85320
 14906.50000    8.64280    0.04320    0.03360   59.95380  108.39670   82.20610    3.08840    0.26330    0.28850    2.63920  157.97870  177.59750  139.99040  135.99820    0.06070    1.81540    1.85360
 14907.00000    8.64330    0.04420    0.03510   60.11890  108.22000   84.56030    3.04880    0.26330    0.28400    2.63920  157.00490  177.69580  141.28570  138.62540    0.05890    1.81590    1.85410
 14907.50000    8.64380    0.04680    0.03690   60.28410  108.04330   85.62290    3.06240    0.25680    0.28400    2.63290  156.03110  179.78860  142.58100  139.67630    0.05710    1.81190    1.85020
 14908.00000    8.64430    0.05050    0.03410   60.44920  107.86660   85.02300    3.06430    0.25460    0.28010    2.62500  155.07020  180.64670  143.87640  139.67630    0.05670    1.80490    1.84330
 14908.50000    8.64480    0.05400    0.03120   60.61440  107.68990   84.06640    3.08380    0.25460    0.27850    2.61710  155.07020  180.00530  144.65360  139.67630    0.05670    1.79790    1.83650
 14909.00000    8.64530    0.05850    0.02840   60.77950  107.51320   84.31180    3.09830    0.25450    0.27920    2.60920  155.07020  180.00610  144.65360  139.67630    0.05920    1.79090    1.82960
