~Version ---------------------------------------------------
VERS.   2.0 : CWLS log ASCII Standard -VERSION 2.0
WRAP.    NO : One line per depth step
DLM . SPACE : Column Data Section Delimiter
~Well ------------------------------------------------------
STRT .FT                8800.0 : START DEPTH
STOP .FT               15334.0 : STOP DEPTH
STEP .FT                   0.5 : STEP
NULL .                -9999.25 : NULL VALUE
COMP .                         : COMPANY
WELL .                         : WELL
FLD  .                         : FIELD
LOC  .                         : LOCATION
PROV .                         : PROVINCE
CNTY .                         : COUNTY
STAT .                         : STATE
CTRY .                         : COUNTRY
SRVC .                         : SERVICE COMPANY
DATE .                         : DATE
UWI  .                         : UNIQUE WELL ID
API  .                         : API NUMBER
SLAT .WGS84    6.0621870470735 : SURFACE LATITUDE
SLON .WGS84 2.8688390492602025 : SURFACE LONGITUDE
DATUM.F                 1282.0 : DEPTH DATUM ELEV
~Curve Information -----------------------------------------
DEPT   .FT    : Depth Curve
CALD   .IN    : CALIPER FROM DENSITY LOG
DPHI_LS.DEC   : DENSITY POROSITY LIMESTONE
DRHO   .G/C3  : BULK DENSITY CORRECTION
DTCO   .US/F  : DELTA-T COMPRESSIONAL
DTSM   .US/F  : DELTA-T SHEAR
GRD    .GAPI  : GAMMA RAY FROM DENSITY LOG
PEF    .B/E   : PHOTOELECTRIC FACTOR
PR     .VPVS  : POISSON'S RATIO
PYR    .VPVS  : AUTOMATICALLY ADDED BY PROCLASCURVE_INSERT.
RHOB   .G/C3  : BULK DENSITY
TBIT20 .OHMM  : AUTOMATICALLY ADDED BY PROCLASCURVE_INSERT.
TBIT30 .OHMM  : AUTOMATICALLY ADDED BY PROCLASCURVE_INSERT.
TBIT60 .OHMM  : AUTOMATICALLY ADDED BY PROCLASCURVE_INSERT.
TBIT90 .OHMM  : AUTOMATICALLY ADDED BY PROCLASCURVE_INSERT.
TNPH_LS.DEC   : THERMAL NEUTRON POROSITY [LIMESTONE]
VPVS_X .VPVS  : COMPRESSIONAL TO SHEAR VELOCITY RATIO - X
VPVS_Y .VPVS  : COMPRESSIONAL TO SHEAR VELOCITY RATIO - Y
~Params ----------------------------------------------------
~Other -----------------------------------------------------
~ASCII -----------------------------------------------------
# ...
 14029.50000    8.69630    0.02330    0.02600   54.88330  105.16170   71.66500    3.76470    0.27730    0.30440    2.67460  132.04530  139.19610  117.90370  115.31250    0.05300    1.88800    1.92450
 14030.00000    8.69660    0.02460    0.02040   54.89820  105.19850   70.19440    3.76380    0.27760    0.30650    2.67210  132.55720  139.59290  117.90370  113.84570    0.05310    1.88660    1.92320
 14030.50000    8.69690    0.02630    0.01490   54.91320  105.23520   68.72380    3.74470    0.27790    0.30530    2.66970  133.06900  139.98970  116.07340  111.79410    0.05320    1.88520    1.92180
 14031.00000    8.69720    0.02810    0.00940   54.92810  105.27200   67.43910    3.73660    0.27820    0.30370    2.66730  133.58090  140.38660  114.24310  109.56400    0.05330    1.88380    1.92040
 14031.50000    8.69750    0.03150    0.00600   54.94300  105.30880   66.89800    3.74700    0.27860    0.30430    2.64870  133.68330  140.78340  112.41290  108.07800    0.05340    1.88250    1.91910
 14032.00000    8.69770    0.03550    0.00600   54.95800  105.28090   67.59000    3.76940    0.27890    0.30550    2.64870  133.68330  139.94530  110.60550  106.79880    0.05280    1.88110    1.91770
 14032.50000    8.69800    0.03530    0.00600   54.97290  105.25310   68.09950    3.81150    0.27920    0.30530    2.64870  133.68330  140.92680  111.55980  106.23190    0.05280    1.87970    1.91640
 14033.00000    8.69830    0.03110    0.00600   54.98780  105.22520   67.87870    3.80190    0.27950    0.30590    2.65850  133.68330  141.47270  113.46830  106.42140    0.05350    1.87830    1.91500
 14033.50000    8.69860    0.02940    0.00600   55.00280  105.19730   67.40310    3.78140    0.27980    0.30440    2.66250  134.51490  143.55610  113.46830  108.86610    0.05420    1.87690    1.91370
 14034.00000    8.69890    0.03340    0.00600   55.02880  105.16950   67.57900    3.76090    0.28020    0.30380    2.65380  135.34640  141.76150  113.46830  108.86610    0.05560    1.87550    1.91230
 14034.50000    8.69910    0.03700    0.00600   55.07150  105.14160   68.65860    3.74040    0.28050    0.30120    2.64530  135.34640  138.43910  112.74650  108.86610    0.05550    1.87410    1.91090
 14035.00000    8.69940    0.03740    0.00600   55.11430  105.11370   68.65850    3.71990    0.28080    0.30200    2.64900  134.38960  138.57660  112.74650  110.97350    0.05400    1.87280    1.90960
 14035.50000    8.69970    0.03450    0.00600   55.15700  105.08590   67.90310    3.70240    0.28110    0.30140    2.65830  133.43290  139.19910  116.45420  113.85600    0.05220    1.87140    1.90820
 14036.00000    8.70000    0.02980    0.00600   55.19970  105.05800   66.97550    3.73710    0.28110    0.30090    2.66750  132.85880  139.82160  119.42040  116.79340    0.05110    1.87000    1.90690
 14036.50000    8.70030    0.02690    0.00600   55.24240  105.03010   65.78960    3.78160    0.28090    0.30030    2.66500  132.85880  140.44400  119.19910  117.54220    0.05080    1.86860    1.90550
 14037.00000    8.70050    0.03180    0.00600   55.28510  105.00220   64.60360    3.82610    0.28060    0.29970    2.64950  132.62470  141.06650  118.92260  117.54220    0.05150    1.86720    1.90420
 14037.50000    8.70080    0.03640    0.00600   55.32790  104.97440   66.02320    3.87060    0.28030    0.29920    2.64330  132.03940  141.57270  118.64600  117.06430    0.05230    1.86580    1.90280
 14038.00000    8.70110    0.03080    0.01240   55.37060  104.94650   68.30870    3.84450    0.28010    0.29860    2.65430  131.22630  139.14350  118.36950  116.46690    0.05310    1.86440    1.90140
 14038.50000    8.70140    0.02200    0.01870   55.41330  104.91860   70.59420    3.80630    0.27980    0.29800    2.68160  131.22630  139.61660  118.09290  115.86950    0.05380    1.86300    1.90010
 14039.00000    8.70170    0.01550    0.01930   55.45600  104.89080   72.26590    3.74610    0.27960    0.29750    2.69020  131.22630  141.11330  117.81630  115.27210    0.05490    1.86170    1.89870
 14039.50000    8.70190    0.02150    0.01620   55.49880  104.86290   71.85270    3.71140    0.27930    0.29690    2.66260  131.22630  141.16990  117.53980  114.67480    0.05500    1.86030    1.89740
 14040.00000    8.70220    0.02870    0.01300   55.54150  104.83500   71.28920    3.73360    0.27910    0.29630    2.66190  131.61280  141.37450  117.26320  114.07740    0.05500    1.85890    1.89600
 14040.50000    8.70250    0.02970    0.00980   55.58420  104.80720   70.72570    3.72570    0.27640    0.29580    2.66130  132.57910  141.21330  116.96600  113.48000    0.05500    1.85750    1.89470
 14041.00000    8.70280    0.02620    0.00660   55.62690  104.77930   70.16230    3.72230    0.27010    0.29520    2.66130  133.54540  140.31480  116.40620  113.12160    0.05520    1.85600    1.89320
 14041.50000    8.70310    0.03050    0.00410   55.66970  104.75140   67.00320    3.71890    0.26320    0.29460    2.65650  134.51170  139.90060  116.40620  113.12160    0.05600    1.85450    1.89170
 14042.00000    8.70330    0.03640    0.00410   55.71240  104.72360   62.58170    3.71550    0.26320    0.29450    2.64870  134.51170  141.42370  115.87660  110.83390    0.05560    1.85290    1.89020
 14042.50000    8.70360    0.04010    0.00560   55.75510  104.69570   59.04450    3.71210    0.26300    0.29600    2.64160  134.09750  142.94690  115.66470  108.86610    0.05390    1.85140    1.88860
 14043.00000    8.70390    0.04390    0.00760   55.79780  104.66780   61.30310    3.70150    0.26280    0.29740    2.63450  133.68330  145.38810  115.66470  109.87610    0.05320    1.84980    1.88710
 14043.50000    8.70420    0.04750    0.00950   55.84050  104.64000   63.56170    3.73130    0.26250    0.29800    2.62740  133.68330  147.34050  115.66470  111.13850    0.05390    1.84830    1.88560
 14044.00000    8.70450    0.04390    0.01150   55.88330  104.61210   65.82030    3.76110    0.26230    0.29800    2.63340  133.68330  147.46240  116.77940  112.40100    0.05450    1.84670    1.88410
 14044.50000    8.70470    0.03830    0.01340   55.92600  104.58420   66.70670    3.79100    0.26210    0.29800    2.64830  134.51490  146.21670  117.15260  112.40100    0.05510    1.84520    1.88260
 14045.00000    8.70500    0.03340    0.01540   55.96870  104.52700   68.04680    3.82080    0.26190    0.29630    2.65450  135.34640  145.48110  117.15260  113.12160    0.05570    1.84370    1.88110
 14045.50000    8.70530    0.03180    0.01730   56.01140  104.46240   70.13170    3.85230    0.26170    0.29590    2.65740  135.34640  144.11380  117.36720  114.57800    0.05550    1.84210    1.87960
 14046.00000    8.70560    0.03060    0.01920   56.05420  104.39780   72.21660    3.87820    0.26000    0.29410    2.65950  136.18560  145.67240  117.90370  115.31020    0.05520    1.84060    1.87810
 14046.50000    8.70590    0.03090    0.02120   56.09690  104.33320   72.49680    3.87310    0.26000    0.29220    2.65790  138.28370  147.23100  119.09560  116.79340    0.05530    1.83900    1.87660
 14047.00000    8.70610    0.03300    0.02040   56.13960  104.26860   70.06980    3.85290    0.25970    0.29190    2.65390  140.38180  148.78960  120.18590  117.54220    0.05550    1.83750    1.87510
 14047.50000    8.70640    0.03480    0.01770   56.18230  104.20400   67.64280    3.83080    0.25770    0.29030    2.64990  142.47990  150.34820  120.57120  117.54220    0.05570    1.83620    1.87380
 14048.00000    8.70670    0.03600    0.01500   56.22500  104.13940   66.85700    3.81860    0.25650    0.28710    2.64930  144.57790  150.34820  120.69960  117.54220    0.05680    1.83620    1.87380
 14048.50000    8.70700    0.03430    0.01230   56.26780  104.07480   67.98380    3.79320    0.25530    0.28810    2.65150  146.67600  150.97380  120.11180  116.79340    0.05750    1.83620    1.87380
 14049.00000    8.70730    0.03090    0.00960   56.31050  104.01020   69.11060    3.76780    0.25870    0.29050    2.65400  146.67600  152.53770  119.98840  116.79340    0.05760    1.83610    1.87370
