~Version ---------------------------------------------------
VERS.   2.0 : CWLS log ASCII Standard -VERSION 2.0
WRAP.    NO : One line per depth step
DLM . SPACE : Column Data Section Delimiter
~Well ------------------------------------------------------
STRT .FT                8800.0 : START DEPTH
STOP .FT               15334.0 : STOP DEPTH
STEP .FT                   0.5 : STEP
NULL .                -9999.25 : NULL VALUE
COMP .                         : COMPANY
WELL .                         : WELL
FLD  .                         : FIELD
LOC  .                         : LOCATION
PROV .                         : PROVINCE
CNTY .                         : COUNTY
STAT .                         : STATE
CTRY .                         : COUNTRY
SRVC .                         : SERVICE COMPANY
DATE .                         : DATE
UWI  .                         : UNIQUE WELL ID
API  .                         : API NUMBER
SLAT .WGS84    6.0621870470735 : SURFACE LATITUDE
SLON .WGS84 2.8688390492602025 : SURFACE LONGITUDE
DATUM.F                 1282.0 : DEPTH DATUM ELEV
~Curve Information -----------------------------------------
DEPT   .FT    : Depth Curve
CALD   .IN    : CALIPER FROM DENSITY LOG
DPHI_LS.DEC   : DENSITY POROSITY LIMESTONE
DRHO   .G/C3  : BULK DENSITY CORRECTION
DTCO   .US/F  : DELTA-T COMPRESSIONAL
DTSM   .US/F  : DELTA-T SHEAR
GRD    .GAPI  : GAMMA RAY FROM DENSITY LOG
PEF    .B/E   : PHOTOELECTRIC FACTOR
PR     .VPVS  : POISSON'S RATIO
PYR    .VPVS  : AUTOMATICALLY ADDED BY PROCLASCURVE_INSERT.
RHOB   .G/C3  : BULK DENSITY
TBIT20 .OHMM  : AUTOMATICALLY ADDED BY PROCLASCURVE_INSERT.
TBIT30 .OHMM  : AUTOMATICALLY ADDED BY PROCLASCURVE_INSERT.
TBIT60 .OHMM  : AUTOMATICALLY ADDED BY PROCLASCURVE_INSERT.
TBIT90 .OHMM  : AUTOMATICALLY ADDED BY PROCLASCURVE_INSERT.
TNPH_LS.DEC   : THERMAL NEUTRON POROSITY [LIMESTONE]
VPVS_X .VPVS  : COMPRESSIONAL TO SHEAR VELOCITY RATIO - X
VPVS_Y .VPVS  : COMPRESSIONAL TO SHEAR VELOCITY RATIO - Y
~Params ----------------------------------------------------
~Other -----------------------------------------------------
~ASCII -----------------------------------------------------
# ...
 11889.50000    8.69910    0.04680    0.01980   59.57710  109.03910   77.57050    3.84130    0.25460    0.27390    2.62950  117.29370  122.22570   98.01500   96.30160    0.06870    1.74030    1.78020
 11890.00000    8.69700    0.04290    0.02090   59.59520  109.02440   77.02280    3.83330    0.25330    0.27300    2.63920  117.75910  122.89800   98.15450   96.42730    0.06900    1.74190    1.78170
 11890.50000    8.69490    0.04210    0.02120   59.61330  109.00970   78.18430    3.79110    0.25210    0.27210    2.63550  118.86440  123.57030   98.29410   96.55300    0.06850    1.74340    1.78320
 11891.00000    8.69270    0.04650    0.02030   59.63140  108.99510   77.38300    3.74150    0.25090    0.27120    2.62710  119.60210  124.24260   98.43360   96.67870    0.06920    1.74490    1.78470
 11891.50000    8.69190    0.04890    0.01940   59.64960  108.98040   76.38140    3.69200    0.24960    0.27040    2.62300  119.60210  124.91500   98.57310   96.80430    0.07060    1.74650    1.78610
 11892.00000    8.70520    0.04300    0.01860   59.66770  108.96570   75.93070    3.64250    0.24890    0.27570    2.63510  120.34320  125.58730   98.71270   96.93000    0.07210    1.74800    1.78760
 11892.50000    8.71860    0.03550    0.01770   59.68580  108.95100   75.17950    3.62480    0.24880    0.27530    2.64780  121.02420  126.25960   98.85220   97.05570    0.07330    1.74950    1.78910
 11893.00000    8.71860    0.02880    0.02130   59.70390  108.93630   74.87900    3.65370    0.24980    0.27510    2.66040  121.70530  126.93190   98.99170   97.18140    0.07330    1.75100    1.79060
 11893.50000    8.71860    0.02460    0.02150   59.72210  108.92170   73.70540    3.70690    0.25460    0.27540    2.67100  122.59650  127.60420   99.13130   97.30710    0.07250    1.74810    1.78780
 11894.00000    8.71910    0.02470    0.02160   59.63580  108.90700   72.61730    3.76010    0.25570    0.27570    2.66840  123.25800  128.27650   99.27080   97.43270    0.07230    1.77710    1.81610
 11894.50000    8.72030    0.03040    0.02180   59.52350  108.89230   71.96520    3.81330    0.25590    0.27590    2.65530  123.09260  128.81440   99.41030   97.55840    0.07100    1.76500    1.80440
 11895.00000    8.72150    0.03690    0.02200   59.41130  108.87760   72.47750    3.86650    0.25740    0.27760    2.64430  122.92730  128.60790   99.54990   97.68410    0.06990    1.78230    1.82120
 11895.50000    8.72260    0.03720    0.02210   59.29900  108.86290   73.33130    3.91960    0.26080    0.28260    2.64920  122.76190  128.09180   99.74260   97.80980    0.06980    1.78830    1.82710
 11896.00000    8.72380    0.02950    0.02470   59.18670  108.84830   75.33930    3.91710    0.26030    0.28580    2.67620  122.59650  127.57570   99.93530   97.93540    0.06980    1.79140    1.83010
 11896.50000    8.72500    0.02180    0.02370   59.07440  108.83360   77.81350    3.86260    0.26130    0.28890    2.67660  121.09000  127.05960  100.12800   98.06110    0.06970    1.79260    1.83130
 11897.00000    8.72620    0.02200    0.02280   58.96210  108.81890   80.28760    3.79520    0.26240    0.29210    2.67620  119.75170  126.54350  100.32070   98.18680    0.06960    1.79370    1.83240
 11897.50000    8.72740    0.02620    0.02180   58.84980  108.80420   77.97750    3.77710    0.26350    0.29520    2.65980  117.40390  126.02740  100.51340   98.31250    0.06690    1.79490    1.83360
 11898.00000    8.72860    0.02810    0.01950   58.73750  108.78950   73.87690    3.75900    0.26450    0.29520    2.66300  115.91910  125.51130  100.70610   98.43820    0.06380    1.79610    1.83470
 11898.50000    8.72980    0.02760    0.01760   58.62520  108.77490   71.30420    3.74090    0.26560    0.29520    2.66620  114.43430  124.99520  100.89880   98.56380    0.06130    1.79720    1.83590
 11899.00000    8.73100    0.02910    0.02020   58.51290  108.76020   71.22580    3.72280    0.26670    0.29520    2.65720  112.94960  121.71160  101.09150   98.68950    0.06160    1.79840    1.83700
 11899.50000    8.73220    0.03150    0.02290   58.40060  108.84570   71.21400    3.74530    0.26810    0.29520    2.65100  111.46480  119.93980  101.28420   98.81520    0.06220    1.79960    1.83820
 11900.00000    8.73340    0.02730    0.02560   58.28830  109.20780   68.76010    3.79660    0.26810    0.29570    2.66470  109.98000  119.69170  101.47690   98.91570    0.06270    1.80760    1.84610
 11900.50000    8.73460    0.01920    0.02830   58.24340  109.07360   65.88050    3.86700    0.27020    0.29680    2.69290  109.14270  120.01320  101.47690   99.09250    0.06240    1.81740    1.85560
 11901.00000    8.73580    0.01450    0.02990   58.24340  108.93950   63.45160    3.93740    0.26910    0.29780    2.69290  109.00760  119.14340  101.47690   99.26920    0.06210    1.80020    1.83880
 11901.50000    8.73700    0.01830    0.02780   58.19580  108.80540   62.88140    4.00780    0.26730    0.29970    2.68400  108.45440  118.27360  101.47690   99.44590    0.06240    1.80050    1.83910
 11902.00000    8.73810    0.01740    0.02460   58.13640  108.70700   61.60120    4.07880    0.26590    0.29740    2.67700  107.76280  117.40390  101.85320   99.62260    0.06270    1.80070    1.83930
 11902.50000    8.73930    0.01230    0.02140   58.07700  108.66240   58.57520    4.23260    0.26560    0.29580    2.67700  107.07130  117.83270  102.48050   99.79940    0.06300    1.79970    1.83830
 11903.00000    8.74050    0.01320    0.01820   58.01760  108.61780   56.96950    4.37360    0.26520    0.29430    2.69930  106.37980  119.80420  103.10770   99.97610    0.06320    1.79680    1.83540
 11903.50000    8.74170    0.02090    0.01470   57.95810  108.57320   59.29930    4.45860    0.25950    0.29220    2.68720  105.68830  120.48020  103.73500  100.15280    0.06240    1.79390    1.83260
 11904.00000    8.74290    0.02710    0.01520   57.89870  108.52860   61.16750    4.53440    0.25880    0.28960    2.65840  105.79760  120.41670  104.36220  100.51030    0.06230    1.79100    1.82970
 11904.50000    8.74410    0.02210    0.01570   57.83930  108.48400   62.39740    4.61020    0.25670    0.28660    2.66770  106.34410  122.39600  104.98950  101.31580    0.06210    1.78660    1.82540
 11905.00000    8.74530    0.01720    0.01620   57.77990  108.43940   62.89190    4.63300    0.25620    0.28600    2.68270  108.68450  124.29210  105.61670  101.47690    0.06190    1.78230    1.82120
 11905.50000    8.74530    0.01590    0.01670   57.72040  108.39480   63.07330    4.50650    0.25520    0.28600    2.68570  111.60990  125.71950  106.11850  101.66270    0.06170    1.78000    1.81900
 11906.00000    8.74290    0.01710    0.01720   57.66100  108.35020   63.25460    4.35570    0.25310    0.28600    2.68410  114.53530  126.41390  106.11850  102.12740    0.06200    1.77420    1.81330
 11906.50000    8.73890    0.02150    0.01770   57.60160  108.30560   64.46380    4.20500    0.25270    0.28600    2.67160  114.53530  125.96760  106.11850  102.12740    0.06410    1.76830    1.80760
 11907.00000    8.73490    0.02800    0.01820   57.54210  108.54140   66.43270    4.10590    0.25450    0.28600    2.65910  114.53530  125.52140  106.11850  102.68800    0.06630    1.76690    1.80610
 11907.50000    8.73090    0.03280    0.01870   57.51840  108.72360   68.40170    4.08150    0.25580    0.28610    2.64900  114.53530  125.07510  106.26210  103.62230    0.06820    1.78290    1.82180
 11908.00000    8.72690    0.02810    0.01920   57.66180  108.72040   66.97080    4.11620    0.25660    0.28620    2.65060  114.53530  126.17540  106.97990  104.55650    0.06770    1.79900    1.83760
 11908.50000    8.72290    0.02020    0.01970   57.80510  108.71720   64.42020    4.19400    0.25650    0.28730    2.67700  114.53530  129.29700  107.69770  105.49080    0.06720    1.79820    1.83680
 11909.00000    8.71890    0.01490    0.02140   57.94850  108.71400   61.65360    4.25220    0.25640    0.28840    2.68410  114.53530  130.83980  108.41550  106.42510    0.06680    1.79320    1.83200
