~Version ---------------------------------------------------
VERS.   2.0 : CWLS log ASCII Standard -VERSION 2.0
WRAP.    NO : One line per depth step
DLM . SPACE : Column Data Section Delimiter
~Well ------------------------------------------------------
STRT .FT                8800.0 : START DEPTH
STOP .FT               15334.0 : STOP DEPTH
STEP .FT                   0.5 : STEP
NULL .                -9999.25 : NULL VALUE
COMP .                         : COMPANY
WELL .                         : WELL
FLD  .                         : FIELD
LOC  .                         : LOCATION
PROV .                         : PROVINCE
CNTY .                         : COUNTY
STAT .                         : STATE
CTRY .                         : COUNTRY
SRVC .                         : SERVICE COMPANY
DATE .                         : DATE
UWI  .                         : UNIQUE WELL ID
API  .                         : API NUMBER
SLAT .WGS84    6.0621870470735 : SURFACE LATITUDE
SLON .WGS84 2.8688390492602025 : SURFACE LONGITUDE
DATUM.F                 1282.0 : DEPTH DATUM ELEV
~Curve Information -----------------------------------------
DEPT   .FT    : Depth Curve
CALD   .IN    : CALIPER FROM DENSITY LOG
DPHI_LS.DEC   : DENSITY POROSITY LIMESTONE
DRHO   .G/C3  : BULK DENSITY CORRECTION
DTCO   .US/F  : DELTA-T COMPRESSIONAL
DTSM   .US/F  : DELTA-T SHEAR
GRD    .GAPI  : GAMMA RAY FROM DENSITY LOG
PEF    .B/E   : PHOTOELECTRIC FACTOR
PR     .VPVS  : POISSON'S RATIO
PYR    .VPVS  : AUTOMATICALLY ADDED BY PROCLASCURVE_INSERT.
RHOB   .G/C3  : BULK DENSITY
TBIT20 .OHMM  : AUTOMATICALLY ADDED BY PROCLASCURVE_INSERT.
TBIT30 .OHMM  : AUTOMATICALLY ADDED BY PROCLASCURVE_INSERT.
TBIT60 .OHMM  : AUTOMATICALLY ADDED BY PROCLASCURVE_INSERT.
TBIT90 .OHMM  : AUTOMATICALLY ADDED BY PROCLASCURVE_INSERT.
TNPH_LS.DEC   : THERMAL NEUTRON POROSITY [LIMESTONE]
VPVS_X .VPVS  : COMPRESSIONAL TO SHEAR VELOCITY RATIO - X
VPVS_Y .VPVS  : COMPRESSIONAL TO SHEAR VELOCITY RATIO - Y
~Params ----------------------------------------------------
~Other -----------------------------------------------------
~ASCII -----------------------------------------------------
# ...
 12749.50000    8.71670    0.03210    0.01480   55.23760  105.20620   60.38830    4.27190    0.29460    0.30040    2.65610   99.22040  106.20230   93.90810   89.75480    0.05250    1.86660    1.90380
 12750.00000    8.71570    0.03090    0.01590   55.22020  104.97400   60.20010    4.32610    0.29440    0.29980    2.65970   99.22040  106.19480   94.35620   89.73530    0.05190    1.84490    1.88250
 12750.50000    8.71470    0.02970    0.01700   55.20290  104.86560   59.44890    4.34870    0.29420    0.29920    2.66320   99.20140  106.18710   94.80440   89.73530    0.05140    1.85420    1.89170
 12751.00000    8.71370    0.02940    0.01810   55.18550  104.84290   60.90040    4.34180    0.29400    0.29860    2.66130   99.20140  107.52470   95.25250   90.52500    0.05090    1.84970    1.88730
 12751.50000    8.71270    0.03200    0.01790   55.16820  104.78250   63.28650    4.26700    0.29370    0.29840    2.65460   99.25730  107.52470   95.34210   91.31480    0.05050    1.86380    1.90110
 12752.00000    8.71170    0.03550    0.01250   55.15080  104.72210   65.67270    4.21730    0.29350    0.29860    2.64800   99.32720  107.87880   95.34210   92.10450    0.05090    1.86080    1.89810
 12752.50000    8.71080    0.03520    0.00720   55.13350  104.66180   68.05890    4.16750    0.29330    0.29880    2.64800   99.39710  108.32140   95.77790   92.89430    0.05090    1.85350    1.89100
 12753.00000    8.70980    0.03190    0.00420   55.11610  104.60140   70.52910    4.11770    0.29310    0.29900    2.65410   99.46700  108.76400   96.50440   93.68400    0.05080    1.86310    1.90040
 12753.50000    8.70880    0.02900    0.01040   55.09880  104.59300   72.00940    4.06790    0.29280    0.29920    2.66030   99.53690  109.20660   97.23080   93.24390    0.05070    1.87040    1.90760
 12754.00000    8.70780    0.02670    0.01660   55.08140  104.66280   68.53320    4.06380    0.29260    0.29940    2.66460   99.60680  109.64920   97.81190   95.04970    0.05060    1.84280    1.88050
 12754.50000    8.70680    0.02170    0.02230   55.06410  104.73250   63.39260    4.04420    0.29240    0.29960    2.67460   99.67670  110.09180   97.81190   95.65940    0.05030    1.84420    1.88190
 12755.00000    8.70590    0.01660    0.02310   55.04670  104.80230   58.66700    4.06210    0.29220    0.29980    2.68310   99.74660  109.40160   97.81190   95.65940    0.04950    1.84570    1.88330
 12755.50000    8.70490    0.01860    0.02150   55.02940  104.87200   57.63360    4.09130    0.29190    0.30000    2.67830   99.81640  109.26310   97.81190   95.35460    0.04960    1.84710    1.88470
 12756.00000    8.70390    0.02650    0.01990   55.01200  104.94180   58.69450    4.12050    0.29170    0.30020    2.65640   99.81640  109.40110   97.81190   94.44390    0.05020    1.84850    1.88610
 12756.50000    8.70290    0.03230    0.01830   54.99470  105.01150   60.08970    4.11460    0.29150    0.30040    2.65200   99.81640  109.53900   97.10630   94.44390    0.05100    1.85000    1.88750
 12757.00000    8.70190    0.03080    0.01670   54.97730  105.08130   60.78340    4.05580    0.29130    0.30060    2.66030   99.81640  110.49920   96.22420   94.59630    0.05150    1.85140    1.88890
 12757.50000    8.70090    0.02690    0.01930   54.96000  105.15100   61.00940    4.07150    0.29110    0.30080    2.66860   99.81640  110.19410   95.34210   94.97730    0.05120    1.85420    1.89170
 12758.00000    8.70000    0.02560    0.02090   54.94260  105.22070   60.67080    4.09070    0.29080    0.30100    2.66860   99.81640  109.88890   96.29200   95.35840    0.05100    1.84310    1.88080
 12758.50000    8.69900    0.02220    0.02260   54.92530  105.29050   59.50810    4.10990    0.29060    0.30120    2.67600   99.81640  109.58380   97.24200   95.73950    0.05080    1.84960    1.88720
 12759.00000    8.69800    0.01740    0.02420   54.90790  105.36020   58.44210    4.11490    0.29040    0.30140    2.68720   99.81640  109.70380   97.81190   96.12050    0.05050    1.85480    1.89230
 12759.50000    8.69700    0.01650    0.02590   54.89060  105.43000   57.81590    4.05370    0.28980    0.30160    2.68720   99.81640  109.93020   97.81190   96.27300    0.05090    1.85480    1.89230
 12760.00000    8.69600    0.01940    0.02220   54.87320  105.49970   58.72090    3.99240    0.28880    0.30180    2.67590   99.81640  110.15660   97.54670   94.44330    0.05100    1.85480    1.89230
 12760.50000    8.69500    0.02070    0.01770   54.85590  105.48380   60.68550    3.93120    0.28780    0.30200    2.67520   99.81640  110.38290   96.88350   93.42920    0.05090    1.85480    1.89230
 12761.00000    8.69480    0.02190    0.01310   54.83850  105.41060   62.65020    3.87000    0.28670    0.30220    2.67200   99.81640  110.69990   96.22030   92.03090    0.05080    1.85480    1.89230
 12761.50000    8.69750    0.02780    0.00860   54.82120  105.33750   64.18800    3.86360    0.28570    0.30240    2.65910   99.81640  111.37910   95.55710   92.01710    0.05060    1.85480    1.89230
 12762.00000    8.70010    0.03520    0.00410   54.80380  105.26440   65.55360    3.88270    0.28470    0.30260    2.64620   99.81640  111.50550   95.29180   92.51010    0.05050    1.85270    1.89020
 12762.50000    8.70280    0.03970    0.00760   54.78650  105.19130   66.14530    4.04480    0.28360    0.30280    2.64140   99.81640  111.49380   94.44400   93.17130    0.05080    1.85450    1.89200
 12763.00000    8.70550    0.03320    0.01640   54.76910  105.11810   66.14600    4.20690    0.28260    0.30300    2.65370   99.81640  111.48210   95.39690   94.35590    0.05030    1.85430    1.89180
 12763.50000    8.70820    0.02510    0.02230   54.75180  105.04500   64.35600    4.36140    0.28160    0.30310    2.66470   99.70730  110.72950   96.34980   94.94670    0.04940    1.85330    1.89080
 12764.00000    8.71080    0.01920    0.02410   54.73440  104.97190   61.99850    4.46220    0.28080    0.30280    2.67570  100.38110  109.73330   97.30280   95.36690    0.04820    1.85230    1.88980
 12764.50000    8.71350    0.01670    0.02600   54.71930  104.89870   59.58090    4.47540    0.27600    0.30250    2.68450  100.71850  109.99620   97.98720   95.52670    0.04770    1.85130    1.88880
 12765.00000    8.71620    0.01840    0.02600   54.70480  104.82560   58.16820    4.45150    0.27500    0.30230    2.67910  101.05590  110.25920   98.91640   96.12270    0.04740    1.85020    1.88780
 12765.50000    8.71880    0.01970    0.02180   54.69020  104.75250   57.73780    4.42180    0.27500    0.30180    2.67550  101.39330  110.52220   99.53770   96.72860    0.04700    1.84920    1.88680
 12766.00000    8.72150    0.01920    0.02150   54.67560  104.67940   58.75000    4.39200    0.27560    0.30200    2.67970  101.73070  110.78510   99.51830   96.93570    0.04660    1.84820    1.88580
 12766.50000    8.72420    0.01720    0.02120   54.66110  104.60620   61.12070    4.36230    0.27520    0.30300    2.68490  102.06810  111.04810   99.50320   97.20230    0.04630    1.84680    1.88490
 12767.00000    8.72680    0.01480    0.02090   54.64650  104.70920   62.30270    4.33260    0.27360    0.30430    2.69010  102.40550  111.34380  100.76560   97.30050    0.04590    1.84430    1.88460
 12767.50000    8.72950    0.01280    0.02050   54.63190  105.31690   61.58460    4.31720    0.27320    0.30430    2.68880  102.74290  111.69550  100.76560   97.29420    0.04590    1.84170    1.88420
 12768.00000    8.73220    0.01390    0.02020   54.61740  105.34350   60.32800    4.31260    0.27280    0.30400    2.68270  103.08030  112.49160  100.73490   97.26890    0.04590    1.83920    1.88380
 12768.50000    8.73420    0.01720    0.01750   54.60280  104.94770   63.65640    4.30090    0.27040    0.30330    2.68130  103.41770  115.26980  100.73490   97.32540    0.04600    1.83660    1.88350
 12769.00000    8.73350    0.01640    0.01590   54.58820  104.73300   66.68760    4.28910    0.26710    0.30250    2.68970  103.75510  115.68030  100.70430   97.67090    0.04600    1.83410    1.88310
