~Version ---------------------------------------------------
VERS.   2.0 : CWLS log ASCII Standard -VERSION 2.0
WRAP.    NO : One line per depth step
DLM . SPACE : Column Data Section Delimiter
~Well ------------------------------------------------------
STRT .FT                8800.0 : START DEPTH
STOP .FT               15334.0 : STOP DEPTH
STEP .FT                   0.5 : STEP
NULL .                -9999.25 : NULL VALUE
COMP .                         : COMPANY
WELL .                         : WELL
FLD  .                         : FIELD
LOC  .                         : LOCATION
PROV .                         : PROVINCE
CNTY .                         : COUNTY
STAT .                         : STATE
CTRY .                         : COUNTRY
SRVC .                         : SERVICE COMPANY
DATE .                         : DATE
UWI  .                         : UNIQUE WELL ID
API  .                         : API NUMBER
SLAT .WGS84    6.0621870470735 : SURFACE LATITUDE
SLON .WGS84 2.8688390492602025 : SURFACE LONGITUDE
DATUM.F                 1282.0 : DEPTH DATUM ELEV
~Curve Information -----------------------------------------
DEPT   .FT    : Depth Curve
CALD   .IN    : CALIPER FROM DENSITY LOG
DPHI_LS.DEC   : DENSITY POROSITY LIMESTONE
DRHO   .G/C3  : BULK DENSITY CORRECTION
DTCO   .US/F  : DELTA-T COMPRESSIONAL
DTSM   .US/F  : DELTA-T SHEAR
GRD    .GAPI  : GAMMA RAY FROM DENSITY LOG
PEF    .B/E   : PHOTOELECTRIC FACTOR
PR     .VPVS  : POISSON'S RATIO
PYR    .VPVS  : AUTOMATICALLY ADDED BY PROCLASCURVE_INSERT.
RHOB   .G/C3  : BULK DENSITY
TBIT20 .OHMM  : AUTOMATICALLY ADDED BY PROCLASCURVE_INSERT.
TBIT30 .OHMM  : AUTOMATICALLY ADDED BY PROCLASCURVE_INSERT.
TBIT60 .OHMM  : AUTOMATICALLY ADDED BY PROCLASCURVE_INSERT.
TBIT90 .OHMM  : AUTOMATICALLY ADDED BY PROCLASCURVE_INSERT.
TNPH_LS.DEC   : THERMAL NEUTRON POROSITY [LIMESTONE]
VPVS_X .VPVS  : COMPRESSIONAL TO SHEAR VELOCITY RATIO - X
VPVS_Y .VPVS  : COMPRESSIONAL TO SHEAR VELOCITY RATIO - Y
~Params ----------------------------------------------------
~Other -----------------------------------------------------
~ASCII -----------------------------------------------------
# ...
 10609.50000    8.67320    0.07400    0.00910   58.98610  107.70180   64.99770    3.52530    0.23840    0.27810    2.59240  227.52330  212.09410  134.69110  117.07650    0.05670    1.73210    1.77260
 10610.00000    8.67140    0.07030    0.00960   59.01040  107.54940   62.41750    3.52620    0.23790    0.27720    2.59530  227.92770  218.66320  137.96950  116.68410    0.05600    1.73060    1.77110
 10610.50000    8.66970    0.07310    0.00990   59.03480  107.39710   61.86020    3.52720    0.23730    0.27830    2.58850  229.94950  228.57030  142.32840  116.87840    0.05660    1.72920    1.76970
 10611.00000    8.66790    0.07570    0.00990   59.05910  107.23640   61.78970    3.50590    0.23610    0.27690    2.58130  230.35390  224.99750  140.53300  114.51450    0.05740    1.72740    1.76800
 10611.50000    8.66620    0.07420    0.00790   59.08340  107.07370   61.85800    3.49120    0.23280    0.27360    2.58230  230.35390  220.54730  139.64770  111.75230    0.05810    1.72530    1.76590
 10612.00000    8.66520    0.07290    0.00590   59.10780  106.91090   61.92630    3.48090    0.23030    0.26690    2.58770  229.94950  216.09720  138.76240  114.35160    0.05680    1.72310    1.76380
 10612.50000    8.66520    0.07460    0.00460   59.13210  106.78730   61.99460    3.47050    0.22240    0.26420    2.58470  229.27560  218.46090  137.87710  115.97740    0.05560    1.72100    1.76170
 10613.00000    8.66520    0.07750    0.00460   59.15640  106.81980   62.18250    3.46020    0.22230    0.26090    2.57780  228.60160  222.52810  139.54580  119.24740    0.05550    1.71890    1.75960
 10613.50000    8.66590    0.07410    0.00990   59.18070  106.85230   63.08050    3.44990    0.22220    0.26370    2.58440  227.92770  221.96410  139.27690  121.21620    0.05640    1.71670    1.75760
 10614.00000    8.66710    0.06910    0.01650   59.20510  106.88480   64.90610    3.43010    0.22360    0.26590    2.59600  226.96410  219.06990  136.80510  120.87250    0.05650    1.71460    1.75550
 10614.50000    8.66830    0.06320    0.01650   59.22940  107.20650   66.76970    3.40760    0.23160    0.26630    2.60550  225.56630  211.43370  134.33320  120.83930    0.05650    1.71250    1.75340
 10615.00000    8.66950    0.06190    0.01520   59.25370  107.60050   67.92390    3.35650    0.23430    0.27200    2.60180  223.34150  203.79750  131.86140  118.85470    0.05620    1.71510    1.75600
 10615.50000    8.67080    0.07240    0.01380   59.27810  107.92180   67.98710    3.32460    0.23620    0.27550    2.58360  223.34150  204.00360  130.90170  117.75930    0.05570    1.71780    1.75860
 10616.00000    8.67200    0.08260    0.01140   59.30240  107.95290   68.03680    3.31390    0.23580    0.27550    2.56550  223.34150  210.91150  133.70070  120.43460    0.05550    1.72050    1.76120
 10616.50000    8.67320    0.09100    0.00910   59.32670  107.98390   68.23930    3.31210    0.23230    0.27380    2.54940  225.49300  217.81940  137.55650  122.66250    0.05600    1.72310    1.76380
 10617.00000    8.67440    0.08170    0.00710   59.35110  108.01500   68.77350    3.31030    0.23130    0.27100    2.56030  227.64440  223.34150  140.05430  123.71700    0.05710    1.72580    1.76640
 10617.50000    8.67560    0.07110    0.00630   59.37540  108.04600   69.30760    3.30850    0.22930    0.26620    2.59130  227.99390  223.34150  142.01680  123.52030    0.05810    1.72770    1.76830
 10618.00000    8.67680    0.06370    0.00590   59.39970  107.49730   69.66550    3.30670    0.23170    0.26640    2.60770  222.80240  219.90140  141.66120  120.53950    0.05810    1.72900    1.76960
 10618.50000    8.67800    0.06130    0.00450   59.42410  107.61300   69.12110    3.30490    0.23190    0.26670    2.59430  213.17680  202.70060  138.02410  115.73130    0.05800    1.73040    1.77090
 10619.00000    8.67850    0.06910    0.00410   59.44840  107.62580   68.99040    3.30650    0.23210    0.26690    2.59430  211.25170  196.46440  134.38710  114.69390    0.05790    1.73180    1.77230
 10619.50000    8.67850    0.06700    0.00370   59.47270  107.63860   68.62940    3.32180    0.23230    0.27120    2.59770  216.33660  203.48270  132.10760  115.03250    0.05710    1.73250    1.77300
 10620.00000    8.67850    0.06380    0.00330   59.49710  107.70370   67.92290    3.33710    0.23250    0.27430    2.60120  221.42150  212.43980  133.28960  116.15520    0.05650    1.73220    1.77270
 10620.50000    8.67870    0.06250    0.00380   59.52140  107.80350   67.51710    3.35240    0.23270    0.27290    2.60460  226.50630  221.39680  132.94590  118.51600    0.05650    1.73200    1.77250
 10621.00000    8.67880    0.06330    0.00420   59.54570  107.90330   68.31440    3.36770    0.23290    0.27150    2.60710  230.35390  230.35390  133.28730  116.62970    0.05650    1.73170    1.77220
 10621.50000    8.68050    0.06210    0.00470   59.57010  108.00320   69.11170    3.38300    0.23310    0.27250    2.60770  228.93520  213.34970  133.62860  114.37490    0.05700    1.73150    1.77200
 10622.00000    8.68220    0.06110    0.00520   59.59440  108.06180   68.84440    3.40740    0.23470    0.27440    2.60770  226.12010  209.94890  133.97000  112.48860    0.05680    1.73120    1.77170
 10622.50000    8.68380    0.06750    0.00570   59.61870  108.11010   67.78960    3.44430    0.23860    0.27640    2.59940  226.12010  219.51500  138.45460  114.79910    0.05610    1.73090    1.77150
 10623.00000    8.68550    0.07390    0.00620   59.64300  108.15840   68.01710    3.48120    0.23950    0.27750    2.58600  226.29550  220.59710  137.36770  112.80820    0.05600    1.73070    1.77120
 10623.50000    8.68720    0.07960    0.00670   59.66740  108.20670   69.11060    3.54720    0.23950    0.27760    2.57260  227.17250  206.09010  133.73250  110.75610    0.05780    1.73040    1.77100
 10624.00000    8.68880    0.08280    0.00720   59.69170  108.35820   70.13980    3.56490    0.23950    0.27710    2.57020  227.52330  206.70800  133.84310  111.45800    0.05910    1.73020    1.77070
 10624.50000    8.69050    0.07900    0.00770   59.70630  108.53540   69.78670    3.58250    0.23950    0.27670    2.58070  227.52330  207.65280  134.63380  113.84570    0.05860    1.72990    1.77040
 10625.00000    8.69220    0.07150    0.00820   59.70630  108.64820   68.78000    3.60010    0.23950    0.27670    2.59300  225.49430  209.08780  135.14490  114.82400    0.05750    1.72970    1.77020
 10625.50000    8.69380    0.06410    0.00870   59.70630  108.50310   67.71010    3.61770    0.23950    0.27670    2.60530  222.36550  209.57940  135.65600  114.92760    0.05720    1.72940    1.76990
 10626.00000    8.69550    0.06090    0.00920   59.70630  108.65580   67.93060    3.62200    0.23990    0.27670    2.61030  219.23660  208.65590  136.16710  116.31460    0.05740    1.72920    1.76970
 10626.50000    8.69720    0.06560    0.00970   59.70630  108.19690   68.10780    3.60190    0.23600    0.27670    2.59890  217.88450  211.91260  137.20610  119.62670    0.05800    1.72890    1.76940
 10627.00000    8.69880    0.07030    0.01020   59.70630  107.92160   67.70950    3.54680    0.23380    0.27670    2.58780  221.74600  217.34040  139.47930  122.93880    0.05720    1.72860    1.76920
 10627.50000    8.70050    0.07120    0.00770   59.70630  107.92160   66.60530    3.49170    0.23490    0.27670    2.58680  228.01930  219.40580  138.24240  123.56160    0.05550    1.72840    1.76890
 10628.00000    8.70220    0.06920    0.00640   59.70630  107.92160   65.93170    3.43660    0.23740    0.27670    2.58680  233.22170  214.62310  137.00550  121.68680    0.05350    1.72810    1.76870
 10628.50000    8.70380    0.07180    0.00620   59.70630  107.92160   67.04450    3.38140    0.23770    0.27670    2.59280  233.22170  208.92330  135.76860  120.02960    0.05260    1.72790    1.76840
 10629.00000    8.70550    0.07560    0.00590   59.70630  107.92160   67.96570    3.37210    0.23780    0.27670    2.57870  229.89950  205.51550  134.53160  118.04540    0.05220    1.72760    1.76820
