~Version ---------------------------------------------------
VERS.   2.0 : CWLS log ASCII Standard -VERSION 2.0
WRAP.    NO : One line per depth step
DLM . SPACE : Column Data Section Delimiter
~Well ------------------------------------------------------
STRT .FT                8800.0 : START DEPTH
STOP .FT               15334.0 : STOP DEPTH
STEP .FT                   0.5 : STEP
NULL .                -9999.25 : NULL VALUE
COMP .                         : COMPANY
WELL .                         : WELL
FLD  .                         : FIELD
LOC  .                         : LOCATION
PROV .                         : PROVINCE
CNTY .                         : COUNTY
STAT .                         : STATE
CTRY .                         : COUNTRY
SRVC .                         : SERVICE COMPANY
DATE .                         : DATE
UWI  .                         : UNIQUE WELL ID
API  .                         : API NUMBER
SLAT .WGS84    6.0621870470735 : SURFACE LATITUDE
SLON .WGS84 2.8688390492602025 : SURFACE LONGITUDE
DATUM.F                 1282.0 : DEPTH DATUM ELEV
~Curve Information -----------------------------------------
DEPT   .FT    : Depth Curve
CALD   .IN    : CALIPER FROM DENSITY LOG
DPHI_LS.DEC   : DENSITY POROSITY LIMESTONE
DRHO   .G/C3  : BULK DENSITY CORRECTION
DTCO   .US/F  : DELTA-T COMPRESSIONAL
DTSM   .US/F  : DELTA-T SHEAR
GRD    .GAPI  : GAMMA RAY FROM DENSITY LOG
PEF    .B/E   : PHOTOELECTRIC FACTOR
PR     .VPVS  : POISSON'S RATIO
PYR    .VPVS  : AUTOMATICALLY ADDED BY PROCLASCURVE_INSERT.
RHOB   .G/C3  : BULK DENSITY
TBIT20 .OHMM  : AUTOMATICALLY ADDED BY PROCLASCURVE_INSERT.
TBIT30 .OHMM  : AUTOMATICALLY ADDED BY PROCLASCURVE_INSERT.
TBIT60 .OHMM  : AUTOMATICALLY ADDED BY PROCLASCURVE_INSERT.
TBIT90 .OHMM  : AUTOMATICALLY ADDED BY PROCLASCURVE_INSERT.
TNPH_LS.DEC   : THERMAL NEUTRON POROSITY [LIMESTONE]
VPVS_X .VPVS  : COMPRESSIONAL TO SHEAR VELOCITY RATIO - X
VPVS_Y .VPVS  : COMPRESSIONAL TO SHEAR VELOCITY RATIO - Y
~Params ----------------------------------------------------
~Other -----------------------------------------------------
~ASCII -----------------------------------------------------
# ...
 13589.50000    8.70100    0.02860    0.00760   54.13430  101.52820   50.44030    4.06980    0.26490    0.30010    2.66170  398.55980  437.90530  219.51450  181.69690    0.03770    1.79330    1.85640
 13590.00000    8.70150    0.03080    0.00420   54.15420  101.33350   50.02990    4.08670    0.26330    0.29900    2.66170  414.49310  434.58980  218.79280  187.60100    0.03790    1.79130    1.85600
 13590.50000    8.70200    0.03460    0.00070   54.17420  101.43390   49.14920    4.10430    0.26300    0.29650    2.64370  392.05600  435.51150  218.07120  183.40780    0.03800    1.78920    1.85550
 13591.00000    8.70250    0.03690   -0.00200   54.19410  101.53430   47.31570    4.11070    0.26410    0.29970    2.64760  377.59950  436.43320  217.34960  178.51920    0.03810    1.78710    1.85500
 13591.50000    8.70300    0.02650   -0.00120   54.21400  101.63470   44.53640    4.10180    0.26460    0.30130    2.66670  370.34870  437.35490  213.67750  174.64970    0.03820    1.78500    1.85460
 13592.00000    8.70350    0.01620    0.00280   54.23400  101.73500   42.34580    4.13050    0.26700    0.30130    2.68590  363.09800  436.70090  211.32990  177.34440    0.03870    1.78290    1.85410
 13592.50000    8.70400    0.01190    0.00690   54.25390  101.82360   43.10790    4.15910    0.26690    0.30130    2.69300  355.84720  423.64790  212.53390  180.18250    0.03860    1.78080    1.85370
 13593.00000    8.70450    0.01240    0.01090   54.27380  101.90920   44.60800    4.18780    0.26670    0.30130    2.69030  348.59650  424.78330  213.73780  181.19230    0.03740    1.77880    1.85320
 13593.50000    8.70500    0.01590    0.01370   54.29380  101.99480   44.32330    4.21640    0.26660    0.30130    2.68750  346.87650  423.51700  214.94180  183.69030    0.03630    1.77670    1.85270
 13594.00000    8.70550    0.02260    0.01210   54.31370  102.08040   44.03860    4.24510    0.26650    0.30140    2.67140  338.47470  418.15940  215.61770  183.00190    0.03510    1.77460    1.85230
 13594.50000    8.70600    0.03150    0.00960   54.33360  102.16600   43.92510    4.28790    0.26640    0.29990    2.65530  332.28340  413.28200  214.18160  182.70690    0.03460    1.77250    1.85180
 13595.00000    8.70650    0.03690    0.00700   54.35350  102.35310   44.06860    4.35210    0.26250    0.29900    2.64240  326.09210  415.81120  216.03410  185.64020    0.03430    1.77040    1.85140
 13595.50000    8.70700    0.03270    0.00190   54.36550  102.69250   44.26290    4.41630    0.26160    0.29880    2.65480  320.35980  416.13450  218.34980  189.58200    0.03400    1.76840    1.85090
 13596.00000    8.70750    0.03000    0.00400   54.36550  102.68630   44.49130    4.48050    0.25830    0.29870    2.66230  318.61190  416.45780  220.32030  188.82390    0.03370    1.76630    1.85050
 13596.50000    8.70800    0.02960    0.00610   54.36550  102.68020   44.15630    4.54270    0.25790    0.29860    2.66150  316.86410  416.78120  220.18950  187.50890    0.03340    1.76420    1.85000
 13597.00000    8.70850    0.02870    0.00810   54.36550  102.67400   43.82130    4.57740    0.25820    0.29900    2.66030  315.11620  423.21920  221.17670  193.08280    0.03290    1.76210    1.84950
 13597.50000    8.70900    0.02540    0.01020   54.36550  102.66780   44.29300    4.55960    0.25850    0.29960    2.66610  317.24790  415.71370  222.16400  196.12610    0.03190    1.76000    1.84910
 13598.00000    8.70950    0.02010    0.01230   54.36550  102.66160   45.30250    4.59340    0.25940    0.30070    2.68050  315.06090  404.74390  223.15120  193.26070    0.03100    1.75790    1.84860
 13598.50000    8.71000    0.01360    0.01430   54.36550  102.65550   46.25360    4.66070    0.25850    0.29800    2.69500  313.56760  402.99510  224.13850  192.26930    0.03020    1.75590    1.84820
 13599.00000    8.71050    0.00820    0.01510   54.36550  102.64930   46.97140    4.68990    0.25770    0.29790    2.70010  312.07430  399.85290  223.02890  190.64150    0.03010    1.75450    1.84770
 13599.50000    8.71100    0.00990    0.01140   54.36550  102.64310   46.20830    4.71910    0.25760    0.29860    2.69530  310.58100  389.89770  220.54420  187.92840    0.03000    1.75580    1.84720
 13600.00000    8.71150    0.00940    0.00690   54.36550  102.44980   44.71760    4.74830    0.25840    0.29810    2.69250  309.08770  388.06400  218.05950  185.63310    0.02990    1.75710    1.84680
 13600.50000    8.71200    0.00760    0.00510   54.36550  102.20960   42.96720    4.72930    0.25980    0.29770    2.69790  307.59440  385.49220  215.57470  186.93230    0.02980    1.75840    1.84630
 13601.00000    8.71250    0.00780    0.00510   54.36550  101.96950   41.91700    4.70600    0.26110    0.29720    2.70110  306.10110  382.92040  213.09000  187.80120    0.02970    1.75970    1.84590
 13601.50000    8.71300    0.01130    0.00510   54.36550  101.72930   41.91700    4.70880    0.26250    0.29450    2.69310  304.60780  380.34860  212.12090  188.67000    0.02960    1.76100    1.84540
 13602.00000    8.71350    0.01590    0.00510   54.36550  101.55710   41.91700    4.77730    0.26380    0.29210    2.68510  303.11450  377.77690  213.77610  190.43490    0.02900    1.76230    1.84500
 13602.50000    8.71400    0.02030    0.00510   54.36550  101.65630   40.85650    4.84590    0.26440    0.29230    2.67710  301.62120  380.08580  214.67890  192.35620    0.02820    1.76360    1.84450
 13603.00000    8.71400    0.02200    0.00510   54.36550  101.75550   39.53090    4.91440    0.26450    0.29350    2.67390  297.01880  388.03330  220.57730  196.98120    0.02750    1.76490    1.84400
 13603.50000    8.71320    0.01800    0.00600   54.36550  101.85470   38.20520    4.99240    0.26980    0.29510    2.68230  293.72830  385.35380  222.95940  200.12180    0.02670    1.76630    1.84360
 13604.00000    8.71240    0.01050    0.01070   54.36550  101.95390   36.46900    5.05480    0.27070    0.29720    2.70350  290.43780  378.45370  220.89970  199.02470    0.02600    1.76760    1.84310
 13604.50000    8.71160    0.00460    0.01540   54.36550  102.05310   34.11690    5.08060    0.27320    0.29700    2.70670  287.14730  364.98090  218.84000  194.38030    0.02530    1.76890    1.84270
 13605.00000    8.71080    0.00750    0.02000   54.36550  102.15240   31.76480    5.06860    0.27280    0.29810    2.69500  285.56900  349.91530  216.78030  189.73590    0.02590    1.77020    1.84220
 13605.50000    8.71000    0.01470    0.01940   54.36550  102.20930   32.29160    5.11460    0.26930    0.29590    2.67820  283.55960  348.27730  214.72060  187.64070    0.02600    1.77150    1.84170
 13606.00000    8.70920    0.01960    0.01550   54.36550  102.20410   35.24630    5.16070    0.26880    0.29330    2.67380  282.08980  352.72570  218.41700  185.36310    0.02600    1.77280    1.84130
 13606.50000    8.70840    0.01310    0.01160   54.36550  102.07970   38.20110    5.20680    0.26840    0.29330    2.68950  280.61990  357.17410  219.17220  188.10110    0.02600    1.77410    1.84080
 13607.00000    8.70760    0.00400    0.00770   54.36550  101.78180   40.70110    5.23440    0.26790    0.28990    2.70360  279.15010  361.62250  217.33390  190.74110    0.02530    1.77540    1.84040
 13607.50000    8.70680   -0.00350    0.00380   54.36550  101.48390   41.38230    5.23470    0.26570    0.28980    2.71760  274.46210  365.01210  215.49550  189.62860    0.02520    1.77680    1.83990
 13608.00000    8.70600   -0.00810    0.00310   54.36550  101.18590   41.90950    5.19510    0.26380    0.28670    2.73170  270.19330  358.07370  213.65720  192.03870    0.02510    1.77810    1.83950
 13608.50000    8.70520   -0.01080    0.00110   54.36550  100.88800   41.82460    5.16340    0.26380    0.28680    2.73240  265.26310  349.03020  210.17660  192.64580    0.02500    1.77940    1.83900
 13609.00000    8.70440   -0.00190    0.00280   54.36550  100.59010   41.74460    5.11470    0.26380    0.28690    2.71540  260.33290  336.72700  206.44900  189.67450    0.02490    1.78070    1.83850
