~Version ---------------------------------------------------
VERS.   2.0 : CWLS log ASCII Standard -VERSION 2.0
WRAP.    NO : One line per depth step
DLM . SPACE : Column Data Section Delimiter
~Well ------------------------------------------------------
STRT .FT                8800.0 : START DEPTH
STOP .FT               15334.0 : STOP DEPTH
STEP .FT                   0.5 : STEP
NULL .                -9999.25 : NULL VALUE
COMP .                         : COMPANY
WELL .                         : WELL
FLD  .                         : FIELD
LOC  .                         : LOCATION
PROV .                         : PROVINCE
CNTY .                         : COUNTY
STAT .                         : STATE
CTRY .                         : COUNTRY
SRVC .                         : SERVICE COMPANY
DATE .                         : DATE
UWI  .                         : UNIQUE WELL ID
API  .                         : API NUMBER
SLAT .WGS84    6.0621870470735 : SURFACE LATITUDE
SLON .WGS84 2.8688390492602025 : SURFACE LONGITUDE
DATUM.F                 1282.0 : DEPTH DATUM ELEV
~Curve Information -----------------------------------------
DEPT   .FT    : Depth Curve
CALD   .IN    : CALIPER FROM DENSITY LOG
DPHI_LS.DEC   : DENSITY POROSITY LIMESTONE
DRHO   .G/C3  : BULK DENSITY CORRECTION
DTCO   .US/F  : DELTA-T COMPRESSIONAL
DTSM   .US/F  : DELTA-T SHEAR
GRD    .GAPI  : GAMMA RAY FROM DENSITY LOG
PEF    .B/E   : PHOTOELECTRIC FACTOR
PR     .VPVS  : POISSON'S RATIO
PYR    .VPVS  : AUTOMATICALLY ADDED BY PROCLASCURVE_INSERT.
RHOB   .G/C3  : BULK DENSITY
TBIT20 .OHMM  : AUTOMATICALLY ADDED BY PROCLASCURVE_INSERT.
TBIT30 .OHMM  : AUTOMATICALLY ADDED BY PROCLASCURVE_INSERT.
TBIT60 .OHMM  : AUTOMATICALLY ADDED BY PROCLASCURVE_INSERT.
TBIT90 .OHMM  : AUTOMATICALLY ADDED BY PROCLASCURVE_INSERT.
TNPH_LS.DEC   : THERMAL NEUTRON POROSITY [LIMESTONE]
VPVS_X .VPVS  : COMPRESSIONAL TO SHEAR VELOCITY RATIO - X
VPVS_Y .VPVS  : COMPRESSIONAL TO SHEAR VELOCITY RATIO - Y
~Params ----------------------------------------------------
~Other -----------------------------------------------------
~ASCII -----------------------------------------------------
# ...
 12309.50000    8.73230    0.00770    0.02000   53.55530  103.80320   53.70710    4.15880    0.28740    0.30540    2.69700  191.51850  224.21580  185.27980  179.20410    0.02870    1.85660    1.89400
 12310.00000    8.73300    0.01060    0.01700   53.52340  103.91550   54.41840    4.20540    0.28860    0.30520    2.69280  200.54840  234.06390  189.94350  181.50940    0.02760    1.85640    1.89380
 12310.50000    8.73380    0.01100    0.01590   53.55860  104.02780   55.12830    4.25190    0.28980    0.30490    2.69230  210.56030  251.04720  205.51730  199.94600    0.02650    1.85630    1.89370
 12311.00000    8.73410    0.01000    0.01480   53.59380  104.14010   55.83810    4.29850    0.28840    0.30470    2.69440  212.56270  254.74680  208.16110  204.93870    0.02540    1.85610    1.89360
 12311.50000    8.73280    0.00900    0.01370   53.62900  104.25240   54.98800    4.34500    0.28660    0.30450    2.69770  212.56270  253.65310  206.23570  201.04890    0.02430    1.85600    1.89340
 12312.00000    8.73150    0.00910    0.01260   53.66410  104.36470   52.96500    4.41060    0.28490    0.30430    2.69970  211.25170  253.71690  204.31020  201.04890    0.02410    1.85590    1.89330
 12312.50000    8.73030    0.01390    0.01150   53.69930  104.36470   50.94200    4.48690    0.28310    0.30410    2.68830  213.94220  257.78540  202.38480  206.26980    0.02350    1.85570    1.89310
 12313.00000    8.72900    0.01980    0.01210   53.73450  104.11660   50.43660    4.54120    0.28140    0.30390    2.67390  220.66820  272.24150  201.61470  218.46130    0.02320    1.85560    1.89300
 12313.50000    8.72770    0.02260    0.01400   53.76970  103.86860   50.24990    4.57200    0.28070    0.30370    2.66920  227.39430  288.65520  204.20820  228.72340    0.02330    1.83990    1.87770
 12314.00000    8.72650    0.01640    0.01580   53.80480  103.62060   49.44270    4.59880    0.28270    0.30370    2.68020  234.12040  305.06890  207.82470  233.03080    0.02350    1.85920    1.89650
 12314.50000    8.72520    0.00990    0.01770   53.84000  103.37250   47.87200    4.61440    0.27780    0.30470    2.69140  240.84640  320.72270  216.86600  237.33820    0.02360    1.83510    1.87300
 12315.00000    8.72390    0.00330    0.01950   53.87520  103.12450   46.38990    4.63000    0.27550    0.30570    2.70260  248.09680  331.74570  223.32330  241.64550    0.02310    1.82070    1.85880
 12315.50000    8.72270   -0.00110    0.02100   53.91040  103.01250   45.26200    4.64560    0.27660    0.30680    2.71380  252.66920  343.17330  228.23080  246.66270    0.02250    1.85920    1.89650
 12316.00000    8.72140   -0.00200    0.01840   53.94550  103.44470   45.51160    4.63160    0.27660    0.30780    2.71890  260.25110  352.86290  232.81350  246.66270    0.02200    1.85920    1.89650
 12316.50000    8.72010    0.00030    0.01580   53.98070  103.93970   47.15630    4.59700    0.27720    0.30880    2.71300  267.83310  372.98090  236.55680  246.66270    0.02150    1.84510    1.88280
 12317.00000    8.71890    0.00260    0.01320   54.01590  104.31040   49.41070    4.55070    0.27930    0.30980    2.70830  273.33550  369.78710  236.93490  240.37130    0.02060    1.84580    1.88340
 12317.50000    8.71760    0.00250    0.01060   54.05110  104.53180   50.57240    4.50450    0.27980    0.30970    2.70830  270.53300  366.59330  234.13710  232.33440    0.02020    1.84640    1.88400
 12318.00000    8.71630    0.00250    0.00900   54.08620  104.57590   48.45940    4.45820    0.28380    0.31000    2.70720  267.92820  363.39950  231.33920  224.29740    0.02100    1.84710    1.88470
 12318.50000    8.71510    0.00540    0.00900   54.12140  104.62000   47.03780    4.42790    0.28340    0.31020    2.70140  265.32350  359.31850  229.10090  220.56650    0.02180    1.84770    1.88530
 12319.00000    8.71430    0.00880    0.01090   54.15660  104.66410   49.83810    4.46100    0.28300    0.31050    2.69570  262.71870  355.33890  227.64160  219.86180    0.02260    1.84830    1.88590
 12319.50000    8.71430    0.01090    0.01290   54.19180  104.70820   52.63840    4.50190    0.28260    0.31070    2.69080  260.11400  363.10660  234.46900  220.80150    0.02300    1.84900    1.88650
 12320.00000    8.71430    0.01010    0.01480   54.22690  104.57440   55.43880    4.57370    0.28210    0.31100    2.69230  255.88870  367.51880  241.29640  223.41290    0.02280    1.84960    1.88710
 12320.50000    8.71430    0.00900    0.01670   54.24100  104.75300   54.39180    4.64100    0.28170    0.31130    2.69600  249.96830  359.53270  241.11610  229.92050    0.02300    1.85030    1.88780
 12321.00000    8.71430    0.00720    0.01860   54.24100  104.75830   51.77450    4.66920    0.27830    0.31150    2.69980  250.52160  347.25060  242.66180  231.26530    0.02350    1.85090    1.88840
 12321.50000    8.71430    0.00580    0.01710   54.24100  104.15890   49.63000    4.69210    0.28140    0.31020    2.70350  251.07490  345.49820  245.15910  237.98930    0.02350    1.85150    1.88900
 12322.00000    8.71430    0.00580    0.01460   54.24100  103.71360   50.63100    4.71500    0.28020    0.30850    2.70630  252.74800  346.89210  247.35680  244.71340    0.02390    1.85220    1.88960
 12322.50000    8.71430    0.00970    0.01220   54.24100  103.45820   52.01020    4.73790    0.28210    0.30720    2.70350  261.58750  348.28590  245.78340  251.43740    0.02410    1.85280    1.89020
 12323.00000    8.71430    0.01620    0.00980   54.24100  103.64710   53.02440    4.75770    0.28240    0.30540    2.68970  268.86450  349.67980  245.26150  251.66730    0.02390    1.85350    1.89090
 12323.50000    8.71430    0.02070    0.00740   54.24100  103.83600   52.61630    4.76380    0.28450    0.30800    2.67590  265.56070  351.07360  239.78140  252.81700    0.02370    1.85410    1.89150
 12324.00000    8.71430    0.02290    0.00500   54.24100  104.02490   51.14950    4.76760    0.28220    0.31050    2.67040  262.83940  344.04000  232.38730  253.04700    0.02340    1.85470    1.89210
 12324.50000    8.71430    0.02180    0.00310   54.24100  104.21380   48.90450    4.77150    0.28220    0.31160    2.67400  259.07210  330.33530  224.99330  251.43740    0.02320    1.85540    1.89270
 12325.00000    8.71430    0.01720    0.00560   54.24100  104.36490   47.14120    4.77530    0.28220    0.31160    2.68300  259.47400  314.72320  219.07810  239.08230    0.02310    1.85600    1.89330
 12325.50000    8.71430    0.01350    0.00650   54.24100  104.04320   46.92140    4.77920    0.28220    0.31160    2.69200  259.87600  303.48940  219.07810  227.97080    0.02300    1.85670    1.89400
 12326.00000    8.71430    0.01120    0.00740   54.24100  103.38680   47.84790    4.76210    0.28210    0.31160    2.69470  260.27790  303.10110  220.89030  227.36430    0.02290    1.85730    1.89460
 12326.50000    8.71430    0.01420    0.00830   54.24100  103.30220   48.36180    4.73940    0.28210    0.31110    2.68320  260.67980  316.01210  222.92910  228.27400    0.02290    1.85790    1.89520
 12327.00000    8.71430    0.01670    0.00980   54.24100  103.25850   48.87560    4.71710    0.28240    0.31030    2.68000  261.96430  328.92310  224.96790  228.45590    0.02280    1.85860    1.89580
 12327.50000    8.71430    0.01410    0.01360   54.24100  103.21480   48.73790    4.75010    0.28400    0.30950    2.68750  263.24870  341.83410  226.19120  228.45590    0.02300    1.85920    1.89640
 12328.00000    8.71430    0.01070    0.01740   54.24100  103.17110   48.13650    4.83810    0.28550    0.30870    2.69640  264.53320  354.74510  225.17510  225.55450    0.02310    1.85990    1.89710
 12328.50000    8.71430    0.00650    0.02120   54.24100  103.12740   46.12500    4.90680    0.28710    0.30790    2.70530  262.33670  342.53440  222.63470  221.32570    0.02290    1.86050    1.89770
 12329.00000    8.71430    0.00340    0.02500   54.24100  103.08370   44.89530    4.97540    0.28860    0.30710    2.70760  252.74200  324.18740  220.09420  216.67230    0.02270    1.86110    1.89830
