~Version ---------------------------------------------------
VERS.   2.0 : CWLS log ASCII Standard -VERSION 2.0
WRAP.    NO : One line per depth step
DLM . SPACE : Column Data Section Delimiter
~Well ------------------------------------------------------
STRT .FT                8800.0 : START DEPTH
STOP .FT               15334.0 : STOP DEPTH
STEP .FT                   0.5 : STEP
NULL .                -9999.25 : NULL VALUE
COMP .                         : COMPANY
WELL .                         : WELL
FLD  .                         : FIELD
LOC  .                         : LOCATION
PROV .                         : PROVINCE
CNTY .                         : COUNTY
STAT .                         : STATE
CTRY .                         : COUNTRY
SRVC .                         : SERVICE COMPANY
DATE .                         : DATE
UWI  .                         : UNIQUE WELL ID
API  .                         : API NUMBER
SLAT .WGS84    6.0621870470735 : SURFACE LATITUDE
SLON .WGS84 2.8688390492602025 : SURFACE LONGITUDE
DATUM.F                 1282.0 : DEPTH DATUM ELEV
~Curve Information -----------------------------------------
DEPT   .FT    : Depth Curve
CALD   .IN    : CALIPER FROM DENSITY LOG
DPHI_LS.DEC   : DENSITY POROSITY LIMESTONE
DRHO   .G/C3  : BULK DENSITY CORRECTION
DTCO   .US/F  : DELTA-T COMPRESSIONAL
DTSM   .US/F  : DELTA-T SHEAR
GRD    .GAPI  : GAMMA RAY FROM DENSITY LOG
PEF    .B/E   : PHOTOELECTRIC FACTOR
PR     .VPVS  : POISSON'S RATIO
PYR    .VPVS  : AUTOMATICALLY ADDED BY PROCLASCURVE_INSERT.
RHOB   .G/C3  : BULK DENSITY
TBIT20 .OHMM  : AUTOMATICALLY ADDED BY PROCLASCURVE_INSERT.
TBIT30 .OHMM  : AUTOMATICALLY ADDED BY PROCLASCURVE_INSERT.
TBIT60 .OHMM  : AUTOMATICALLY ADDED BY PROCLASCURVE_INSERT.
TBIT90 .OHMM  : AUTOMATICALLY ADDED BY PROCLASCURVE_INSERT.
TNPH_LS.DEC   : THERMAL NEUTRON POROSITY [LIMESTONE]
VPVS_X .VPVS  : COMPRESSIONAL TO SHEAR VELOCITY RATIO - X
VPVS_Y .VPVS  : COMPRESSIONAL TO SHEAR VELOCITY RATIO - Y
~Params ----------------------------------------------------
~Other -----------------------------------------------------
~ASCII -----------------------------------------------------
# ...
 9743.00000    9.47700    0.00510    0.03010   -9999.25   -9999.25   58.22590    4.12410   -9999.25   -9999.25    2.70550    4.92470    4.67410    4.47000    4.40430    0.21440   -9999.25   -9999.25
 9743.50000    9.50220   -0.00350    0.03150   -9999.25   -9999.25   57.26430    4.17720   -9999.25   -9999.25    2.71330    5.16020    4.90020    4.71230    4.65530    0.21140   -9999.25   -9999.25
 9744.00000    9.50220   -0.00910    0.03680   -9999.25   -9999.25   56.21970    4.19510   -9999.25   -9999.25    2.72100    5.37000    5.17960    5.08110    4.90620    0.21100   -9999.25   -9999.25
 9744.50000    9.48740   -0.01080    0.04070   -9999.25   -9999.25   55.17500    4.22690   -9999.25   -9999.25    2.72880    5.37050    5.29190    5.08180    5.00710    0.21060   -9999.25   -9999.25
 9745.00000    9.47260   -0.00880    0.04470   -9999.25   -9999.25   54.69820    4.22690   -9999.25   -9999.25    2.73030    5.25590    5.14150    4.92030    4.86230    0.20920   -9999.25   -9999.25
 9745.50000    9.45770   -0.00980    0.04340   -9999.25   -9999.25   55.22730    4.17720   -9999.25   -9999.25    2.72780    5.12100    4.99900    4.83620    4.72090    0.20610   -9999.25   -9999.25
 9746.00000    9.44290    0.00030    0.04140   -9999.25   -9999.25   55.11730    4.07770   -9999.25   -9999.25    2.70530    4.98610    4.82500    4.73870    4.57960    0.20870   -9999.25   -9999.25
 9746.50000    9.42800    0.01550    0.03810   -9999.25   -9999.25   53.03660    3.99810   -9999.25   -9999.25    2.68270    4.85120    4.74070    4.64940    4.48690    0.21470   -9999.25   -9999.25
 9747.00000    9.40610    0.03290    0.03540   -9999.25   -9999.25   50.93170    3.94200   -9999.25   -9999.25    2.66020    4.75240    4.64920    4.56170    4.46600    0.22530   -9999.25   -9999.25
 9747.50000    9.36600    0.04450    0.02880   -9999.25   -9999.25   53.36450    3.86510   -9999.25   -9999.25    2.63760    4.61140    4.55780    4.47660    4.31190    0.23760   -9999.25   -9999.25
 9748.00000    9.32600    0.04880    0.02610   -9999.25   -9999.25   57.10560    3.82560   -9999.25   -9999.25    2.62760    4.46750    4.46630    4.33820    4.13750    0.23530   -9999.25   -9999.25
 9748.50000    9.28410    0.05190    0.02480   -9999.25   -9999.25   61.25820    3.86870   -9999.25   -9999.25    2.62010    4.38210    4.37490    4.19980    4.03360    0.22180   -9999.25   -9999.25
 9749.00000    9.24850    0.05720    0.02690   -9999.25   -9999.25   64.06270    4.01600   -9999.25   -9999.25    2.61280    4.35490    4.29350    4.17360    4.00850    0.21220   -9999.25   -9999.25
 9749.50000    9.21510    0.05980    0.02870   -9999.25   -9999.25   62.51850    4.12740   -9999.25   -9999.25    2.60820    4.35540    4.29430    4.17420    4.10030    0.21650   -9999.25   -9999.25
 9750.00000    9.19510    0.05200    0.03010   -9999.25   -9999.25   60.01970    4.11750   -9999.25   -9999.25    2.61980    4.43780    4.32150    4.22350    4.16630    0.22930   -9999.25   -9999.25
 9750.50000    9.19220    0.04490    0.02610   -9999.25   -9999.25   57.60250    4.04960   -9999.25   -9999.25    2.63890    4.56710    4.42570    4.31100    4.24760    0.23770   -9999.25   -9999.25
 9751.00000    9.17790    0.04200    0.02220   -9999.25   -9999.25   55.62880    3.99170   -9999.25   -9999.25    2.64800    4.69640    4.52990    4.34040    4.28050    0.22000   -9999.25   -9999.25
 9751.50000    9.18680    0.04750    0.02220   -9999.25   -9999.25   54.38740    3.93380   -9999.25   -9999.25    2.63030    4.82570    4.63420    4.37730    4.29460    0.20560   -9999.25   -9999.25
 9752.00000    9.21320    0.05120    0.02390   -9999.25   -9999.25   54.52550    3.88740   -9999.25   -9999.25    2.62200    4.82570    4.68390    4.41410    4.30880    0.20960   -9999.25   -9999.25
 9752.50000    9.21360    0.04540    0.02560   -9999.25   -9999.25   55.74650    3.97670   -9999.25   -9999.25    2.63350    4.81800    4.71290    4.45090    4.32300    0.21470   -9999.25   -9999.25
 9753.00000    9.15600    0.03850    0.02740   -9999.25   -9999.25   56.96750    4.03390   -9999.25   -9999.25    2.64940    4.79020    4.70340    4.47780    4.33710    0.21800   -9999.25   -9999.25
 9753.50000    9.09840    0.03710    0.02750   -9999.25   -9999.25   58.18850    4.04610   -9999.25   -9999.25    2.65350    4.77820    4.67950    4.50480    4.35130    0.20400   -9999.25   -9999.25
 9754.00000    9.04080    0.04450    0.02300   -9999.25   -9999.25   59.19120    4.00600   -9999.25   -9999.25    2.64280    4.76620    4.65550    4.53170    4.36540    0.19740   -9999.25   -9999.25
 9754.50000    8.99470    0.05130    0.01850   -9999.25   -9999.25   60.75610    3.92030   -9999.25   -9999.25    2.62560    4.75420    4.63160    4.53710    4.37960    0.19340   -9999.25   -9999.25
 9755.00000    9.03930    0.05350    0.01390   -9999.25   -9999.25   60.90250    3.81150   -9999.25   -9999.25    2.62170    4.74220    4.60770    4.53710    4.39380    0.20570   -9999.25   -9999.25
 9755.50000    9.08380    0.05310    0.00940   -9999.25   -9999.25   60.35740    3.73610   -9999.25   -9999.25    2.62070    4.73030    4.58380    4.53710    4.40790    0.22300   -9999.25   -9999.25
 9756.00000    9.12830    0.05430    0.00760   -9999.25   -9999.25   59.76410    3.71590   -9999.25   -9999.25    2.61850    4.71830    4.56950    4.53710    4.41360    0.23160   -9999.25   -9999.25
 9756.50000    9.17280    0.05530    0.00890   -9999.25   -9999.25   59.54910    3.73550   -9999.25   -9999.25    2.61670    4.70630    4.60990    4.53710    4.41360    0.22900   -9999.25   -9999.25
 9757.00000    9.18170    0.05180    0.01460   -9999.25   -9999.25   59.84260    3.78490   -9999.25   -9999.25    2.62160    4.73150    4.65030    4.54290    4.41360    0.22500   -9999.25   -9999.25
 9757.50000    9.13900    0.04540    0.01960   -9999.25   -9999.25   60.07170    3.83440   -9999.25   -9999.25    2.63400    4.77740    4.69070    4.55750    4.41360    0.22780   -9999.25   -9999.25
 9758.00000    9.08560    0.03800    0.02460   -9999.25   -9999.25   60.20390    3.87390   -9999.25   -9999.25    2.64590    4.82340    4.73110    4.57210    4.43620    0.23190   -9999.25   -9999.25
 9758.50000    9.03210    0.03350    0.02960   -9999.25   -9999.25   60.54540    3.86930   -9999.25   -9999.25    2.65510    4.86940    4.77160    4.58670    4.47040    0.22010   -9999.25   -9999.25
 9759.00000    9.02150    0.03600    0.02230   -9999.25   -9999.25   61.02640    3.78370   -9999.25   -9999.25    2.64920    4.88780    4.77160    4.57960    4.47040    0.20560   -9999.25   -9999.25
 9759.50000    9.04230    0.04400    0.01250   -9999.25   -9999.25   60.86770    3.69820   -9999.25   -9999.25    2.62750    4.88780    4.75140    4.53990    4.44210    0.19960   -9999.25   -9999.25
 9760.00000    9.05480    0.05570    0.00260   -9999.25   -9999.25   61.51290    3.66390   -9999.25   -9999.25    2.60220    4.80760    4.70080    4.50820    4.38550    0.20350   -9999.25   -9999.25
 9760.50000    9.06740    0.06440    0.00160   -9999.25   -9999.25   63.73720    3.62990   -9999.25   -9999.25    2.60170    4.74630    4.65030    4.47940    4.38550    0.21450   -9999.25   -9999.25
 9761.00000    9.07990    0.06040    0.00140   -9999.25   -9999.25   65.96140    3.59260   -9999.25   -9999.25    2.60320    4.67390    4.59980    4.47940    4.38550    0.22400   -9999.25   -9999.25
 9761.50000    9.09240    0.05220    0.00250   -9999.25   -9999.25   65.36870    3.57020   -9999.25   -9999.25    2.62260    4.67390    4.56950    4.45090    4.38550    0.23340   -9999.25   -9999.25
 9762.00000    9.10490    0.04560    0.00380   -9999.25   -9999.25   62.77470    3.59010   -9999.25   -9999.25    2.63810    4.67390    4.56950    4.44520    4.38550    0.24290   -9999.25   -9999.25
 9762.50000    9.11740    0.04460    0.00520   -9999.25   -9999.25   60.41540    3.65970   -9999.25   -9999.25    2.63340    4.67390    4.56950    4.43960    4.38550    0.23770   -9999.25   -9999.25
 9763.00000    9.13000    0.04590    0.00660   -9999.25   -9999.25   59.94540    3.72610   -9999.25   -9999.25    2.63060    4.69130    4.57580    4.43390    4.38550    0.22400   -9999.25   -9999.25
