~Version ---------------------------------------------------
VERS.   2.0 : CWLS log ASCII Standard -VERSION 2.0
WRAP.    NO : One line per depth step
DLM . SPACE : Column Data Section Delimiter
~Well ------------------------------------------------------
STRT .FT                8800.0 : START DEPTH
STOP .FT               15334.0 : STOP DEPTH
STEP .FT                   0.5 : STEP
NULL .                -9999.25 : NULL VALUE
COMP .                         : COMPANY
WELL .                         : WELL
FLD  .                         : FIELD
LOC  .                         : LOCATION
PROV .                         : PROVINCE
CNTY .                         : COUNTY
STAT .                         : STATE
CTRY .                         : COUNTRY
SRVC .                         : SERVICE COMPANY
DATE .                         : DATE
UWI  .                         : UNIQUE WELL ID
API  .                         : API NUMBER
SLAT .WGS84    6.0621870470735 : SURFACE LATITUDE
SLON .WGS84 2.8688390492602025 : SURFACE LONGITUDE
DATUM.F                 1282.0 : DEPTH DATUM ELEV
~Curve Information -----------------------------------------
DEPT   .FT    : Depth Curve
CALD   .IN    : CALIPER FROM DENSITY LOG
DPHI_LS.DEC   : DENSITY POROSITY LIMESTONE
DRHO   .G/C3  : BULK DENSITY CORRECTION
DTCO   .US/F  : DELTA-T COMPRESSIONAL
DTSM   .US/F  : DELTA-T SHEAR
GRD    .GAPI  : GAMMA RAY FROM DENSITY LOG
PEF    .B/E   : PHOTOELECTRIC FACTOR
PR     .VPVS  : POISSON'S RATIO
PYR    .VPVS  : AUTOMATICALLY ADDED BY PROCLASCURVE_INSERT.
RHOB   .G/C3  : BULK DENSITY
TBIT20 .OHMM  : AUTOMATICALLY ADDED BY PROCLASCURVE_INSERT.
TBIT30 .OHMM  : AUTOMATICALLY ADDED BY PROCLASCURVE_INSERT.
TBIT60 .OHMM  : AUTOMATICALLY ADDED BY PROCLASCURVE_INSERT.
TBIT90 .OHMM  : AUTOMATICALLY ADDED BY PROCLASCURVE_INSERT.
TNPH_LS.DEC   : THERMAL NEUTRON POROSITY [LIMESTONE]
VPVS_X .VPVS  : COMPRESSIONAL TO SHEAR VELOCITY RATIO - X
VPVS_Y .VPVS  : COMPRESSIONAL TO SHEAR VELOCITY RATIO - Y
~Params ----------------------------------------------------
~Other -----------------------------------------------------
~ASCII -----------------------------------------------------
# ...
 13169.50000    8.71200    0.00390    0.02570   55.28790  102.16570   64.31700    3.91830    0.25290    0.27870    2.70720  123.36160  138.32760  116.36350  112.53830    0.04700    1.75850    1.79810
 13170.00000    8.71200    0.00530    0.02000   55.26930  102.01530   65.58790    3.92190    0.25390    0.27840    2.70380  124.89190  138.32760  115.86440  112.40100    0.04630    1.74350    1.78340
 13170.50000    8.71200    0.01080    0.01430   55.25080  101.86500   67.64390    3.92550    0.25540    0.27840    2.69320  127.23040  138.32760  115.66470  111.68490    0.04730    1.75930    1.79880
 13171.00000    8.71200    0.01710    0.00870   55.23220  101.71460   69.69990    3.86900    0.25740    0.27850    2.68080  128.81440  138.32760  115.66470  111.68490    0.04790    1.77510    1.81430
 13171.50000    8.71200    0.01940    0.00210   55.21360  101.56430   71.37030    3.81250    0.25530    0.27990    2.67590  129.88630  138.32760  115.66470  111.68490    0.04800    1.77830    1.81740
 13172.00000    8.71200    0.01920    0.00250   55.19510  102.26010   69.57560    3.75600    0.25380    0.27890    2.67680  132.03940  138.98950  115.66470  112.25350    0.04810    1.77830    1.81740
 13172.50000    8.71200    0.01870    0.00290   55.17650  102.29450   66.57960    3.69940    0.25440    0.28000    2.68160  132.03940  138.41240  115.66470  112.82220    0.04810    1.74980    1.78960
 13173.00000    8.71200    0.01930    0.00330   55.15800  102.32880   63.79860    3.64290    0.25570    0.27930    2.68100  132.03940  140.40860  115.66470  113.39080    0.04820    1.76990    1.80920
 13173.50000    8.71200    0.02310    0.00360   55.13940  102.36320   62.03260    3.62230    0.25800    0.27850    2.67310  131.22630  141.53890  115.19780  113.60100    0.04840    1.76660    1.80600
 13174.00000    8.71200    0.02890    0.00380   55.12090  102.39750   60.60840    3.62440    0.25790    0.27280    2.66520  130.41690  142.31560  114.61420  112.37760    0.04860    1.76320    1.80270
 13174.50000    8.71200    0.03050    0.00390   55.10230  102.43190   58.76630    3.65350    0.25790    0.27860    2.65730  130.74360  143.09220  114.03050  111.15410    0.04840    1.75990    1.79940
 13175.00000    8.71200    0.02770    0.00390   55.08380  102.46630   58.44920    3.69790    0.25790    0.27920    2.65730  132.37670  143.09220  113.44690  109.93060    0.04830    1.76510    1.80450
 13175.50000    8.71200    0.02810    0.00400   55.06520  102.50060   61.71780    3.72350    0.25790    0.27980    2.65730  133.68330  139.20270  112.86330  108.70710    0.04820    1.76980    1.80910
 13176.00000    8.71200    0.02970    0.00410   55.04670  102.53500   64.98650    3.70790    0.25780    0.27860    2.65730  133.68330  139.11260  112.74650  107.48360    0.04820    1.76400    1.80340
 13176.50000    8.71200    0.02830    0.00410   55.02810  102.56930   65.50480    3.69230    0.25780    0.28000    2.66360  133.98030  140.57180  112.74650  108.17260    0.04830    1.76410    1.80360
 13177.00000    8.71200    0.02360    0.00420   55.02810  102.60370   64.10940    3.67660    0.25720    0.28160    2.67410  134.27730  142.95970  112.74650  108.17260    0.04840    1.76900    1.80830
 13177.50000    8.71200    0.01970    0.00420   55.02810  102.63800   62.71400    3.66100    0.25610    0.28330    2.68250  134.57430  143.68900  113.05590  108.17260    0.04850    1.76050    1.80000
 13178.00000    8.71200    0.02520    0.00430   55.02810  102.67240   60.96720    3.66070    0.25750    0.28360    2.67410  134.87120  145.34940  113.46830  108.17260    0.04810    1.76240    1.80190
 13178.50000    8.71200    0.03200    0.00440   55.02810  102.70670   59.03620    3.68620    0.25890    0.28640    2.66010  135.16820  145.14680  114.11700  108.17260    0.04740    1.76430    1.80370
 13179.00000    8.71200    0.03680    0.00440   55.02810  102.74110   60.86930    3.75510    0.26060    0.28780    2.64600  135.34640  143.98020  114.92790  108.17260    0.04710    1.76620    1.80560
 13179.50000    8.71200    0.03830    0.00450   55.02810  102.77540   63.79050    3.82390    0.26280    0.28810    2.64600  135.34640  144.62890  114.92790  109.42650    0.04690    1.76810    1.80750
 13180.00000    8.71200    0.02880    0.00450   55.02810  102.80980   66.55650    3.89280    0.26280    0.29080    2.66290  137.03020  145.27750  114.92790  110.82740    0.04660    1.77000    1.80940
 13180.50000    8.71200    0.01750    0.00520   55.02810  102.84420   66.69660    3.93190    0.26280    0.29010    2.67990  137.88060  145.92620  115.66470  112.22830    0.04650    1.77200    1.81120
 13181.00000    8.71200    0.00910    0.00850   55.02810  102.87850   65.84250    3.96200    0.26280    0.28930    2.69680  138.73620  146.57490  116.40620  113.62920    0.04760    1.77390    1.81310
 13181.50000    8.71200    0.00460    0.01180   55.02810  102.91290   65.34460    3.91620    0.26280    0.28810    2.70670  138.73620  148.56450  117.15260  115.03010    0.04810    1.77580    1.81500
 13182.00000    8.71200    0.00820    0.01500   55.02810  102.94720   65.20780    3.90230    0.26280    0.28830    2.70190  138.73620  148.67170  117.15260  115.31020    0.04790    1.77770    1.81680
 13182.50000    8.71200    0.01170    0.01630   55.02810  102.96780   64.02520    3.87960    0.26280    0.28850    2.69380  138.73620  148.89020  117.15260  115.31020    0.04720    1.77960    1.81870
 13183.00000    8.71200    0.01580    0.01470   55.02810  102.96780   62.84250    3.87470    0.26010    0.28870    2.68550  138.63360  146.33370  115.74970  114.41430    0.04690    1.78150    1.82060
 13183.50000    8.71200    0.02030    0.01310   55.02810  102.96780   61.93980    3.86970    0.25860    0.28860    2.67730  138.46240  144.20610  113.41140  112.17440    0.04720    1.78340    1.82250
 13184.00000    8.71200    0.02520    0.01150   55.02810  102.96780   63.13830    3.86480    0.25810    0.28860    2.66910  138.29130  144.14110  111.07320  109.93460    0.04740    1.78530    1.82430
 13184.50000    8.71200    0.02710    0.00990   55.02810  102.96780   64.38310    3.85990    0.25740    0.28940    2.66430  138.12020  144.87240  110.78280  107.69470    0.04760    1.78720    1.82620
 13185.00000    8.71200    0.02470    0.00820   55.02810  102.96780   64.93180    3.85500    0.25670    0.29030    2.67000  137.94900  147.58840  112.40220  109.16980    0.04780    1.78910    1.82810
 13185.50000    8.71200    0.02320    0.00660   55.02810  102.91710   66.16230    3.84450    0.25630    0.29110    2.67390  138.56040  150.30440  115.12100  113.12160    0.04700    1.79110    1.82990
 13186.00000    8.71200    0.02420    0.00500   55.02810  102.83260   68.48700    3.84070    0.25690    0.29190    2.67080  139.69330  152.65450  116.53060  114.72440    0.04620    1.79300    1.83180
 13186.50000    8.71200    0.02660    0.00340   55.02810  102.74810   71.01240    3.83210    0.25750    0.29280    2.66560  140.82630  153.89980  117.15260  114.82950    0.04610    1.79490    1.83370
 13187.00000    8.71200    0.02870    0.00310   55.02810  103.33580   70.83960    3.82340    0.25570    0.29360    2.66040  141.95920  153.75700  117.15260  114.02840    0.04580    1.79680    1.83550
 13187.50000    8.71200    0.02910    0.00690   55.02810  103.48190   66.47690    3.81480    0.25580    0.29400    2.65730  143.09220  151.87950  118.30640  113.22720    0.04440    1.79870    1.83740
 13188.00000    8.71200    0.02500    0.01160   55.02810  103.62790   62.16750    3.80610    0.25790    0.29660    2.65730  143.09220  149.43710  118.97770  112.74650    0.04330    1.80060    1.83930
 13188.50000    8.71200    0.01880    0.01630   55.02810  103.77390   59.55130    3.80070    0.25800    0.29770    2.68680  143.09220  149.00700  119.64890  113.53490    0.04340    1.80250    1.84120
 13189.00000    8.71200    0.01670    0.02110   55.02810  103.84580   59.23130    3.79180    0.25810    0.29770    2.68930  140.03160  150.79200  120.18590  115.50590    0.04390    1.80440    1.84300
