~Version ---------------------------------------------------
VERS.   2.0 : CWLS log ASCII Standard -VERSION 2.0
WRAP.    NO : One line per depth step
DLM . SPACE : Column Data Section Delimiter
~Well ------------------------------------------------------
STRT .FT                8800.0 : START DEPTH
STOP .FT               15334.0 : STOP DEPTH
STEP .FT                   0.5 : STEP
NULL .                -9999.25 : NULL VALUE
COMP .                         : COMPANY
WELL .                         : WELL
FLD  .                         : FIELD
LOC  .                         : LOCATION
PROV .                         : PROVINCE
CNTY .                         : COUNTY
STAT .                         : STATE
CTRY .                         : COUNTRY
SRVC .                         : SERVICE COMPANY
DATE .                         : DATE
UWI  .                         : UNIQUE WELL ID
API  .                         : API NUMBER
SLAT .WGS84    6.0621870470735 : SURFACE LATITUDE
SLON .WGS84 2.8688390492602025 : SURFACE LONGITUDE
DATUM.F                 1282.0 : DEPTH DATUM ELEV
~Curve Information -----------------------------------------
DEPT   .FT    : Depth Curve
CALD   .IN    : CALIPER FROM DENSITY LOG
DPHI_LS.DEC   : DENSITY POROSITY LIMESTONE
DRHO   .G/C3  : BULK DENSITY CORRECTION
DTCO   .US/F  : DELTA-T COMPRESSIONAL
DTSM   .US/F  : DELTA-T SHEAR
GRD    .GAPI  : GAMMA RAY FROM DENSITY LOG
PEF    .B/E   : PHOTOELECTRIC FACTOR
PR     .VPVS  : POISSON'S RATIO
PYR    .VPVS  : AUTOMATICALLY ADDED BY PROCLASCURVE_INSERT.
RHOB   .G/C3  : BULK DENSITY
TBIT20 .OHMM  : AUTOMATICALLY ADDED BY PROCLASCURVE_INSERT.
TBIT30 .OHMM  : AUTOMATICALLY ADDED BY PROCLASCURVE_INSERT.
TBIT60 .OHMM  : AUTOMATICALLY ADDED BY PROCLASCURVE_INSERT.
TBIT90 .OHMM  : AUTOMATICALLY ADDED BY PROCLASCURVE_INSERT.
TNPH_LS.DEC   : THERMAL NEUTRON POROSITY [LIMESTONE]
VPVS_X .VPVS  : COMPRESSIONAL TO SHEAR VELOCITY RATIO - X
VPVS_Y .VPVS  : COMPRESSIONAL TO SHEAR VELOCITY RATIO - Y
~Params ----------------------------------------------------
~Other -----------------------------------------------------
~ASCII -----------------------------------------------------
# ...
 11449.50000    8.70160    0.04360    0.01400   56.30750  103.88170   79.08560    3.67610    0.26770    0.29140    2.63670  225.42650  217.88450  139.95530  118.67390    0.05560    1.84850    1.88620
 11450.00000    8.70860    0.04250    0.01510   56.28430  103.93280   77.58480    3.75440    0.26780    0.29260    2.64060  227.52330  221.15870  139.14840  117.97160    0.05410    1.84860    1.88620
 11450.50000    8.71550    0.04030    0.01630   56.26120  103.98380   77.13690    3.83410    0.26780    0.29260    2.64440  226.12010  221.96930  138.34160  119.17100    0.05340    1.84860    1.88630
 11451.00000    8.72250    0.03880    0.01740   56.23800  104.03490   78.79410    3.87690    0.26780    0.29260    2.64620  221.03290  215.23140  137.53470  118.18730    0.05390    1.84860    1.88630
 11451.50000    8.72940    0.04280    0.01860   56.21480  104.08590   77.48860    3.88530    0.26780    0.29260    2.63560  214.87510  208.65590  137.46510  118.72620    0.05450    1.84870    1.88630
 11452.00000    8.73640    0.04920    0.01980   56.19170  104.13700   73.50140    3.89120    0.26780    0.29150    2.62260  209.94890  203.55770  136.82350  118.71300    0.05530    1.84870    1.88640
 11452.50000    8.74330    0.05170    0.02110   56.16850  104.18800   68.13960    3.84830    0.26790    0.29120    2.61860  209.38800  210.25090  139.61660  120.71210    0.05610    1.84870    1.88630
 11453.00000    8.72620    0.04640    0.02300   56.14530  104.23910   65.70800    3.83610    0.26790    0.29290    2.62980  208.82720  218.61750  140.74000  122.46010    0.05680    1.84850    1.88610
 11453.50000    8.71520    0.03920    0.02500   56.12220  104.29010   68.89340    3.82380    0.26790    0.29460    2.64140  208.26640  220.59710  138.13670  120.74500    0.05740    1.84820    1.88590
 11454.00000    8.70640    0.03360    0.02690   56.09900  104.34120   72.07880    3.81160    0.26790    0.29770    2.65020  207.70550  217.88450  135.75510  120.71570    0.05680    1.84800    1.88570
 11454.50000    8.70770    0.03330    0.02890   56.07580  104.39230   75.26420    3.81570    0.26800    0.29760    2.65570  207.36900  217.88450  137.05720  122.24440    0.05620    1.84780    1.88550
 11455.00000    8.70920    0.03540    0.03080   56.05260  104.66770   77.32790    3.88480    0.26800    0.29760    2.65000  207.36900  217.88450  138.35930  121.70500    0.05550    1.84760    1.88530
 11455.50000    8.71070    0.03780    0.03080   56.02950  104.33590   75.65540    4.02010    0.26800    0.29750    2.64660  207.36900  216.54270  139.66140  121.16550    0.05470    1.84740    1.88500
 11456.00000    8.71220    0.03570    0.03610   56.00630  104.00420   74.31500    4.15540    0.26830    0.29750    2.65010  207.36900  213.22130  140.68790  120.26240    0.05400    1.84720    1.88480
 11456.50000    8.71370    0.02790    0.04130   55.98310  103.88080   72.97460    4.26780    0.26840    0.29740    2.66770  207.36900  212.56270  140.63990  119.78750    0.05310    1.84720    1.88480
 11457.00000    8.71520    0.01890    0.04660   55.96000  103.89630   74.12180    4.32240    0.26850    0.29530    2.68540  207.36900  212.56270  140.42670  119.33510    0.05190    1.84800    1.88560
 11457.50000    8.71670    0.01900    0.04940   55.93680  103.91170   76.23300    4.25870    0.26860    0.29580    2.69240  208.65590  215.20710  140.21360  117.39430    0.05050    1.84880    1.88650
 11458.00000    8.71830    0.02960    0.04250   55.91360  103.92720   78.34420    4.16080    0.26870    0.29820    2.66470  209.94890  217.88450  140.00040  117.17570    0.04960    1.84970    1.88730
 11458.50000    8.71980    0.04020    0.03560   55.89050  103.94260   79.61280    4.06020    0.26880    0.29780    2.62910  209.94890  220.30750  139.78720  117.30910    0.04920    1.85050    1.88810
 11459.00000    8.72130    0.04540    0.02880   55.86730  103.95810   77.45540    4.01290    0.26890    0.29750    2.63100  209.94890  218.85950  139.55800  119.19400    0.05020    1.85130    1.88890
 11459.50000    8.72140    0.04210    0.02190   55.84410  103.97360   74.16050    3.96560    0.26900    0.29710    2.64010  209.94890  217.41150  136.82010  118.68100    0.05110    1.85220    1.88970
 11460.00000    8.72150    0.04370    0.01700   55.82100  103.98900   70.86560    3.91840    0.26910    0.29670    2.64110  207.36900  216.54270  135.99930  119.38380    0.05200    1.85300    1.89050
 11460.50000    8.71850    0.04740    0.01490   55.79780  104.00450   67.57080    3.88060    0.26910    0.29640    2.62570  206.98290  223.40020  137.06590  123.15260    0.05290    1.84880    1.88650
 11461.00000    8.70490    0.04930    0.01510   55.77460  104.02000   67.18490    3.88650    0.26920    0.29390    2.62490  206.59690  220.35000  138.13250  125.27470    0.05260    1.86460    1.90190
 11461.50000    8.70380    0.04380    0.01540   55.75140  104.03540   68.56330    3.89380    0.26930    0.29520    2.63250  206.21080  215.51970  139.19900  126.02130    0.05220    1.86230    1.89960
 11462.00000    8.70120    0.04060    0.01560   55.72830  104.05090   69.98110    3.90120    0.26940    0.29670    2.64020  205.82470  215.19110  140.26560  126.00100    0.05200    1.86000    1.89740
 11462.50000    8.69850    0.03950    0.01580   55.70510  104.06640   70.84890    3.90860    0.26950    0.29850    2.64780  205.43860  214.86250  140.53000  125.98080    0.05190    1.85780    1.89520
 11463.00000    8.69590    0.03690    0.01820   55.68190  104.08180   69.89860    3.91590    0.26960    0.30100    2.65320  205.05250  214.53390  140.34930  125.96050    0.05170    1.85550    1.89300
 11463.50000    8.69330    0.03630    0.01770   55.65880  104.32000   72.37270    3.92040    0.26970    0.30370    2.65360  204.62660  214.20530  140.12330  124.59220    0.05160    1.85480    1.89230
 11464.00000    8.69070    0.04060    0.01630   55.63560  104.38810   77.06120    3.91380    0.26980    0.30370    2.64440  204.14070  213.87670  139.89740  123.37670    0.05120    1.85510    1.89260
 11464.50000    8.69050    0.04660    0.01480   55.61240  104.24390   81.74960    3.90710    0.26990    0.30370    2.63170  203.65490  213.54810  139.67150  123.30990    0.05110    1.85530    1.89280
 11465.00000    8.69040    0.05140    0.01340   55.58930  104.09960   80.12850    3.87420    0.27000    0.30280    2.62400  203.01960  213.21950  139.44560  122.23690    0.05200    1.85560    1.89310
 11465.50000    8.69000    0.04830    0.01200   55.56610  103.95530   76.83370    3.83470    0.27000    0.30110    2.62740  202.30230  212.89090  139.21970  121.47700    0.05290    1.85590    1.89340
 11466.00000    8.68940    0.04200    0.01500   55.54290  103.81100   73.53880    3.80580    0.27010    0.29950    2.64440  202.30230  210.12820  138.93840  120.51620    0.05240    1.85620    1.89370
 11466.50000    8.68880    0.03190    0.01600   55.51970  103.74390   71.77370    3.80260    0.27020    0.29920    2.66130  202.30230  209.22370  138.43590  119.58300    0.05230    1.85650    1.89390
 11467.00000    8.68810    0.02620    0.01670   55.49660  103.79250   70.89030    3.79940    0.27030    0.30090    2.66860  202.30230  210.38770  137.93340  120.27350    0.05220    1.85670    1.89420
 11467.50000    8.68750    0.02830    0.01730   55.47340  103.84110   70.00680    3.79620    0.27040    0.30030    2.65960  202.30230  211.55180  138.66110  121.13300    0.05210    1.85700    1.89450
 11468.00000    8.68690    0.03460    0.01800   55.45020  103.88970   68.86960    3.79290    0.27050    0.30020    2.64760  202.21110  212.71580  138.56740  120.98350    0.05200    1.85730    1.89470
 11468.50000    8.68620    0.04150    0.01780   55.42710  103.91740   68.84830    3.80170    0.27060    0.30090    2.63550  202.05920  213.87990  137.89520  121.72690    0.05200    1.85760    1.89500
 11469.00000    8.68560    0.04240    0.01830   55.40390  103.91370   69.91410    3.85500    0.27070    0.30060    2.63390  201.90720  211.78130  137.22300  120.12460    0.05200    1.85780    1.89530
