~Version ---------------------------------------------------
VERS.   2.0 : CWLS log ASCII Standard -VERSION 2.0
WRAP.    NO : One line per depth step
DLM . SPACE : Column Data Section Delimiter
~Well ------------------------------------------------------
STRT .FT                8800.0 : START DEPTH
STOP .FT               15334.0 : STOP DEPTH
STEP .FT                   0.5 : STEP
NULL .                -9999.25 : NULL VALUE
COMP .                         : COMPANY
WELL .                         : WELL
FLD  .                         : FIELD
LOC  .                         : LOCATION
PROV .                         : PROVINCE
CNTY .                         : COUNTY
STAT .                         : STATE
CTRY .                         : COUNTRY
SRVC .                         : SERVICE COMPANY
DATE .                         : DATE
UWI  .                         : UNIQUE WELL ID
API  .                         : API NUMBER
SLAT .WGS84    6.0621870470735 : SURFACE LATITUDE
SLON .WGS84 2.8688390492602025 : SURFACE LONGITUDE
DATUM.F                 1282.0 : DEPTH DATUM ELEV
~Curve Information -----------------------------------------
DEPT   .FT    : Depth Curve
CALD   .IN    : CALIPER FROM DENSITY LOG
DPHI_LS.DEC   : DENSITY POROSITY LIMESTONE
DRHO   .G/C3  : BULK DENSITY CORRECTION
DTCO   .US/F  : DELTA-T COMPRESSIONAL
DTSM   .US/F  : DELTA-T SHEAR
GRD    .GAPI  : GAMMA RAY FROM DENSITY LOG
PEF    .B/E   : PHOTOELECTRIC FACTOR
PR     .VPVS  : POISSON'S RATIO
PYR    .VPVS  : AUTOMATICALLY ADDED BY PROCLASCURVE_INSERT.
RHOB   .G/C3  : BULK DENSITY
TBIT20 .OHMM  : AUTOMATICALLY ADDED BY PROCLASCURVE_INSERT.
TBIT30 .OHMM  : AUTOMATICALLY ADDED BY PROCLASCURVE_INSERT.
TBIT60 .OHMM  : AUTOMATICALLY ADDED BY PROCLASCURVE_INSERT.
TBIT90 .OHMM  : AUTOMATICALLY ADDED BY PROCLASCURVE_INSERT.
TNPH_LS.DEC   : THERMAL NEUTRON POROSITY [LIMESTONE]
VPVS_X .VPVS  : COMPRESSIONAL TO SHEAR VELOCITY RATIO - X
VPVS_Y .VPVS  : COMPRESSIONAL TO SHEAR VELOCITY RATIO - Y
~Params ----------------------------------------------------
~Other -----------------------------------------------------
~ASCII -----------------------------------------------------
# ...
 8861.50000   12.19990    0.02310    0.03250   -9999.25   -9999.25   54.50710    3.64200   -9999.25   -9999.25    2.67750    9.74540   10.08080   31.19330   27.55370    0.29790   -9999.25   -9999.25
 8862.00000   12.21990    0.02820    0.03780   -9999.25   -9999.25   53.56290    3.57170   -9999.25   -9999.25    2.66590    9.62060    9.89410   35.30790   37.47600    0.31690   -9999.25   -9999.25
 8862.50000   12.22660    0.03240    0.03780   -9999.25   -9999.25   55.78320    3.71670   -9999.25   -9999.25    2.65330    9.49700    9.47800   34.72750   37.47240    0.35100   -9999.25   -9999.25
 8863.00000   12.14650    0.06220    0.02420   -9999.25   -9999.25   58.00350    3.95700   -9999.25   -9999.25    2.58440    9.38310    8.89460   26.56390   29.27620    0.38510   -9999.25   -9999.25
 8863.50000   11.94620    0.15660    0.00150   -9999.25   -9999.25   59.17830    4.39050   -9999.25   -9999.25    2.43020    8.66020    8.21860   19.88080   20.98270    0.38130   -9999.25   -9999.25
 8864.00000   10.98910    0.23650   -0.01790   -9999.25   -9999.25   59.77210    4.61250   -9999.25   -9999.25    2.30680    7.21880    7.17200   13.56790   15.61520    0.34460   -9999.25   -9999.25
 8864.50000    9.79600    0.21440   -0.01390   -9999.25   -9999.25   60.54710    4.64640   -9999.25   -9999.25    2.31030    6.55710    6.12550    7.25500   10.24770    0.30790   -9999.25   -9999.25
 8865.00000    9.31530    0.12010    0.01530   -9999.25   -9999.25   64.75390    4.36560   -9999.25   -9999.25    2.41840    6.02770    5.87920    6.67540    7.02770    0.26690   -9999.25   -9999.25
 8865.50000    8.84790    0.05380    0.04850   -9999.25   -9999.25   67.00450    4.08490   -9999.25   -9999.25    2.59330    6.04610    5.87830    6.54760    6.60620    0.23360   -9999.25   -9999.25
 8866.00000    8.83450    0.04400    0.05650   -9999.25   -9999.25   66.74170    3.84040   -9999.25   -9999.25    2.64310    6.10350    5.91410    6.73200    6.91190    0.19840   -9999.25   -9999.25
 8866.50000    8.82380    0.04020    0.05400   -9999.25   -9999.25   66.21870    3.86030   -9999.25   -9999.25    2.64460    6.14180    5.91320    6.93370    7.36820    0.20070   -9999.25   -9999.25
 8867.00000    8.81050    0.04400    0.04840   -9999.25   -9999.25   65.10440    4.06930   -9999.25   -9999.25    2.64240    5.96280    5.82250    6.28020    6.43690    0.20820   -9999.25   -9999.25
 8867.50000    8.81160    0.04900    0.04280   -9999.25   -9999.25   60.98310    4.22850   -9999.25   -9999.25    2.63110    5.73010    5.68780    5.69740    5.50560    0.19990   -9999.25   -9999.25
 8868.00000    8.83070    0.05410    0.03710   -9999.25   -9999.25   56.38790    4.28430   -9999.25   -9999.25    2.61980    5.62610    5.62540    5.23100    5.07880    0.17690   -9999.25   -9999.25
 8868.50000    8.87460    0.05340    0.03000   -9999.25   -9999.25   53.56810    4.31110   -9999.25   -9999.25    2.61520    5.80820    5.51690    5.23040    5.18430    0.16610   -9999.25   -9999.25
 8869.00000    8.90130    0.04840    0.02330   -9999.25   -9999.25   56.35040    4.33790   -9999.25   -9999.25    2.62470    5.72920    5.42510    5.22960    5.05750    0.17020   -9999.25   -9999.25
 8869.50000    8.88970    0.04080    0.01810   -9999.25   -9999.25   58.90900    4.35450   -9999.25   -9999.25    2.63360    5.63060    5.35150    5.14640    4.94820    0.17180   -9999.25   -9999.25
 8870.00000    8.86080    0.03320    0.01770   -9999.25   -9999.25   61.25810    4.35780   -9999.25   -9999.25    2.64660    5.58730    5.35100    5.06370    4.93460    0.16930   -9999.25   -9999.25
 8870.50000    8.83180    0.02820    0.01670   -9999.25   -9999.25   58.15500    4.18510   -9999.25   -9999.25    2.66240    5.80500    5.45020    5.09540    4.92090    0.16730   -9999.25   -9999.25
 8871.00000    8.80290    0.02390    0.01520   -9999.25   -9999.25   55.77010    4.04680   -9999.25   -9999.25    2.67500    6.14900    5.75260    5.48640    5.29340    0.17090   -9999.25   -9999.25
 8871.50000    8.77400    0.02590    0.01250   -9999.25   -9999.25   56.63860    3.90840   -9999.25   -9999.25    2.66180    6.26040    6.09260    5.87730    5.66600    0.18770   -9999.25   -9999.25
 8872.00000    8.78170    0.03530    0.01250   -9999.25   -9999.25   59.86130    3.76000   -9999.25   -9999.25    2.64230    6.48640    6.64730    6.26830    6.03850    0.20370   -9999.25   -9999.25
 8872.50000    8.77350    0.04440    0.01240   -9999.25   -9999.25   62.40240    3.69020   -9999.25   -9999.25    2.62670    6.94360    7.20190    6.69920    6.47000    0.21730   -9999.25   -9999.25
 8873.00000    8.76530    0.03160    0.01510   -9999.25   -9999.25   61.49280    3.69000   -9999.25   -9999.25    2.62790    8.04930    7.75660    7.29020    7.06500    0.22680   -9999.25   -9999.25
 8873.50000    8.75710    0.01460    0.01510   -9999.25   -9999.25   57.28980    3.83900   -9999.25   -9999.25    2.66670    9.80830    9.26790    9.07500    7.66000    0.20380   -9999.25   -9999.25
 8874.00000    8.76250   -0.00240    0.01840   -9999.25   -9999.25   51.35670    4.17850   -9999.25   -9999.25    2.70610   17.44770   14.60550   13.81190   11.56430    0.17220   -9999.25   -9999.25
 8874.50000    8.78010   -0.01280    0.02260   -9999.25   -9999.25   42.27930    4.27600   -9999.25   -9999.25    2.73760   23.55930   19.94320   16.01200   15.46860    0.13310   -9999.25   -9999.25
 8875.00000    8.79770   -0.01170    0.02680   -9999.25   -9999.25   35.17890    4.26910   -9999.25   -9999.25    2.73510   22.19370   17.14600   14.17340   13.76150    0.10400   -9999.25   -9999.25
 8875.50000    8.81520   -0.00260    0.03100   -9999.25   -9999.25   42.42010    4.18670   -9999.25   -9999.25    2.71810   15.36550    9.08540    8.49100    4.55130    0.09730   -9999.25   -9999.25
 8876.00000    8.83280    0.01310    0.02670   -9999.25   -9999.25   53.63930    3.89140   -9999.25   -9999.25    2.69290    8.53740    4.54700    3.70800    3.35290    0.11800   -9999.25   -9999.25
 8876.50000    8.83260    0.03610    0.00960   -9999.25   -9999.25   67.70040    3.59620   -9999.25   -9999.25    2.66160    3.05530    2.94400    2.93700    2.87350    0.18270   -9999.25   -9999.25
 8877.00000    8.82320    0.05580    0.00990   -9999.25   -9999.25   76.62540    3.33020   -9999.25   -9999.25    2.62100    3.28270    3.05180    2.88370    2.87350    0.21840   -9999.25   -9999.25
 8877.50000    8.81390    0.06450    0.01120   -9999.25   -9999.25   77.79190    3.18070   -9999.25   -9999.25    2.59660    3.41360    3.19800    2.95790    2.91940    0.23740   -9999.25   -9999.25
 8878.00000    8.80450    0.06430    0.01250   -9999.25   -9999.25   75.20020    3.16060   -9999.25   -9999.25    2.59880    3.45050    3.34410    3.11230    3.03420    0.24620   -9999.25   -9999.25
 8878.50000    8.79510    0.06130    0.01350   -9999.25   -9999.25   73.25920    3.21020   -9999.25   -9999.25    2.60460    3.48000    3.49030    3.21490    3.14940    0.24730   -9999.25   -9999.25
 8879.00000    8.78570    0.05820    0.01090   -9999.25   -9999.25   74.91150    3.25970   -9999.25   -9999.25    2.61040    3.52480    3.44740    3.25630    3.22660    0.24940   -9999.25   -9999.25
 8879.50000    8.78390    0.05490    0.00820   -9999.25   -9999.25   74.94980    3.24700   -9999.25   -9999.25    2.61620    3.50230    3.29760    3.23550    3.21550    0.25100   -9999.25   -9999.25
 8880.00000    8.79140    0.05390    0.00470   -9999.25   -9999.25   73.85040    3.18440   -9999.25   -9999.25    2.62070    3.31220    3.14780    3.12620    3.07190    0.24850   -9999.25   -9999.25
 8880.50000    8.80070    0.06050    0.00060   -9999.25   -9999.25   73.12830    3.12180   -9999.25   -9999.25    2.60740    3.10240    3.03750    2.97830    2.92820    0.24130   -9999.25   -9999.25
 8881.00000    8.81000    0.06910   -0.00360   -9999.25   -9999.25   72.77190    3.07420   -9999.25   -9999.25    2.58880    3.12480    3.06900    3.00640    2.94440    0.23670   -9999.25   -9999.25
 8881.50000    8.81930    0.07910   -0.00770   -9999.25   -9999.25   72.41550    2.98840   -9999.25   -9999.25    2.57010    3.15260    3.08300    3.07600    3.00270    0.23720   -9999.25   -9999.25
