~Version ---------------------------------------------------
VERS.   2.0 : CWLS log ASCII Standard -VERSION 2.0
WRAP.    NO : One line per depth step
DLM . SPACE : Column Data Section Delimiter
~Well ------------------------------------------------------
STRT .FT                8800.0 : START DEPTH
STOP .FT               15334.0 : STOP DEPTH
STEP .FT                   0.5 : STEP
NULL .                -9999.25 : NULL VALUE
COMP .                         : COMPANY
WELL .                         : WELL
FLD  .                         : FIELD
LOC  .                         : LOCATION
PROV .                         : PROVINCE
CNTY .                         : COUNTY
STAT .                         : STATE
CTRY .                         : COUNTRY
SRVC .                         : SERVICE COMPANY
DATE .                         : DATE
UWI  .                         : UNIQUE WELL ID
API  .                         : API NUMBER
SLAT .WGS84    6.0621870470735 : SURFACE LATITUDE
SLON .WGS84 2.8688390492602025 : SURFACE LONGITUDE
DATUM.F                 1282.0 : DEPTH DATUM ELEV
~Curve Information -----------------------------------------
DEPT   .FT    : Depth Curve
CALD   .IN    : CALIPER FROM DENSITY LOG
DPHI_LS.DEC   : DENSITY POROSITY LIMESTONE
DRHO   .G/C3  : BULK DENSITY CORRECTION
DTCO   .US/F  : DELTA-T COMPRESSIONAL
DTSM   .US/F  : DELTA-T SHEAR
GRD    .GAPI  : GAMMA RAY FROM DENSITY LOG
PEF    .B/E   : PHOTOELECTRIC FACTOR
PR     .VPVS  : POISSON'S RATIO
PYR    .VPVS  : AUTOMATICALLY ADDED BY PROCLASCURVE_INSERT.
RHOB   .G/C3  : BULK DENSITY
TBIT20 .OHMM  : AUTOMATICALLY ADDED BY PROCLASCURVE_INSERT.
TBIT30 .OHMM  : AUTOMATICALLY ADDED BY PROCLASCURVE_INSERT.
TBIT60 .OHMM  : AUTOMATICALLY ADDED BY PROCLASCURVE_INSERT.
TBIT90 .OHMM  : AUTOMATICALLY ADDED BY PROCLASCURVE_INSERT.
TNPH_LS.DEC   : THERMAL NEUTRON POROSITY [LIMESTONE]
VPVS_X .VPVS  : COMPRESSIONAL TO SHEAR VELOCITY RATIO - X
VPVS_Y .VPVS  : COMPRESSIONAL TO SHEAR VELOCITY RATIO - Y
~Params ----------------------------------------------------
~Other -----------------------------------------------------
~ASCII -----------------------------------------------------
# ...
 11029.50000    8.66490    0.08080    0.02330   60.49730  107.19310   66.37510    3.59630    0.21530    0.26540    2.57100  204.58590  200.82380  132.58960  114.34220    0.05740    1.66820    1.71150
 11030.00000    8.66620    0.07600    0.02580   60.51670  107.28670   67.64970    3.58920    0.21440    0.26490    2.58030  204.58590  200.82380  133.22140  113.91480    0.05870    1.66910    1.71200
 11030.50000    8.66760    0.07070    0.02820   60.53600  107.38040   67.87500    3.58200    0.21430    0.26410    2.58960  204.58590  198.36920  133.72690  115.36330    0.06010    1.67010    1.71260
 11031.00000    8.66890    0.06650    0.02670   60.55540  107.47400   68.16510    3.59800    0.21410    0.26310    2.59890  204.58590  195.91450  133.47980  114.98170    0.06110    1.67100    1.71310
 11031.50000    8.67020    0.06820    0.02580   60.57480  107.56770   68.71460    3.62650    0.21400    0.26310    2.59640  204.58590  196.37330  133.17100  115.58250    0.06150    1.67190    1.71360
 11032.00000    8.67150    0.07090    0.02650   60.59410  107.39280   68.20800    3.68810    0.21410    0.26310    2.59110  204.58590  198.66710  132.86220  115.00990    0.06200    1.67230    1.71470
 11032.50000    8.67290    0.07350    0.02180   60.61350  107.21790   67.14880    3.74960    0.21390    0.26090    2.58520  204.58590  199.83250  132.55340  113.07490    0.06190    1.67170    1.71650
 11033.00000    8.67420    0.07620    0.01610   60.63290  106.74080   66.85540    3.81110    0.21420    0.26190    2.57920  205.37430  200.82380  133.47980  111.10990    0.06090    1.67120    1.71840
 11033.50000    8.67550    0.07760    0.01390   60.65220  106.01090   67.66320    3.84670    0.21450    0.25990    2.57450  206.35980  201.54250  133.47520  110.73670    0.05990    1.67070    1.72020
 11034.00000    8.67680    0.07700    0.01060   60.67160  106.08300   68.47090    3.82160    0.21470    0.25860    2.57650  207.34530  202.74020  134.18490  115.92940    0.05970    1.67010    1.72200
 11034.50000    8.67820    0.07620    0.00860   60.65040  106.15500   68.72840    3.70870    0.21490    0.25880    2.58250  208.33090  203.93790  133.95820  110.81510    0.06010    1.66960    1.72390
 11035.00000    8.67950    0.07850    0.00800   60.61900  106.22710   69.98550    3.56130    0.21510    0.26300    2.57570  209.31640  205.13560  133.91960  112.18340    0.06160    1.66900    1.72570
 11035.50000    8.68080    0.08130    0.00660   60.58760  106.29910   71.21210    3.53780    0.21610    0.26310    2.56800  209.52600  205.85430  133.70310  113.85600    0.06250    1.66850    1.72760
 11036.00000    8.68210    0.08290    0.00510   60.55620  106.50340   70.80590    3.51430    0.22000    0.26790    2.56960  208.60300  204.28690  132.87400  115.07120    0.06270    1.66790    1.72940
 11036.50000    8.68350    0.07970    0.00590   60.52480  106.79580   68.52550    3.49080    0.22210    0.26790    2.57650  205.22010  200.36830  132.04500  115.98350    0.06270    1.66740    1.73120
 11037.00000    8.68480    0.07850    0.00720   60.49340  107.08830   66.24500    3.46730    0.21680    0.26310    2.57470  202.07790  199.58460  131.21600  116.53050    0.06220    1.66690    1.73310
 11037.50000    8.68610    0.08170    0.00920   60.46200  107.38070   66.14650    3.48090    0.21510    0.26270    2.56400  200.82380  199.58460  130.38690  117.43450    0.06170    1.66630    1.73490
 11038.00000    8.68740    0.08560    0.01120   60.43060  106.73040   67.27110    3.49300    0.21060    0.26080    2.56420  200.82380  199.58460  130.05530  118.66630    0.05990    1.66580    1.73670
 11038.50000    8.68880    0.08080    0.01120   60.39920  106.69490   66.67810    3.49810    0.20450    0.25830    2.57140  205.67390  199.58460  130.86930  119.58520    0.06080    1.66520    1.73860
 11039.00000    8.69010    0.07710    0.01390   60.36780  106.65950   65.37270    3.50310    0.20200    0.25830    2.57810  211.11360  202.70490  131.88680  118.97960    0.06210    1.66470    1.74040
 11039.50000    8.69140    0.07500    0.01490   60.33640  106.62410   64.51670    3.50820    0.20010    0.25830    2.58180  216.55330  204.58590  132.90430  121.59870    0.06090    1.66410    1.74230
 11040.00000    8.69270    0.07960    0.01390   60.30510  106.58870   65.72940    3.51330    0.20110    0.25970    2.57770  214.77770  204.58590  133.00900  118.21800    0.05750    1.66360    1.74410
 11040.50000    8.69410    0.08240    0.01390   60.27370  106.55320   67.62740    3.53030    0.20500    0.26140    2.57240  207.61880  200.82380  130.17720  114.61010    0.05440    1.66310    1.74590
 11041.00000    8.69540    0.07970    0.01280   60.24230  106.51780   69.12040    3.52990    0.20760    0.26310    2.57020  204.58590  199.58460  131.87970  113.71590    0.05620    1.66250    1.74780
 11041.50000    8.69670    0.08110    0.01150   60.21090  106.62820   69.70160    3.52010    0.21280    0.26310    2.56540  205.85430  199.58460  134.26810  113.50010    0.05810    1.66200    1.74960
 11042.00000    8.69800    0.08530    0.00990   60.17950  106.35470   68.68620    3.46940    0.21410    0.26310    2.55850  205.85430  200.04470  135.17350  112.08070    0.06010    1.66140    1.75140
 11042.50000    8.69940    0.08860    0.00820   60.14810  106.08130   66.80470    3.41290    0.21840    0.26300    2.55980  205.85430  200.50470  133.69640  110.85210    0.06180    1.66090    1.75180
 11043.00000    8.70070    0.08330    0.00720   60.11670  106.28040   65.28290    3.42590    0.21840    0.26300    2.57020  205.85430  200.96480  132.42210  110.73840    0.06280    1.66030    1.75180
 11043.50000    8.70200    0.07470    0.00730   60.08530  106.70250   64.30030    3.43880    0.21850    0.26300    2.58070  205.85430  201.42480  131.14780  111.03530    0.06390    1.65980    1.75180
 11044.00000    8.70330    0.07470    0.00750   60.05390  107.12450   63.88480    3.45180    0.21850    0.26300    2.58530  205.85430  201.88490  129.87340  111.57530    0.06280    1.65920    1.75180
 11044.50000    8.70470    0.07900    0.00760   60.02250  106.87870   64.45240    3.46470    0.21480    0.26290    2.57510  205.85430  200.82380  128.85400  112.11520    0.06130    1.65870    1.75190
 11045.00000    8.70600    0.08300    0.00770   59.99110  106.63280   65.51160    3.48250    0.21420    0.26290    2.56900  205.85430  199.58460  130.42420  113.42040    0.06030    1.65820    1.75190
 11045.50000    8.70730    0.08080    0.00780   59.98480  106.38700   66.69360    3.47290    0.21360    0.26290    2.57450  205.85430  199.58460  131.32280  114.26120    0.06010    1.65760    1.75190
 11046.00000    8.70860    0.07790    0.00790   59.98480  106.37790   67.27890    3.47340    0.21300    0.26290    2.57930  205.85430  199.58460  131.95550  114.16040    0.06010    1.65710    1.75190
 11046.50000    8.71000    0.07900    0.00810   59.98480  106.31380   67.05410    3.47400    0.21200    0.26280    2.57710  205.85430  199.58460  132.58810  114.26120    0.06240    1.65650    1.75190
 11047.00000    8.71130    0.08050    0.00820   59.98480  106.24970   66.23300    3.47450    0.21200    0.26280    2.57050  205.85430  199.58460  133.22080  114.17420    0.06490    1.65600    1.75190
 11047.50000    8.71260    0.08170    0.00830   59.98480  106.18550   65.83170    3.47500    0.21440    0.25990    2.56070  205.85430  199.58460  133.67760  113.98080    0.06750    1.65540    1.75190
 11048.00000    8.71390    0.09030    0.00840   59.98480  106.12140   66.33040    3.49700    0.21460    0.26170    2.55010  205.85430  199.58460  133.83270  114.86460    0.06670    1.65490    1.75190
 11048.50000    8.71530    0.09770    0.00850   59.98480  106.05730   66.73000    3.50190    0.21480    0.26310    2.54130  206.08790  199.58460  135.59510  113.73130    0.06460    1.65440    1.75190
 11049.00000    8.71660    0.09880    0.00590   59.98480  106.07390   66.75550    3.46260    0.21530    0.26310    2.54580  206.32150  199.58460  136.48270  112.39030    0.06260    1.65380    1.75190
