~Version ---------------------------------------------------
VERS.   2.0 : CWLS log ASCII Standard -VERSION 2.0
WRAP.    NO : One line per depth step
DLM . SPACE : Column Data Section Delimiter
~Well ------------------------------------------------------
STRT .FT                8800.0 : START DEPTH
STOP .FT               15334.0 : STOP DEPTH
STEP .FT                   0.5 : STEP
NULL .                -9999.25 : NULL VALUE
COMP .                         : COMPANY
WELL .                         : WELL
FLD  .                         : FIELD
LOC  .                         : LOCATION
PROV .                         : PROVINCE
CNTY .                         : COUNTY
STAT .                         : STATE
CTRY .                         : COUNTRY
SRVC .                         : SERVICE COMPANY
DATE .                         : DATE
UWI  .                         : UNIQUE WELL ID
API  .                         : API NUMBER
SLAT .WGS84    6.0621870470735 : SURFACE LATITUDE
SLON .WGS84 2.8688390492602025 : SURFACE LONGITUDE
DATUM.F                 1282.0 : DEPTH DATUM ELEV
~Curve Information -----------------------------------------
DEPT   .FT    : Depth Curve
CALD   .IN    : CALIPER FROM DENSITY LOG
DPHI_LS.DEC   : DENSITY POROSITY LIMESTONE
DRHO   .G/C3  : BULK DENSITY CORRECTION
DTCO   .US/F  : DELTA-T COMPRESSIONAL
DTSM   .US/F  : DELTA-T SHEAR
GRD    .GAPI  : GAMMA RAY FROM DENSITY LOG
PEF    .B/E   : PHOTOELECTRIC FACTOR
PR     .VPVS  : POISSON'S RATIO
PYR    .VPVS  : AUTOMATICALLY ADDED BY PROCLASCURVE_INSERT.
RHOB   .G/C3  : BULK DENSITY
TBIT20 .OHMM  : AUTOMATICALLY ADDED BY PROCLASCURVE_INSERT.
TBIT30 .OHMM  : AUTOMATICALLY ADDED BY PROCLASCURVE_INSERT.
TBIT60 .OHMM  : AUTOMATICALLY ADDED BY PROCLASCURVE_INSERT.
TBIT90 .OHMM  : AUTOMATICALLY ADDED BY PROCLASCURVE_INSERT.
TNPH_LS.DEC   : THERMAL NEUTRON POROSITY [LIMESTONE]
VPVS_X .VPVS  : COMPRESSIONAL TO SHEAR VELOCITY RATIO - X
VPVS_Y .VPVS  : COMPRESSIONAL TO SHEAR VELOCITY RATIO - Y
~Params ----------------------------------------------------
~Other -----------------------------------------------------
~ASCII -----------------------------------------------------
# ...
 14449.50000    8.65520    0.03830    0.00900   56.96790  104.15860   70.80030    3.44370    0.24960    0.28800    2.64620  136.26580  160.38040  140.80900  153.36390    0.05110    1.81650    1.85450
 14450.00000    8.65840    0.03240    0.01170   56.98080  104.85690   68.07680    3.46400    0.24970    0.29140    2.64700  134.32030  158.18370  139.02640  149.47550    0.05080    1.83040    1.86810
 14450.50000    8.66160    0.02690    0.01610   56.99370  105.44340   67.00080    3.52090    0.24990    0.29210    2.66070  133.22790  158.18370  138.14040  150.29150    0.05050    1.83390    1.87150
 14451.00000    8.66480    0.02270    0.02050   57.00660  105.86110   68.12660    3.51760    0.25000    0.29600    2.67270  132.67740  158.18370  138.14040  152.55460    0.05030    1.83740    1.87490
 14451.50000    8.66800    0.01870    0.02500   57.01950  106.12380   69.69740    3.50070    0.25180    0.29790    2.68450  132.67740  158.18370  138.14040  154.51170    0.05020    1.83910    1.87660
 14452.00000    8.67120    0.01260    0.02200   57.03240  106.40540   70.76110    3.48380    0.25510    0.29790    2.70120  133.29880  160.15270  138.14040  154.84200    0.05080    1.84080    1.87830
 14452.50000    8.67440    0.01070    0.01900   57.04530  106.41150   71.00360    3.46690    0.25910    0.29790    2.70140  134.07550  161.14700  138.14040  155.50270    0.05120    1.84250    1.88000
 14453.00000    8.67460    0.01800    0.01600   57.05820  106.05960   71.12530    3.45250    0.26100    0.29790    2.68290  134.85220  161.59550  140.37550  157.17270    0.05170    1.84430    1.88170
 14453.50000    8.67400    0.02620    0.01300   57.07110  106.10040   71.24700    3.45980    0.26350    0.29790    2.66440  135.79230  162.34310  142.66240  155.51550    0.05210    1.84600    1.88340
 14454.00000    8.67350    0.02730    0.01000   57.08390  106.14120   71.38020    3.48420    0.26490    0.29790    2.65780  138.54990  163.09060  144.94930  153.85840    0.05250    1.84770    1.88510
 14454.50000    8.67290    0.02010    0.00700   57.09680  106.18210   70.78610    3.50860    0.26850    0.29790    2.67600  140.38820  163.83810  146.32140  154.51170    0.05270    1.84950    1.88680
 14455.00000    8.67240    0.01700    0.01060   57.10970  106.22290   70.16010    3.53300    0.26890    0.29960    2.68510  142.02040  164.58560  145.38890  155.21960    0.05360    1.85120    1.88850
 14455.50000    8.67180    0.02170    0.01420   57.12260  106.59160   70.02010    3.55740    0.27050    0.29850    2.67610  142.02040  165.18360  144.83640  155.50270    0.05410    1.85290    1.89010
 14456.00000    8.67130    0.02720    0.01770   57.13550  106.96040   71.54620    3.57230    0.27290    0.30080    2.66500  142.02040  166.20920  143.45530  155.50270    0.05340    1.85460    1.89180
 14456.50000    8.67070    0.02480    0.02130   57.14840  107.32910   73.53030    3.58160    0.27270    0.30200    2.66750  141.15530  166.20920  142.62660  155.50270    0.05240    1.85640    1.89350
 14457.00000    8.67020    0.01980    0.02480   57.16130  106.95190   74.60210    3.58190    0.26940    0.30150    2.68060  140.29020  165.52810  142.62660  153.85620    0.05340    1.85810    1.89520
 14457.50000    8.66960    0.01590    0.02700   57.17420  106.79690   74.81030    3.59700    0.26850    0.29860    2.68580  139.42510  164.16580  146.32140  152.54830    0.05440    1.85980    1.89690
 14458.00000    8.66900    0.01850    0.02440   57.18710  106.64180   75.77580    3.64790    0.26730    0.29800    2.67790  138.56000  164.16580  142.62660  150.61150    0.05540    1.86060    1.89770
 14458.50000    8.66850    0.02490    0.02180   57.20000  106.56050   76.54920    3.66690    0.26520    0.29910    2.66810  137.69490  164.65230  142.62660  149.65160    0.05690    1.85770    1.89490
 14459.00000    8.66790    0.03130    0.01920   57.21290  106.58960   76.55370    3.64690    0.26370    0.29800    2.65820  136.84530  165.13890  140.24140  150.13150    0.05840    1.85490    1.89210
 14459.50000    8.66740    0.03510    0.01520   57.22580  106.61880   75.62150    3.62680    0.26190    0.29930    2.65030  136.12630  165.62540  137.26000  151.57610    0.05870    1.85200    1.88920
 14460.00000    8.66680    0.03550    0.01600   57.23860  106.64800   74.68930    3.60680    0.26460    0.30060    2.65030  134.32890  166.11190  136.38500  153.53000    0.05770    1.84910    1.88640
 14460.50000    8.66630    0.03040    0.01820   57.25150  106.83350   73.75710    3.58680    0.26670    0.30200    2.65960  133.40260  164.16580  136.38500  154.51170    0.05590    1.84620    1.88360
 14461.00000    8.66570    0.02360    0.02040   57.26440  107.36470   72.82490    3.60700    0.26800    0.30410    2.66890  131.85880  160.08480  135.51580  152.77190    0.05340    1.88080    1.91750
 14461.50000    8.66520    0.01880    0.02260   57.27730  107.47670   72.26560    3.60600    0.26880    0.30750    2.67820  131.85880  156.64920  134.65220  148.42250    0.05180    1.87860    1.91530
 14462.00000    8.66460    0.01610    0.02480   57.29020  107.58870   72.26560    3.60500    0.26920    0.30750    2.68600  131.85880  154.83410  134.39470  145.25280    0.05300    1.87640    1.91310
 14462.50000    8.66410    0.01610    0.02750   57.30310  107.96550   74.54930    3.60400    0.26950    0.30750    2.68580  131.63720  154.09930  133.96550  146.80840    0.05490    1.87410    1.91090
 14463.00000    8.66350    0.01860    0.02480   57.31600  107.95030   77.40380    3.60300    0.27130    0.30750    2.68230  131.26790  153.36460  133.79390  147.75000    0.05650    1.87190    1.90870
 14463.50000    8.66290    0.02070    0.02210   57.32890  107.83710   77.97480    3.60190    0.27300    0.30750    2.67870  130.83270  154.31680  133.79390  146.80840    0.05800    1.86970    1.90660
 14464.00000    8.66240    0.02050    0.01930   57.34180  107.72390   76.33580    3.58850    0.27300    0.30760    2.67750  130.29880  152.42500  133.79390  145.87270    0.05950    1.86740    1.90440
 14464.50000    8.66180    0.02340    0.01660   57.35470  107.61150   73.60410    3.56020    0.27130    0.30460    2.67530  129.76490  151.16870  133.79390  142.01490    0.06080    1.86520    1.90220
 14465.00000    8.66130    0.02840    0.01360   57.36760  107.49930   71.96510    3.55000    0.26850    0.30090    2.66670  129.23100  149.61680  133.79390  138.60010    0.05880    1.86300    1.90000
 14465.50000    8.66070    0.03340    0.00990   57.38050  107.38720   75.72120    3.53970    0.26790    0.29860    2.65800  128.69700  148.69360  133.79390  136.95430    0.05620    1.86160    1.89870
 14466.00000    8.66020    0.03720    0.00610   57.39330  107.37240   79.47720    3.53040    0.26580    0.30130    2.64930  128.16310  148.69360  133.01710  135.96680    0.05410    1.86080    1.89790
 14466.50000    8.65960    0.04000    0.00310   57.40620  107.50370   79.47720    3.52000    0.26480    0.30300    2.64030  127.21980  148.69360  131.72250  135.96680    0.05290    1.84780    1.88520
 14467.00000    8.65910    0.04230    0.00310   57.41910  107.31990   77.11340    3.50970    0.26380    0.30330    2.63840  125.66230  148.69360  130.42780  136.90500    0.05310    1.84310    1.88050
 14467.50000    8.65850    0.03840    0.00520   57.43200  107.32110   74.15870    3.49930    0.26310    0.30360    2.64720  124.10490  148.28190  129.13320  138.46850    0.05420    1.84280    1.88030
 14468.00000    8.65800    0.03400    0.01040   57.43200  107.32270   71.20390    3.48550    0.26250    0.30190    2.65750  122.54740  147.59580  127.83860  140.03210    0.05480    1.84120    1.87870
 14468.50000    8.65740    0.03110    0.01370   57.43200  107.32430   69.80070    3.44780    0.26160    0.30290    2.66000  120.98990  146.90960  126.54400  141.28290    0.05540    1.83960    1.87710
 14469.00000    8.65680    0.03590    0.01050   57.43200  107.32600   69.92120    3.44500    0.26160    0.29970    2.65130  119.43250  146.22340  125.50830  141.28290    0.05560    1.83800    1.87550
