~Version ---------------------------------------------------
VERS.   2.0 : CWLS log ASCII Standard -VERSION 2.0
WRAP.    NO : One line per depth step
DLM . SPACE : Column Data Section Delimiter
~Well ------------------------------------------------------
STRT .F                5342.0 : START DEPTH
STOP .F               14250.0 : STOP DEPTH
STEP .F                   0.5 : STEP
NULL .               -9999.25 : NULL VALUE
COMP .                        : COMPANY
WELL .                        : WELL
FLD  .                        : FIELD
LOC  .                        : LOCATION
PROV .                        : PROVINCE
CNTY .                        : COUNTY
STAT .                        : STATE
CTRY .                        : COUNTRY
SRVC .                        : SERVICE COMPANY
DATE .                        : DATE
UWI  .                        : UNIQUE WELL ID
API  .                        : API NUMBER
SLAT .WGS84 5.619905017556597 : SURFACE LATITUDE
SLON .WGS84 4.511351257034491 : SURFACE LONGITUDE
DATUM.F                   nan : DEPTH DATUM ELEV
~Curve Information -----------------------------------------
DEPT.F     : 1 MEASURED DEPTH
DTCO.US/F  : DELTA-T COMPRESSIONAL
DTSM.US/F  : DELTA-T SHEAR
DTTP.US/F  : DELTA-T COMPRESSIONAL, TRANSMITTER ARRAY - MONOPOLE P & S
DTTS.US/F  : DELTA-T SHEAR, TRANSMITTER ARRAY - MONOPOLE P & S
DTRP.US/F  : DELTA-T COMPRESSIONAL, RECEIVER ARRAY - MONOPOLE P & S
DTRS.US/F  : DELTA-T SHEAR, RECEIVER ARRAY - MONOPOLE P & S
DT4P.US/F  : DELTA-T COMPRESSIONAL - MONOPOLE P & S
DT4S.US/F  : DELTA-T SHEAR - MONOPOLE P & S
~Params ----------------------------------------------------
~Other -----------------------------------------------------
~ASCII -----------------------------------------------------
# ...
 13062.00000   58.02950  101.94920   56.23720  100.75610   58.95440  107.84830   57.93940  104.27630
 13062.50000   58.97120  103.34900   57.42890  103.27650   59.95940  107.92590   58.99120  105.67050
 13063.00000   59.55630  104.63500   58.45420  105.05350   60.50960  107.20880   59.57890  106.22290
 13063.50000   60.39210  105.63170   58.96600  105.79330   60.97560  107.10290   60.05090  106.69330
 13064.00000   61.16480  106.54440   59.09540  106.02770   61.02440  107.62280   60.11800  107.21320
 13064.50000   61.46210  107.45710   59.22120  106.40260   60.92350  108.14270   60.01010  107.73310
 13065.00000   61.45870  107.34880   59.34710  106.79650   61.13110  108.60130   60.22570  108.20090
 13065.50000   61.42160  107.14780   59.47290  107.19040   61.24670  108.59020   60.34130  108.18630
 13066.00000   61.08050  106.56920   59.46010  107.05640   61.36230  108.11430   60.45690  107.70490
 13066.50000   60.73930  105.63070   59.39810  107.00000   61.36410  108.02940   60.45640  107.63120
 13067.00000   60.43100  105.51640   59.43700  106.84480   61.15890  107.87020   60.25220  107.47340
 13067.50000   60.40480  105.40400   59.48910  106.77960   61.31410  107.80510   60.40730  107.40820
 13068.00000   60.57590  105.22580   59.53090  106.33630   61.40360  107.42210   60.49840  107.00220
 13068.50000   60.33690  104.93720   59.53090  105.38900   61.27130  106.73220   60.36610  106.21230
 13069.00000   60.34240  104.64860   58.71710  103.63960   60.60530  104.99600   59.60730  104.47460
 13069.50000   60.10960  103.96390   57.79700  101.86870   59.40990  103.18460   58.37670  102.68650
 13070.00000   59.63140  102.95880   56.66900  100.63610   58.28270  102.37530   57.25030  101.97280
 13070.50000   58.38290  101.67050   55.56970   99.57610   57.16190  101.97610   56.14270  101.56800
 13071.00000   57.81590  100.33250   55.16660   98.98080   56.60370  101.20910   55.68410  100.76320
 13071.50000   57.07180   99.18560   54.86690   98.54530   56.28330  100.22160   55.37650   99.78790
 13072.00000   56.51310   98.30270   54.70570   97.71580   56.12340   99.31220   55.21580   98.87830
 13072.50000   56.22230   97.70330   54.47330   96.88630   55.91650   98.48380   54.99250   98.06110
 13073.00000   56.05840   97.15170   54.19990   96.08110   55.61300   97.73850   54.70840   97.31660
 13073.50000   55.90220   96.69910   54.23330   95.46190   55.64740   97.41690   54.74210   97.01860
 13074.00000   55.82520   96.35120   54.35800   95.87200   55.78250   97.20680   54.87070   96.80550
 13074.50000   55.81220   96.75150   54.58950   96.41730   56.01100   97.46470   55.10090   97.05290
 13075.00000   55.73670   96.99710   54.54530   96.96250   56.03860   98.01660   55.13240   97.60470
 13075.50000   55.64310   97.81780   54.28790   97.50770   56.02300   98.56850   55.11730   98.15640
 13076.00000   55.51800   98.07070   54.12410   97.75450   55.80500   98.78120   54.89290   98.38380
 13076.50000   55.80230   98.32400   54.32750   97.84020   55.54890   98.86540   54.62910   98.46870
 13077.00000   55.80210   97.92670   54.53760   97.72230   55.99240   98.74820   55.06070   98.35120
 13077.50000   55.59090   97.42110   54.57210   97.58530   55.98740   98.61220   55.08140   98.21490
 13078.00000   55.29940   97.14740   54.46500   97.19740   55.87880   98.47900   54.97380   98.08270
 13078.50000   55.10560   97.03640   54.30390   96.62970   55.72640   98.43720   54.81600   98.04090
 13079.00000   55.06980   96.75660   54.10020   96.06440   55.53670   97.20470   54.61690   96.70110
 13079.50000   55.34120   96.83540   54.39080   95.79220   55.80750   96.81600   54.90050   96.41990
 13080.00000   55.56140   97.08420   54.38490   95.77040   55.80300   96.79400   54.89520   96.39790
 13080.50000   55.96260   97.49770   54.38310   95.97790   55.79930   97.22340   54.89270   96.61770
 13081.00000   56.34690   98.37590   54.64720   96.55000   56.08110   98.46220   55.16300   97.25160
 13081.50000   56.83140   99.29680   55.18430   97.58490   56.66450   99.70100   55.71580   98.29140
 13082.00000   57.55590  100.37310   55.86690   98.50220   57.59400  100.65550   56.41270   99.42770
 13082.50000   58.40190  101.30820   56.72150   99.11420   58.52350  101.43940   57.28780  100.17560
 13083.00000   58.87970  101.55530   58.08900   99.72610   59.14260  102.22330   58.64530  100.92340
 13083.50000   59.30130  101.55490   58.20160  100.33810   59.61280  102.92690   58.70970  101.25300
 13084.00000   59.35970  101.39140   58.19800  100.35760   59.61050  103.08730   58.70620  101.56390
 13084.50000   59.36730  101.06860   58.13600  100.05280   59.54850  102.93000   58.64430  101.82160
 13085.00000   59.38940  100.74580   58.07410   99.58780   59.48660  102.55190   58.58240  101.40050
 13085.50000   59.38940  100.69140   58.01220   99.28900   59.42460  101.18610   58.52040  100.64670
 13086.00000   59.34020  100.70630   58.17680   99.20960   59.59430  101.15840   58.68700  100.10460
 13086.50000   59.33470  100.72120   58.27430   99.29260   59.68630  102.02560   58.78240  100.25460
 13087.00000   59.30140  100.73600   58.13120   99.21430   59.55060  102.56230   58.64200  100.27920
 13087.50000   59.11320  100.73050   58.06610   99.04660   59.48120  102.04350   58.57570  100.32230
 13088.00000   58.84440  100.56150   57.90900   98.71570   59.32780  101.30290   58.42130  100.37920
 13088.50000   58.53800   99.91990   57.75190   98.11370   59.17330  100.13140   58.26690   99.67500
 13089.00000   58.36820   99.27840   57.19430   97.57240   59.01890   99.72700   58.11250   99.03820
 13089.50000   57.89380   98.63680   56.51690   97.25800   58.86450  100.56350   57.95490   98.93460
 13090.00000   57.18780   97.86230   55.83940   96.60720   57.97050   99.29870   56.96430   97.72610
 13090.50000   56.72990   97.02320   55.25540   95.70090   57.05190   96.71150   56.09840   96.09380
 13091.00000   56.25400   96.20710   54.70150   94.79470   56.35460   95.80840   55.38950   95.39090
 13091.50000   55.72880   95.35100   54.18440   93.75970   55.62770   94.81930   54.70430   94.40930
 13092.00000   55.23650   95.26960   53.89940   93.41900   55.31160   94.44950   54.40760   94.05100
 13092.50000   55.08110   95.13990   54.06210   93.60390   55.51830   94.70770   54.58650   94.27980
 13093.00000   55.65660   96.36060   54.57270   94.40170   56.10190   95.50780   55.09710   95.07130
 13093.50000   56.35260   98.03690   55.58020   95.84030   57.40710   97.35520   56.40790   96.76030
 13094.00000   57.34090   99.56450   56.12430   98.05930   58.35380   99.59070   57.35470   98.99640
 13094.50000   58.35630  100.73640   56.66820  100.29600   58.74950  101.82620   57.84340  101.23240
 13095.00000   59.19310  101.90840   57.21150  102.42500   58.90140  103.61600   57.98420  103.15480
 13095.50000   59.41160  103.34940   57.75480  102.92720   59.32390  103.95140   58.41810  103.55510
 13096.00000   59.42330  103.01450   58.04130  102.81430   59.45640  103.85110   58.55050  103.45010
 13096.50000   59.36890  102.48570   57.94840  102.11310   59.40740  103.21590   58.47380  102.78960
 13097.00000   59.15550  102.04150   57.49390  101.11550   58.93940  102.26980   58.01430  101.82300
 13097.50000   58.49530  100.79040   56.76650   99.73050   58.28600  101.08450   57.31340  100.56180
 13098.00000   57.54110   98.21430   55.76900   97.98200   57.43330   99.33530   56.36750   98.81220
 13098.50000   56.48980   97.02810   55.21990   97.73060   56.62170   98.77000   55.72870   98.37170
 13099.00000   55.70130   96.77010   55.28380   96.46920   56.70090   97.63360   55.79370   97.18960
 13099.50000   55.80030   97.25200   55.70350   96.08290   57.16830   97.17440   56.23870   96.75320
 13100.00000   56.98630   98.22770   56.16110   97.50720   57.93250   98.87320   56.89300   98.34740
 13100.50000   58.43290   99.99710   56.68320   99.31040   59.07160  100.66850   58.04970  100.14500
 13101.00000   59.35730  102.39390   57.65770  101.06060   59.87020  102.37560   58.92200  101.86650
 13101.50000   59.69530  103.25640   58.63220  102.40400   60.19050  103.50520   59.28490  103.07910
