~Version ---------------------------------------------------
VERS.   2.0 : CWLS log ASCII Standard -VERSION 2.0
WRAP.    NO : One line per depth step
DLM . SPACE : Column Data Section Delimiter
~Well ------------------------------------------------------
STRT .F                5342.0 : START DEPTH
STOP .F               14250.0 : STOP DEPTH
STEP .F                   0.5 : STEP
NULL .               -9999.25 : NULL VALUE
COMP .                        : COMPANY
WELL .                        : WELL
FLD  .                        : FIELD
LOC  .                        : LOCATION
PROV .                        : PROVINCE
CNTY .                        : COUNTY
STAT .                        : STATE
CTRY .                        : COUNTRY
SRVC .                        : SERVICE COMPANY
DATE .                        : DATE
UWI  .                        : UNIQUE WELL ID
API  .                        : API NUMBER
SLAT .WGS84 5.619905017556597 : SURFACE LATITUDE
SLON .WGS84 4.511351257034491 : SURFACE LONGITUDE
DATUM.F                   nan : DEPTH DATUM ELEV
~Curve Information -----------------------------------------
DEPT.F     : 1 MEASURED DEPTH
DTCO.US/F  : DELTA-T COMPRESSIONAL
DTSM.US/F  : DELTA-T SHEAR
DTTP.US/F  : DELTA-T COMPRESSIONAL, TRANSMITTER ARRAY - MONOPOLE P & S
DTTS.US/F  : DELTA-T SHEAR, TRANSMITTER ARRAY - MONOPOLE P & S
DTRP.US/F  : DELTA-T COMPRESSIONAL, RECEIVER ARRAY - MONOPOLE P & S
DTRS.US/F  : DELTA-T SHEAR, RECEIVER ARRAY - MONOPOLE P & S
DT4P.US/F  : DELTA-T COMPRESSIONAL - MONOPOLE P & S
DT4S.US/F  : DELTA-T SHEAR - MONOPOLE P & S
~Params ----------------------------------------------------
~Other -----------------------------------------------------
~ASCII -----------------------------------------------------
# ...
 13502.00000   59.77310  102.78540   59.02270  102.04710   60.43660  103.09560   59.53150  102.68960
 13502.50000   59.78620  102.36190   58.89890  101.40080   60.31290  102.50500   59.40780  102.07710
 13503.00000   59.79930  101.43050   58.77510  100.55930   60.18910  102.10760   59.28400  101.23570
 13503.50000   59.81230  100.94240   58.62460   99.80540   60.04330  101.98650   59.13510  100.43330
 13504.00000   59.82540  100.52500   58.63930   99.83470   60.05160  101.86540   59.14750  100.46330
 13504.50000   59.83850  100.30700   58.61990   99.82520   60.03230  101.98660   59.12810  100.55640
 13505.00000   59.85160  100.08910   58.71120   99.47380   60.13580  102.20820   59.22390  100.51180
 13505.50000   59.86480   99.97940   58.97130   99.12240   60.39590  102.42980   59.48410  100.43870
 13506.00000   59.87790  100.22290   59.23130   98.77090   60.65610  102.62590   59.74430  100.33310
 13506.50000   60.06950  100.46650   59.36700   98.51350   60.77890  102.30420   59.87500  100.14290
 13507.00000   60.49270  100.71010   59.29480   98.57230   60.70860  101.98250   59.80340   99.95270
 13507.50000   60.67240  100.95370   59.13650   98.63710   60.55670  101.61340   59.64750   99.76240
 13508.00000   60.17700   99.95920   58.79040   98.65110   60.24060  101.17220   59.31220   99.57220
 13508.50000   59.42830   98.99120   58.14330   98.29450   59.66030   99.84170   58.68900   99.26990
 13509.00000   58.67960   97.27100   57.04920   97.53080   58.71820   99.05820   57.65840   98.57770
 13509.50000   57.75640   95.63060   55.75010   96.77060   57.48590   98.20370   56.47130   97.70120
 13510.00000   56.67750   94.98820   54.92430   95.14530   56.62080   96.56060   55.71070   96.01550
 13510.50000   56.11200   94.59100   54.79060   93.75450   56.56390   94.90640   55.65500   94.46100
 13511.00000   56.17280   94.19390   54.79060   93.16780   56.75150   94.19370   55.84280   93.79680
 13511.50000   56.77170   95.25060   55.70570   93.27170   57.43960   94.51760   56.38110   94.03550
 13512.00000   57.06550   96.54510   56.81950   94.30960   58.52180   96.27170   57.42860   95.50240
 13512.50000   58.58570   99.15800   58.05360   96.87170   59.60400   98.76030   58.62270   97.73800
 13513.00000   59.76150  102.40430   58.92880   99.07390   60.54070  101.24930   59.59780   99.97350
 13513.50000   61.14030  104.07360   58.96600  101.14400   61.08060  103.64940   60.14380  102.20280
 13514.00000   62.08130  104.60860   59.00330  102.96370   61.62050  104.64940   60.68330  103.62410
 13514.50000   62.48000  104.79360   59.03160  103.40730   61.94530  104.76820   61.04060  104.05310
 13515.00000   62.18760  104.01270   59.03160  102.71550   61.94530  104.76820   61.04060  103.57300
 13515.50000   61.85580  102.98210   59.03160  101.60730   61.54490  104.59810   60.60710  103.11600
 13516.00000   61.47060  102.21900   59.03160  100.49910   61.13150  103.21620   60.22650  102.24000
 13516.50000   61.06950  101.52290   59.03160   99.81930   61.16740  101.21190   60.26240  100.45470
 13517.00000   60.81430  100.34770   58.88640   99.51930   60.85450  100.54880   59.89290  100.14940
 13517.50000   59.90780   99.27900   58.51660   99.31120   60.43100  100.35200   59.50150   99.94910
 13518.00000   59.02300   98.21020   57.75320   98.64650   59.76530   99.80800   58.72360   99.36710
 13518.50000   58.32410   97.14150   56.93460   97.57840   58.60010   98.78110   57.55830   98.33960
 13519.00000   57.76260   96.12160   56.24860   95.59030   57.70930   96.98660   56.77370   96.43700
 13519.50000   57.04120   95.01230   55.70390   94.11750   57.16300   95.19640   56.22900   94.77960
 13520.00000   56.84970   94.66340   55.54410   93.68380   56.95770   94.72210   56.05280   94.32040
 13520.50000   57.17570   94.53110   55.54810   93.57220   56.96490   94.59660   56.05790   94.20020
 13521.00000   57.53970   95.09870   55.72910   93.79420   57.21400   94.82740   56.26320   94.42770
 13521.50000   57.53420   95.14390   55.96020   93.96560   57.37280   94.99140   56.46840   94.59430
 13522.00000   57.00640   94.69220   56.02080   93.51640   57.43350   94.65180   56.52920   94.21240
 13522.50000   56.62450   94.25880   55.85040   93.03800   57.27230   94.06610   56.36200   93.66810
 13523.00000   56.44930   94.21580   55.58210   92.97340   57.01160   93.99790   56.09670   93.60150
 13523.50000   56.44770   94.36980   55.46150   93.13670   56.87670   94.26700   55.97080   93.77020
 13524.00000   56.44080   95.00030   55.58860   93.69180   57.03900   95.10930   56.11040   94.41820
 13524.50000   56.59880   96.21840   56.05540   94.61300   57.50360   95.95160   56.57620   95.26310
 13525.00000   56.94600   97.27240   56.33450   94.92210   57.75590   97.19530   56.84580   95.80510
 13525.50000   57.58860   97.98780   56.25630   95.15910   57.69360   97.76000   56.77340   96.34700
 13526.00000   57.63890   98.74060   55.90200   95.39600   57.31480   98.11490   56.41040   96.88900
 13526.50000   57.72900   98.68930   55.96930   95.61800   57.38210   98.36230   56.47770   97.18320
 13527.00000   57.77150   98.47300   56.03650   95.64790   57.46890   98.47970   56.54490   97.45750
 13527.50000   57.84920   98.30270   56.48640   96.23180   57.93600   98.73240   57.00810   97.84290
 13528.00000   58.31770   99.14190   56.95350   96.95240   58.40320   99.38980   57.47530   98.30000
 13528.50000   58.65270  100.06430   57.42060   97.93520   58.87040  100.11930   57.94240   98.75710
 13529.00000   58.96820  100.98680   57.88770   99.46270   59.33760  101.51090   58.40960  100.27000
 13529.50000   59.40700  102.26420   58.35480  101.22350   59.80460  103.14680   58.87670  102.06190
 13530.00000   60.03870  103.59410   59.10450  102.91600   60.67140  104.74110   59.66380  103.67850
 13530.50000   60.39510  104.61830   59.48450  103.91110   61.48530  105.62040   60.57580  104.54280
 13531.00000   60.59510  105.03250   59.57450  103.88850   61.42630  105.75770   60.52170  104.51730
 13531.50000   60.51930  105.20560   59.61960  103.76080   61.18010  105.50630   60.27020  104.38960
 13532.00000   60.52620  105.53280   59.27620  103.80250   61.30640  105.29830   60.39730  104.43190
 13532.50000   60.64060  105.52410   59.10060  103.76150   61.28660  105.27820   60.37990  104.39110
 13533.00000   60.63440  105.03090   58.95040  103.85210   61.10040  105.25800   60.19390  104.48090
 13533.50000   60.55870  104.94150   58.80950  103.70940   60.58250  105.23790   59.63850  104.33830
 13534.00000   60.39280  104.40220   58.68250  103.43880   60.10720  105.06470   59.20150  104.09390
 13534.50000   60.22660  103.77450   58.54710  102.72110   59.96160  103.82460   59.05600  103.39800
 13535.00000   60.06030  103.32330   58.40170  102.01290   59.81600  103.03950   58.91040  102.64220
 13535.50000   60.12980  103.51700   58.31830  101.94520   59.73020  103.00070   58.82630  102.59220
 13536.00000   60.20120  103.71060   58.50240  102.54820   59.93360  103.67200   59.01710  103.23740
 13536.50000   60.59730  104.64400   58.80940  103.33040   60.44350  104.40830   59.36120  103.98850
 13537.00000   61.38210  106.65860   59.67000  104.63230   61.83130  106.06420   60.65860  105.51250
 13537.50000   62.07880  108.29470   60.46160  106.41810   62.73210  107.60400   61.79170  107.17010
 13538.00000   62.50700  108.59120   60.69350  106.82660   62.87810  107.85870   61.96980  107.45930
 13538.50000   62.57220  107.95980   60.67340  106.44790   62.74090  107.54580   61.75560  107.12130
 13539.00000   62.17850  107.02510   60.16510  105.47920   62.07210  106.62890   60.86430  106.20810
 13539.50000   61.85470  106.27630   59.43690  104.47640   61.83840  106.15430   60.05100  105.59790
 13540.00000   61.66860  105.36360   58.70870  103.47360   61.45070  105.83080   59.95100  104.90440
 13540.50000   61.01000  104.39040   58.29970  102.53860   60.66150  104.79430   59.65850  103.61240
 13541.00000   60.26870  103.61810   58.19510  101.61230   60.00960  103.75790   59.10280  102.31140
 13541.50000   59.66710  103.53440   58.17220  101.78710   60.00330  103.45610   59.07710  102.44580
