~Version ---------------------------------------------------
VERS.   2.0 : CWLS log ASCII Standard -VERSION 2.0
WRAP.    NO : One line per depth step
DLM . SPACE : Column Data Section Delimiter
~Well ------------------------------------------------------
STRT .F                5342.0 : START DEPTH
STOP .F               14250.0 : STOP DEPTH
STEP .F                   0.5 : STEP
NULL .               -9999.25 : NULL VALUE
COMP .                        : COMPANY
WELL .                        : WELL
FLD  .                        : FIELD
LOC  .                        : LOCATION
PROV .                        : PROVINCE
CNTY .                        : COUNTY
STAT .                        : STATE
CTRY .                        : COUNTRY
SRVC .                        : SERVICE COMPANY
DATE .                        : DATE
UWI  .                        : UNIQUE WELL ID
API  .                        : API NUMBER
SLAT .WGS84 5.619905017556597 : SURFACE LATITUDE
SLON .WGS84 4.511351257034491 : SURFACE LONGITUDE
DATUM.F                   nan : DEPTH DATUM ELEV
~Curve Information -----------------------------------------
DEPT.F     : 1 MEASURED DEPTH
DTCO.US/F  : DELTA-T COMPRESSIONAL
DTSM.US/F  : DELTA-T SHEAR
DTTP.US/F  : DELTA-T COMPRESSIONAL, TRANSMITTER ARRAY - MONOPOLE P & S
DTTS.US/F  : DELTA-T SHEAR, TRANSMITTER ARRAY - MONOPOLE P & S
DTRP.US/F  : DELTA-T COMPRESSIONAL, RECEIVER ARRAY - MONOPOLE P & S
DTRS.US/F  : DELTA-T SHEAR, RECEIVER ARRAY - MONOPOLE P & S
DT4P.US/F  : DELTA-T COMPRESSIONAL - MONOPOLE P & S
DT4S.US/F  : DELTA-T SHEAR - MONOPOLE P & S
~Params ----------------------------------------------------
~Other -----------------------------------------------------
~ASCII -----------------------------------------------------
# ...
 12782.00000   56.24710   96.26470   54.63460   94.64460   56.85630   95.76230   55.94540   95.31050
 12782.50000   55.89310   95.57590   54.88460   94.02980   56.52370   95.05390   55.58330   94.65770
 12783.00000   55.65860   94.81950   54.63490   94.05930   56.05940   95.08330   55.14740   94.68710
 12783.50000   55.54970   94.14110   54.41930   94.08870   55.83830   95.02720   54.92980   94.71660
 12784.00000   55.38390   94.20510   54.21660   93.67910   55.63550   94.95120   54.72700   94.33820
 12784.50000   55.70530   94.93060   54.53530   92.80300   56.65000   95.43250   55.33880   94.02590
 12785.00000   56.65730   97.93760   55.22260   94.85450   58.66630   97.98710   57.39500   96.46560
 12785.50000   57.89330   99.60020   56.07690   97.04120   60.30520  100.69190   58.68810   98.81330
 12786.00000   58.32230  100.67190   56.95150   99.22790   60.91140  101.89790   59.65850  100.21720
 12786.50000   59.18600  101.27290   57.40870  100.85850   60.85140  102.27800   60.03750  101.62110
 12787.00000   60.04960  101.95070   57.67020  101.66210   60.67650  102.83730   60.02700  102.28940
 12787.50000   60.43690  102.99210   57.36200  101.34490   59.84770  103.07580   58.73120  102.07700
 12788.00000   60.09150  102.50380   56.08200   99.79410   58.37660  102.76460   57.26100  100.83010
 12788.50000   59.74600  102.04990   54.94350   98.24320   56.90560  101.65370   55.99890   99.84040
 12789.00000   59.40060  101.86040   54.95470   98.16820   57.26140  100.76000   56.26550   99.42700
 12789.50000   59.51120  101.71010   55.46210   98.82980   58.19630  100.93390   57.20050   99.98680
 12790.00000   59.71390  102.32350   56.43730   99.85020   58.85980  101.23310   57.91930  100.79960
 12790.50000   59.91660  102.93690   57.41260  100.93010   59.37690  102.08530   58.45220  101.65330
 12791.00000   60.11930  103.58760   58.31960  101.82630   59.75270  102.93750   58.83560  102.50710
 12791.50000   60.32210  104.55080   58.66050  102.56380   60.09340  103.60720   59.17610  103.20370
 12792.00000   60.44050  105.42400   58.78570  102.94530   60.19860  103.97930   59.29400  103.57920
 12792.50000   60.26020  105.03180   58.71950  102.98900   60.13080  104.04650   59.22730  103.63760
 12793.00000   59.86120  103.89860   58.55110  102.30340   59.96650  103.43840   59.06040  102.99860
 12793.50000   59.41420  102.89360   57.82750  100.97310   59.47620  102.24750   58.47460  101.75430
 12794.00000   58.74780  101.77480   56.92270   99.43410   58.60920  101.23120   57.65170  100.21480
 12794.50000   58.54370  100.82290   56.15080   98.01340   57.86600  100.33160   56.90870   98.67520
 12795.00000   58.79480  101.31750   56.37960   97.35340   58.38160   99.43200   57.43380   98.01050
 12795.50000   59.22300  101.65380   57.29190   97.70100   59.14010   99.21230   58.06150   98.36380
 12796.00000   59.39860  101.88720   57.48810   98.39790   59.56560   99.47450   58.65370   99.04290
 12796.50000   59.71310  102.24070   57.64880   98.73960   59.83590  100.05050   58.92410   99.50760
 12797.00000   60.04680  102.62090   57.66920   98.56990   60.21370  102.32690   59.11840   99.97230
 12797.50000   60.61250  103.20550   58.02130   98.28480   61.23840  104.01720   59.90630  100.60850
 12798.00000   61.34890  103.79010   58.27320   97.54750   62.14860  105.91400   60.27390  101.29150
 12798.50000   62.06390  104.76250   58.51710   97.21740   62.97800  107.30260   60.64150  101.82200
 12799.00000   62.55120  106.38660   58.73780   97.38210   63.75620  109.08850   61.09850  103.52040
 12799.50000   62.92970  108.02290   58.84670  100.60980   64.23780  112.32880   61.58360  106.68980
 12800.00000   63.20810  109.12990   59.16340  104.23650   64.25640  114.96070   61.74460  109.44820
 12800.50000   63.55820  109.72360   59.92930  106.68210   64.00960  115.15930   61.76160  110.71140
 12801.00000   63.48380  109.92750   60.88800  106.90190   62.99640  114.89910   61.88640  110.54550
 12801.50000   63.44400  110.09280   61.50130  107.65620   62.91830  113.76040   62.01120  110.45840
 12802.00000   63.44940  110.08830   61.62610  108.41050   63.04320  112.62170   62.13600  110.44430
 12802.50000   63.57450  109.94360   61.75090  109.06960   63.16800  111.40700   62.26080  110.27460
 12803.00000   63.73370  109.79890   61.87570  108.94870   63.29290  110.16810   62.38560  109.65010
 12803.50000   63.67290  109.33270   62.00060  108.14200   63.41770  109.23630   62.51040  108.81330
 12804.00000   63.60150  108.41880   61.99170  108.48570   63.41050  109.54350   62.50240  109.13450
 12804.50000   63.41700  107.53950   61.84290  108.98980   63.25930  110.03730   62.35250  109.63200
 12805.00000   63.08360  106.97170   61.73020  108.83760   63.14670  109.91760   62.23970  109.50000
 12805.50000   62.58260  107.24980   61.08900  108.04090   63.01690  109.29210   62.02200  108.78580
 12806.00000   61.98480  107.00230   60.22480  107.07730   62.38280  109.32030   61.44850  108.29360
 12806.50000   61.38710  106.60780   59.36050  106.40630   61.85840  109.34850   60.92380  107.96070
 12807.00000   60.83070  105.91580   58.97470  105.19970   61.33390  108.52220   60.39910  107.19020
 12807.50000   60.51840  105.45560   58.90550  103.46900   60.71140  106.03140   59.80360  105.31250
 12808.00000   60.39040  105.34480   58.91550  103.38500   60.89100  104.79690   59.97000  104.37350
 12808.50000   60.73810  105.52530   58.95210  103.40500   61.27340  104.44390   60.35270  104.04190
 12809.00000   61.84650  106.50290   59.24460  104.25440   61.65580  105.51470   60.73540  105.02730
 12809.50000   62.87660  107.43900   59.90770  105.82320   61.83200  107.22730   60.89940  106.68380
 12810.00000   63.53260  108.20810   60.64230  107.66990   62.58980  109.03840   61.62400  108.51030
 12810.50000   63.78890  108.88760   61.16640  109.41360   63.34760  110.56370   62.38260  110.11830
 12811.00000   63.70720  109.19450   61.69050  110.51150   63.42450  111.73270   62.51970  111.28270
 12811.50000   63.78360  109.01440   61.86680  111.34560   63.44990  112.42920   62.54500  112.00990
 12812.00000   63.48930  107.77700   61.25820  111.97990   63.47520  113.00510   62.57040  112.60840
 12812.50000   62.76550  106.74510   60.71040  111.83130   63.36970  113.00270   62.46290  112.49620
 12813.00000   62.23590  106.20060   60.53930  110.07440   63.39690  112.92450   62.48520  111.76850
 12813.50000   61.89690  106.17200   60.36350  108.42990   63.19550  112.14750   62.04320  110.38060
 12814.00000   61.55800  105.88640   59.68660  107.73560   63.06990  110.31350   61.42600  108.99270
 12814.50000   61.46720  105.59430   58.95030  106.70560   63.18340  109.84500   60.89580  108.30140
 12815.00000   61.46620  105.25580   58.78700  105.58980   63.30970  109.84050   60.90590  107.73330
 12815.50000   61.46520  104.98020   58.62380  104.92390   63.26140  109.52330   60.83040  106.97140
 12816.00000   61.36670  104.78910   58.46060  104.24330   62.52260  108.11250   60.39820  105.83600
 12816.50000   60.63120  103.06680   58.29730  104.02070   61.51190  105.81610   59.97610  104.80560
 12817.00000   60.10740  102.88500   58.13410  103.17630   60.76860  104.31370   59.55440  103.87290
 12817.50000   59.84080  103.01220   57.97320  101.77450   60.06960  103.31410   59.16470  102.57340
 12818.00000   59.84240  103.19370   57.79550   99.99020   60.03770  102.64100   59.13270  100.99270
 12818.50000   59.84600  103.82920   57.56620   98.19090   59.74080  102.50690   58.70560   99.62690
 12819.00000   59.95040  104.68540   57.67330   96.91110   59.74310  104.16130   58.77050  100.29460
 12819.50000   60.60860  106.37560   58.65340   98.99560   62.03140  107.47410   60.63590  102.84320
 12820.00000   61.54260  108.90130   61.05060  102.58170   63.72340  110.40080   62.98710  105.39190
 12820.50000   62.92630  111.33110   62.91810  106.16780   64.60670  112.27040   63.82240  107.94050
 12821.00000   63.94570  112.11830   63.14540  109.40450   64.97530  113.70200   64.06970  110.48960
 12821.50000   64.48980  112.90560   63.37270  111.63400   65.04180  114.59180   64.13650  112.66790
