~Version ---------------------------------------------------
VERS.   2.0 : CWLS log ASCII Standard -VERSION 2.0
WRAP.    NO : One line per depth step
DLM . SPACE : Column Data Section Delimiter
~Well ------------------------------------------------------
STRT .F                5342.0 : START DEPTH
STOP .F               14250.0 : STOP DEPTH
STEP .F                   0.5 : STEP
NULL .               -9999.25 : NULL VALUE
COMP .                        : COMPANY
WELL .                        : WELL
FLD  .                        : FIELD
LOC  .                        : LOCATION
PROV .                        : PROVINCE
CNTY .                        : COUNTY
STAT .                        : STATE
CTRY .                        : COUNTRY
SRVC .                        : SERVICE COMPANY
DATE .                        : DATE
UWI  .                        : UNIQUE WELL ID
API  .                        : API NUMBER
SLAT .WGS84 5.619905017556597 : SURFACE LATITUDE
SLON .WGS84 4.511351257034491 : SURFACE LONGITUDE
DATUM.F                   nan : DEPTH DATUM ELEV
~Curve Information -----------------------------------------
DEPT.F     : 1 MEASURED DEPTH
DTCO.US/F  : DELTA-T COMPRESSIONAL
DTSM.US/F  : DELTA-T SHEAR
DTTP.US/F  : DELTA-T COMPRESSIONAL, TRANSMITTER ARRAY - MONOPOLE P & S
DTTS.US/F  : DELTA-T SHEAR, TRANSMITTER ARRAY - MONOPOLE P & S
DTRP.US/F  : DELTA-T COMPRESSIONAL, RECEIVER ARRAY - MONOPOLE P & S
DTRS.US/F  : DELTA-T SHEAR, RECEIVER ARRAY - MONOPOLE P & S
DT4P.US/F  : DELTA-T COMPRESSIONAL - MONOPOLE P & S
DT4S.US/F  : DELTA-T SHEAR - MONOPOLE P & S
~Params ----------------------------------------------------
~Other -----------------------------------------------------
~ASCII -----------------------------------------------------
# ...
 13942.00000   72.40020  137.00870   70.83140  135.43630   73.60800  139.10600   72.70030  137.23750
 13942.50000   73.27140  137.98920   71.09880  133.98730   73.57260  139.31200   72.62010  136.53990
 13943.00000   73.72050  137.78870   71.04670  130.90230   72.91260  140.66150   71.96040  135.19800
 13943.50000   73.49920  137.18570   70.71440  126.26860   72.25270  142.01110   71.30070  134.29650
 13944.00000   72.82840  135.40000   70.01390  125.69180   71.72050  142.63900   70.79440  133.61580
 13944.50000   71.89860  133.54070   68.91540  126.12430   71.28090  140.46750   70.35480  132.80770
 13945.00000   71.20450  132.09680   68.14980  126.41310   70.84070  138.01360   69.91510  131.80370
 13945.50000   70.48220  131.49730   67.95310  125.34220   70.15840  135.92730   69.31600  130.69070
 13946.00000   69.70390  130.93860   67.47230  123.93630   69.47620  136.82120   68.66600  130.59790
 13946.50000   69.45810  129.79940   67.21630  123.49020   69.49960  138.52260   68.26730  130.87810
 13947.00000   69.75920  130.64460   67.11570  125.06150   69.91030  138.48390   68.26730  131.59960
 13947.50000   69.58730  130.97130   67.09900  126.76730   70.64710  137.32780   68.26730  131.77820
 13948.00000   69.63310  130.34540   66.62570  128.41780   70.75180  133.99980   68.26730  130.96150
 13948.50000   70.10550  129.42080   65.35690  128.89240   69.81690  130.34840   68.36830  129.95100
 13949.00000   69.00400  129.29950   64.99380  129.87430   69.43100  131.07210   68.52580  130.60700
 13949.50000   68.00820  127.92410   65.27740  130.47230   69.58980  133.39120   68.68340  131.86330
 13950.00000   68.20700  128.13880   66.13650  130.54110   70.07290  136.47460   68.97930  133.26500
 13950.50000   68.77720  129.07900   68.12590  130.96240   71.45300  139.55810   70.35860  134.64460
 13951.00000   69.11150  129.45340   70.33610  131.47730   72.68180  140.08870   71.73790  135.27720
 13951.50000   69.55170  128.78040   70.82750  130.62930   72.92660  137.04030   72.01180  133.41510
 13952.00000   70.48660  130.30170   68.14120  129.46210   72.15500  131.18430   70.53170  130.37620
 13952.50000   71.33140  132.95970   64.76660  128.29500   71.51790  129.54470   68.49360  129.07260
 13953.00000   70.65060  132.85820   62.41100  127.52120   70.88090  128.59220   66.45540  128.17830
 13953.50000   69.21460  130.72630   62.76420  126.49580   70.35510  127.79120   66.61040  127.28790
 13954.00000   68.77230  127.97590   64.04320  125.36690   69.84850  126.42630   66.86060  125.98230
 13954.50000   69.47390  126.63710   65.44330  124.63150   68.51000  125.91290   66.92900  125.48090
 13955.00000   69.70420  126.78220   65.64830  125.06580   67.66990  127.05210   66.75820  126.39320
 13955.50000   68.96870  127.09150   65.58470  126.01700   67.92250  129.25890   67.01090  127.64000
 13956.00000   68.01660  126.80800   65.60830  127.54460   68.17520  130.86410   67.26360  129.88180
 13956.50000   66.98080  125.91950   66.05840  129.32980   68.42790  135.32160   67.51630  132.04630
 13957.00000   66.38870  126.61200   66.50840  131.34130   69.29430  135.61650   67.76900  133.50520
 13957.50000   66.30110  127.74220   66.92770  132.58800   70.20020  136.31460   67.92810  134.34160
 13958.00000   67.51680  129.05460   67.33120  131.66310   72.33130  140.94130   68.07300  135.61220
 13958.50000   69.96450  130.58750   67.61150  130.73990   71.48610  142.62100   68.41950  136.23940
 13959.00000   71.46280  132.13090   67.80520  132.36330   71.13580  140.36950   68.93120  136.23810
 13959.50000   71.32140  133.11360   68.24140  134.71360   72.81690  137.59950   69.67500  136.23670
 13960.00000   70.85380  132.18900   69.17840  133.42050   75.50610  136.72530   70.41890  135.56630
 13960.50000   70.43000  130.76880   70.11530  130.12210   75.08490  133.32360   70.91600  132.08720
 13961.00000   69.12700  128.51960   69.08760  123.09670   71.81600  126.89870   70.02440  124.63470
 13961.50000   66.25470  126.04980   64.95210  119.50000   71.12450  121.93750   68.18330  120.99450
 13962.00000   64.79280  122.94760   60.63560  116.94190   71.88530  118.03760   67.10320  117.61330
 13962.50000   64.62590  119.29840   62.19470  118.64050   72.73870  120.31140   67.98730  119.66550
 13963.00000   65.45740  116.90160   63.78660  121.23430   74.43060  122.91380   69.29680  122.26850
 13963.50000   67.32620  118.52000   64.85230  122.80750   75.09860  125.08140   70.13780  124.27960
 13964.00000   68.74040  121.67530   65.90460  123.81600   72.65680  127.21580   68.54970  126.11820
 13964.50000   69.60680  125.50420   66.32720  124.29940   69.14050  128.65630   67.17870  126.44980
 13965.00000   70.05730  126.79580   66.56310  124.49160   68.01760  129.57330   67.11260  126.47210
 13965.50000   70.06760  126.28050   66.79890  124.48190   68.22850  131.15390   67.13070  127.31990
 13966.00000   69.31970  125.28850   67.03480  124.47210   69.25560  132.91140   68.29170  128.80940
 13966.50000   68.18380  124.19530   67.16490  123.44090   69.32240  132.67940   68.36610  129.44230
 13967.00000   67.48280  123.77480   66.87020  122.35510   68.53140  130.01850   67.57170  127.19460
 13967.50000   66.92220  125.14270   66.28180  123.06620   68.34250  127.85590   67.43750  125.55580
 13968.00000   66.71930  126.03020   65.62290  122.98010   68.14100  126.15250   67.11730  124.16800
 13968.50000   67.24460  128.42100   65.10520  122.48510   67.15560  125.88590   66.21550  124.16060
 13969.00000   67.23040  132.64090   65.67420  123.13790   67.59980  126.13520   66.34410  124.42080
 13969.50000   67.14410  132.94320   68.14570  124.43090   69.68200  126.95440   68.77710  125.92690
 13970.00000   67.66420  132.12770   66.64060  124.59420   68.43350  127.12890   67.28350  126.00220
 13970.50000   68.36840  131.20350   64.87390  124.41330   66.82790  127.16720   65.75180  125.46540
 13971.00000   68.43610  130.14610   63.43440  123.68760   67.86440  128.86220   66.07680  127.35860
 13971.50000   68.30710  128.13350   67.08050  124.98570   70.86100  132.34150   69.74800  129.93640
 13972.00000   69.22970  127.34930   69.54250  126.68990   73.35960  134.46890   71.23130  130.74200
 13972.50000   70.97240  127.52650   69.99800  127.71320   73.29670  131.98590   71.47810  129.62400
 13973.00000   71.60080  129.48250   69.74310  125.95330   72.21590  128.21810   70.95640  127.33760
 13973.50000   71.44600  129.51100   68.86580  124.00950   71.13510  125.25990   70.12080  124.78550
 13974.00000   70.84600  128.25510   68.22190  122.71520   70.28360  124.47760   69.31630  124.06800
 13974.50000   70.15030  127.88700   67.63070  121.74290   69.42320  124.50890   68.40210  124.02650
 13975.00000   69.66270  128.17640   66.92650  126.82380   68.46050  129.72470   67.47860  128.01770
 13975.50000   69.05620  128.34820   65.64550  129.07980   67.44790  131.23640   66.38790  129.74790
 13976.00000   68.75340  128.42290   64.35140  129.33840   67.01690  130.44040   65.19400  130.04530
 13976.50000   69.25390  128.62140   63.45040  127.67600   66.81280  129.27800   65.43510  128.63290
 13977.00000   69.92720  128.86490   64.32380  125.29030   66.98950  127.12020   65.94140  126.60950
 13977.50000   69.72090  129.49270   65.28870  125.25790   67.47830  126.60730   67.01000  126.12740
 13978.00000   69.14690  129.25940   65.68630  125.49550   67.96710  129.66730   67.17850  128.12100
 13978.50000   68.57430  128.05470   65.68760  124.51110   68.10270  133.87980   67.19700  129.97730
 13979.00000   68.96450  127.49800   65.94810  124.02050   68.66520  137.84970   67.71090  131.51880
 13979.50000   68.35010  128.49200   66.76860  125.22100   69.21610  140.02490   68.28830  133.04860
 13980.00000   69.08890  129.68090   67.90050  126.50220   69.73560  140.65940   68.79930  133.90850
 13980.50000   70.55080  130.95530   68.46050  126.21890   69.90320  138.57810   68.97950  132.63180
 13981.00000   70.79600  131.89770   68.24460  126.49970   69.65800  136.10030   68.75320  131.49210
 13981.50000   70.30960  132.31200   68.59600  130.10960   70.31430  136.78190   69.12870  133.18050
