~Version ---------------------------------------------------
VERS.   2.0 : CWLS log ASCII Standard -VERSION 2.0
WRAP.    NO : One line per depth step
DLM . SPACE : Column Data Section Delimiter
~Well ------------------------------------------------------
STRT .F                5342.0 : START DEPTH
STOP .F               14250.0 : STOP DEPTH
STEP .F                   0.5 : STEP
NULL .               -9999.25 : NULL VALUE
COMP .                        : COMPANY
WELL .                        : WELL
FLD  .                        : FIELD
LOC  .                        : LOCATION
PROV .                        : PROVINCE
CNTY .                        : COUNTY
STAT .                        : STATE
CTRY .                        : COUNTRY
SRVC .                        : SERVICE COMPANY
DATE .                        : DATE
UWI  .                        : UNIQUE WELL ID
API  .                        : API NUMBER
SLAT .WGS84 5.619905017556597 : SURFACE LATITUDE
SLON .WGS84 4.511351257034491 : SURFACE LONGITUDE
DATUM.F                   nan : DEPTH DATUM ELEV
~Curve Information -----------------------------------------
DEPT.F     : 1 MEASURED DEPTH
DTCO.US/F  : DELTA-T COMPRESSIONAL
DTSM.US/F  : DELTA-T SHEAR
DTTP.US/F  : DELTA-T COMPRESSIONAL, TRANSMITTER ARRAY - MONOPOLE P & S
DTTS.US/F  : DELTA-T SHEAR, TRANSMITTER ARRAY - MONOPOLE P & S
DTRP.US/F  : DELTA-T COMPRESSIONAL, RECEIVER ARRAY - MONOPOLE P & S
DTRS.US/F  : DELTA-T SHEAR, RECEIVER ARRAY - MONOPOLE P & S
DT4P.US/F  : DELTA-T COMPRESSIONAL - MONOPOLE P & S
DT4S.US/F  : DELTA-T SHEAR - MONOPOLE P & S
~Params ----------------------------------------------------
~Other -----------------------------------------------------
~ASCII -----------------------------------------------------
# ...
 13662.00000   58.53340  100.74670   57.00050   98.55310   58.49990   99.75430   57.54000   99.24690
 13662.50000   59.27850  101.07680   57.47470   99.25150   58.89190  100.43450   57.98470   99.88510
 13663.00000   59.30090  101.18650   57.37570   99.30460   58.83170  101.09070   57.90720  100.21490
 13663.50000   58.79030   99.54120   56.79350   98.27220   58.27030  100.85090   57.32460   99.32260
 13664.00000   57.80770   97.99960   56.32010   97.23980   57.76630   99.62700   56.84030   98.20630
 13664.50000   56.42960   96.61300   55.64080   96.34570   57.24220   98.40750   56.21890   97.41270
 13665.00000   55.93240   96.34590   54.60610   95.46310   56.50310   97.55530   55.58560   96.68170
 13665.50000   55.84420   96.52980   54.17230   94.99970   56.41490   97.31960   55.50720   96.09930
 13666.00000   56.35740   97.43110   54.80600   95.52220   56.89410   97.96150   55.96620   96.82520
 13666.50000   56.99910   98.41980   56.00620   97.47940   57.51060   98.90350   56.52400   98.46790
 13667.00000   57.77890  100.06660   57.00110   98.51950   59.17760  100.59890   58.11600   99.86930
 13667.50000   58.51170  101.41600   57.65310   99.61710   59.85360  102.26140   58.91080  101.21260
 13668.00000   58.82440  101.50100   57.34360   99.81700   59.28470  102.17430   58.33630  101.46200
 13668.50000   58.64300  101.14910   56.84720   99.20450   58.68150  101.83980   57.73370  100.66340
 13669.00000   58.00960  100.72290   56.36980   98.60150   58.27120  101.75990   57.36700  100.30000
 13669.50000   57.66190  101.30450   56.34290   98.95540   59.24550  102.50750   58.19920  101.11970
 13670.00000   58.12830  101.88600   57.77910  101.78670   60.70130  104.58030   59.52650  103.56150
 13670.50000   59.65030  103.35910   59.37340  104.73970   62.49650  107.38480   61.19240  106.41910
 13671.00000   61.48650  106.09970   60.95920  108.19040   64.39820  111.91260   62.85820  110.18460
 13671.50000   63.60010  111.02990   62.28610  114.06080   66.30000  116.72760   64.52410  115.42460
 13672.00000   65.23200  114.33520   63.50560  117.46120   67.43310  119.70790   65.05670  118.77530
 13672.50000   66.12980  117.07310   64.02450  114.95690   66.82190  118.23690   65.10710  117.09730
 13673.00000   65.72090  116.41700   63.39480  112.36820   65.35320  115.81460   64.41190  114.70770
 13673.50000   64.94530  114.87280   62.58350  109.87050   64.31990  113.39220   63.39990  111.94400
 13674.00000   63.46420  112.20140   60.57430  107.37270   63.21920  111.35280   61.91660  109.26910
 13674.50000   61.92820  108.55850   59.47740  105.10700   62.10260  109.91530   60.38860  106.74730
 13675.00000   60.35110  106.35740   58.36160  103.17830   61.63630  109.38430   59.53290  105.68610
 13675.50000   60.08720  104.96630   57.99830  102.19540   61.67220  109.57930   59.50040  105.74320
 13676.00000   60.22970  105.81690   59.68870  103.24960   62.42630  110.21590   60.61860  106.94930
 13676.50000   60.37220  107.35110   61.10190  107.54210   63.18040  112.20680   61.80390  110.09720
 13677.00000   60.51470  110.84680   62.39040  112.32070   64.03130  115.54280   62.98170  114.07470
 13677.50000   63.30240  113.74680   63.56990  116.46340   64.77190  118.78160   64.15950  117.58920
 13678.00000   65.08480  116.23960   64.11140  118.98110   65.38030  120.05730   64.62760  119.64040
 13678.50000   65.74480  119.31640   64.42320  118.92660   65.97980  120.04890   64.93500  119.56890
 13679.00000   65.62680  121.41830   63.28560  117.63680   66.32230  119.71180   64.64150  118.44760
 13679.50000   65.27610  119.62050   60.08080  111.60810   66.18710  119.02410   63.76940  115.04980
 13680.00000   63.48840  114.93240   56.91440  101.88460   65.24330  111.38580   60.99810  105.12150
 13680.50000   61.02810  110.24440   55.82910  100.84760   63.18670  107.39200   59.37100  103.93870
 13681.00000   59.97790  106.30090   56.93700  101.53800   60.87770  106.71140   58.94470  103.90960
 13681.50000   59.48850  104.68160   58.25980  102.56300   59.98130  106.18140   59.07160  103.97430
 13682.00000   59.48850  104.44800   58.55760  102.97120   60.19000  105.39720   59.28030  104.06700
 13682.50000   59.48850  104.11800   58.60980  103.43270   60.36790  104.55690   59.46000  104.13070
 13683.00000   59.92010  104.01350   57.76790  102.83860   60.26220  103.88590   59.26390  103.48090
 13683.50000   60.39520  106.05880   56.55380  103.51800   59.50710  104.91710   58.19800  104.34710
 13684.00000   61.22720  108.43770   58.87160  105.63690   61.43860  107.67390   60.03410  106.78150
 13684.50000   63.14630  111.29880   61.38890  109.36680   63.45390  111.72270   62.11660  110.90350
 13685.00000   64.58530  114.38390   63.55110  113.54560   64.84620  115.63370   64.09370  114.82300
 13685.50000   65.10610  117.62890   64.30790  116.82150   66.00400  119.52280   64.82860  118.36880
 13686.00000   65.47590  117.48120   64.03580  116.83870   65.86730  119.52910   64.59310  118.03360
 13686.50000   65.23850  116.67720   62.65980  115.41070   64.60150  117.34880   63.51270  116.50530
 13687.00000   63.81930  112.72010   60.73960  113.83810   63.38290  115.26370   61.99500  114.71360
 13687.50000   61.73180  111.58160   60.29590  112.45090   62.84580  113.50320   61.56080  113.09580
 13688.00000   61.30410  112.32090   61.72950  112.79390   63.53360  114.32170   63.00980  113.69300
 13688.50000   62.21200  113.36860   63.15860  114.74370   65.96490  116.68100   64.56840  115.96590
 13689.00000   63.64170  115.17480   64.15850  116.22220   66.83330  118.93780   64.66780  117.94490
 13689.50000   64.96040  116.95260   64.25510  115.59210   67.01600  119.36520   64.76480  117.55040
 13690.00000   65.91820  116.33160   64.12980  113.56750   66.83820  116.62760   64.71550  114.90570
 13690.50000   65.91750  115.00630   61.83730  112.03520   66.34920  113.81240   63.18760  112.95220
 13691.00000   65.36460  112.48820   58.87790  108.72190   63.39800  111.41050   60.86660  109.92900
 13691.50000   63.45400  109.37550   57.21480  105.77900   59.80280  109.33010   58.74520  107.26190
 13692.00000   61.30140  106.76640   57.82950  102.96120   60.17250  107.57510   59.22570  106.03260
 13692.50000   60.14290  105.53850   58.32080  102.61000   60.27220  106.42030   59.34470  104.49300
 13693.00000   60.15260  105.62990   58.27230  103.55960   60.02520  105.29760   59.11110  104.35400
 13693.50000   59.88600  105.31270   58.01380  103.80580   59.73740  105.30690   58.82690  104.43490
 13694.00000   59.55090  104.50960   57.84290  104.23210   59.83510  106.23050   58.92850  104.95610
 13694.50000   59.75880  104.00120   58.18500  105.60830   60.37380  107.15460   59.45960  106.35590
 13695.00000   61.08670  105.31250   58.76260  106.50740   60.85090  107.88740   60.01060  107.14030
 13695.50000   62.11310  106.42370   59.34010  106.74940   61.32790  108.39920   60.16640  107.38230
 13696.00000   62.78430  107.36000   59.61910  107.06920   61.80490  108.74990   60.12740  107.71290
 13696.50000   62.45300  108.56650   59.84570  107.73230   62.13690  109.06230   60.35660  108.41220
 13697.00000   62.28900  110.58410   59.99790  108.38660   61.92990  109.44580   60.50750  109.04910
 13697.50000   62.00300  111.25390   59.70860  107.77760   61.55240  108.87760   60.22190  108.45110
 13698.00000   61.72280  109.82970   59.49790  106.79850   61.17480  108.22070   60.00620  107.63210
 13698.50000   61.58570  108.32070   59.52530  105.77000   61.02370  108.01990   60.03400  107.14620
 13699.00000   61.60910  107.56260   59.34150  104.30560   61.39200  109.13620   59.99730  106.84050
 13699.50000   61.66100  108.16170   57.85310  105.46940   62.86240  110.38050   61.67770  107.55000
 13700.00000   62.56920  110.06020   58.94940  107.81850   64.68290  110.54480   63.35810  108.72510
 13700.50000   64.81260  111.29010   63.10070  109.34470   66.47620  111.31270   65.27120  110.11180
 13701.00000   66.45040  111.26900   66.90660  108.26680   68.26950  112.70970   67.57850  110.96150
 13701.50000   67.15980  110.27670   62.19740  105.96330   69.54410  110.81170   66.97980  107.50290
