~Version ---------------------------------------------------
VERS.   2.0 : CWLS log ASCII Standard -VERSION 2.0
WRAP.    NO : One line per depth step
DLM . SPACE : Column Data Section Delimiter
~Well ------------------------------------------------------
STRT .F                5342.0 : START DEPTH
STOP .F               14250.0 : STOP DEPTH
STEP .F                   0.5 : STEP
NULL .               -9999.25 : NULL VALUE
COMP .                        : COMPANY
WELL .                        : WELL
FLD  .                        : FIELD
LOC  .                        : LOCATION
PROV .                        : PROVINCE
CNTY .                        : COUNTY
STAT .                        : STATE
CTRY .                        : COUNTRY
SRVC .                        : SERVICE COMPANY
DATE .                        : DATE
UWI  .                        : UNIQUE WELL ID
API  .                        : API NUMBER
SLAT .WGS84 5.619905017556597 : SURFACE LATITUDE
SLON .WGS84 4.511351257034491 : SURFACE LONGITUDE
DATUM.F                   nan : DEPTH DATUM ELEV
~Curve Information -----------------------------------------
DEPT.F     : 1 MEASURED DEPTH
DTCO.US/F  : DELTA-T COMPRESSIONAL
DTSM.US/F  : DELTA-T SHEAR
DTTP.US/F  : DELTA-T COMPRESSIONAL, TRANSMITTER ARRAY - MONOPOLE P & S
DTTS.US/F  : DELTA-T SHEAR, TRANSMITTER ARRAY - MONOPOLE P & S
DTRP.US/F  : DELTA-T COMPRESSIONAL, RECEIVER ARRAY - MONOPOLE P & S
DTRS.US/F  : DELTA-T SHEAR, RECEIVER ARRAY - MONOPOLE P & S
DT4P.US/F  : DELTA-T COMPRESSIONAL - MONOPOLE P & S
DT4S.US/F  : DELTA-T SHEAR - MONOPOLE P & S
~Params ----------------------------------------------------
~Other -----------------------------------------------------
~ASCII -----------------------------------------------------
# ...
 12622.00000   59.63300  103.98070   58.21000  101.35720   59.89230  104.93860   58.98180  103.34010
 12622.50000   59.63490  103.18110   57.77080  100.13200   59.55300  104.24710   58.63750  102.75570
 12623.00000   59.39670  101.96670   57.33170   98.95020   59.23720  103.23650   58.32850  101.86890
 12623.50000   59.18460   99.95370   57.25590   98.08450   58.97600  102.03610   58.06720   99.99610
 12624.00000   58.94440   98.74550   57.34530   98.30670   58.95520  101.18900   58.00880   99.83070
 12624.50000   58.65050   99.66220   57.84440   99.79810   59.27570  101.50440   58.36290  100.10800
 12625.00000   59.38610  101.38510   58.15420  101.30650   59.58610  102.73040   58.66920  101.87070
 12625.50000   59.77280  103.37990   58.76210  102.81480   60.29570  104.06030   59.31530  103.60100
 12626.00000   60.45510  104.85840   59.43990  104.13270   60.89650  105.46160   59.96370  104.94900
 12626.50000   61.12580  105.41030   58.98670  105.04230   60.44540  106.09850   59.51140  105.70260
 12627.00000   61.04000  105.59170   58.41990  104.04420   59.87880  105.22310   58.94460  104.76630
 12627.50000   60.07570  104.01330   57.80080  102.32280   59.31220  103.61820   58.35050  103.11770
 12628.00000   59.36320  102.46680   56.82820  100.35880   58.45380  101.73200   57.47440  101.15050
 12628.50000   57.22800  100.81560   55.82000   98.91860   57.58310  100.16530   56.59830   99.68400
 12629.00000   56.51980   99.16440   55.12910   97.48940   56.71640   98.73630   56.06520   98.25390
 12629.50000   56.25760   99.50520   55.32830   97.71660   56.69530   98.91850   55.93090   98.45220
 12630.00000   56.75010  100.11040   56.69950   99.06220   58.46850  100.44590   57.37420   99.91180
 12630.50000   57.90560  100.84740   57.59110  100.91610   59.92040  102.25600   58.81760  101.73800
 12631.00000   58.93660  102.25630   58.40190  102.69100   60.43000  103.82690   59.52450  103.38820
 12631.50000   59.36820  103.41770   58.78150  103.71060   60.48020  104.77300   59.57250  104.36360
 12632.00000   59.39080  104.38810   58.84040  103.94460   60.28460  104.97270   59.35950  104.57490
 12632.50000   59.42210  104.66770   58.40010  103.76310   59.84450  104.79160   58.91960  104.39370
 12633.00000   59.45330  103.28780   57.58900  103.27360   59.40450  104.34900   58.47960  103.93250
 12633.50000   59.44170  101.90800   56.21330  101.06380   59.33180  103.85530   58.08270  102.72270
 12634.00000   59.02280  100.61340   54.83760   96.70920   59.58320  103.47970   57.89650  100.96190
 12634.50000   58.46750  100.09010   54.44850   94.71730   59.82990  102.45680   57.71030   99.81810
 12635.00000   57.94060   99.56680   54.49780   94.32180   59.27740  101.01230   57.52400   98.67440
 12635.50000   57.29310   99.05070   54.64350   94.17210   58.46210   99.56780   56.67720   97.64710
 12636.00000   56.44860   99.05070   54.62570   94.31150   57.56980   98.69150   55.27430   96.84250
 12636.50000   56.38070   99.21740   54.55290   95.14330   57.12690   98.84850   55.05890   97.18210
 12637.00000   57.02520   99.51890   55.63430   97.50460   57.28260   99.28790   56.24490   98.42380
 12637.50000   57.90730  100.60370   56.87550   99.11460   58.45930  100.37550   57.42050   99.88790
 12638.00000   58.75900  101.92570   58.01170  100.51000   59.50770  101.65180   58.54960  101.21020
 12638.50000   59.46650  103.24780   58.62920  101.64940   60.04180  102.98230   59.13750  102.46680
 12639.00000   59.68640  104.56980   58.56960  103.36060   59.98100  104.49570   59.07740  104.08730
 12639.50000   59.61500  104.40790   58.38180  102.43990   59.79340  103.70870   58.88980  103.24380
 12640.00000   59.20850  103.47120   57.88310  100.21850   59.37390  102.00970   58.41950  101.30460
 12640.50000   58.60840  101.65440   57.38100   98.38860   58.80160   99.82270   57.89220   99.32340
 12641.00000   58.00820   99.54740   56.40630   96.18160   58.07920   97.68190   57.06980   96.86680
 12641.50000   57.25870   97.96810   55.14790   95.03370   57.05080   95.83150   56.04220   95.26710
 12642.00000   56.52570   97.33540   53.93820   94.72740   56.22010   96.65800   55.31300   95.80890
 12642.50000   55.98950   96.28720   53.98950   94.63980   56.46110   98.54310   55.53440   96.82880
 12643.00000   55.85740   96.00940   54.67520   94.24590   56.94230  100.51970   56.00960   97.84860
 12643.50000   55.88830   96.17810   54.54210   93.78880   57.40660  101.50680   56.49510   98.41570
 12644.00000   55.97280   96.64590   53.75810   95.42090   57.66380  101.20090   56.75260   98.55420
 12644.50000   56.15440   97.33080   54.46410   97.08220   58.07000  100.31930   57.13770   98.73410
 12645.00000   56.77110   98.91260   55.46130   97.57810   58.58840   99.90120   57.65070   99.11270
 12645.50000   57.46240  101.04870   56.45840   98.41410   59.13840  100.75300   58.20090  100.27150
 12646.00000   58.37710  102.37970   57.45550  100.88380   59.40590  102.06350   58.49880  101.64210
 12646.50000   58.95020  102.77660   57.86990  101.17350   59.41430  102.21120   58.51110  101.80970
 12647.00000   59.06940  102.76170   57.67570  100.81580   59.13860  101.85660   58.22260  101.45390
 12647.50000   58.59820  101.12610   56.57520   99.52410   58.45490  100.81960   57.43370  100.31370
 12648.00000   57.55290   99.32480   55.06280   98.09640   57.36650   99.32890   56.29720   98.84230
 12648.50000   56.50500   97.52350   54.34240   96.84800   56.13090   99.06440   55.22520   98.00780
 12649.00000   55.79000   97.12010   54.22050   95.59960   55.94550   98.94600   55.03750   97.18320
 12649.50000   55.76300   96.73050   54.21650   95.30260   55.77860   98.82750   54.87240   96.56490
 12650.00000   55.91940   96.82770   53.84290   95.38830   55.85420   98.41980   54.94900   96.27270
 12650.50000   56.13120   96.94260   53.45820   95.36280   55.97540   97.74460   55.00350   95.99900
 12651.00000   56.20670   96.80780   53.07340   95.09050   56.17820   96.82490   54.66760   95.72540
 12651.50000   55.94680   95.98290   52.67820   94.50490   56.38100   95.89740   54.43090   95.15240
 12652.00000   55.85390   95.22550   52.43750   94.11540   56.50820   95.14500   54.55010   94.74660
 12652.50000   55.85970   95.52780   53.03020   94.17200   55.78150   95.21200   54.69590   94.80960
 12653.00000   55.90630   95.55370   53.79530   94.45220   55.65210   95.48190   54.74720   95.08340
 12653.50000   56.18040   95.82110   53.81550   93.96930   55.73820   96.02660   54.83250   95.09280
 12654.00000   55.96130   96.32940   53.83560   92.82030   55.63100   96.62470   54.72050   95.13890
 12654.50000   55.64010   96.56890   53.82370   91.67130   56.21020   97.68840   54.73380   95.21410
 12655.00000   55.65420   96.71350   52.86900   91.46900   57.44280   98.92390   54.95120   95.37690
 12655.50000   55.92750   97.30400   52.01540   93.09730   58.67540  100.54110   55.16860   97.08160
 12656.00000   56.63720   98.84680   52.99380   95.35640   59.90800  102.85650   55.97040   99.29420
 12656.50000   57.63760  100.62660   54.40840   99.34480   60.68690  105.06800   57.51130  101.55840
 12657.00000   58.72240  102.28860   55.82010  102.88990   61.44930  105.72620   58.20720  103.75130
 12657.50000   59.31310  102.88110   57.13950  103.15110   60.60990  105.60600   58.14470  103.78290
 12658.00000   59.32400  102.45920   57.46870  101.38900   59.51590  103.55020   57.97940  102.23290
 12658.50000   58.88630  101.96840   56.86460   99.59560   58.72240  101.96440   57.81410  100.41290
 12659.00000   58.10700  101.31130   55.51110   98.17000   58.32510  101.23850   57.33140   99.17530
 12659.50000   57.76730  100.68450   54.46760   96.74440   57.61990  101.70190   56.69270   99.28090
 12660.00000   57.95550  100.04320   55.43180   96.08600   58.07480  102.30090   57.14780   99.50260
 12660.50000   58.38760   99.65820   56.44920   97.03380   58.52970  102.95040   57.60280   99.72440
 12661.00000   58.96220  100.24370   56.76250   98.13700   58.80190  103.59980   57.88030   99.94610
 12661.50000   59.46420  100.51500   56.59190   98.32160   58.36540  104.04790   57.44390  100.12470
