~Version ---------------------------------------------------
VERS.   2.0 : CWLS log ASCII Standard -VERSION 2.0
WRAP.    NO : One line per depth step
DLM . SPACE : Column Data Section Delimiter
~Well ------------------------------------------------------
STRT .F                5342.0 : START DEPTH
STOP .F               14250.0 : STOP DEPTH
STEP .F                   0.5 : STEP
NULL .               -9999.25 : NULL VALUE
COMP .                        : COMPANY
WELL .                        : WELL
FLD  .                        : FIELD
LOC  .                        : LOCATION
PROV .                        : PROVINCE
CNTY .                        : COUNTY
STAT .                        : STATE
CTRY .                        : COUNTRY
SRVC .                        : SERVICE COMPANY
DATE .                        : DATE
UWI  .                        : UNIQUE WELL ID
API  .                        : API NUMBER
SLAT .WGS84 5.619905017556597 : SURFACE LATITUDE
SLON .WGS84 4.511351257034491 : SURFACE LONGITUDE
DATUM.F                   nan : DEPTH DATUM ELEV
~Curve Information -----------------------------------------
DEPT.F     : 1 MEASURED DEPTH
DTCO.US/F  : DELTA-T COMPRESSIONAL
DTSM.US/F  : DELTA-T SHEAR
DTTP.US/F  : DELTA-T COMPRESSIONAL, TRANSMITTER ARRAY - MONOPOLE P & S
DTTS.US/F  : DELTA-T SHEAR, TRANSMITTER ARRAY - MONOPOLE P & S
DTRP.US/F  : DELTA-T COMPRESSIONAL, RECEIVER ARRAY - MONOPOLE P & S
DTRS.US/F  : DELTA-T SHEAR, RECEIVER ARRAY - MONOPOLE P & S
DT4P.US/F  : DELTA-T COMPRESSIONAL - MONOPOLE P & S
DT4S.US/F  : DELTA-T SHEAR - MONOPOLE P & S
~Params ----------------------------------------------------
~Other -----------------------------------------------------
~ASCII -----------------------------------------------------
# ...
 12502.00000   56.11960   96.04650   54.77350   94.51020   56.63400   95.91230   55.72030   95.27480
 12502.50000   56.45170   96.53540   55.30960   95.91580   56.98470   97.60760   56.04580   96.68190
 12503.00000   57.11410   97.52120   55.96240   97.03110   57.73390   98.66360   56.78340   97.69490
 12503.50000   57.56000   98.77230   56.61530   97.67820   58.37580   99.48410   57.42510   98.33810
 12504.00000   57.85920   99.08340   57.26810   98.53090   58.97080  100.27880   58.06680   99.24570
 12504.50000   57.93080   99.66160   57.76550   99.61960   59.35420  101.07350   58.69460  100.33400
 12505.00000   58.37770  101.25140   58.23450  101.43270   59.73770  102.97000   58.81450  102.25110
 12505.50000   59.32150  103.00540   58.70340  102.96970   60.16120  104.48900   59.23370  103.67020
 12506.00000   60.71660  103.78510   59.05280  103.44800   60.47410  104.85480   59.56400  104.08150
 12506.50000   60.72060  104.18020   58.95480  102.82610   60.50420  104.75830   59.51290  103.76160
 12507.00000   60.01570  103.79340   57.55900  100.44530   59.57340  103.27640   58.29100  101.51300
 12507.50000   58.61890  101.20010   55.49470   97.97310   57.36050  101.14520   56.09970   99.43480
 12508.00000   56.86050   97.64330   54.75920   95.14230   56.13420   99.04890   55.14270   97.36920
 12508.50000   55.61780   94.91910   54.12880   93.50680   56.06720   97.12490   55.15180   95.76150
 12509.00000   55.54300   94.71860   54.56540   94.94090   56.47890   97.92760   55.49760   96.57310
 12509.50000   56.31960   96.82850   56.25560   97.22130   58.13310   99.20790   57.01990   98.17820
 12510.00000   58.09690   99.93640   57.54980   99.50160   59.59160  101.02210   58.47700  100.43200
 12510.50000   59.66480  102.95560   58.34810  101.83260   60.26250  103.20830   59.35340  102.79470
 12511.00000   60.78610  103.95730   58.16120  102.15480   60.27700  104.69950   59.37200  103.36770
 12511.50000   60.77950  103.31540   57.79830  100.30140   59.75970  104.67960   58.82920  102.28000
 12512.00000   59.24320  101.74020   57.46920   98.58820   59.08430  102.96350   58.05400  100.83430
 12512.50000   58.05740  100.16510   56.44060   98.08080   57.97100   99.99570   56.99200   99.53470
 12513.00000   57.03130  100.06660   56.14410   98.29720   57.55740   99.68400   56.65270   99.28200
 12513.50000   56.48840  100.76380   55.85270   98.55170   57.37630   99.84850   56.43900   99.44700
 12514.00000   57.25750  101.46090   56.06280   98.80610   58.25340  100.63260   57.21710   99.74110
 12514.50000   58.19370  102.15810   56.61480   99.06060   58.99760  102.55660   58.08270  100.28290
 12515.00000   59.14910  102.85520   57.16060   98.57790   59.19320  103.97170   58.28840  100.80970
 12515.50000   59.09960  103.20170   57.25150   98.06370   59.15120  104.07320   58.24640  100.67080
 12516.00000   59.05020  103.00620   56.55510   97.52780   58.50210  104.18770   57.45470  100.50480
 12516.50000   58.71600  102.44010   55.44400   96.64400   57.27430  104.31100   56.22700  100.45850
 12517.00000   57.64660  101.77770   54.18320   96.31840   55.97990  104.64220   55.02630  100.60260
 12517.50000   57.36070  101.79420   54.16310   96.25350   56.38780  105.89920   55.43270  101.53080
 12518.00000   57.78930  102.47850   55.71650   99.08580   58.00940  107.00190   56.82730  102.27010
 12518.50000   58.87850  104.14680   57.41430  101.92710   59.27630  103.97350   58.26890  102.90140
 12519.00000   59.88940  105.93070   58.23560  103.50650   60.02330  104.60430   59.10530  104.18000
 12519.50000   61.20680  107.46370   58.58410  103.98890   60.33760  105.01650   59.41980  104.61880
 12520.00000   61.63760  106.86640   58.71630  103.88940   60.65440  104.92140   59.73530  104.52210
 12520.50000   61.83390  106.27760   58.74420  103.62480   60.98950  104.68660   60.07140  104.27580
 12521.00000   61.61660  105.73090   58.87410  103.10410   61.20430  104.16600   60.29400  103.75460
 12521.50000   61.54460  105.17480   59.14930  103.15830   61.05180  104.20340   60.68480  103.79880
 12522.00000   61.91480  105.20720   59.65240  103.68240   62.39310  105.02270   61.29630  104.50440
 12522.50000   62.52630  105.53580   60.03790  105.05270   62.71780  106.10830   61.80040  105.69740
 12523.00000   63.21520  107.49550   60.20470  104.99750   63.00930  106.58020   62.10260  105.63060
 12523.50000   63.79920  108.64070   59.99460  103.76180   62.94900  106.93740   61.56750  105.13200
 12524.00000   63.61260  108.61770   59.67150  102.38060   62.77910  105.51160   60.86970  104.49050
 12524.50000   62.43020  106.84170   59.27860  101.17620   61.65900  103.93130   60.17190  102.80940
 12525.00000   60.79750  104.48110   58.69830   99.69590   60.44130  102.35090   59.48590  100.96070
 12525.50000   59.59280  102.61520   58.14120   98.26350   59.92550  100.86510   59.00530   99.27610
 12526.00000   58.62890  100.79270   57.69150   97.62880   59.76590   99.64950   58.85660   98.33640
 12526.50000   58.92740   99.77950   57.56300   96.97550   59.68840   99.01350   58.78180   97.62390
 12527.00000   59.30100   99.95810   57.89750   97.21020   59.68440   99.59850   58.77750   98.04860
 12527.50000   59.66270  101.22430   58.84140   98.35570   60.42850  100.80170   59.45640   99.24530
 12528.00000   60.90010  103.01980   60.13600  100.52600   62.07560  103.08770   60.86560  101.76000
 12528.50000   61.74360  104.92560   61.69760  103.95190   63.55250  105.96060   62.49320  105.18140
 12529.00000   63.30730  107.62840   62.53690  106.32020   64.55190  108.12650   63.63520  107.56150
 12529.50000   64.33380  109.74710   63.37620  108.31360   65.18710  110.26440   64.21610  109.60520
 12530.00000   65.15220  111.10240   64.13560  110.14050   65.70850  112.43220   64.77500  111.34690
 12530.50000   65.99070  112.65320   64.64700  111.24640   66.20540  113.41120   65.28830  112.21110
 12531.00000   66.72260  113.27190   65.15830  112.35220   67.30440  113.69980   66.24200  113.07100
 12531.50000   66.99040  112.98120   65.66970  112.97460   67.71300  113.86960   66.80660  113.60310
 12532.00000   67.06130  113.13330   65.98290  113.00510   67.63850  114.07350   66.72990  113.63440
 12532.50000   67.31300  113.93250   66.22980  113.12090   67.79440  114.52140   66.77070  113.75410
 12533.00000   67.39700  114.79040   65.99540  113.34580   68.00930  114.96920   67.04500  114.00750
 12533.50000   67.22720  115.17600   65.76100  112.99630   68.18690  115.41710   67.11270  114.09440
 12534.00000   66.36300  114.27750   65.01460  112.64690   67.87030  114.85210   66.18450  113.65410
 12534.50000   65.41050  113.24560   63.09420  111.33130   65.95830  112.69940   64.44610  112.29970
 12535.00000   64.49100  110.73480   61.45190  107.09260   63.26060  110.45650   61.93790  109.19740
 12535.50000   63.08740  107.79690   59.80970  102.71150   61.43960  108.00960   60.26080  105.40290
 12536.00000   61.29350  104.58510   58.29840   99.21640   60.03460  105.56270   58.96950  101.60720
 12536.50000   59.56630  101.37330   56.90010   96.61820   58.79170  101.37090   57.80250   98.18500
 12537.00000   59.25520   99.08310   56.13090   96.64290   58.48580   99.43990   57.58110   97.72360
 12537.50000   58.95860   99.26600   56.48700   97.79160   58.64570   99.81810   57.72420   98.67810
 12538.00000   58.83760  100.47830   57.28800   99.05380   59.22700  100.43630   58.28600   99.86280
 12538.50000   59.13010  101.94990   57.56390  100.69100   59.79730  102.03570   58.86750  101.50610
 12539.00000   59.34910  103.42150   57.70170  102.49410   59.83530  103.83260   58.92980  103.33320
 12539.50000   59.57800  104.81170   58.45360  103.94180   60.02890  105.16410   59.11540  104.66460
 12540.00000   60.24020  105.99110   59.47980  104.94850   61.11000  107.51140   60.05080  105.64890
 12540.50000   61.10360  107.15230   60.67660  106.77200   62.31650  109.64670   61.27010  107.85350
 12541.00000   62.34170  109.26200   61.84620  109.57620   63.53960  111.41650   62.45600  110.60060
 12541.50000   63.36330  110.57910   63.20280  111.55130   64.85240  112.62330   63.83950  112.20900
