~Version ---------------------------------------------------
VERS.   2.0 : CWLS log ASCII Standard -VERSION 2.0
WRAP.    NO : One line per depth step
DLM . SPACE : Column Data Section Delimiter
~Well ------------------------------------------------------
STRT .F                5342.0 : START DEPTH
STOP .F               14250.0 : STOP DEPTH
STEP .F                   0.5 : STEP
NULL .               -9999.25 : NULL VALUE
COMP .                        : COMPANY
WELL .                        : WELL
FLD  .                        : FIELD
LOC  .                        : LOCATION
PROV .                        : PROVINCE
CNTY .                        : COUNTY
STAT .                        : STATE
CTRY .                        : COUNTRY
SRVC .                        : SERVICE COMPANY
DATE .                        : DATE
UWI  .                        : UNIQUE WELL ID
API  .                        : API NUMBER
SLAT .WGS84 5.619905017556597 : SURFACE LATITUDE
SLON .WGS84 4.511351257034491 : SURFACE LONGITUDE
DATUM.F                   nan : DEPTH DATUM ELEV
~Curve Information -----------------------------------------
DEPT.F     : 1 MEASURED DEPTH
DTCO.US/F  : DELTA-T COMPRESSIONAL
DTSM.US/F  : DELTA-T SHEAR
DTTP.US/F  : DELTA-T COMPRESSIONAL, TRANSMITTER ARRAY - MONOPOLE P & S
DTTS.US/F  : DELTA-T SHEAR, TRANSMITTER ARRAY - MONOPOLE P & S
DTRP.US/F  : DELTA-T COMPRESSIONAL, RECEIVER ARRAY - MONOPOLE P & S
DTRS.US/F  : DELTA-T SHEAR, RECEIVER ARRAY - MONOPOLE P & S
DT4P.US/F  : DELTA-T COMPRESSIONAL - MONOPOLE P & S
DT4S.US/F  : DELTA-T SHEAR - MONOPOLE P & S
~Params ----------------------------------------------------
~Other -----------------------------------------------------
~ASCII -----------------------------------------------------
# ...
 13222.00000   62.21540  105.63690   59.89890  105.78300   61.86100  107.36830   60.94600  106.46780
 13222.50000   61.92660  105.79250   60.08480  106.16110   61.98780  107.35520   61.07700  106.85000
 13223.00000   61.21550  104.52480   59.40990  105.18130   61.29930  107.12430   60.25720  105.88170
 13223.50000   59.93150  102.42630   57.40920  103.75770   59.96530  106.61800   58.77050  104.71990
 13224.00000   58.00600  100.65360   55.10630   98.02960   58.01350  103.55960   56.74680  100.12610
 13224.50000   56.73700   99.29420   54.23200   96.85080   56.51670   99.05990   55.61290   97.47860
 13225.00000   57.42410   99.68250   54.53550   97.37140   57.09780   99.25110   56.01230   98.10750
 13225.50000   58.70680  101.26910   56.07210   98.59700   58.71980  100.32520   57.56360   99.27470
 13226.00000   59.75610  102.59100   57.60870  100.11340   60.34170  101.55550   59.18660  100.94910
 13226.50000   60.48030  103.70720   59.14540  101.76090   61.17060  103.32530   60.22680  102.63900
 13227.00000   59.83390  104.26840   59.00220  101.75410   60.50200  104.70430   59.54490  103.10590
 13227.50000   59.01990  103.53040   58.38250  100.48880   59.80700  104.10470   58.89490  102.32540
 13228.00000   57.89000  102.57410   57.96250  100.00420   59.40580  102.95690   58.48200  101.27830
 13228.50000   58.11360  102.19550   57.75270  100.28110   59.17110  101.80910   58.26150  101.38480
 13229.00000   59.09830  102.79210   57.97290  101.08980   59.39550  102.22450   58.48480  101.81890
 13229.50000   59.27440  103.62260   58.11850  101.61010   59.53190  102.65850   58.62700  102.25310
 13230.00000   59.72240  103.99340   58.32990  102.18100   59.77410  103.26430   58.84960  102.84560
 13230.50000   60.32440  104.30990   58.66580  102.83470   60.09030  103.89640   59.17840  103.48820
 13231.00000   60.31360  104.28770   58.70730  103.07080   60.12060  104.10390   59.21590  103.70420
 13231.50000   60.23090  103.82980   58.71350  102.80590   60.12670  103.83880   59.22200  103.43910
 13232.00000   59.66380  103.06790   58.34320  102.31480   59.84110  103.43600   58.88160  103.01650
 13232.50000   58.98290  101.86860   57.56240  101.25030   59.11500  102.49170   58.13330  101.97330
 13233.00000   58.10780  100.66930   56.72620  100.08110   58.81080  101.58580   57.31200  100.80450
 13233.50000   57.49900   99.61190   55.90290   98.91200   58.56060  100.67980   56.96050   99.63560
 13234.00000   57.41470   98.92190   55.07950   97.74280   58.29930   99.94400   56.67890   98.46680
 13234.50000   57.60180   98.60920   54.90910   96.73780   57.96760   99.15050   56.51250   97.37220
 13235.00000   57.67070   98.29660   54.93510   96.45390   57.51640   98.12540   56.36600   97.08780
 13235.50000   57.71890   97.89650   54.97830   95.63480   56.92180   97.00540   55.89620   96.34730
 13236.00000   57.30480   96.64590   54.77210   94.84940   56.19200   95.98620   55.32430   95.54160
 13236.50000   56.49840   95.17910   53.94960   93.43830   55.45610   95.13720   54.49150   94.68400
 13237.00000   55.60990   93.69750   53.35550   92.02710   54.78260   93.98480   53.86470   93.52680
 13237.50000   54.81210   93.53370   53.20010   92.00400   54.62110   93.73650   53.71120   93.33900
 13238.00000   54.46780   93.65880   53.30810   92.64160   54.73290   93.82950   53.82090   93.43270
 13238.50000   54.03740   93.45880   53.49770   92.87760   54.91260   93.92060   54.00680   93.51720
 13239.00000   54.36370   93.44550   53.63800   93.07940   55.06190   94.10540   54.15040   93.70840
 13239.50000   54.90940   93.52320   53.86400   93.23990   55.27760   94.26940   54.37270   93.87120
 13240.00000   55.17950   93.86180   53.76160   93.33220   55.18170   94.35710   54.27260   93.96050
 13240.50000   55.20610   94.19030   53.67780   93.29740   55.09140   94.32290   54.18650   93.92610
 13241.00000   55.24870   94.61860   53.65530   93.45690   55.06860   94.48650   54.16390   94.08810
 13241.50000   55.57310   95.08840   53.53280   93.39520   54.94820   94.44010   54.04210   94.03570
 13242.00000   55.70230   95.52680   53.73590   93.75030   55.16480   94.82310   54.25000   94.39970
 13242.50000   55.65520   95.47680   53.98530   94.24530   55.40190   95.37480   54.49500   94.92420
 13243.00000   55.75990   95.71580   54.22150   94.73410   55.64750   95.98450   54.73460   95.45190
 13243.50000   55.78280   96.00700   54.46950   95.20360   55.88960   96.63050   54.98050   96.06470
 13244.00000   55.78010   96.20670   54.56210   95.31020   55.97600   97.27650   55.07100   96.61770
 13244.50000   55.85770   96.03970   54.81310   95.41690   56.32540   97.92250   55.35660   96.73800
 13245.00000   55.83630   95.88960   54.97210   95.52360   56.80900   98.35570   55.88520   96.85660
 13245.50000   55.78450   96.02040   54.46430   95.57410   56.61060   98.50870   55.69990   96.90230
 13246.00000   55.68090   96.34900   54.38720   95.47380   56.40080   98.21630   55.46360   96.87940
 13246.50000   55.71640   96.32110   54.44480   95.37340   55.87950   97.65110   54.97490   96.65820
 13247.00000   55.78290   96.42320   54.47960   95.27310   55.89270   96.87300   54.98810   96.41530
 13247.50000   55.85900   96.16080   54.28810   94.83840   55.71520   96.11070   54.80170   95.68790
 13248.00000   55.76800   95.65580   53.88540   94.28880   55.33290   95.49680   54.40620   95.02950
 13248.50000   55.59240   94.91350   53.41160   93.34210   54.86570   94.43730   53.93450   94.01400
 13249.00000   54.88590   94.16860   52.71770   92.54720   54.23290   93.81520   53.26260   93.24070
 13249.50000   54.34630   93.57390   52.42080   91.44190   53.83640   93.97040   52.92920   92.60080
 13250.00000   54.14180   93.46340   52.45640   91.21190   53.87280   94.27780   52.96600   92.57980
 13250.50000   54.28960   93.58200   52.92370   92.74640   54.48460   94.94440   53.48500   93.81070
 13251.00000   54.67810   94.95660   54.17790   94.68080   55.73420   96.80010   54.73890   95.56680
 13251.50000   55.40250   96.21640   54.90850   96.55280   56.44570   98.65570   55.50550   97.40240
 13252.00000   56.18650   97.92810   55.27540   97.76140   57.34900  100.51140   56.39200   99.23800
 13252.50000   56.92750  100.07520   55.77440   98.32980   58.03330  101.61640   57.07610  100.53970
 13253.00000   57.36700  101.29200   56.36510   98.31980   58.54360  101.21700   57.63010   99.97720
 13253.50000   57.68660  102.22910   56.60540   98.62090   58.64450  100.64330   57.74000   99.99000
 13254.00000   57.77220  102.66460   56.95600   99.08500   58.89150  101.19420   57.93030  100.55380
 13254.50000   58.18830  102.53420   57.37660   99.56160   59.41500  102.04920   58.49040  101.21530
 13255.00000   58.58600  102.66350   57.68150  100.03810   59.67010  102.79710   58.75990  101.87680
 13255.50000   59.12120  102.93600   57.98640  100.44560   59.61650  103.28920   58.71200  102.41710
 13256.00000   59.38090  103.24370   58.11460  100.84540   59.59670  103.78130   58.69210  102.81990
 13256.50000   59.63690  103.55300   57.85040  101.24520   59.68840  104.27340   58.77820  102.78830
 13257.00000   59.89280  103.90320   57.58630  102.16870   59.61640  104.76550   58.71030  103.24110
 13257.50000   60.14880  104.25350   57.32210  103.64020   59.50950  105.07070   58.60400  104.31800
 13258.00000   59.90290  103.74490   56.93810  103.63750   59.27310  104.88890   58.36320  104.28310
 13258.50000   59.63020  103.12030   56.53060  102.71870   59.03210  104.67990   58.12240  103.43750
 13259.00000   59.08860  102.28960   56.08980  101.58740   58.67470  104.36460   57.74040  102.30530
 13259.50000   58.41580  100.83420   55.36240   99.24930   58.07070  102.88800   57.06510  100.58960
 13260.00000   57.80500   99.22760   54.37650   96.08090   58.01400  101.36500   56.14690   98.64170
 13260.50000   57.23670   97.87620   53.40630   94.03330   57.95730   99.11520   55.49000   96.71200
 13261.00000   56.35310   96.87460   53.06850   92.98830   57.88520   98.83800   55.33360   95.91130
 13261.50000   56.22390   96.74170   52.87470   92.44680   57.77150   99.21250   55.33550   96.19340
