~Version ---------------------------------------------------
VERS.   2.0 : CWLS log ASCII Standard -VERSION 2.0
WRAP.    NO : One line per depth step
DLM . SPACE : Column Data Section Delimiter
~Well ------------------------------------------------------
STRT .F                5342.0 : START DEPTH
STOP .F               14250.0 : STOP DEPTH
STEP .F                   0.5 : STEP
NULL .               -9999.25 : NULL VALUE
COMP .                        : COMPANY
WELL .                        : WELL
FLD  .                        : FIELD
LOC  .                        : LOCATION
PROV .                        : PROVINCE
CNTY .                        : COUNTY
STAT .                        : STATE
CTRY .                        : COUNTRY
SRVC .                        : SERVICE COMPANY
DATE .                        : DATE
UWI  .                        : UNIQUE WELL ID
API  .                        : API NUMBER
SLAT .WGS84 5.619905017556597 : SURFACE LATITUDE
SLON .WGS84 4.511351257034491 : SURFACE LONGITUDE
DATUM.F                   nan : DEPTH DATUM ELEV
~Curve Information -----------------------------------------
DEPT.F     : 1 MEASURED DEPTH
DTCO.US/F  : DELTA-T COMPRESSIONAL
DTSM.US/F  : DELTA-T SHEAR
DTTP.US/F  : DELTA-T COMPRESSIONAL, TRANSMITTER ARRAY - MONOPOLE P & S
DTTS.US/F  : DELTA-T SHEAR, TRANSMITTER ARRAY - MONOPOLE P & S
DTRP.US/F  : DELTA-T COMPRESSIONAL, RECEIVER ARRAY - MONOPOLE P & S
DTRS.US/F  : DELTA-T SHEAR, RECEIVER ARRAY - MONOPOLE P & S
DT4P.US/F  : DELTA-T COMPRESSIONAL - MONOPOLE P & S
DT4S.US/F  : DELTA-T SHEAR - MONOPOLE P & S
~Params ----------------------------------------------------
~Other -----------------------------------------------------
~ASCII -----------------------------------------------------
# ...
 14062.00000   55.23240   91.21830   54.01630   90.46510   55.06170   91.49010   54.52630   91.09350
 14062.50000   55.22240   91.29200   53.92890   90.37560   55.04060   91.40060   54.43880   91.00390
 14063.00000   55.24060   91.31710   54.03050   90.36690   55.02220   91.39110   54.53860   90.99480
 14063.50000   55.22460   91.31690   53.98150   90.54550   55.66320   91.56970   54.49800   91.17340
 14064.00000   55.09890   91.40300   54.17320   90.61800   55.73880   91.65290   54.68370   91.25240
 14064.50000   55.13620   91.49050   53.99890   90.89160   55.36030   91.92320   54.50800   91.52400
 14065.00000   55.25900   91.65240   54.08910   91.13500   55.23090   92.16670   54.59750   91.76730
 14065.50000   55.27810   91.82230   54.15260   91.52270   55.31500   92.58390   54.66160   92.17280
 14066.00000   55.29000   92.53570   54.25730   91.79200   55.48780   92.82170   54.76590   92.42340
 14066.50000   55.26740   92.54220   54.33780   91.86450   55.58980   92.89430   54.84740   92.49580
 14067.00000   55.27070   92.51170   54.20720   91.60650   55.58980   92.66950   54.71540   92.25800
 14067.50000   55.27400   92.05750   53.95410   91.04460   55.58980   92.10690   54.70240   91.69530
 14068.00000   55.27110   91.60330   53.62280   90.79710   55.34810   91.87940   54.51620   91.46020
 14068.50000   55.27570   91.30030   53.29160   90.28940   54.95270   91.32350   54.20440   90.92350
 14069.00000   55.03450   91.23910   53.07570   90.17230   54.61110   91.19640   53.97360   90.80020
 14069.50000   54.91610   91.19660   53.07090   90.16030   54.50850   91.18440   53.74280   90.78810
 14070.00000   54.86110   91.18780   53.06620   90.13590   54.40590   91.16010   53.62960   90.76380
 14070.50000   54.71120   91.32600   53.06140   90.19520   54.46010   91.22140   53.65510   90.82430
 14071.00000   54.71920   91.39690   53.05670   90.47790   54.57750   91.60760   53.68070   91.20340
 14071.50000   54.80740   91.42810   53.18840   90.62370   54.69480   91.69250   53.70620   91.29580
 14072.00000   55.21320   91.43880   53.32720   90.71420   54.84010   91.73830   53.73170   91.34200
 14072.50000   55.30970   91.44180   53.46600   90.70410   55.02610   91.72820   53.79050   91.33190
 14073.00000   55.34830   91.44610   53.60480   90.69410   55.21210   91.71820   53.90980   91.32180
 14073.50000   55.38730   91.72040   53.74360   90.68400   55.33950   91.70810   54.02910   91.31180
 14074.00000   55.43030   91.93300   53.88240   90.76280   55.32940   91.79310   54.14840   91.39450
 14074.50000   55.44050   92.17570   53.98390   90.95320   55.31930   91.99820   54.26770   91.59170
 14075.00000   55.49050   92.46720   54.01680   91.16280   55.30930   92.44290   54.38700   92.03680
 14075.50000   55.69370   92.74090   54.04970   91.30320   55.33460   92.46970   54.40200   92.07330
 14076.00000   55.71170   92.85970   54.08260   91.44370   55.42230   92.48960   54.39190   92.09330
 14076.50000   55.49550   92.97130   54.11550   91.43820   55.51000   92.46260   54.38190   92.06620
 14077.00000   55.45390   92.98830   54.14840   91.51380   55.59780   92.59190   54.37180   92.19390
 14077.50000   55.00430   93.02440   54.18130   91.54480   55.44470   92.47850   54.36180   92.08000
 14078.00000   54.94940   93.04260   54.01480   91.57590   55.18410   92.60410   54.34450   92.20740
 14078.50000   54.97470   93.05090   53.84310   91.51590   54.92360   92.54250   54.24410   92.14520
 14079.00000   55.00810   93.05930   53.67140   91.27180   55.14970   92.30500   54.14360   91.90500
 14079.50000   55.08040   92.87530   53.49970   90.93130   55.47830   91.97400   54.04320   91.57070
 14080.00000   55.38760   92.18050   53.36780   90.79370   55.44620   91.81900   53.94280   91.42230
 14080.50000   55.59640   92.03110   53.47520   90.86410   55.21890   91.89220   53.84240   91.49430
 14081.00000   55.58640   92.60840   53.58260   91.20200   55.07440   92.25490   53.88820   91.84740
 14081.50000   55.57640   93.00270   53.69050   91.57750   55.20710   92.60290   54.13290   92.20610
 14082.00000   55.56640   93.03290   53.79840   91.73100   55.38650   92.78320   54.37750   92.37600
 14082.50000   55.56740   93.19420   53.90960   91.85960   55.57170   92.89180   54.62210   92.49240
 14083.00000   55.57960   93.18240   54.05690   91.81200   55.75680   92.83720   54.75690   92.44050
 14083.50000   55.64650   93.23710   54.20340   91.87050   55.93980   92.89900   54.71340   92.50100
 14084.00000   55.69360   93.22320   54.47020   91.85190   55.90080   92.88410   54.99150   92.48460
 14084.50000   55.71650   93.07000   54.64350   91.63780   55.86180   92.66790   55.15740   92.26910
 14085.00000   55.70650   92.94720   54.35430   91.65160   55.82280   92.67930   54.86790   92.28170
 14085.50000   55.69650   92.93180   54.28590   91.82710   55.78370   92.85330   54.79440   92.45610
 14086.00000   55.68650   92.90410   54.28590   91.87890   55.77820   92.90400   54.85090   92.50730
 14086.50000   55.67170   92.90590   54.28590   91.86570   55.82150   92.89090   54.90730   92.49420
 14087.00000   55.65330   92.90070   54.28590   91.83120   55.86480   92.86220   54.89040   92.46310
 14087.50000   55.46740   92.87900   54.28590   91.88260   55.90810   92.92910   54.87340   92.52430
 14088.00000   55.44620   92.87750   54.28590   91.62510   55.91210   92.65120   54.87730   92.25420
 14088.50000   55.44580   92.87600   54.28140   91.64320   55.80320   92.66980   54.92030   92.27250
 14089.00000   55.45440   92.92100   54.21200   91.74770   55.69430   92.77430   54.96330   92.37710
 14089.50000   55.46290   92.97750   54.27750   91.92010   55.58540   92.95100   55.00630   92.55230
 14090.00000   55.55220   93.03280   54.38110   92.00230   55.52160   93.02710   55.04930   92.63040
 14090.50000   55.62190   93.07340   54.50480   91.99560   55.53360   93.03980   55.09230   92.64300
 14091.00000   55.62120   93.09240   54.62310   91.99460   55.54560   93.16300   55.13530   92.76530
 14091.50000   55.62050   93.09010   54.65550   91.99360   55.55770   93.28340   55.16410   92.88670
 14092.00000   55.61980   93.09230   54.63900   91.99260   55.56970   93.17750   55.14760   92.77710
 14092.50000   55.58240   93.09370   54.46600   91.95420   55.46150   92.98000   54.98290   92.58310
 14093.00000   55.45300   93.09040   54.31130   91.82810   55.35070   92.85900   54.81990   92.46010
 14093.50000   55.42740   93.08710   54.28260   91.66990   55.27520   92.69590   54.79120   92.29890
 14094.00000   55.41680   93.02420   54.20130   91.61290   55.32580   92.63810   54.71220   92.24140
 14094.50000   55.43220   92.94020   54.26990   91.62570   55.37650   92.65080   54.78470   92.25410
 14095.00000   55.46210   93.02290   54.30160   91.64860   55.42710   92.67380   54.81010   92.27700
 14095.50000   55.57130   93.06560   54.32180   91.76280   55.47770   92.78860   54.83100   92.39170
 14096.00000   55.61450   93.04760   54.44740   91.91570   55.52830   92.97750   54.95780   92.56640
 14096.50000   55.61380   93.22610   54.63320   92.08670   55.55260   93.20350   55.14410   92.71780
 14097.00000   55.61310   93.03790   54.56310   91.92620   55.45490   93.17070   55.08110   92.55950
 14097.50000   55.61250   92.88420   54.35920   91.81790   55.35730   93.13790   54.80630   92.44600
 14098.00000   55.61140   92.60830   54.18700   91.47670   55.30820   93.02030   54.79030   92.11530
 14098.50000   55.59370   92.13310   54.01480   91.18860   55.26450   92.80180   54.76980   91.81670
 14099.00000   55.47840   92.19740   53.84260   91.07530   55.22080   92.58340   54.74930   91.70610
 14099.50000   55.40240   92.27350   53.67030   90.92410   55.17720   92.36490   54.72880   91.55220
 14100.00000   55.48540   92.34950   53.63570   90.83440   55.13670   92.14650   54.53270   91.46360
 14100.50000   55.42410   92.06700   53.69210   90.72350   55.10580   91.92800   54.38990   91.35200
 14101.00000   55.13460   91.79840   53.74860   90.66920   55.03220   91.70950   54.40570   91.29720
 14101.50000   55.03570   91.87590   53.80500   90.63570   54.94530   91.66030   54.43190   91.26380
