~Version ---------------------------------------------------
VERS.   2.0 : CWLS log ASCII Standard -VERSION 2.0
WRAP.    NO : One line per depth step
DLM . SPACE : Column Data Section Delimiter
~Well ------------------------------------------------------
STRT .F                5342.0 : START DEPTH
STOP .F               14250.0 : STOP DEPTH
STEP .F                   0.5 : STEP
NULL .               -9999.25 : NULL VALUE
COMP .                        : COMPANY
WELL .                        : WELL
FLD  .                        : FIELD
LOC  .                        : LOCATION
PROV .                        : PROVINCE
CNTY .                        : COUNTY
STAT .                        : STATE
CTRY .                        : COUNTRY
SRVC .                        : SERVICE COMPANY
DATE .                        : DATE
UWI  .                        : UNIQUE WELL ID
API  .                        : API NUMBER
SLAT .WGS84 5.619905017556597 : SURFACE LATITUDE
SLON .WGS84 4.511351257034491 : SURFACE LONGITUDE
DATUM.F                   nan : DEPTH DATUM ELEV
~Curve Information -----------------------------------------
DEPT.F     : 1 MEASURED DEPTH
DTCO.US/F  : DELTA-T COMPRESSIONAL
DTSM.US/F  : DELTA-T SHEAR
DTTP.US/F  : DELTA-T COMPRESSIONAL, TRANSMITTER ARRAY - MONOPOLE P & S
DTTS.US/F  : DELTA-T SHEAR, TRANSMITTER ARRAY - MONOPOLE P & S
DTRP.US/F  : DELTA-T COMPRESSIONAL, RECEIVER ARRAY - MONOPOLE P & S
DTRS.US/F  : DELTA-T SHEAR, RECEIVER ARRAY - MONOPOLE P & S
DT4P.US/F  : DELTA-T COMPRESSIONAL - MONOPOLE P & S
DT4S.US/F  : DELTA-T SHEAR - MONOPOLE P & S
~Params ----------------------------------------------------
~Other -----------------------------------------------------
~ASCII -----------------------------------------------------
# ...
 12062.00000   75.19540  125.22030   -9999.25   -9999.25   -9999.25   -9999.25   -9999.25   -9999.25
 12062.50000   75.41000  128.60210   -9999.25   -9999.25   -9999.25   -9999.25   -9999.25   -9999.25
 12063.00000   74.48430  130.62110   -9999.25   -9999.25   -9999.25   -9999.25   -9999.25   -9999.25
 12063.50000   73.23980  130.13900   -9999.25   -9999.25   -9999.25   -9999.25   -9999.25   -9999.25
 12064.00000   72.09150  128.12370   -9999.25   -9999.25   -9999.25   -9999.25   -9999.25   -9999.25
 12064.50000   71.64150  127.78390   -9999.25   -9999.25   -9999.25   -9999.25   -9999.25   -9999.25
 12065.00000   72.78780  130.74120   -9999.25   -9999.25   -9999.25   -9999.25   -9999.25   -9999.25
 12065.50000   73.89190  130.97110   -9999.25   -9999.25   -9999.25   -9999.25   -9999.25   -9999.25
 12066.00000   74.10250  129.10330   69.21260  115.58670   70.73360  141.20050   72.32830  128.95690
 12066.50000   73.32640  127.52060   70.72290  116.36800   70.21230  141.71700   72.28320  129.66050
 12067.00000   72.63250  128.76000   72.39600  118.13800   70.25420  142.22990   72.91230  130.40390
 12067.50000   73.02140  129.34480   74.35690  122.19480   70.61520  142.74270   73.60700  132.31570
 12068.00000   73.55820  129.95320   76.31780  128.29620   72.50510  143.13820   74.33750  136.77030
 12068.50000   74.06190  130.56430   77.27920  133.80700   73.80820  143.23830   74.67150  139.75470
 12069.00000   74.21690  131.82160   76.86460  136.73780   73.13300  141.26360   74.48170  138.16260
 12069.50000   74.24150  132.66020   74.36890  135.15300   71.94360  138.56040   73.55500  135.85430
 12070.00000   74.73590  131.09980   72.76450  133.93090   73.79020  136.94940   74.24190  134.89200
 12070.50000   75.34050  128.64130   72.61150  133.70490   76.32430  136.80890   75.11880  134.64120
 12071.00000   75.39340  124.03290   72.61150  133.49420   78.94740  136.70580   76.21510  134.06970
 12071.50000   75.03530  121.47590   72.61150  129.04770   81.66610  133.26360   77.43920  131.30200
 12072.00000   74.41010  121.12990   73.28810  122.85050   79.14090  129.36650   77.20440  125.91800
 12072.50000   73.64890  121.32470   72.22900  115.96300   75.50630  130.08920   73.49630  123.19810
 12073.00000   73.37790  121.42870   69.63220  112.39880   72.74120  135.46270   70.75290  124.25900
 12073.50000   72.57570  121.17500   69.34120  110.14060   72.61290  141.22670   70.85900  125.81770
 12074.00000   72.59260  122.43590   68.05710  106.30220   74.60930  145.76160   70.98120  126.44500
 12074.50000   73.29080  125.58450   63.19930  102.20600   76.60580  148.20050   70.44810  125.14670
 12075.00000   73.42700  127.01140   60.77940   97.51730   78.48630  149.20410   69.53350  123.83430
 12075.50000   73.13800  126.01860   63.30820  104.05720   78.15950  151.20510   70.53600  127.35240
 12076.00000   72.80140  125.09230   66.44520  113.89850   77.47960  154.72570   72.26220  135.16710
 12076.50000   72.97750  124.96220   69.09250  121.44980   76.29530  153.39090   72.71440  138.14310
 12077.00000   73.37600  125.79860   69.03310  122.46720   73.70560  144.36730   72.14820  134.02440
 12077.50000   72.49130  128.78810   67.77150  123.72800   71.08690  135.82660   69.18160  130.06470
 12078.00000   72.33510  132.63970   67.51160  127.34330   69.94580  136.47270   69.19680  132.29460
 12078.50000   72.89600  136.94560   68.67480  133.55370   70.78010  142.43300   69.76010  137.07570
 12079.00000   74.27950  143.91340   70.85650  138.97080   72.59140  147.03740   71.62410  144.29150
 12079.50000   74.51150  144.34420   71.19820  139.38790   72.64320  144.86680   71.71870  141.88880
 12080.00000   72.94540  143.58390   69.05430  137.94610   70.99230  141.20500   69.74520  138.79880
 12080.50000   71.37130  142.96800   68.66260  138.57070   70.37800  140.57840   69.17280  139.05880
 12081.00000   71.47350  143.57240   69.16600  139.64530   71.35760  141.99600   70.35500  141.06240
 12081.50000   71.78200  142.92630   70.51670  140.57740   72.92870  144.91690   71.57670  142.54130
 12082.00000   72.11350  142.92470   71.24860  139.89780   73.77460  146.58020   72.39480  143.41980
 12082.50000   73.40200  143.13580   71.83750  140.27800   73.81370  146.76300   72.53770  143.64810
 12083.00000   74.54930  142.83600   71.81940  141.88770   73.81370  146.44380   72.45620  143.64250
 12083.50000   74.71560  142.34030   71.21190  142.11570   73.81370  144.93030   72.16320  143.32790
 12084.00000   74.01940  140.34300   70.60440  140.88980   73.82720  143.36660   71.99550  142.36150
 12084.50000   73.34050  139.83010   70.47230  140.02340   74.45380  142.38670   72.50540  141.56280
 12085.00000   73.24940  140.00740   71.21050  138.21480   74.60720  141.63090   72.93770  140.63120
 12085.50000   73.23250  140.32210   71.94880  138.12310   74.52970  140.93320   73.36520  139.44370
 12086.00000   73.26330  140.58670   72.61660  138.75540   74.45220  140.39580   73.77020  139.45300
 12086.50000   73.69920  140.57260   73.07460  139.39190   75.06640  141.18670   74.17530  140.04110
 12087.00000   75.42800  139.39730   73.13240  139.56870   74.94890  142.16150   74.03580  140.23170
 12087.50000   75.78930  136.31840   72.50880  136.92800   74.62340  140.72890   73.69990  138.15510
 12088.00000   75.22380  132.68850   72.15120  129.86670   74.92070  138.88950   73.61230  134.75390
 12088.50000   74.85120  129.26600   72.72370  125.37400   75.31520  138.97770   73.86980  131.37200
 12089.00000   75.00730  128.26790   73.31030  123.89510   75.41180  139.48300   73.81940  130.37670
 12089.50000   74.73520  127.85230   73.22450  126.96850   75.40910  139.92570   73.73290  130.20450
 12090.00000   74.01250  126.46890   72.83160  129.98960   75.40450  139.96480   73.84460  131.12450
 12090.50000   73.41220  125.09650   71.81780  133.98050   75.73260  139.72050   73.67370  135.03290
 12091.00000   73.48700  125.48840   69.89160  137.64380   76.29610  141.59450   73.42720  139.30200
 12091.50000   73.32560  128.13040   67.96550  139.69130   76.60260  144.60290   72.72680  141.72030
 12092.00000   72.99070  131.99500   67.33370  139.34010   76.26230  146.93110   71.88440  141.92270
 12092.50000   73.07460  138.35940   68.62490  139.28580   75.30430  147.04270   71.73860  142.71090
 12093.00000   73.44030  145.46770   68.96900  140.99850   74.01240  145.39830   72.17040  143.63050
 12093.50000   73.55350  148.40440   69.74140  140.03180   73.44950  144.68030   72.53770  143.31880
 12094.00000   72.94480  147.94610   70.51380  134.39270   73.72100  144.57440   72.80700  139.18750
 12094.50000   72.37040  145.42070   71.24000  128.75370   74.01810  144.73590   73.10410  135.17510
 12095.00000   72.62480  142.54720   71.96030  123.11470   74.31520  146.85550   73.40120  134.38910
 12095.50000   73.54090  139.71250   72.59910  118.49030   74.64250  149.90060   73.72290  133.91530
 12096.00000   74.48340  136.84900   72.28290  114.59890   75.04550  153.40350   74.10570  134.01790
 12096.50000   74.85410  135.05800   71.52850  110.95630   76.08580  156.46160   74.46640  134.10300
 12097.00000   75.09880  135.07340   70.77410  108.43430   77.31230  158.38730   74.44500  133.42950
 12097.50000   75.01030  134.68100   69.97780  105.92110   78.53880  159.06610   74.33730  132.76510
 12098.00000   73.38750  132.79090   69.03600  104.90840   79.60560  159.76680   74.43430  132.50280
 12098.50000   71.83770  129.68970   70.33870  104.89100   79.58850  158.52520   74.78980  132.20580
 12099.00000   71.78980  129.93350   71.41630  107.66840   78.33840  155.05980   74.33010  131.60590
 12099.50000   71.89490  132.36340   70.67140  111.63520   75.92460  151.59440   73.39720  131.33620
 12100.00000   72.19730  138.22290   69.28280  115.20560   73.77120  148.12900   72.10050  131.29790
 12100.50000   72.63660  143.02580   67.89410  118.12090   71.65690  144.66370   69.70080  131.35920
 12101.00000   73.36390  147.20580   67.24370  122.54420   70.54380  141.19830   69.63690  132.59050
 12101.50000   74.10240  150.34350   69.78920  135.12700   72.49280  139.47540   71.19620  138.17120
