~Version ---------------------------------------------------
VERS.   2.0 : CWLS log ASCII Standard -VERSION 2.0
WRAP.    NO : One line per depth step
DLM . SPACE : Column Data Section Delimiter
~Well ------------------------------------------------------
STRT .F                5342.0 : START DEPTH
STOP .F               14250.0 : STOP DEPTH
STEP .F                   0.5 : STEP
NULL .               -9999.25 : NULL VALUE
COMP .                        : COMPANY
WELL .                        : WELL
FLD  .                        : FIELD
LOC  .                        : LOCATION
PROV .                        : PROVINCE
CNTY .                        : COUNTY
STAT .                        : STATE
CTRY .                        : COUNTRY
SRVC .                        : SERVICE COMPANY
DATE .                        : DATE
UWI  .                        : UNIQUE WELL ID
API  .                        : API NUMBER
SLAT .WGS84 5.619905017556597 : SURFACE LATITUDE
SLON .WGS84 4.511351257034491 : SURFACE LONGITUDE
DATUM.F                   nan : DEPTH DATUM ELEV
~Curve Information -----------------------------------------
DEPT.F     : 1 MEASURED DEPTH
DTCO.US/F  : DELTA-T COMPRESSIONAL
DTSM.US/F  : DELTA-T SHEAR
DTTP.US/F  : DELTA-T COMPRESSIONAL, TRANSMITTER ARRAY - MONOPOLE P & S
DTTS.US/F  : DELTA-T SHEAR, TRANSMITTER ARRAY - MONOPOLE P & S
DTRP.US/F  : DELTA-T COMPRESSIONAL, RECEIVER ARRAY - MONOPOLE P & S
DTRS.US/F  : DELTA-T SHEAR, RECEIVER ARRAY - MONOPOLE P & S
DT4P.US/F  : DELTA-T COMPRESSIONAL - MONOPOLE P & S
DT4S.US/F  : DELTA-T SHEAR - MONOPOLE P & S
~Params ----------------------------------------------------
~Other -----------------------------------------------------
~ASCII -----------------------------------------------------
# ...
 12222.00000   72.22220  130.10220   62.51450  115.62310   74.07650  132.11490   68.03920  124.51080
 12222.50000   70.92490  129.84240   66.89760  124.23310   74.07650  130.46000   70.00250  127.68820
 12223.00000   70.26170  129.58460   66.00480  123.29020   73.78800  128.79010   69.92290  126.69550
 12223.50000   70.00700  128.09430   64.84580  121.51400   72.67760  127.58780   69.21080  125.47540
 12224.00000   69.52000  126.79960   64.86240  122.15750   71.16830  126.52590   68.22370  124.56840
 12224.50000   68.84460  125.65600   65.93520  123.06750   70.32860  126.07290   67.71370  124.56840
 12225.00000   68.98420  124.51240   67.48210  124.08130   69.86430  126.91750   68.00390  125.57310
 12225.50000   69.04360  123.38870   67.93310  124.45030   69.80080  129.06080   68.45180  127.29200
 12226.00000   68.93470  123.02200   68.33240  123.77710   69.73180  132.26330   68.85090  127.84280
 12226.50000   69.08410  123.43180   68.33170  122.96010   69.98500  132.85470   69.31920  128.37510
 12227.00000   69.71750  123.85530   68.10070  123.77960   71.29130  132.04680   69.62050  128.60280
 12227.50000   69.11700  123.22410   66.76480  124.93170   73.14560  130.39570   69.67550  128.60280
 12228.00000   68.74270  122.79140   65.62350  125.95410   73.68240  128.63000   68.88440  126.50630
 12228.50000   68.30350  123.15460   64.48220  125.43860   70.39740  126.78670   67.18960  125.36990
 12229.00000   67.16320  123.96000   63.24460  125.17180   66.74120  126.21780   64.75050  128.03330
 12229.50000   65.11270  125.84290   62.24510  134.24410   66.26430  126.46820   64.36600  132.14280
 12230.00000   63.45140  126.63040   62.63990  142.67820   70.65650  127.32530   68.21570  136.13260
 12230.50000   63.79240  128.65240   65.64260  150.05980   77.85590  129.44640   72.45280  139.24640
 12231.00000   69.21870  136.97840   69.96710  154.22000   84.22690  137.76290   76.72170  145.42810
 12231.50000   78.24070  145.83870   74.19030  150.99070   83.91250  143.56680   79.13420  152.62220
 12232.00000   81.72420  146.88830   76.94880  144.88240   81.25880  145.54240   79.12840  148.78960
 12232.50000   82.47680  147.29010   75.55980  135.76950   79.55460  146.10490   77.74400  141.87650
 12233.00000   81.87400  149.44330   72.89650  130.28860   79.01010  146.55080   76.35030  138.40490
 12233.50000   78.55100  146.68930   71.77710  127.49190   78.88940  146.54080   75.27660  136.29400
 12234.00000   75.85210  143.70360   71.94080  128.12080   77.75700  146.53070   74.58350  136.76450
 12234.50000   74.66790  140.78140   72.47980  130.57600   76.02610  146.16310   74.55150  137.94630
 12235.00000   74.19450  139.97830   73.10300  133.97720   75.77710  145.73700   74.67330  139.55000
 12235.50000   74.64580  139.56650   73.94260  137.30600   76.50910  145.31090   75.10920  141.10330
 12236.00000   75.34500  139.44910   75.41410  137.89230   77.48230  144.56820   76.09100  140.94200
 12236.50000   75.93230  139.44570   75.69130  135.08910   78.45550  142.91450   77.09050  139.30080
 12237.00000   77.62270  139.44240   77.18020  131.18090   79.42870  141.59560   78.23950  136.75200
 12237.50000   78.81760  139.04120   78.80570  127.27280   80.22800  141.31270   79.31930  134.57220
 12238.00000   79.39110  137.76610   78.03050  123.31490   79.74990  141.71300   78.62970  132.52660
 12238.50000   79.17800  134.72150   76.57880  119.58330   78.86150  142.61340   77.24530  130.56940
 12239.00000   77.35410  132.28160   74.13970  118.02480   78.12620  145.04270   76.42200  131.46520
 12239.50000   75.35290  130.78500   73.62480  119.57840   78.23090  150.39530   76.20200  136.03210
 12240.00000   72.00470  129.10690   73.45860  121.96380   86.98910  157.20920   80.58400  140.71370
 12240.50000   70.23970  124.95490   71.97220  122.90750   91.72040  157.35480   81.51790  139.43660
 12241.00000   68.41330  121.19910   65.32340  120.45050   82.32470  144.07250   72.87610  132.50190
 12241.50000   67.39570  116.73390   58.89090  119.04400   71.55400  130.79030   64.88450  124.15810
 12242.00000   66.30690  113.13090   59.00390  120.13410   67.74450  124.48640   63.90740  122.94660
 12242.50000   64.48190  109.56490   61.32750  121.35230   66.99130  126.96270   64.35960  124.67130
 12243.00000   64.48390  108.77370   63.01600  121.59840   67.42750  129.77610   64.93000  126.39600
 12243.50000   65.10830  109.36930   62.77120  121.84420   67.90880  129.56690   65.29490  126.55340
 12244.00000   65.56070  113.38260   62.52640  121.99760   68.32950  127.68550   65.49210  125.92460
 12244.50000   65.59530  117.68300   63.81480  122.00140   68.42950  128.35390   65.54210  124.31050
 12245.00000   66.06320  120.15230   65.90140  121.59070   68.30950  129.06470   67.08840  124.38820
 12245.50000   67.07180  122.22450   66.52830  121.34990   68.34560  127.17790   67.42910  124.54010
 12246.00000   68.24210  123.97600   66.37040  121.06820   68.67990  125.57520   67.76330  124.07660
 12246.50000   68.89710  125.12400   66.59800  120.50960   69.47120  126.01340   68.23420  123.35940
 12247.00000   69.28960  125.87580   67.86840  120.10530   70.32230  125.91510   69.41720  123.35870
 12247.50000   69.80340  124.33520   67.82650  119.74780   70.07400  124.30960   69.12480  123.08950
 12248.00000   69.72990  122.77150   66.22610  118.22230   68.40250  122.40750   66.99590  120.55510
 12248.50000   68.29340  120.18550   64.73210  115.74060   66.45190  119.57860   65.34070  117.76680
 12249.00000   66.43540  116.52170   64.17220  113.53060   65.62100  119.06490   64.69330  116.55470
 12249.50000   64.86610  114.00530   63.26280  111.32060   65.04720  118.39880   63.92960  114.70440
 12250.00000   63.75780  112.49440   60.08510  108.45990   62.27000  113.95450   60.84950  111.03740
 12250.50000   62.82930  111.24020   59.28320  105.08910   60.28780  110.26700   59.81070  107.32190
 12251.00000   62.96100  109.72590   57.96520  101.89290   63.37670  108.06620   58.86890  103.01730
 12251.50000   64.13380  107.61440   54.77730   98.72650   60.52590  102.22550   55.74800   98.68880
 12252.00000   65.32850  106.57090   55.02530   95.71740   63.67140   97.66580   56.74990   98.07370
 12252.50000   65.85690  105.60380   64.71090   95.97730   69.06440  100.12500   66.56190  101.79280
 12253.00000   65.74110  105.39240   69.01800   98.97890   70.62770  105.92140   69.68980  103.51250
 12253.50000   65.34590  104.89640   67.69730  101.12160   69.84910  108.46860   68.67130  104.46770
 12254.00000   64.63960  103.28150   64.24810  101.35790   66.62180  109.20060   65.10400  105.16920
 12254.50000   63.82810  101.14040   62.61770  101.59950   64.29890  108.34230   63.22080  105.41390
 12255.00000   63.17280  100.39550   62.87030  102.75800   64.40160  107.48410   63.41900  104.67210
 12255.50000   63.12380  100.54110   64.19990  107.47050   69.02260  110.58890   65.48950  109.01980
 12256.00000   63.54280  102.73040   66.87330  128.52210   75.06080  116.41370   71.22060  125.48990
 12256.50000   65.01220  106.65670   69.04850  154.34290   86.71000  121.53250   77.32080  138.74800
 12257.00000   67.01980  115.82220   71.32430  161.25020   91.52610  126.34040   80.84680  142.81900
 12257.50000   69.70670  128.46630   73.60010  158.62690   89.43380  131.14620   81.42500  143.77060
 12258.00000   73.51600  138.59360   76.01450  155.55490   86.39320  135.95270   81.35830  145.33890
 12258.50000   76.92740  145.11730   78.85800  152.08450   83.35260  138.71330   80.68350  146.12930
 12259.00000   78.13860  144.80530   78.34140  143.10770   83.05170  137.95440   79.68010  141.07680
 12259.50000   77.27660  142.90830   68.90050  119.99690   84.06890  133.04580   74.82790  124.91390
 12260.00000   77.16830  138.49320   59.17120   92.53940   74.13290  125.41010   67.25600  107.70490
 12260.50000   75.35390  124.11490   54.22810   86.63960   64.99810  117.77440   59.62190  102.40430
 12261.00000   66.28390  109.31220   53.12750   85.86310   60.59750  110.13870   56.30090   98.18660
 12261.50000   60.18480   97.90010   51.64930   88.91580   58.52440  105.78700   55.36630   96.76070
