~Version ---------------------------------------------------
VERS.   2.0 : CWLS log ASCII Standard -VERSION 2.0
WRAP.    NO : One line per depth step
DLM . SPACE : Column Data Section Delimiter
~Well ------------------------------------------------------
STRT .F                5342.0 : START DEPTH
STOP .F               14250.0 : STOP DEPTH
STEP .F                   0.5 : STEP
NULL .               -9999.25 : NULL VALUE
COMP .                        : COMPANY
WELL .                        : WELL
FLD  .                        : FIELD
LOC  .                        : LOCATION
PROV .                        : PROVINCE
CNTY .                        : COUNTY
STAT .                        : STATE
CTRY .                        : COUNTRY
SRVC .                        : SERVICE COMPANY
DATE .                        : DATE
UWI  .                        : UNIQUE WELL ID
API  .                        : API NUMBER
SLAT .WGS84 5.619905017556597 : SURFACE LATITUDE
SLON .WGS84 4.511351257034491 : SURFACE LONGITUDE
DATUM.F                   nan : DEPTH DATUM ELEV
~Curve Information -----------------------------------------
DEPT.F     : 1 MEASURED DEPTH
DTCO.US/F  : DELTA-T COMPRESSIONAL
DTSM.US/F  : DELTA-T SHEAR
DTTP.US/F  : DELTA-T COMPRESSIONAL, TRANSMITTER ARRAY - MONOPOLE P & S
DTTS.US/F  : DELTA-T SHEAR, TRANSMITTER ARRAY - MONOPOLE P & S
DTRP.US/F  : DELTA-T COMPRESSIONAL, RECEIVER ARRAY - MONOPOLE P & S
DTRS.US/F  : DELTA-T SHEAR, RECEIVER ARRAY - MONOPOLE P & S
DT4P.US/F  : DELTA-T COMPRESSIONAL - MONOPOLE P & S
DT4S.US/F  : DELTA-T SHEAR - MONOPOLE P & S
~Params ----------------------------------------------------
~Other -----------------------------------------------------
~ASCII -----------------------------------------------------
# ...
 14222.00000   55.62340   93.48690   54.48140   91.81130   55.61250   92.87010   54.98990   92.46070
 14222.50000   55.62410   93.44590   54.39480   91.08900   55.71980   92.20810   54.90520   91.77550
 14223.00000   55.62470   93.21460   54.16450   90.58130   55.58770   91.62960   54.67690   91.22400
 14223.50000   55.62540   93.14950   54.37820   90.17430   55.83570   91.21660   54.90220   90.81350
 14224.00000   55.61890   93.08440   54.44700   90.30010   55.86060   91.36050   54.95560   90.95060
 14224.50000   55.60970   93.01920   54.39000   90.76930   55.84280   91.81390   54.93730   91.40970
 14225.00000   55.62630   92.95410   54.21590   91.11620   55.90540   92.15090   54.99420   91.75030
 14225.50000   55.58790   92.88890   54.04170   90.73970   55.66460   91.78990   54.75530   91.38370
 14226.00000   55.39690   92.71620   53.86750   90.38580   55.48850   91.48070   54.58380   91.05690
 14226.50000   55.18990   92.31360   53.76200   89.58470   55.41880   90.71040   54.51320   90.28460
 14227.00000   55.19510   92.10960   53.76200   88.67550   55.36770   90.34500   54.45860   89.37390
 14227.50000   55.14100   91.89690   53.19550   88.06580   55.41520   90.45500   54.48560   89.01200
 14228.00000   55.16860   92.45020   52.68440   87.81890   54.96860   90.56500   54.06030   89.26920
 14228.50000   55.14380   92.81800   52.75460   88.18290   54.97110   90.67880   54.06360   89.55640
 14229.00000   55.05140   93.11730   53.25380   88.84600   55.09450   90.79300   54.14390   89.95460
 14229.50000   55.16920   93.45930   53.75300   89.50900   55.36820   90.90730   54.45520   90.42570
 14230.00000   55.41960   93.53290   54.24330   90.17200   55.67360   91.29080   54.75690   90.88440
 14230.50000   55.64060   93.53040   54.42640   90.58800   55.83930   91.61930   54.93480   91.22050
 14231.00000   55.64790   93.56950   54.35950   91.08420   55.77340   92.13230   54.86820   91.72620
 14231.50000   55.66240   93.67430   54.33190   91.50410   55.74470   92.54500   54.84020   92.14180
 14232.00000   55.67960   93.60750   54.46350   91.79110   55.87980   92.81580   54.97290   92.41930
 14232.50000   55.80190   93.37940   54.45450   91.87880   55.89060   92.90760   54.97970   92.50950
 14233.00000   55.74510   93.55700   53.95330   91.46740   55.64030   92.53140   54.72940   92.11980
 14233.50000   55.69860   94.17020   53.45200   90.95500   55.38990   91.97600   54.53560   91.57910
 14234.00000   55.71270   93.84280   52.95080   90.50020   55.81430   91.78990   54.34710   91.38660
 14234.50000   55.82140   93.51320   53.09120   90.04540   56.57990   92.13210   54.29620   91.23820
 14235.00000   55.90300   93.29110   53.37410   90.02940   56.87480   92.79360   54.32180   91.58500
 14235.50000   55.89000   93.04060   53.70030   90.84550   56.32940   93.16280   54.58380   91.85240
 14236.00000   55.80270   92.76310   54.00800   91.53070   55.72980   93.11400   54.84570   92.15900
 14236.50000   55.91810   92.33310   54.25820   91.47060   55.54120   92.50480   54.98990   92.10460
 14237.00000   55.85380   92.01630   54.48150   91.12920   55.51200   92.17300   54.98990   91.76910
 14237.50000   55.73140   92.32530   54.48150   90.83730   55.51200   91.86300   54.98990   91.46600
 14238.00000   55.58140   92.71530   54.48150   90.84110   55.51200   91.87060   54.98990   91.47230
 14238.50000   55.70010   93.07010   54.49300   91.11280   55.51200   92.15620   55.00150   91.75260
 14239.00000   55.92030   93.31240   54.51680   91.55210   55.51200   92.58150   55.02520   92.18310
 14239.50000   55.81790   93.54500   54.60350   91.72330   55.51820   92.74970   55.11340   92.35250
 14240.00000   55.76780   93.51180   54.66850   91.84860   55.52500   92.87560   55.17660   92.47810
 14240.50000   55.80400   93.06700   54.52450   91.91240   55.53180   92.93730   55.03910   92.54070
 14241.00000   55.81920   93.00170   54.02000   91.84180   55.53860   92.86660   54.65820   92.47010
 14241.50000   55.79160   92.63990   53.54580   91.71460   55.54380   92.74240   54.63690   92.34460
 14242.00000   55.80100   92.36060   53.82280   91.42890   55.63690   92.48430   54.73230   92.07550
 14242.50000   55.82010   92.18710   54.06420   91.32320   55.76790   92.32840   54.86280   91.65490
 14243.00000   55.61240   92.04600   53.70630   91.33120   55.23290   92.93020   54.28470   92.04820
 14243.50000   55.30440   92.18220   53.50560   91.18760   55.45220   93.09860   54.54510   91.83810
 14244.00000   55.25730   91.99430   53.69760   90.87950   55.56930   92.89500   54.66410   91.62790
 14244.50000   55.47540   91.77270   54.02400   90.57130   55.71910   92.56520   54.80720   91.41780
 14245.00000   55.69210   91.29200   53.95360   90.44970   55.78960   92.23550   54.88540   91.25610
 14245.50000   55.63060   90.81140   53.68160   90.42910   55.69510   91.90570   54.78990   91.20690
 14246.00000   55.43590   90.35240   53.56440   90.40850   55.50040   91.57590   54.58520   91.07360
 14246.50000   55.30680   90.38990   53.47250   90.38800   55.25330   91.43420   54.34690   90.98940
 14247.00000   55.19750   90.29530   53.43510   90.36740   55.31210   91.40600   54.40400   90.99480
 14247.50000   55.12880   90.33020   53.85840   90.39780   55.38920   91.37770   54.46480   90.82870
 14248.00000   55.03680   90.71310   53.69710   90.36970   55.11920   91.34940   54.21480   90.67290
 14248.50000   55.14920   91.09600   53.70270   90.34160   55.19710   91.32120   54.28230   90.74310
 14249.00000   55.26080   91.47890   53.85860   90.31930   55.56230   91.29290   54.64670   90.79430
 14249.50000   55.50270   91.54320   54.04220   90.30790   55.66910   91.26470   54.76440   90.70310
 14250.00000   55.63780   91.57960   53.93010   90.29650   55.38300   91.24460   54.58220   90.65720
