~Version ---------------------------------------------------
VERS.   2.0 : CWLS log ASCII Standard -VERSION 2.0
WRAP.    NO : One line per depth step
DLM . SPACE : Column Data Section Delimiter
~Well ------------------------------------------------------
STRT .F                5342.0 : START DEPTH
STOP .F               14250.0 : STOP DEPTH
STEP .F                   0.5 : STEP
NULL .               -9999.25 : NULL VALUE
COMP .                        : COMPANY
WELL .                        : WELL
FLD  .                        : FIELD
LOC  .                        : LOCATION
PROV .                        : PROVINCE
CNTY .                        : COUNTY
STAT .                        : STATE
CTRY .                        : COUNTRY
SRVC .                        : SERVICE COMPANY
DATE .                        : DATE
UWI  .                        : UNIQUE WELL ID
API  .                        : API NUMBER
SLAT .WGS84 5.619905017556597 : SURFACE LATITUDE
SLON .WGS84 4.511351257034491 : SURFACE LONGITUDE
DATUM.F                   nan : DEPTH DATUM ELEV
~Curve Information -----------------------------------------
DEPT.F     : 1 MEASURED DEPTH
DTCO.US/F  : DELTA-T COMPRESSIONAL
DTSM.US/F  : DELTA-T SHEAR
DTTP.US/F  : DELTA-T COMPRESSIONAL, TRANSMITTER ARRAY - MONOPOLE P & S
DTTS.US/F  : DELTA-T SHEAR, TRANSMITTER ARRAY - MONOPOLE P & S
DTRP.US/F  : DELTA-T COMPRESSIONAL, RECEIVER ARRAY - MONOPOLE P & S
DTRS.US/F  : DELTA-T SHEAR, RECEIVER ARRAY - MONOPOLE P & S
DT4P.US/F  : DELTA-T COMPRESSIONAL - MONOPOLE P & S
DT4S.US/F  : DELTA-T SHEAR - MONOPOLE P & S
~Params ----------------------------------------------------
~Other -----------------------------------------------------
~ASCII -----------------------------------------------------
# ...
 12342.00000   56.17510   95.28400   54.92870   93.69450   56.41570   96.55940   55.45260   95.01120
 12342.50000   56.98780   95.93070   55.72460   93.93400   57.22580   98.03650   56.26560   95.97810
 12343.00000   57.16770   96.37670   55.96590   94.17360   57.37890   98.30110   56.47440   96.05950
 12343.50000   57.10430   96.49200   55.96730   94.35090   57.38270   98.30290   56.47660   96.11960
 12344.00000   56.69410   96.54450   56.11760   94.22560   57.53810   98.23450   56.62880   96.17970
 12344.50000   56.24850   96.51100   55.98130   93.94170   57.36000   98.31170   56.45440   96.23980
 12345.00000   56.99120   96.92120   56.12980   94.04450   58.03110   99.18730   57.05950   96.29990
 12345.50000   57.58510   97.47810   56.27840   94.94170   58.85220  100.06290   57.87050   97.20120
 12346.00000   58.56980   98.38900   56.91410   96.02070   59.44380  100.91400   58.51030   98.59090
 12346.50000   58.97590   99.29990   57.84640   97.09970   60.02100  101.24280   59.03170   99.19530
 12347.00000   59.51030  100.21080   59.44750   98.59580   61.10650  101.24980   60.08010   99.73150
 12347.50000   60.24630  101.12170   59.86860   99.32560   61.74260  100.60740   60.79230   99.95820
 12348.00000   60.37090  101.35840   57.99870   98.23690   59.97260   99.56020   58.77590   99.03840
 12348.50000   59.97240  100.56230   55.59270   95.15760   58.23130   99.42230   57.03420   97.43250
 12349.00000   59.57400   99.63660   53.54630   92.24650   56.27040   99.28450   54.91060   95.82670
 12349.50000   59.18240   98.94410   53.02500   90.82490   54.61960   99.27240   53.66930   95.07490
 12350.00000   58.82370   98.33360   52.91340   90.56030   54.32570   99.74840   53.42170   95.44030
 12350.50000   58.44330   97.83920   53.32580   90.82010   55.07020  100.14380   54.06930   95.51410
 12351.00000   58.00880   97.69730   53.71170   91.60560   56.04100   99.46400   55.03970   95.21520
 12351.50000   57.36090   97.30820   54.32280   92.48880   56.44010   97.19790   55.52690   94.91620
 12352.00000   56.89290   96.21780   54.55220   93.37160   56.64000   95.76720   55.73600   94.65770
 12352.50000   56.38560   95.42480   54.58100   94.04500   56.40630   95.38160   55.50230   94.96760
 12353.00000   55.99100   95.50480   54.90890   94.64190   56.39440   95.68460   55.49010   95.27750
 12353.50000   56.05580   96.07330   55.03290   95.01350   56.45410   96.14490   55.54440   95.64290
 12354.00000   56.24250   96.56090   54.81000   95.53140   56.44510   97.28690   55.53440   96.34700
 12354.50000   56.66390   96.93000   54.32190   95.00000   56.44520   97.81830   55.53580   96.73930
 12355.00000   56.78570   97.19960   53.83380   93.40440   56.48970   96.86770   55.58570   95.07870
 12355.50000   57.03770   96.88710   53.48250   92.86830   57.00510   96.81130   55.95170   94.83330
 12356.00000   56.90940   97.33850   54.11920   96.66170   58.23490  103.28270   57.18040  100.50640
 12356.50000   56.76710   98.00820   56.61730   98.62740   59.88730  115.85050   58.40900  107.52190
 12357.00000   56.83490  101.03170   56.99060   97.94440   63.30290  125.03680   59.62050  113.19520
 12357.50000   57.40500  104.21260   56.03890   96.79410   66.16210  131.93580   60.11750  114.87580
 12358.00000   58.65140  107.74930   55.08730   95.50210   66.45240  134.09680   60.05120  114.95900
 12358.50000   60.83320  108.69200   54.50250   93.94190   66.43750  134.55590   60.26110  114.85550
 12359.00000   62.60000  109.38200   54.45790   93.54780   66.83860  132.06630   60.49880  113.31930
 12359.50000   62.96240  109.42380   54.92170   96.45530   67.49680  124.60750   61.15510  111.58610
 12360.00000   62.74760  108.32620   56.01150  103.19120   67.52640  117.22030   61.38770  109.86620
 12360.50000   62.88240  107.09000   56.03760  103.98180   66.28830  109.83310   60.58200  106.77420
 12361.00000   62.06750  103.80180   54.93300   98.98390   62.59720  102.65510   59.01330  100.91610
 12361.50000   60.10540  101.64780   53.61760   94.96020   58.90610   96.87410   57.22320   96.09830
 12362.00000   58.16000   99.65120   53.84320   92.32500   57.08190   94.65920   56.05320   93.28300
 12362.50000   56.70360   97.62500   55.20320   92.16650   56.93130   94.26390   56.02480   93.41980
 12363.00000   56.69940   95.42850   55.85860   92.33600   57.29860   95.12670   56.38840   93.72570
 12363.50000   57.05450   95.60870   55.55270   92.75460   57.04590   95.98940   56.08980   94.38660
 12364.00000   57.31430   95.79720   54.99520   93.23440   56.45640   96.06500   55.51680   94.58380
 12364.50000   57.30300   95.83710   54.88480   93.76250   56.52390   95.08220   55.61750   94.47660
 12365.00000   56.91780   96.11060   54.71130   94.62000   56.65780   95.76250   55.73380   95.32070
 12365.50000   57.03330   96.62680   54.53780   95.82060   56.51140   97.39070   55.60530   96.67920
 12366.00000   57.51700   98.36150   54.76720   98.50840   57.08290  100.44430   55.93710   99.68500
 12366.50000   58.24060  100.21060   56.73320   99.63180   58.73370  109.03590   57.56980  104.31150
 12367.00000   59.43090  103.91430   58.66880  103.18930   61.07130  117.42350   59.42170  111.24580
 12367.50000   61.01520  107.11320   62.74300  111.02340   68.26540  123.40760   64.36910  118.69600
 12368.00000   64.83800  115.60460   67.78260  123.76870   76.85100  129.39160   72.74750  126.14620
 12368.50000   70.95750  127.03520   74.18170  129.12320   82.84450  133.52900   77.83600  130.27870
 12369.00000   77.62950  135.09400   78.50480  128.06600   82.98920  130.71520   81.13760  128.92920
 12369.50000   79.52700  137.79020   78.44690  125.11190   80.83270  127.05860   79.33430  126.30090
 12370.00000   76.56750  130.17650   74.85810  118.11500   78.84100  122.28080   76.67210  120.66800
 12370.50000   69.44200  116.33750   66.91600  110.09190   73.81230  114.25970   70.01010  112.64820
 12371.00000   61.20990  102.39360   58.36670   99.37210   69.17520  106.13060   63.41300  104.26320
 12371.50000   57.58070   98.41160   53.03100   92.95300   64.53810  100.14450   59.19290   95.52430
 12372.00000   56.48630   97.74030   51.54090   91.37520   60.16920   98.91970   56.49370   95.23390
 12372.50000   56.03910   97.67320   53.49910   93.08930   58.78280   99.12420   56.54860   96.57420
 12373.00000   56.58040   97.97490   55.21490   95.88610   58.58740   99.32870   56.88240   97.82750
 12373.50000   57.55950   98.33600   56.49120   97.87970   58.48890   99.24380   57.17170   98.50750
 12374.00000   57.75100   98.34340   56.81360   97.45790   58.39050   98.64150   57.32320   98.13190
 12374.50000   57.75590   98.33270   56.37950   96.68440   58.40500   98.27280   56.88780   97.61460
 12375.00000   57.63480   98.07870   55.85190   96.05670   58.54070   98.40860   56.36110   97.35090
 12375.50000   57.43490   97.89300   55.90560   95.83220   58.67650   98.45070   56.41380   97.54810
 12376.00000   57.49390   98.47640   56.40840   96.67570   58.95110   98.74900   56.99170   98.16350
 12376.50000   58.12140   99.78380   57.00660   98.04820   59.27240   99.98630   58.13710   98.80530
 12377.00000   59.20070  101.50430   57.73550   99.88280   59.62860  101.71490   58.69380  101.11990
 12377.50000   59.87630  103.36990   58.63230  102.19780   60.16630  104.90250   59.22520  103.43440
 12378.00000   60.95220  105.68920   60.07910  104.51290   61.88490  108.24550   60.74630  105.54880
 12378.50000   61.97890  107.92410   61.41590  106.23580   62.91670  108.71760   61.95660  107.58640
 12379.00000   63.01280  108.94810   61.52370  107.10750   62.94430  109.54770   62.03480  108.15610
 12379.50000   62.87730  108.57560   60.92500  106.80950   62.62980  110.49170   61.56730  108.55950
 12380.00000   61.53660  106.86720   59.70260  105.02870   61.38180  109.98270   60.31890  108.60340
 12380.50000   60.06610  104.85350   58.48520  102.31010   60.13390  106.63810   59.07880  105.47100
 12381.00000   58.59130  101.20770   56.86930   97.87280   58.78750  101.33560   57.55950   99.88500
 12381.50000   57.38260   97.78590   54.97450   95.51640   56.73540   98.34620   55.51370   97.15410
