~Version ---------------------------------------------------
VERS.   2.0 : CWLS log ASCII Standard -VERSION 2.0
WRAP.    NO : One line per depth step
DLM . SPACE : Column Data Section Delimiter
~Well ------------------------------------------------------
STRT .F                5342.0 : START DEPTH
STOP .F               14250.0 : STOP DEPTH
STEP .F                   0.5 : STEP
NULL .               -9999.25 : NULL VALUE
COMP .                        : COMPANY
WELL .                        : WELL
FLD  .                        : FIELD
LOC  .                        : LOCATION
PROV .                        : PROVINCE
CNTY .                        : COUNTY
STAT .                        : STATE
CTRY .                        : COUNTRY
SRVC .                        : SERVICE COMPANY
DATE .                        : DATE
UWI  .                        : UNIQUE WELL ID
API  .                        : API NUMBER
SLAT .WGS84 5.619905017556597 : SURFACE LATITUDE
SLON .WGS84 4.511351257034491 : SURFACE LONGITUDE
DATUM.F                   nan : DEPTH DATUM ELEV
~Curve Information -----------------------------------------
DEPT.F     : 1 MEASURED DEPTH
DTCO.US/F  : DELTA-T COMPRESSIONAL
DTSM.US/F  : DELTA-T SHEAR
DTTP.US/F  : DELTA-T COMPRESSIONAL, TRANSMITTER ARRAY - MONOPOLE P & S
DTTS.US/F  : DELTA-T SHEAR, TRANSMITTER ARRAY - MONOPOLE P & S
DTRP.US/F  : DELTA-T COMPRESSIONAL, RECEIVER ARRAY - MONOPOLE P & S
DTRS.US/F  : DELTA-T SHEAR, RECEIVER ARRAY - MONOPOLE P & S
DT4P.US/F  : DELTA-T COMPRESSIONAL - MONOPOLE P & S
DT4S.US/F  : DELTA-T SHEAR - MONOPOLE P & S
~Params ----------------------------------------------------
~Other -----------------------------------------------------
~ASCII -----------------------------------------------------
# ...
 13342.00000   53.74430   92.97110   52.55750   90.89070   54.06900   91.92590   53.10160   91.52540
 13342.50000   53.56210   92.88310   52.30120   90.88030   53.71740   91.90920   52.81070   91.51110
 13343.00000   53.68500   92.98040   52.43130   91.24450   53.84770   92.35380   52.94090   91.90400
 13343.50000   53.90220   93.41260   52.75700   92.42700   54.23480   93.72980   53.28080   93.23760
 13344.00000   54.23130   94.27450   53.68900   93.70540   55.30500   94.84160   54.27050   94.40270
 13344.50000   54.75200   95.09110   54.25680   94.68320   55.67540   95.80760   54.76710   95.38040
 13345.00000   55.36030   95.70570   54.42750   95.37720   55.84610   96.44180   54.93790   96.02950
 13345.50000   55.47050   95.43100   54.44950   94.83460   55.86320   95.88780   54.95820   95.48010
 13346.00000   55.35750   95.12510   54.07580   94.13180   55.58520   95.30930   54.61850   94.85430
 13346.50000   54.89160   94.64930   53.55570   93.21110   54.97990   94.70930   54.06790   93.86260
 13347.00000   54.46980   94.04370   52.93560   92.68770   54.50640   94.65950   53.56470   93.58950
 13347.50000   54.06350   93.43810   52.38280   91.77390   53.95030   95.74730   53.04490   94.26560
 13348.00000   53.97150   92.83250   52.56660   91.52500   54.01700   96.94660   53.07870   94.67880
 13348.50000   53.72830   92.37920   52.87830   91.83560   54.29240   98.14590   53.38710   94.91870
 13349.00000   53.63300   92.47590   52.99210   92.33020   54.43570   98.41760   53.50180   95.22180
 13349.50000   53.79850   93.51460   53.75610   93.08880   55.26270   98.43680   54.29870   95.54360
 13350.00000   54.41500   94.55320   54.23140   94.20050   55.66620   98.15200   54.74780   96.02060
 13350.50000   55.05690   95.62040   54.60140   94.96480   56.04540   97.29900   55.12100   96.43730
 13351.00000   55.37920   96.05170   54.99880   94.65870   56.41590   96.31170   55.50860   95.79740
 13351.50000   55.42740   96.43260   54.74740   94.12020   56.20310   95.35930   55.27100   94.92790
 13352.00000   55.30930   95.79050   53.99250   93.37510   55.58240   94.48990   54.56410   94.05830
 13352.50000   54.65000   94.79310   53.07980   92.41050   54.54980   93.49250   53.57690   93.07410
 13353.00000   53.89570   93.07550   52.40250   91.71300   53.98200   92.79540   53.07190   92.37680
 13353.50000   53.48170   92.10500   51.96870   91.01670   53.87330   92.09840   52.86160   91.67940
 13354.00000   53.41540   91.51070   52.33120   90.43580   53.74160   92.09570   52.77560   91.68790
 13354.50000   53.47730   92.08090   52.90540   90.09200   54.37710   93.47850   53.43200   92.32400
 13355.00000   53.87680   93.25210   53.65550   91.76470   55.12540   95.00320   54.18450   93.47110
 13355.50000   54.64540   94.04640   54.13490   93.63470   55.69150   96.49220   54.75680   94.94440
 13356.00000   55.39260   95.01690   54.56370   95.08030   56.08850   97.98090   55.16560   96.12940
 13356.50000   55.99330   95.91620   54.78590   95.97170   56.53050   98.66150   55.60430   97.09230
 13357.00000   56.37980   96.51040   55.00820   96.29340   56.93070   98.98310   56.02510   97.57280
 13357.50000   56.78280   97.18840   55.23040   96.19280   56.92230   99.21210   55.96120   97.89920
 13358.00000   56.94200   97.25300   54.77650   95.71760   56.22190   99.33950   55.29680   98.04000
 13358.50000   56.30170   97.15160   54.59780   94.69640   56.01140   99.33810   55.10650   98.03870
 13359.00000   56.03920   97.45160   54.55910   94.62630   55.97280   99.25400   55.06780   97.78930
 13359.50000   55.95090   97.60710   54.51560   95.43680   55.92920   98.98840   55.02430   97.47680
 13360.00000   55.82560   97.65540   54.67940   96.22410   56.12100   98.14280   55.19800   97.16430
 13360.50000   55.65350   97.36530   54.90700   96.19520   56.32070   97.29720   55.41570   96.83200
 13361.00000   55.32680   96.62980   55.07840   95.44100   56.50910   96.53920   55.59340   96.11410
 13361.50000   55.17940   95.85340   54.18180   94.28720   55.96930   95.45450   54.94970   94.99400
 13362.00000   54.83520   94.45350   52.67760   92.42010   54.71450   93.65550   53.69550   93.17800
 13362.50000   54.14300   92.93210   52.01390   91.01910   53.68320   92.26410   52.70160   91.77750
 13363.00000   53.50720   91.75440   51.39410   89.91970   52.87850   91.09120   51.92870   90.63770
 13363.50000   52.53750   90.87350   50.90860   89.20950   52.35890   90.25180   51.43040   89.84860
 13364.00000   52.21490   90.52340   50.71670   89.00250   52.14690   90.02860   51.23170   89.63150
 13364.50000   52.08770   90.47620   50.95130   89.33410   52.36470   90.45740   51.45990   90.03090
 13365.00000   51.90410   90.47570   50.93620   89.79310   52.34970   90.82020   51.44480   90.42280
 13365.50000   51.97340   90.88200   51.09600   89.89390   52.55750   90.92560   51.62130   90.52650
 13366.00000   52.45450   91.46930   51.58690   90.49590   53.05020   91.63840   52.11350   91.19530
 13366.50000   53.11970   92.06080   52.14430   91.43750   53.61760   92.51530   52.67450   92.09830
 13367.00000   53.48710   92.66460   52.75970   91.82230   54.24330   92.85740   53.29380   92.45710
 13367.50000   53.80090   93.02210   52.86060   92.14910   54.27410   93.20460   53.36920   92.79860
 13368.00000   53.83920   92.94390   52.76750   91.71950   54.19820   93.51480   53.28230   92.83910
 13368.50000   53.93080   93.08220   52.71240   91.36800   54.13720   93.82500   53.22500   92.83150
 13369.00000   54.32480   93.69950   52.96720   91.64040   54.39200   93.91350   53.48000   92.85380
 13369.50000   54.38110   93.71460   52.98330   91.91270   54.39870   93.90110   53.49260   93.03420
 13370.00000   54.01130   93.71610   52.68220   92.18510   54.12230   93.88520   53.20070   92.95060
 13370.50000   53.80690   93.71040   52.22010   92.14690   53.68130   93.86930   52.74650   92.77730
 13371.00000   53.75490   93.62200   52.11880   91.59640   53.53350   93.61320   52.62780   92.31930
 13371.50000   53.68950   93.05350   52.01990   90.47340   53.43530   92.87090   52.52900   91.57920
 13372.00000   53.52330   92.01030   51.80690   89.68720   53.23080   91.59530   52.31930   90.80360
 13372.50000   53.31490   91.72230   51.81290   89.78420   53.23780   91.49730   52.32520   90.58590
 13373.00000   52.92080   91.61860   52.08690   90.75770   53.51290   91.95970   52.59970   91.49470
 13373.50000   53.23090   91.79950   52.45040   92.00060   53.90330   93.17370   52.97310   92.72510
 13374.00000   53.86800   93.25610   53.22470   93.09060   54.84280   94.27680   53.80720   93.81700
 13374.50000   54.37070   94.35060   53.75950   93.49460   55.17290   94.51980   54.26800   94.12310
 13375.00000   54.71410   94.42420   53.49760   93.27850   54.93400   94.31330   54.01760   93.91300
 13375.50000   54.47350   93.83750   53.09980   92.82700   54.53060   93.88700   53.61460   93.47670
 13376.00000   54.10550   93.02940   52.45470   91.96180   54.00430   93.10130   53.01310   92.65070
 13376.50000   53.66180   92.43660   52.00610   91.05020   53.43080   92.87930   52.51880   91.73970
 13377.00000   53.34510   91.71850   51.87900   89.82900   53.29370   92.65730   52.38800   90.82870
 13377.50000   52.98710   90.21660   51.69120   88.36100   53.51370   92.47600   52.60330   90.16370
 13378.00000   52.83480   90.08560   50.88240   86.98330   54.02220   93.51720   52.83340   90.28720
 13378.50000   52.88750   90.35970   50.50130   86.98330   55.05370   94.90780   53.06350   90.93830
 13379.00000   53.27210   90.94670   50.82450   87.29790   56.08510   97.11850   53.29360   92.08040
 13379.50000   53.79440   91.63930   51.94750   87.97730   56.19540   98.57790   53.50210   92.74710
 13380.00000   53.98590   92.25840   52.73310   88.94330   55.65940   97.25590   53.70880   92.93260
 13380.50000   53.98330   92.87010   52.95200   89.90930   55.04810   95.82790   53.91540   93.00570
 13381.00000   53.85580   93.48180   52.77980   90.72180   54.46080   94.40000   53.46640   92.57850
 13381.50000   53.95320   93.66110   52.54260   91.20260   54.48940   93.26530   53.52900   92.17540
