~Version ---------------------------------------------------
VERS.   2.0 : CWLS log ASCII Standard -VERSION 2.0
WRAP.    NO : One line per depth step
DLM . SPACE : Column Data Section Delimiter
~Well ------------------------------------------------------
STRT .F                5342.0 : START DEPTH
STOP .F               14250.0 : STOP DEPTH
STEP .F                   0.5 : STEP
NULL .               -9999.25 : NULL VALUE
COMP .                        : COMPANY
WELL .                        : WELL
FLD  .                        : FIELD
LOC  .                        : LOCATION
PROV .                        : PROVINCE
CNTY .                        : COUNTY
STAT .                        : STATE
CTRY .                        : COUNTRY
SRVC .                        : SERVICE COMPANY
DATE .                        : DATE
UWI  .                        : UNIQUE WELL ID
API  .                        : API NUMBER
SLAT .WGS84 5.619905017556597 : SURFACE LATITUDE
SLON .WGS84 4.511351257034491 : SURFACE LONGITUDE
DATUM.F                   nan : DEPTH DATUM ELEV
~Curve Information -----------------------------------------
DEPT.F     : 1 MEASURED DEPTH
DTCO.US/F  : DELTA-T COMPRESSIONAL
DTSM.US/F  : DELTA-T SHEAR
DTTP.US/F  : DELTA-T COMPRESSIONAL, TRANSMITTER ARRAY - MONOPOLE P & S
DTTS.US/F  : DELTA-T SHEAR, TRANSMITTER ARRAY - MONOPOLE P & S
DTRP.US/F  : DELTA-T COMPRESSIONAL, RECEIVER ARRAY - MONOPOLE P & S
DTRS.US/F  : DELTA-T SHEAR, RECEIVER ARRAY - MONOPOLE P & S
DT4P.US/F  : DELTA-T COMPRESSIONAL - MONOPOLE P & S
DT4S.US/F  : DELTA-T SHEAR - MONOPOLE P & S
~Params ----------------------------------------------------
~Other -----------------------------------------------------
~ASCII -----------------------------------------------------
# ...
 13782.00000   55.82610   94.26170   53.95320   92.77470   55.37120   93.81290   54.46350   93.41090
 13782.50000   55.60510   93.85680   53.86520   92.37470   55.27860   93.43120   54.37380   93.02250
 13783.00000   55.30610   93.67960   53.52620   92.02680   55.00810   93.06230   54.05930   92.66180
 13783.50000   55.17490   93.43750   53.08680   91.79090   54.50080   92.81910   53.59560   92.42130
 13784.00000   54.95390   93.17270   53.08150   91.66330   54.58970   92.68850   53.63910   92.29180
 13784.50000   55.09890   93.58160   53.54980   91.85710   55.20760   92.93790   54.28970   92.51990
 13785.00000   55.44670   94.20200   54.01810   92.99870   55.55190   94.33310   54.63310   93.81610
 13785.50000   55.70580   94.80950   54.48640   94.04760   55.92770   95.09680   55.01980   94.69070
 13786.00000   55.80480   95.25090   54.57030   94.06070   55.99330   95.08910   55.08230   94.69120
 13786.50000   55.80640   94.90350   54.31320   93.63940   55.73890   94.77600   54.82630   94.33630
 13787.00000   55.52590   94.17430   53.67150   92.42470   55.16120   93.68710   54.20780   93.19820
 13787.50000   55.21440   93.16110   53.01460   91.09530   54.49330   92.30900   53.54690   91.84530
 13788.00000   54.55240   91.66130   52.46240   89.77910   53.91120   90.98940   52.98380   90.52080
 13788.50000   53.87470   90.51590   52.28370   89.19460   53.69790   90.22020   52.79260   89.82330
 13789.00000   53.64770   90.68300   52.45830   89.42580   53.99010   90.46920   53.00820   90.06530
 13789.50000   53.75140   91.14690   53.26650   89.84000   54.70560   90.88940   53.78460   90.48140
 13790.00000   54.21000   91.85510   53.66810   90.77070   55.11220   91.96810   54.18750   91.50480
 13790.50000   55.05280   92.66170   53.98480   91.80660   55.40740   92.88530   54.49670   92.46770
 13791.00000   55.47260   93.48070   54.08840   92.20680   55.50200   93.23370   54.59700   92.83630
 13791.50000   55.69290   93.69490   53.74740   91.81950   55.18960   93.18760   54.25560   92.51960
 13792.00000   55.65400   93.22370   53.12890   90.26500   55.14360   93.38890   54.23690   91.77770
 13792.50000   55.80550   92.73750   52.79430   90.63110   54.97200   93.53590   54.08790   91.77740
 13793.00000   55.07310   92.19900   53.08950   90.92730   55.09130   93.13250   54.21470   91.83960
 13793.50000   54.65590   92.04560   53.57090   91.14130   55.26010   93.03320   54.34140   91.77060
 13794.00000   54.62920   92.61710   53.76770   91.47530   55.42880   93.17080   54.51500   92.16690
 13794.50000   54.69840   93.24260   53.99120   92.35590   55.78180   93.54210   54.84880   93.03510
 13795.00000   55.06100   94.17130   54.69750   93.80780   56.28630   95.43360   55.35350   94.56980
 13795.50000   55.66050   95.28970   55.58380   95.30010   57.13290   97.66570   56.14870   96.10150
 13796.00000   56.54180   96.82650   56.48670   96.98700   58.04800   99.65220   57.04820   97.77250
 13796.50000   57.48580   98.86410   57.23210   98.99660   58.69310  101.31490   57.75740  100.27860
 13797.00000   58.16880  100.90180   57.91920  101.21300   59.43420  102.65840   58.46430  102.08770
 13797.50000   59.11960  102.67210   58.59470  102.62710   60.06870  103.97890   59.12560  103.58050
 13798.00000   60.15770  104.27560   59.18570  102.93120   60.65900  105.29940   59.71580  104.14920
 13798.50000   60.34830  104.94420   58.58960  100.51540   60.09140  104.96270   59.12970  102.71390
 13799.00000   59.73820  102.75840   57.92070   98.09960   59.44490  102.93860   58.46940  100.96910
 13799.50000   59.08810   99.59890   57.09940   95.68380   58.62270  100.90620   57.64750   98.73240
 13800.00000   58.22650   97.90600   55.93260   94.34440   57.62820   98.87390   56.54080   96.85850
 13800.50000   57.32260   96.35860   54.87460   93.17830   56.35700   96.84150   55.38520   95.05420
 13801.00000   56.46660   95.05750   54.74690   92.58740   56.16170   95.09510   55.25600   93.99950
 13801.50000   56.33260   95.12180   55.04210   93.04460   56.51670   94.93200   55.56060   94.14230
 13802.00000   56.82760   95.96540   55.75690   93.79310   57.22840   95.60740   56.28650   94.59300
 13802.50000   57.75280   96.87850   56.44860   95.35740   58.02720   96.63340   57.00090   96.13930
 13803.00000   58.31510   97.71870   57.82250   97.75210   59.47350   98.90850   58.41570   98.49560
 13803.50000   58.91620   98.25830   58.52950   98.27360   59.97150   99.29870   59.04850   98.90200
 13804.00000   59.28740   98.37410   58.62600   97.63630   60.04010   99.05140   59.13480   98.30450
 13804.50000   59.43190   98.30650   58.32310   96.78170   59.78870   98.64630   58.85080   97.53310
 13805.00000   59.57640   97.80040   58.08710   95.97480   59.50100   98.24130   58.59580   97.29820
 13805.50000   59.72090   97.50110   58.06860   96.10020   59.48210   97.87610   58.57720   97.47730
 13806.00000   59.86540   97.96370   58.11100   97.01080   59.53130   98.07090   58.62220   97.64170
 13806.50000   60.00990   98.96030   58.32140   97.94220   59.74840   99.05950   58.83490   98.62790
 13807.00000   60.15450   99.72260   58.62230   98.72090   60.05680   99.79250   59.13840   99.37900
 13807.50000   60.29900  100.59350   58.95100   99.32020   60.38520  100.54550   59.46660   99.97810
 13808.00000   60.44350  101.33730   59.00930   99.85350   60.44470  101.38260   59.52600  100.49080
 13808.50000   60.58800  101.69930   59.37450   99.76440   60.81900  101.56780   59.89450  100.39650
 13809.00000   60.66360  101.96610   59.47430   99.48420   60.93470  100.80230   59.99890  100.11900
 13809.50000   60.72300  101.68840   58.95700   99.30730   60.39940  100.62110   59.47580   99.93820
 13810.00000   60.59470  100.97380   58.20240   99.23910   59.78960  100.61300   58.77420   99.86870
 13810.50000   60.21830  100.09870   57.16630   98.96740   58.75510  100.03810   57.73750   99.62070
 13811.00000   59.84180   99.12140   55.87450   97.38090   57.65300   99.09620   56.51450   98.17870
 13811.50000   59.46540   98.14420   54.81890   96.18250   56.47030   97.95360   55.56200   96.86890
 13812.00000   58.82750   97.38350   54.41140   95.29590   56.64040   96.81110   55.73210   95.98240
 13812.50000   58.14660   97.03140   55.03550   94.84990   57.10440   96.42620   56.09580   95.48310
 13813.00000   57.92280   96.66330   56.55440   95.32250   58.12940   96.68900   57.12050   95.97330
 13813.50000   57.92770   96.73430   57.41100   95.67980   58.86130   96.97420   57.93260   96.30910
 13814.00000   57.75590   96.83090   56.26120   95.26070   58.03160   96.78140   56.89760   95.94960
 13814.50000   57.82960   96.19150   54.87780   94.35910   56.50070   95.48330   55.43150   95.04840
 13815.00000   56.96290   95.14490   54.38320   93.44380   55.83490   94.58240   54.90510   94.14730
 13815.50000   55.97730   94.02970   53.81780   92.31300   55.29380   93.36050   54.34760   92.95490
 13816.00000   55.38430   93.38830   53.53200   91.77940   54.96220   92.86420   54.04660   92.44450
 13816.50000   54.72110   92.59990   53.17770   91.55320   54.64980   92.58000   53.72970   92.18270
 13817.00000   54.35890   92.87580   52.76770   92.18260   54.43320   93.28210   53.52720   92.85700
 13817.50000   54.26330   93.90790   52.64250   92.95580   54.96190   94.02670   53.95140   93.61250
 13818.00000   54.65940   95.00110   53.21590   93.94440   55.95830   95.42990   54.94540   94.81100
 13818.50000   55.56060   96.12130   54.65420   95.80590   57.00620   96.91840   55.93940   96.55040
 13819.00000   56.56630   97.22280   55.69560   97.10820   57.69960   98.40500   56.21020   97.85290
 13819.50000   57.58150   96.75040   55.77260   96.98370   57.76210   98.99160   56.28120   97.68820
 13820.00000   57.76010   96.27790   54.92060   95.44130   57.44590   98.54370   56.24180   96.67490
 13820.50000   57.58680   95.76250   54.43020   94.13560   56.90510   97.01990   55.98010   95.66160
 13821.00000   56.83510   95.16050   54.58900   94.20880   56.51570   95.49610   55.59340   95.02620
 13821.50000   56.23580   95.37370   54.78010   94.37660   56.20420   95.37760   55.29240   94.98070
