~Version ---------------------------------------------------
VERS.   2.0 : CWLS log ASCII Standard -VERSION 2.0
WRAP.    NO : One line per depth step
DLM . SPACE : Column Data Section Delimiter
~Well ------------------------------------------------------
STRT .F                5342.0 : START DEPTH
STOP .F               14250.0 : STOP DEPTH
STEP .F                   0.5 : STEP
NULL .               -9999.25 : NULL VALUE
COMP .                        : COMPANY
WELL .                        : WELL
FLD  .                        : FIELD
LOC  .                        : LOCATION
PROV .                        : PROVINCE
CNTY .                        : COUNTY
STAT .                        : STATE
CTRY .                        : COUNTRY
SRVC .                        : SERVICE COMPANY
DATE .                        : DATE
UWI  .                        : UNIQUE WELL ID
API  .                        : API NUMBER
SLAT .WGS84 5.619905017556597 : SURFACE LATITUDE
SLON .WGS84 4.511351257034491 : SURFACE LONGITUDE
DATUM.F                   nan : DEPTH DATUM ELEV
~Curve Information -----------------------------------------
DEPT.F     : 1 MEASURED DEPTH
DTCO.US/F  : DELTA-T COMPRESSIONAL
DTSM.US/F  : DELTA-T SHEAR
DTTP.US/F  : DELTA-T COMPRESSIONAL, TRANSMITTER ARRAY - MONOPOLE P & S
DTTS.US/F  : DELTA-T SHEAR, TRANSMITTER ARRAY - MONOPOLE P & S
DTRP.US/F  : DELTA-T COMPRESSIONAL, RECEIVER ARRAY - MONOPOLE P & S
DTRS.US/F  : DELTA-T SHEAR, RECEIVER ARRAY - MONOPOLE P & S
DT4P.US/F  : DELTA-T COMPRESSIONAL - MONOPOLE P & S
DT4S.US/F  : DELTA-T SHEAR - MONOPOLE P & S
~Params ----------------------------------------------------
~Other -----------------------------------------------------
~ASCII -----------------------------------------------------
# ...
 12942.00000   57.73560   99.45380   55.82020   96.13280   57.32380   99.53940   56.36110   97.56710
 12942.50000   58.30900  102.44420   56.55840   98.93160   58.16470  102.28320   57.10570  100.46140
 12943.00000   59.82790  105.39300   57.76600  102.50670   59.42840  105.16220   58.36510  103.79530
 12943.50000   61.36480  108.79650   58.98650  104.92140   61.11020  108.04120   59.74970  106.51710
 12944.00000   62.72090  111.45580   60.99750  107.33620   62.58570  110.02900   61.56810  108.96440
 12944.50000   63.37840  111.62880   62.00360  109.04830   63.54620  110.11550   62.55830  109.68350
 12945.00000   63.08350  110.67990   62.15950  107.89110   63.61620  109.47740   62.68350  108.85980
 12945.50000   61.97630  107.62690   61.30040  104.54240   62.86560  106.12070   61.86310  105.46180
 12946.00000   60.40390  102.62460   59.81720  101.06260   61.57480  103.33070   60.44910  102.42810
 12946.50000   58.72540   99.72100   57.76510   98.63560   59.95000  100.60720   58.55030   99.51920
 12947.00000   57.34570   98.27910   55.74490   96.39160   57.56100   98.97540   56.28830   98.57870
 12947.50000   57.61150   98.68020   55.86530   96.23170   57.54720  100.40900   56.44660   99.21530
 12948.00000   59.11870   99.66920   57.24410   96.48480   58.96440  107.47410   57.86350  102.42630
 12948.50000   60.64060  103.38060   58.55910  100.53280   60.14280  113.21320   59.06890  106.17520
 12949.00000   62.16240  107.75050   60.00390  106.08320   61.87390  115.51290   60.70150  109.97720
 12949.50000   63.82830  110.55470   61.34780  110.34620   63.35470  115.39930   62.29380  111.59830
 12950.00000   64.70980  112.65370   62.47250  111.50200   64.69050  114.33910   63.60720  112.46180
 12950.50000   65.14110  114.11430   63.29410  112.14680   65.32540  113.17740   64.42130  112.77860
 12951.00000   64.87340  114.84580   63.14980  112.43750   65.35450  113.48430   64.45030  113.07920
 12951.50000   65.05710  116.13220   63.07710  112.85710   65.40190  113.90410   64.48000  113.49920
 12952.00000   65.29940  116.94380   63.34690  113.92780   65.72870  115.14340   64.82440  114.67310
 12952.50000   65.49650  116.75170   63.92470  114.81230   65.75520  115.84380   64.85110  115.44450
 12953.00000   65.46650  115.97890   64.00150  114.38410   65.60460  115.44430   64.69550  115.03370
 12953.50000   65.20390  115.30480   63.84480  113.82660   65.44130  114.88710   64.52640  114.47690
 12954.00000   64.81750  113.86930   63.43340  112.68110   65.32960  113.94400   64.31170  113.45650
 12954.50000   64.36370  112.28220   62.96950  111.20010   64.49560  112.46330   63.51840  111.97620
 12955.00000   63.65260  109.66740   62.16860  109.36860   63.67300  111.10360   62.70940  110.16720
 12955.50000   62.75780  107.97080   61.52590  107.47840   62.97970  109.89330   62.04950  108.27550
 12956.00000   61.97300  106.46080   60.77920  105.58820   62.32570  108.73150   61.33550  106.77190
 12956.50000   61.23430  105.56210   59.78460  103.69790   61.28730  108.01850   60.32490  106.16240
 12957.00000   60.88090  105.08340   59.03440  103.17480   60.53680  107.24510   59.57500  105.63600
 12957.50000   60.69970  105.24180   58.68340  103.87080   60.09790  106.97010   59.19230  105.52210
 12958.00000   61.27100  105.98770   59.05020  104.83060   60.67140  107.42080   59.63330  106.67230
 12958.50000   62.13980  106.88490   60.06570  106.07450   61.75900  108.63960   60.76440  107.83370
 12959.00000   63.45030  108.56360   60.94820  107.89010   62.76090  110.65190   61.73990  109.09440
 12959.50000   63.85870  109.73830   61.73330  109.56520   63.85210  111.05690   62.87370  110.28720
 12960.00000   63.84110  109.52820   61.87130  110.20380   64.08880  111.23390   63.17940  110.83520
 12960.50000   63.82200  109.31800   62.00920  110.34080   64.26350  111.36700   63.35590  110.96990
 12961.00000   63.83720  108.79940   62.14710  110.56740   63.81080  111.60110   62.89820  111.20150
 12961.50000   63.87210  109.29970   62.12180  110.94340   63.53500  111.97770   62.63030  111.57720
 12962.00000   64.12620  110.20950   62.18280  111.15410   63.60670  112.18230   62.69520  111.78430
 12962.50000   64.63750  111.99260   62.40600  111.29640   63.82760  112.32450   62.91730  111.92660
 12963.00000   65.06540  112.77860   62.63400  111.43860   64.07850  112.46680   63.15360  112.06880
 12963.50000   65.14360  112.60140   62.84880  111.24630   64.26250  113.73860   63.35740  112.86540
 12964.00000   65.18840  112.38340   62.88220  110.66640   64.48350  122.49790   63.55700  117.00380
 12964.50000   65.14910  112.31890   62.91430  110.60500   64.71720  125.52220   63.81230  118.27360
 12965.00000   65.17140  112.38520   62.94650  110.98940   64.50990  125.30960   63.59980  118.03030
 12965.50000   64.74770  112.20200   62.97860  111.45430   64.39250  122.09270   63.48760  116.42000
 12966.00000   64.98400  112.17080   63.01070  111.94040   64.41530  117.20460   63.51020  114.35880
 12966.50000   64.96900  112.13970   63.04350  111.56840   64.45730  113.51180   63.55220  112.37250
 12967.00000   64.33060  111.91520   63.00330  110.31220   64.41890  111.43080   63.51270  110.99910
 12967.50000   63.97540  110.15240   62.03970  109.51440   64.26940  110.55380   63.00430  110.15180
 12968.00000   63.82130  108.93640   60.86840  108.82090   64.11560  109.95750   62.54470  109.51800
 12968.50000   63.51570  107.10450   60.67700  107.85280   63.96190  108.98910   62.45270  108.55130
 12969.00000   63.17310  105.89170   60.28720  106.56060   63.19150  107.87840   61.93880  107.39100
 12969.50000   62.42120  104.61340   59.67390  105.15700   62.28240  106.30450   61.26920  105.86150
 12970.00000   61.62750  103.76150   59.17400  103.78230   61.33340  105.04020   60.26680  104.55450
 12970.50000   60.75690  102.90690   58.81360  102.98390   60.56160  104.06660   59.63660  103.66180
 12971.00000   60.21030  101.98190   58.45320  102.08490   60.05650  103.22430   59.09600  102.78360
 12971.50000   59.87860  101.05690   58.00940  101.21810   59.47930  102.31910   58.53800  101.89280
 12972.00000   59.54690  100.34910   57.58300  100.54590   58.99790  101.79470   58.09220  101.31130
 12972.50000   59.27260   99.90120   57.66690   99.14820   59.08710  100.44880   58.17800   99.90900
 12973.00000   59.05030   99.73850   57.30500   98.38180   58.74740   99.48960   57.82430   98.80810
 12973.50000   58.54870   99.82500   56.73460   97.71700   58.20830  100.04270   57.26440   98.63540
 12974.00000   58.12480  100.09900   55.60940   97.14720   57.33120  100.87630   56.22820   99.02910
 12974.50000   58.16880  100.37300   55.28820   97.21880   56.70290  101.71000   55.79730   99.55390
 12975.00000   58.44350  100.64690   55.74100   97.81430   57.21090  102.54360   56.27090  100.07870
 12975.50000   58.85230  101.04480   56.38130   98.93330   58.28770  103.37720   57.13910  100.75250
 12976.00000   59.85880  101.78380   58.07640  100.24160   59.86610  103.59270   58.71940  101.55080
 12976.50000   60.59060  102.10490   59.12510  101.44310   60.54610  103.22240   59.63650  102.30590
 12977.00000   60.64700  102.17770   59.13830  102.34920   60.55530  103.43470   59.64820  103.01070
 12977.50000   60.30420  101.74360   58.75290  101.53580   60.26670  103.19500   59.29740  102.66260
 12978.00000   60.01870  101.43930   58.13790   99.37240   59.61090  100.41140   58.66750   99.99960
 12978.50000   59.74290  101.65020   58.08890   98.90920   59.50390  100.56170   58.59800  100.14320
 12979.00000   59.34430  101.72480   58.13160   99.38970   59.56930  101.23260   58.64560  100.81450
 12979.50000   59.80690  103.32480   58.78070  100.05650   60.36490  102.58400   59.34710  101.44650
 12980.00000   60.36820  104.06840   59.83460  100.95040   61.29160  104.18930   60.38470  103.21550
 12980.50000   60.92370  104.54840   59.68760  102.19860   61.14660  106.09790   60.20960  104.93170
 12981.00000   61.29840  105.85370   59.14930  103.23370   60.59710  108.37580   59.68410  106.23900
 12981.50000   61.69240  106.97510   58.98150  104.29750   60.75970  110.43440   59.81690  107.57640
