~Version ---------------------------------------------------
VERS.   2.0 : CWLS log ASCII Standard -VERSION 2.0
WRAP.    NO : One line per depth step
DLM . SPACE : Column Data Section Delimiter
~Well ------------------------------------------------------
STRT .F                 8311.0 : START DEPTH
STOP .F                12842.0 : STOP DEPTH
STEP .F                    0.5 : STEP
NULL .                -9999.25 : NULL VALUE
COMP .                         : COMPANY
WELL .                         : WELL
FLD  .                         : FIELD
LOC  .                         : LOCATION
PROV .                         : PROVINCE
CNTY .                         : COUNTY
STAT .                         : STATE
CTRY .                         : COUNTRY
SRVC .                         : SERVICE COMPANY
DATE .                         : DATE
UWI  .                         : UNIQUE WELL ID
API  .                         : API NUMBER
SLAT .WGS84 1.6716663163562018 : SURFACE LATITUDE
SLON .WGS84  8.495202386497994 : SURFACE LONGITUDE
DATUM.F                 3055.1 : DEPTH DATUM ELEV
~Curve Information -----------------------------------------
DEPT   .F     : 1 MEASURED DEPTH
GRR    .GAPI  : GAMMA RAY FROM RESISTIVITY LOG
HCALR  .IN    : HRCC CALIPER CALIBRATED FROM RESISTIVITY LOG
AT10   .OHMM  : ARRAY INDUCTION TWO FOOT RESISTIVITY A10
AT20   .OHMM  : ARRAY INDUCTION TWO FOOT RESISTIVITY A20
AT30   .OHMM  : ARRAY INDUCTION TWO FOOT RESISTIVITY A30
AT60   .OHMM  : ARRAY INDUCTION TWO FOOT RESISTIVITY A60
AT90   .OHMM  : ARRAY INDUCTION TWO FOOT RESISTIVITY A90
GRS    .GAPI  : GAMMA RAY FROM SONIC LOG
TENS   .LB    : TENSION FROM SONIC LOG
SPHI_LS.DEC   : SONIC POROSITY [LIMESTONE]
DTCO   .US/F  : DELTA-T COMPRESSIONAL
DTSM   .US/F  : DELTA-T SHEAR
~Params ----------------------------------------------------
~Other -----------------------------------------------------
~ASCII -----------------------------------------------------
# ...
 12511.00000  194.73520    8.30080  111.58110  166.57550  236.65700  265.05180  281.82830  143.04180 5355.66360    0.18060   72.95740  113.71540
 12511.50000  178.10500    8.30170  120.78930  194.36770  280.22920  286.11530  311.14110  130.86890 5361.29200    0.18110   73.22450  113.98480
 12512.00000  165.77630    8.30260  127.31930  216.24300  294.66170  306.80940  328.62370  129.41130 5366.91990    0.18360   73.40980  114.31360
 12512.50000  173.18960    8.30350  127.21470  216.02860  296.99800  303.57450  313.29730  144.23680 5372.54830    0.18730   73.93420  115.26220
 12513.00000  190.86280    8.30440  120.03630  193.88470  244.43200  260.85030  274.53420  155.49450 5378.17680    0.19070   74.52660  115.81600
 12513.50000  201.46770    8.30540  114.19460  171.20140  211.86030  223.64590  235.48460  167.38720 5381.03420    0.19530   75.15820  116.48210
 12514.00000  207.57470    8.30320  113.31410  174.95760  226.13500  233.62770  244.74780  172.92840 5384.64600    0.19700   75.46760  117.14820
 12514.50000  209.73820    8.30040  116.25780  188.04510  239.28730  248.02750  260.19770  175.64670 5394.13130    0.19760   75.57670  117.53110
 12515.00000  213.78550    8.29760  116.38720  196.89900  234.51870  254.05440  263.12040  177.46910 5403.61620    0.19690   75.45290  116.85350
 12515.50000  227.52510    8.29480  111.29390  179.10840  225.74230  249.35700  256.11170  177.89790 5411.33740    0.19310   74.97890  116.10730
 12516.00000  231.67010    8.29200  105.24370  157.68230  207.36950  229.22320  241.60970  173.48280 5416.41600    0.18850   74.07370  115.32840
 12516.50000  216.48740    8.28940  102.91200  144.56200  186.38810  203.90770  212.14100  163.81950 5421.49460    0.18190   73.14120  115.08170
 12517.00000  201.01570    8.28720  106.85880  148.81450  198.10370  206.48440  214.69510  152.28420 5417.12400    0.17790   72.63640  114.74200
 12517.50000  189.82790    8.28490  112.17110  157.77070  223.12190  226.29730  239.87650  146.36370 5411.93020    0.17600   72.37080  114.43760
 12518.00000  182.98250    8.28270  115.46310  165.32420  227.14740  245.39780  269.17290  146.20310 5406.73680    0.17680   72.54340  114.69550
 12518.50000  182.57990    8.28050  115.45250  164.22670  224.34670  244.59010  264.29440  151.48800 5401.54350    0.17870   72.79310  115.04860
 12519.00000  187.67920    8.27820  116.24730  162.36910  221.50970  240.54990  253.66740  156.77300 5396.35010    0.18050   73.12480  115.93640
 12519.50000  193.46380    8.27600  112.71950  161.90730  221.76230  235.27420  243.46790  162.51540 5388.89160    0.18220   73.31230  116.46940
 12520.00000  195.17530    8.27200  110.70460  169.19210  213.64540  224.90410  244.51470  160.79480 5374.57910    0.17960   72.96560  116.89740
 12520.50000  194.81510    8.26600  115.87590  188.61740  217.02030  228.52270  251.59620  155.88040 5369.52590    0.17540   72.33870  116.75240
 12521.00000  194.54630    8.26000  121.84590  206.81820  219.70920  230.18830  250.86420  158.02220 5362.72800    0.17770   72.64590  116.62320
 12521.50000  196.73620    8.25930  115.96090  187.94180  200.11420  213.72680  225.69320  163.63950 5352.45020    0.18390   73.58060  116.51170
 12522.00000  201.72690    8.25940  111.29120  173.36700  195.61470  198.60270  204.32440  169.51550 5342.17290    0.18690   74.12990  116.80680
 12522.50000  208.52010    8.25940  110.66170  171.18980  189.64770  193.08020  197.62420  173.99610 5331.89500    0.19010   74.55130  116.90960
 12523.00000  219.62260    8.27220  110.03570  165.85070  177.69020  182.28260  188.53790  176.84590 5321.61720    0.19230   74.69220  116.90890
 12523.50000  230.72510    8.28820  104.97010  150.43510  164.78020  169.02990  174.81810  184.48150 5311.33940    0.19380   74.94950  116.90820
 12524.00000  237.84880    8.30430  100.98170  136.44210  152.87450  156.74810  162.11220  189.00650 5305.24270    0.19430   74.96640  117.06950
 12524.50000  239.21870    8.30040   97.68060  123.76080  142.32130  145.84420  150.65490  192.76980 5326.91360    0.19350   74.86540  117.56040
 12525.00000  234.87930    8.29370   96.84790  119.73280  138.19840  140.33020  143.08760  191.80740 5359.15820    0.19120   74.66710  118.06580
 12525.50000  227.50810    8.28700   98.48310  124.07490  140.62560  144.69650  149.29070  185.58430 5352.64360    0.18930   74.40180  118.47210
 12526.00000  220.51210    8.26750  100.32550  127.76260  143.68490  154.77360  160.21590  177.76160 5328.15720    0.19270   74.84120  118.76210
 12526.50000  219.45870    8.23910  101.01580  128.91880  141.29100  155.80170  159.74530  176.67070 5343.74560    0.20100   76.01600  119.45230
 12527.00000  220.45890    8.22550   99.80030  128.78520  134.10340  146.51270  151.39940  180.04290 5355.87300    0.20280   76.20360  120.14250
 12527.50000  231.26120    8.24250   98.77450  124.40440  126.47730  136.25040  141.73320  186.49580 5363.25680    0.20320   76.22530  120.72490
 12528.00000  242.59040    8.25960   95.45530  117.68910  118.96980  126.71360  134.34910  196.30960 5370.64060    0.20570   76.71460  120.94190
 12528.50000  253.90570    8.27660   86.37680  111.35550  112.72920  119.08960  127.34980  205.81420 5378.02490    0.21010   77.22220  120.87470
 12529.00000  260.53380    8.29360   75.50610  105.51410  107.05230  114.47180  120.71500  212.30650 5385.40870    0.21000   77.28030  120.91960
 12529.50000  264.59560    8.30460   72.78640  100.05170  105.72430  110.63590  119.61340  217.36660 5392.79250    0.20950   77.13770  120.84620
 12530.00000  272.29420    8.29560   76.89070   98.70640  112.26730  113.85760  121.85650  221.33040 5398.49170    0.20880   77.05350  120.77270
 12530.50000  279.31800    8.28650   81.99590  105.87370  121.07050  123.50520  128.80870  225.29410 5401.03080    0.20800   77.05500  120.69930
 12531.00000  286.34180    8.27750   90.31100  113.79910  130.56410  133.93070  137.45000  227.09460 5403.56930    0.20560   76.86750  120.62590
 12531.50000  289.64970    8.26280   89.21160  119.82450  140.65350  140.76410  146.67090  225.01110 5406.10790    0.19960   75.94610  120.55250
 12532.00000  285.38940    8.26010   87.03850  117.25270  143.52550  146.66370  151.81080  218.65770 5408.64650    0.19220   74.75250  120.50460
 12532.50000  277.39380    8.26020   84.91840  114.41990  134.10900  142.58550  148.13690  213.63690 5411.18510    0.18570   73.82540  120.60520
 12533.00000  272.52160    8.29120   81.57270  109.06270  126.65760  132.59570  138.15020  211.28950 5413.72360    0.18520   73.34530  121.09400
 12533.50000  272.98760    8.28140   79.82300  101.81030  126.29010  131.59950  134.99060  214.50490 5416.26220    0.18860   74.17910  121.62290
 12534.00000  275.83020    8.27160   79.17240  110.96840  130.70150  132.53020  134.68350  220.65340 5418.80080    0.19900   75.69550  121.81300
 12534.50000  278.28110    8.26180   76.70970  116.63630  123.55060  128.03460  134.13150  227.81670 5421.33940    0.19580   75.12930  121.79030
 12535.00000  280.65140    8.25200   74.11450  106.73100  110.22170  114.18160  120.94430  227.48120 5423.87790    0.19280   74.56220  121.75240
 12535.50000  277.31230    8.24230   72.36160   98.22440   99.68030  102.13940  109.16410  223.54920 5426.41650    0.19130   74.51140  121.74610
 12536.00000  272.47430    8.23250   70.13510   93.07140   94.29790   96.19060  102.53920  217.99780 5408.99170    0.18730   74.13340  121.72440
 12536.50000  268.79440    8.22520   69.56590   84.84940   89.61430   91.40340   96.66860  212.44640 5386.95950    0.18410   73.54680  121.67510
 12537.00000  266.33550    8.21920   69.02020   83.51360   90.81220  100.04420  106.55690  209.30100 5365.19920    0.18240   73.43110  121.64390
 12537.50000  262.70040    8.21380   69.12820   96.33130  110.89390  114.29950  119.94010  206.29430 5366.35890    0.18190   73.43270  121.49820
 12538.00000  255.70880    8.21380   65.76090   94.45460   99.02190  108.33120  115.74250  201.08810 5367.51860    0.18290   73.45780  121.34260
 12538.50000  243.74330    8.21380   60.52000   74.67360   81.12690   89.39680   96.20510  193.37950 5368.67820    0.18530   73.67600  121.18710
