~Version ---------------------------------------------------
VERS.   2.0 : CWLS log ASCII Standard -VERSION 2.0
WRAP.    NO : One line per depth step
DLM . SPACE : Column Data Section Delimiter
~Well ------------------------------------------------------
STRT .F                 8311.0 : START DEPTH
STOP .F                12842.0 : STOP DEPTH
STEP .F                    0.5 : STEP
NULL .                -9999.25 : NULL VALUE
COMP .                         : COMPANY
WELL .                         : WELL
FLD  .                         : FIELD
LOC  .                         : LOCATION
PROV .                         : PROVINCE
CNTY .                         : COUNTY
STAT .                         : STATE
CTRY .                         : COUNTRY
SRVC .                         : SERVICE COMPANY
DATE .                         : DATE
UWI  .                         : UNIQUE WELL ID
API  .                         : API NUMBER
SLAT .WGS84 1.6716663163562018 : SURFACE LATITUDE
SLON .WGS84  8.495202386497994 : SURFACE LONGITUDE
DATUM.F                 3055.1 : DEPTH DATUM ELEV
~Curve Information -----------------------------------------
DEPT   .F     : 1 MEASURED DEPTH
GRR    .GAPI  : GAMMA RAY FROM RESISTIVITY LOG
HCALR  .IN    : HRCC CALIPER CALIBRATED FROM RESISTIVITY LOG
AT10   .OHMM  : ARRAY INDUCTION TWO FOOT RESISTIVITY A10
AT20   .OHMM  : ARRAY INDUCTION TWO FOOT RESISTIVITY A20
AT30   .OHMM  : ARRAY INDUCTION TWO FOOT RESISTIVITY A30
AT60   .OHMM  : ARRAY INDUCTION TWO FOOT RESISTIVITY A60
AT90   .OHMM  : ARRAY INDUCTION TWO FOOT RESISTIVITY A90
GRS    .GAPI  : GAMMA RAY FROM SONIC LOG
TENS   .LB    : TENSION FROM SONIC LOG
SPHI_LS.DEC   : SONIC POROSITY [LIMESTONE]
DTCO   .US/F  : DELTA-T COMPRESSIONAL
DTSM   .US/F  : DELTA-T SHEAR
~Params ----------------------------------------------------
~Other -----------------------------------------------------
~ASCII -----------------------------------------------------
# ...
 9123.00000   66.65560    8.29630    4.94620    5.22320    5.27430    5.35340    5.39860   45.69660 4056.30910    0.16770   71.33220  120.18560
 9123.50000   74.16880    8.29630    4.82590    5.10130    5.15240    5.23110    5.27600   50.13030 4050.09550    0.17090   71.76100  121.28880
 9124.00000   81.36550    8.29630    4.71210    4.87540    4.93630    5.03040    5.08440   58.02710 4043.88180    0.17300   72.05880  121.81860
 9124.50000   88.22450    8.29630    4.52250    4.65440    4.71250    4.80230    4.85400   66.10550 4055.64210    0.17470   72.30170  122.06750
 9125.00000   88.08480    8.29630    4.34050    4.45060    4.50540    4.58490    4.63390   73.33550 4066.22880    0.17790   72.68540  121.74640
 9125.50000   82.16840    8.29630    4.19000    4.27460    4.31640    4.38220    4.42740   77.94930 4063.80350    0.18230   73.41480  121.42420
 9126.00000   75.84270    8.29630    4.00090    4.08420    4.13500    4.21400    4.25920   74.91300 4061.37820    0.18550   73.72670  121.10200
 9126.50000   73.60260    8.29650    3.82100    3.90020    3.94870    4.02380    4.06700   70.82130 4058.95290    0.18560   73.67790  120.87010
 9127.00000   73.90680    8.29690    3.82730    3.88600    3.92190    3.97710    4.00870   66.60340 4056.52760    0.18180   73.21820  120.67590
 9127.50000   79.49100    8.29730    3.88100    3.94050    3.97690    4.03300    4.06600   65.07940 4058.76000    0.17770   72.62430  120.48180
 9128.00000   88.61290    8.29760    3.95870    4.03550    4.08320    4.16060    4.20430   67.50730 4064.61470    0.17360   72.18080  120.34850
 9128.50000   98.31990    8.29800    4.12590    4.20360    4.25180    4.32580    4.36790   74.18340 4070.49460    0.17550   72.34460  120.34450
 9129.00000  103.16170    8.29840    4.28400    4.36470    4.41460    4.49140    4.53530   82.02550 4079.54490    0.17940   72.96770  120.34050
 9129.50000   98.59910    8.29880    4.36030    4.51980    4.55980    4.62130    4.65630   89.21720 4088.59550    0.18250   73.33340  120.33650
 9130.00000   84.56370    8.29910    4.35880    4.48110    4.52500    4.59210    4.63060   85.39430 4097.64600    0.18110   73.03520  119.85050
 9130.50000   66.35900    8.29950    4.29480    4.38460    4.42740    4.49340    4.53090   75.16980 4106.69630    0.17710   72.48160  118.95890
 9131.00000   56.03950    8.29990    4.19540    4.31030    4.34990    4.41070    4.44540   59.11450 4115.74710    0.17310   72.00890  117.99430
 9131.50000   50.90240    8.30030    4.16530    4.25750    4.29640    4.35650    4.39060   47.90680 4124.79250    0.16870   71.41570  116.98770
 9132.00000   49.01770    8.30060    4.16580    4.22740    4.26510    4.32310    4.35610   42.56180 4133.83640    0.16430   70.67580  116.18560
 9132.50000   49.14690    8.30080    4.14220    4.20350    4.24090    4.29850    4.33140   37.91700 4141.89310    0.15990   70.11710  116.22720
 9133.00000   50.13940    8.30060    4.11430    4.17710    4.21530    4.27310    4.30640   36.85320 4149.15090    0.15840   70.02870  116.57920
 9133.50000   50.72340    8.30050    4.07010    4.13120    4.16850    4.22580    4.25860   37.09460 4152.69780    0.15860   70.06670  117.34500
 9134.00000   50.98790    8.30040    4.02520    4.08620    4.12350    4.18090    4.21360   38.54880 4132.41750    0.15940   70.11980  118.06110
 9134.50000   51.62400    8.30030    4.00810    4.06700    4.10300    4.15840    4.18990   41.06470 4115.53520    0.16020   70.17290  118.71800
 9135.00000   52.28340    8.30020    3.96120    4.02300    4.06090    4.11930    4.15250   43.54210 4112.82810    0.16000   70.17350  119.31370
 9135.50000   52.67110    8.30000    3.90430    3.96350    3.99980    4.05560    4.08730   44.89930 4110.12110    0.15970   70.17080  120.08560
 9136.00000   54.55320    8.29990    3.86150    3.91960    3.95520    4.00990    4.04110   45.82720 4109.84620    0.15890   70.16710  120.86730
 9136.50000   58.14750    8.29980    3.85880    3.91520    3.95030    4.00330    4.03360   46.80830 4113.15380    0.15870   70.16340  121.64890
 9137.00000   61.38210    8.29970    3.84490    3.90580    3.94460    3.99670    4.02750   48.90210 4113.47120    0.16090   70.22920  122.19790
 9137.50000   66.54270    8.29960    3.76530    3.82710    3.86440    3.92140    3.95390   50.38620 4097.83840    0.16360   70.82330  122.28230
 9138.00000   69.51250    8.29940    3.55170    3.69050    3.73800    3.81000    3.85070   51.13100 4082.20610    0.16550   71.08220  122.04980
 9138.50000   72.44460    8.29930    3.48420    3.59330    3.62510    3.68010    3.70850   53.77450 4066.57350    0.16740   71.36570  121.53460
 9139.00000   73.96790    8.29920    3.47640    3.59450    3.62720    3.67800    3.70780   56.42910 4065.26250    0.16820   71.34120  120.67910
 9139.50000   73.63460    8.29910    3.55420    3.62560    3.65810    3.74270    3.78020   58.34190 4066.10790    0.16660   71.15260  119.98860
 9140.00000   74.85930    8.29900    3.63470    3.80360    3.84510    3.90860    3.94490   60.14340 4066.95310    0.16470   70.90990  119.42250
 9140.50000   80.27420    8.29880    3.71710    3.82440    3.85960    3.91810    3.94880   61.95800 4067.79080    0.16400   70.84620  118.95940
 9141.00000   85.23050    8.29870    3.78840    3.87100    3.90570    3.95910    3.98950   65.27090 4068.30930    0.16450   71.00550  118.49650
 9141.50000   88.39120    8.29860    3.82850    3.88450    3.91920    3.97180    4.00190   68.65620 4068.82810    0.16490   70.86650  118.03340
 9142.00000   89.08640    8.29850    3.86780    3.92940    3.96690    4.02510    4.05780   71.93530 4069.34670    0.16440   70.76550  117.56090
 9142.50000   91.77110    8.29830    3.94350    4.00600    4.04460    4.09980    4.13190   75.21430 4069.86550    0.16360   70.68160  117.07110
 9143.00000   94.61040    8.29820    4.00560    4.07560    4.12060    4.19360    4.23500   76.19830 4068.51320    0.16270   70.50140  116.58120
 9143.50000   96.35450    8.29810    4.14370    4.21070    4.25180    4.31510    4.35110   76.07290 4065.58620    0.16160   70.46640  116.04970
 9144.00000   96.12490    8.29800    4.19780    4.30520    4.34650    4.41010    4.44650   75.37170 4066.39210    0.16070   70.40410  115.62720
 9144.50000   92.06800    8.29790    4.24910    4.31770    4.35900    4.42210    4.45810   74.43240 4075.48560    0.15990   70.21800  115.19690
 9145.00000   86.81680    8.29770    4.17340    4.23930    4.27970    4.34170    4.37710   74.38140 4084.57910    0.15880   69.99320  114.83990
 9145.50000   83.40530    8.29760    4.12660    4.18720    4.22430    4.29970    4.34180   73.36100 4093.67260    0.15620   69.69000  114.50280
 9146.00000   82.14300    8.29750    4.27260    4.62030    4.84480    5.20820    5.42340   71.15040 4102.76610    0.15470   69.34680  113.92640
 9146.50000   81.49610    8.29740    5.12330    5.90530    6.15140    6.24200    6.43130   68.53730 4111.48490    0.15230   68.95390  113.18740
 9147.00000   78.64370    8.29730    5.52730    5.89910    6.01890    6.11210    6.17280   67.34260 4115.06450    0.14520   68.10890  112.40400
 9147.50000   73.87770    8.29710    5.63680    5.68040    5.73650    5.86140    5.94230   66.52620 4114.67680    0.13750   66.89100  111.55780
 9148.00000   66.62170    8.29700    5.82830    6.13250    6.41830    6.88400    7.15770   64.09570 4114.28960    0.13150   66.13930  109.97170
 9148.50000   60.31980    8.29690    6.79180    7.40740    8.13620    8.72710    9.01640   58.77680 4119.19580    0.12800   65.64370  108.41140
 9149.00000   54.23460    8.29680    7.85130    8.40900    9.00080    9.72630   10.64050   54.19590 4127.26950    0.12440   65.10940  107.42400
 9149.50000   50.07830    8.29670    8.91510    9.74440   10.21200   10.74150   11.74250   49.61510 4128.73730    0.12080   64.55620  106.91170
 9150.00000   48.02870    8.29710   10.00360   10.94400   11.64390   12.11350   13.84650   45.59990 4130.20510    0.11960   64.39360  107.36270
 9150.50000   49.19310    8.29750   10.06990   10.62600   11.84410   12.60220   14.12840   44.20570 4131.32620    0.12280   64.96600  108.25510
