~Version ---------------------------------------------------
VERS.   2.0 : CWLS log ASCII Standard -VERSION 2.0
WRAP.    NO : One line per depth step
DLM . SPACE : Column Data Section Delimiter
~Well ------------------------------------------------------
STRT .F                 8311.0 : START DEPTH
STOP .F                12842.0 : STOP DEPTH
STEP .F                    0.5 : STEP
NULL .                -9999.25 : NULL VALUE
COMP .                         : COMPANY
WELL .                         : WELL
FLD  .                         : FIELD
LOC  .                         : LOCATION
PROV .                         : PROVINCE
CNTY .                         : COUNTY
STAT .                         : STATE
CTRY .                         : COUNTRY
SRVC .                         : SERVICE COMPANY
DATE .                         : DATE
UWI  .                         : UNIQUE WELL ID
API  .                         : API NUMBER
SLAT .WGS84 1.6716663163562018 : SURFACE LATITUDE
SLON .WGS84  8.495202386497994 : SURFACE LONGITUDE
DATUM.F                 3055.1 : DEPTH DATUM ELEV
~Curve Information -----------------------------------------
DEPT   .F     : 1 MEASURED DEPTH
GRR    .GAPI  : GAMMA RAY FROM RESISTIVITY LOG
HCALR  .IN    : HRCC CALIPER CALIBRATED FROM RESISTIVITY LOG
AT10   .OHMM  : ARRAY INDUCTION TWO FOOT RESISTIVITY A10
AT20   .OHMM  : ARRAY INDUCTION TWO FOOT RESISTIVITY A20
AT30   .OHMM  : ARRAY INDUCTION TWO FOOT RESISTIVITY A30
AT60   .OHMM  : ARRAY INDUCTION TWO FOOT RESISTIVITY A60
AT90   .OHMM  : ARRAY INDUCTION TWO FOOT RESISTIVITY A90
GRS    .GAPI  : GAMMA RAY FROM SONIC LOG
TENS   .LB    : TENSION FROM SONIC LOG
SPHI_LS.DEC   : SONIC POROSITY [LIMESTONE]
DTCO   .US/F  : DELTA-T COMPRESSIONAL
DTSM   .US/F  : DELTA-T SHEAR
~Params ----------------------------------------------------
~Other -----------------------------------------------------
~ASCII -----------------------------------------------------
# ...
 10523.00000  118.02620    8.35960    8.21370    8.34210    8.42220    8.54320    8.60260   96.46580 4672.42290    0.22800   79.77170  134.15400
 10523.50000  117.46970    8.35140    8.36310    8.49650    8.57930    8.70450    8.76630   98.54360 4653.27930    0.22830   79.83880  134.64200
 10524.00000  119.46560    8.34310    8.24760    8.37950    8.46050    8.58480    8.64580  100.52730 4626.86720    0.22760   79.66070  135.03910
 10524.50000  121.73980    8.33490    8.08340    8.21260    8.29210    8.41390    8.47350  101.22860 4600.45560    0.22680   79.63090  135.72910
 10525.00000  122.37610    8.32800    8.15330    8.35510    8.48240    8.68560    8.77120   99.85510 4574.04350    0.23010   80.01000  135.59280
 10525.50000  123.74740    8.33150    8.65250    8.81190    8.90770    9.05270    9.16150   96.90760 4625.81540    0.23080   80.09200  135.42970
 10526.00000  128.31080    8.33500    8.74380    9.06280    9.15060    9.27630    9.52750   96.27610 4641.95210    0.22860   79.90730  134.86810
 10526.50000  131.52670    8.33840    8.47130    8.79780    8.91120    9.08380    9.33890   96.64660 4612.91890    0.22620   79.65860  134.30650
 10527.00000  130.35540    8.34190    8.22260    8.43670    8.65450    8.78080    9.09450   96.86220 4586.67430    0.22310   79.06780  133.38190
 10527.50000  125.03120    8.33030    8.68670    9.00730    9.32010    9.68370    9.86500   94.84670 4564.60400    0.22010   78.73630  132.22500
 10528.00000  121.19470    8.30880    9.46890    9.77390   10.48280   10.65000   11.07470   90.53350 4564.84770    0.21980   78.66660  131.73170
 10528.50000  122.22510    8.30950    9.41980    9.82830   10.06780   10.35850   10.77950   84.49270 4579.63090    0.22090   78.80810  131.48320
 10529.00000  124.15450    8.32760    9.03260    9.42390    9.57520   10.11140   10.20740   83.72330 4594.41360    0.22220   79.14300  131.46350
 10529.50000  124.30480    8.32760    8.66140    9.01880    9.14070    9.93170   10.13740   87.82050 4571.47360    0.22220   79.02590  131.03090
 10530.00000  119.95700    8.32760    8.45450    8.89790    9.15250   10.16240   10.56980   90.87370 4541.44430    0.21220   77.71060  130.52680
 10530.50000  114.00200    8.32760    9.11740    9.77720   10.19340   11.03820   11.38750   90.58470 4521.78710    0.20430   76.46890  130.36490
 10531.00000  108.56100    8.32760    9.97900   10.76470   11.41690   11.63690   12.31370   84.28810 4528.43900    0.19950   75.67860  130.17100
 10531.50000  104.02320    8.32790   10.18470   11.23750   11.45500   11.67150   12.34660   80.00700 4528.32370    0.19860   75.74830  129.97720
 10532.00000  103.12660    8.32850    9.73700   10.58640   10.94750   11.16280   11.75300   81.51400 4528.20850    0.20710   76.78910  130.49660
 10532.50000  106.84480    8.32910    9.24510   10.00260   11.28310   11.44070   11.41530   85.73340 4528.09330    0.21610   78.02420  131.18710
 10533.00000  112.66660    8.32980    8.82380   10.00830   11.11270   11.33020   11.60920   91.31040 4527.97800    0.22160   78.88740  132.16290
 10533.50000  117.99420    8.33050    8.16560    9.37780   10.66580   10.92700   11.16940   97.75280 4536.37210    0.22510   79.24370  133.00020
 10534.00000  120.98300    8.33140    8.30830    9.03020   10.28600   10.69970   10.64860  100.58930 4555.11720    0.22470   79.23750  132.83790
 10534.50000  117.55870    8.33230    8.64240    9.36480   10.00570   10.94460   11.11040   98.66110 4573.86230    0.22290   79.09160  132.23450
 10535.00000  113.67530    8.33330    8.99000    9.82410   10.22780   11.22800   11.87160   95.72720 4592.60790    0.22020   78.39860  131.88640
 10535.50000  110.34340    8.33420    9.12640    9.91310   10.97260   11.08850   12.19300   94.23810 4556.43020    0.21350   77.76820  131.64880
 10536.00000  110.26540    8.33510    8.86540    9.13880   10.57150   10.83630   12.10210   94.71340 4556.43020    0.21260   77.60470  131.28260
 10536.50000  110.63200    8.33610    8.14030    8.39200    9.55830    9.87140   11.26140   94.91260 4559.47020    0.21360   77.80250  130.71470
 10537.00000  109.94220    8.33700    8.03690    8.21260    8.80680    8.96970   11.27750   94.72660 4583.05370    0.21420   77.81990  129.96780
 10537.50000  109.24350    8.33800    8.10050    9.25100    9.55310   10.02450   11.48440   93.76460 4606.63670    0.20880   77.53660  129.22090
 10538.00000  106.03760    8.33890    9.54940   10.54360   11.01790   11.30750   11.40950   91.45160 4609.07030    0.19140   74.48440  126.35410
 10538.50000  101.53540    8.33980   10.73050   11.22230   11.60710   11.87070   12.01020   87.76300 4607.52730    0.16400   70.43190  122.94600
 10539.00000   90.59730    8.34080   11.58140   13.74090   14.15060   15.77970   16.64200   79.41040 4605.98490    0.14260   67.50430  120.29220
 10539.50000   77.92580    8.34170   16.35790   26.02680   20.65910   22.49520   22.75930   68.06350 4604.44190    0.13610   66.63440  119.22440
 10540.00000   69.43800    8.34260   14.96110   19.34740   19.29790   21.90330   22.77120   58.37120 4602.89890    0.13710   66.90800  118.75880
 10540.50000   72.94160    8.34330   10.33550   11.50390   12.27560   13.99840   14.91970   55.20650 4601.35600    0.14500   68.58380  120.45220
 10541.00000   84.70390    8.34330    7.42520    8.24280    8.73710    9.74960   10.25690   56.69500 4599.81300    0.16710   71.63450  124.36740
 10541.50000   97.45730    8.34330    6.81520    7.08790    7.48300    7.60310    7.67270   65.75090 4598.80030    0.19730   75.80840  128.90340
 10542.00000  106.55020    8.34420    6.89450    7.25740    7.62980    7.73480    7.78630   78.70280 4608.10790    0.21660   78.34530  132.06430
 10542.50000  111.21810    8.35080    6.68360    7.09000    7.29710    7.47680    7.57350   90.62710 4617.41600    0.22240   78.94670  133.59720
 10543.00000  114.85450    8.35750    6.43320    6.57890    6.83470    6.99500    7.07360   95.97510 4626.72410    0.22400   79.11670  134.53730
 10543.50000  117.96890    8.36560    6.68170    6.79260    6.91260    7.13640    7.21670   99.64530 4605.94870    0.22440   79.26790  134.78030
 10544.00000  122.53650    8.37410    6.86890    7.30190    7.42060    7.68520    8.43770  100.33470 4608.16850    0.21740   78.53730  133.61430
 10544.50000  122.69100    8.35440    7.08650    7.71270    7.78340    8.04820    8.19730   99.43460 4621.13380    0.20110   76.31470  131.74010
 10545.00000  120.47750    8.33960    6.63340    6.85410    7.05030    7.36070    7.78630   98.05470 4634.00630    0.18710   73.82060  129.99440
 10545.50000  115.03580    8.34110    5.89200    6.23820    6.29390    6.51530    6.89970   95.24710 4626.33450    0.18430   73.57080  128.66360
 10546.00000  104.98620    8.34290    6.61180    7.80980    8.47740    9.43670    9.90070   92.72750 4608.43160    0.18480   73.86920  127.02880
 10546.50000   98.73020    8.34400   10.11560   11.25600   12.02020   13.26000   14.37430   89.36730 4595.89500    0.18310   72.97770  124.48680
 10547.00000   95.48430    8.34400   10.96480   14.34370   14.69990   14.89710   14.82610   85.24000 4593.42870    0.16100   69.87270  122.44680
 10547.50000   94.00690    8.34400   11.42300   13.43910   13.73130   14.07400   14.10320   81.18550 4590.96290    0.14910   68.36450  120.34810
 10548.00000   92.28740    8.34170   11.87900   12.76670   12.88070   13.11910   13.27860   77.93780 4588.49660    0.14420   67.81230  119.07920
 10548.50000   90.65250    8.33720   12.73080   13.30630   13.82710   14.77610   15.26750   76.68620 4586.03030    0.14100   67.38430  118.11020
 10549.00000   89.97890    8.33750   14.42560   16.63990   17.39890   18.60430   19.19550   75.88520 4563.14550    0.13740   66.85070  117.77140
 10549.50000   90.45010    8.33770   16.23180   20.93840   21.46250   22.43130   22.74710   73.00790 4517.30080    0.13400   66.50410  116.44870
 10550.00000   90.69710    8.33800   17.18170   21.46250   21.83280   22.89660   23.08270   70.03180 4526.17720    0.13440   66.60070  115.55820
 10550.50000   90.94420    8.33820   18.02350   21.11090   21.29810   22.01050   22.19980   67.69490 4563.47070    0.13560   66.61490  114.80930
