~Version ---------------------------------------------------
VERS.   2.0 : CWLS log ASCII Standard -VERSION 2.0
WRAP.    NO : One line per depth step
DLM . SPACE : Column Data Section Delimiter
~Well ------------------------------------------------------
STRT .F                 8311.0 : START DEPTH
STOP .F                12842.0 : STOP DEPTH
STEP .F                    0.5 : STEP
NULL .                -9999.25 : NULL VALUE
COMP .                         : COMPANY
WELL .                         : WELL
FLD  .                         : FIELD
LOC  .                         : LOCATION
PROV .                         : PROVINCE
CNTY .                         : COUNTY
STAT .                         : STATE
CTRY .                         : COUNTRY
SRVC .                         : SERVICE COMPANY
DATE .                         : DATE
UWI  .                         : UNIQUE WELL ID
API  .                         : API NUMBER
SLAT .WGS84 1.6716663163562018 : SURFACE LATITUDE
SLON .WGS84  8.495202386497994 : SURFACE LONGITUDE
DATUM.F                 3055.1 : DEPTH DATUM ELEV
~Curve Information -----------------------------------------
DEPT   .F     : 1 MEASURED DEPTH
GRR    .GAPI  : GAMMA RAY FROM RESISTIVITY LOG
HCALR  .IN    : HRCC CALIPER CALIBRATED FROM RESISTIVITY LOG
AT10   .OHMM  : ARRAY INDUCTION TWO FOOT RESISTIVITY A10
AT20   .OHMM  : ARRAY INDUCTION TWO FOOT RESISTIVITY A20
AT30   .OHMM  : ARRAY INDUCTION TWO FOOT RESISTIVITY A30
AT60   .OHMM  : ARRAY INDUCTION TWO FOOT RESISTIVITY A60
AT90   .OHMM  : ARRAY INDUCTION TWO FOOT RESISTIVITY A90
GRS    .GAPI  : GAMMA RAY FROM SONIC LOG
TENS   .LB    : TENSION FROM SONIC LOG
SPHI_LS.DEC   : SONIC POROSITY [LIMESTONE]
DTCO   .US/F  : DELTA-T COMPRESSIONAL
DTSM   .US/F  : DELTA-T SHEAR
~Params ----------------------------------------------------
~Other -----------------------------------------------------
~ASCII -----------------------------------------------------
# ...
 8563.00000   51.17010   -9999.25   -9999.25   -9999.25   -9999.25   -9999.25   -9999.25   45.03040   -9999.25   -9999.25   -9999.25   -9999.25
 8563.50000   46.52040   -9999.25   -9999.25   -9999.25   -9999.25   -9999.25   -9999.25   41.92310   -9999.25   -9999.25   -9999.25   -9999.25
 8564.00000   41.47060   -9999.25   -9999.25   -9999.25   -9999.25   -9999.25   -9999.25   37.20350   -9999.25   -9999.25   -9999.25   -9999.25
 8564.50000   35.72590   -9999.25   -9999.25   -9999.25   -9999.25   -9999.25   -9999.25   31.73770   -9999.25   -9999.25   -9999.25   -9999.25
 8565.00000   34.04050   -9999.25   -9999.25   -9999.25   -9999.25   -9999.25   -9999.25   27.93680   -9999.25   -9999.25   -9999.25   -9999.25
 8565.50000   41.30880   -9999.25   -9999.25   -9999.25   -9999.25   -9999.25   -9999.25   27.10560   -9999.25   -9999.25   -9999.25   -9999.25
 8566.00000   53.85430    8.75260   18.36380   25.05800   30.49500   36.90310   38.00530   32.07020 3959.08540   -9999.25   -9999.25   -9999.25
 8566.50000   72.99280    8.65670   18.36210   25.09250   30.49660   37.04880   38.01210   46.11860 3958.93800   -9999.25   -9999.25   -9999.25
 8567.00000   90.81940    8.62210   18.36040   25.12710   30.49830   37.26690   38.02180   60.94850 3958.79030   -9999.25   -9999.25   -9999.25
 8567.50000   96.46970    8.67810   18.35870   25.16170   30.50000   37.35980   38.03160   71.47520 3958.64280   -9999.25   -9999.25   -9999.25
 8568.00000   98.06280    8.67860   18.35700   25.19290   30.50160   37.11120   38.04700   75.27360 3958.49510   -9999.25   -9999.25   -9999.25
 8568.50000  100.37140    8.64790   18.35530   25.21210   30.61810   36.89470   38.06360   76.23010 3958.34770   -9999.25   -9999.25   -9999.25
 8569.00000  107.15690    8.61760   18.35360   25.23120   30.74250   36.89130   38.08140   78.64370 3958.20000   -9999.25   -9999.25   -9999.25
 8569.50000  113.91480    8.59460   18.54560   25.25030   31.41180   36.88790   38.17230   83.63490 3958.05250   -9999.25   -9999.25   -9999.25
 8570.00000  114.87120    8.59230   18.73700   25.27390   32.16070   37.19640   38.28140   89.57250 3957.90480   -9999.25   -9999.25   -9999.25
 8570.50000  107.49400    8.59000   18.73530   25.73950   32.83380   37.92730   38.69940   89.23090 3957.75730   -9999.25   -9999.25   -9999.25
 8571.00000   90.95090    8.58770   18.73350   26.27560   33.80110   38.72510   39.40230   74.98230 3957.60960   -9999.25   -9999.25   -9999.25
 8571.50000   74.57400    8.58540   19.10290   26.82160   35.41400   39.74060   40.17080   59.31430 3957.46220   -9999.25   -9999.25   -9999.25
 8572.00000   67.33290    8.58310   19.54920   27.38000   36.71910   41.01220   42.07610   50.76280 3957.31450   -9999.25   -9999.25   -9999.25
 8572.50000   70.70450    8.58080   20.02510   27.95090   38.07230   43.06170   44.17690   49.32840 3957.16700   -9999.25   -9999.25   -9999.25
 8573.00000   86.89090    8.57850   20.51260   29.32820   39.47530   44.97470   45.91140   60.69780 3957.01950   -9999.25   -9999.25   -9999.25
 8573.50000  103.95390    8.57230   21.43940   30.91990   40.93010   45.36030   46.12330   76.77490 3956.87180   -9999.25   -9999.25   -9999.25
 8574.00000  116.78070    8.56300   22.27770   32.59990   41.99570   43.00750   43.97230   94.35010 3956.72440   -9999.25   -9999.25   -9999.25
 8574.50000  122.52630    8.55370   22.27560   34.26230   39.00860   40.07500   40.77070  104.56970 3956.57670   -9999.25   -9999.25   -9999.25
 8575.00000  120.34990    8.52910   22.30670   33.55160   35.93180   36.91520   37.80220  108.55170 3956.42920   -9999.25   -9999.25   -9999.25
 8575.50000  112.12770    8.50140   22.96770   32.82550   34.22810   36.48700   37.82460  106.06840 3956.28170   -9999.25   -9999.25   -9999.25
 8576.00000   99.41590    8.49970   27.20150   34.32880   35.84540   39.08490   40.33880   95.49970 3956.13400   -9999.25   -9999.25   -9999.25
 8576.50000   85.57020    8.50260   29.40740   34.73260   36.52670   41.47100   42.21230   80.70090 3955.98660   -9999.25   -9999.25   -9999.25
 8577.00000   81.17270    8.50550   26.69050   29.30610   30.66080   34.06630   39.45800   71.57640 3955.83910   -9999.25   -9999.25   -9999.25
 8577.50000   83.01090    8.50840   21.56260   24.28070   25.35820   26.81900   28.89790   68.48800 3955.69140   -9999.25   -9999.25   -9999.25
 8578.00000   83.46530    8.51140   20.54300   21.21480   22.76620   23.09500   24.71070   71.78670 3955.54390   -9999.25   -9999.25   -9999.25
 8578.50000   79.10810    8.51430   22.27020   23.45010   24.01000   24.88960   26.23270   74.80350 3955.39620   -9999.25   -9999.25   -9999.25
 8579.00000   72.18390    8.51630   25.34470   26.38600   26.90220   27.10300   28.63440   75.07860 3955.24880   -9999.25   -9999.25   -9999.25
 8579.50000   67.40120    8.51810   27.13750   28.03810   28.52460   29.49830   30.49760   69.97720 3955.10130   -9999.25   -9999.25   -9999.25
 8580.00000   62.77500    8.51790   28.17880   29.07160   29.45160   30.71340   31.73380   63.23640 3954.95360   -9999.25   -9999.25   -9999.25
 8580.50000   61.61410    8.51740   28.47930   29.53560   29.80390   30.67390   31.46720   59.68420 3964.26830   -9999.25   -9999.25   -9999.25
 8581.00000   62.78050    8.51690   28.28490   29.13240   29.44180   30.20130   30.90090   57.76690 3973.82930   -9999.25   -9999.25   -9999.25
 8581.50000   67.88250    8.51630   27.55430   28.30550   28.60540   29.05400   29.95310   57.81280 3983.39040   -9999.25   -9999.25   -9999.25
 8582.00000   76.18130    8.51580   23.21650   24.82680   26.10600   27.41760   28.44230   59.48990 3987.59670   -9999.25   -9999.25   -9999.25
 8582.50000   84.44880    8.51530   21.55920   22.41940   22.66280   23.09700   24.26400   63.19040 3985.39430   -9999.25   -9999.25   -9999.25
 8583.00000   87.20140    8.51470   21.78470   22.31380   22.52890   22.98100   23.75920   65.87290 3986.24660   -9999.25   -9999.25   -9999.25
 8583.50000   82.06700    8.51440   23.03780   23.72250   24.73530   26.50500   29.51280   65.46630 3987.09910   -9999.25   -9999.25   -9999.25
 8584.00000   67.27760    8.51410   27.49330   31.78950   35.52320   38.31650   41.51170   60.48740 3988.31130   -9999.25   -9999.25   -9999.25
 8584.50000   52.85470    8.51370   39.86880   42.79720   44.66400   48.58570   52.43250   51.40620 3989.55880   -9999.25   -9999.25   -9999.25
 8585.00000   41.32010    8.51340   50.70770   53.11350   54.27480   55.68770   57.34090   40.62380 3990.03690   -9999.25   -9999.25   -9999.25
 8585.50000   37.38890    8.51310   53.68990   54.47800   54.97240   55.71590   58.87640   33.45680 3971.58470   -9999.25   -9999.25   -9999.25
 8586.00000   43.19190    8.51280   47.61510   50.05620   51.29530   53.21410   56.08160   31.84290 3953.13260   -9999.25   -9999.25   -9999.25
 8586.50000   53.86830    8.51330   40.57090   42.00120   43.52520   45.93660   47.79920   37.57920 3953.89700   -9999.25   -9999.25   -9999.25
 8587.00000   64.66020    8.51740   32.47790   35.96510   37.02050   38.29270   41.31450   49.12340 3956.67110   -9999.25   -9999.25   -9999.25
 8587.50000   67.51970    8.52160   32.07580   39.51740   40.89640   43.21040   46.68260   56.44310 3956.63310   -9999.25   -9999.25   -9999.25
 8588.00000   63.68110    8.52570   44.01300   47.78910   49.63840   52.61030   56.81410   54.46810 3956.59500   -9999.25   -9999.25   -9999.25
 8588.50000   58.20580    8.50740   51.96430   55.19290   56.94580   57.70170   60.79140   45.62800 3956.55660   -9999.25   -9999.25   -9999.25
 8589.00000   64.86440    8.45050   45.43660   48.01830   49.92910   52.68840   55.54020   39.85310 3956.51860   -9999.25   -9999.25   -9999.25
 8589.50000   77.03370    8.45370   38.98080   40.04340   43.41590   47.46670   50.02340   48.85000 3956.48050   -9999.25   -9999.25   -9999.25
 8590.00000   77.74160    8.45690   37.46750   38.18250   40.71640   43.23850   45.05460   60.89220 3956.44240   -9999.25   -9999.25   -9999.25
 8590.50000   70.25310    8.46020   35.50830   36.31640   38.17640   40.43060   41.22020   70.53330 3956.40430   -9999.25   -9999.25   -9999.25
