~Version ---------------------------------------------------
VERS.   2.0 : CWLS log ASCII Standard -VERSION 2.0
WRAP.    NO : One line per depth step
DLM . SPACE : Column Data Section Delimiter
~Well ------------------------------------------------------
STRT .F                 8311.0 : START DEPTH
STOP .F                12842.0 : STOP DEPTH
STEP .F                    0.5 : STEP
NULL .                -9999.25 : NULL VALUE
COMP .                         : COMPANY
WELL .                         : WELL
FLD  .                         : FIELD
LOC  .                         : LOCATION
PROV .                         : PROVINCE
CNTY .                         : COUNTY
STAT .                         : STATE
CTRY .                         : COUNTRY
SRVC .                         : SERVICE COMPANY
DATE .                         : DATE
UWI  .                         : UNIQUE WELL ID
API  .                         : API NUMBER
SLAT .WGS84 1.6716663163562018 : SURFACE LATITUDE
SLON .WGS84  8.495202386497994 : SURFACE LONGITUDE
DATUM.F                 3055.1 : DEPTH DATUM ELEV
~Curve Information -----------------------------------------
DEPT   .F     : 1 MEASURED DEPTH
GRR    .GAPI  : GAMMA RAY FROM RESISTIVITY LOG
HCALR  .IN    : HRCC CALIPER CALIBRATED FROM RESISTIVITY LOG
AT10   .OHMM  : ARRAY INDUCTION TWO FOOT RESISTIVITY A10
AT20   .OHMM  : ARRAY INDUCTION TWO FOOT RESISTIVITY A20
AT30   .OHMM  : ARRAY INDUCTION TWO FOOT RESISTIVITY A30
AT60   .OHMM  : ARRAY INDUCTION TWO FOOT RESISTIVITY A60
AT90   .OHMM  : ARRAY INDUCTION TWO FOOT RESISTIVITY A90
GRS    .GAPI  : GAMMA RAY FROM SONIC LOG
TENS   .LB    : TENSION FROM SONIC LOG
SPHI_LS.DEC   : SONIC POROSITY [LIMESTONE]
DTCO   .US/F  : DELTA-T COMPRESSIONAL
DTSM   .US/F  : DELTA-T SHEAR
~Params ----------------------------------------------------
~Other -----------------------------------------------------
~ASCII -----------------------------------------------------
# ...
 12231.00000  161.07520    8.35130   25.50520   26.38260   26.67270   27.03650   27.53440  127.44160 5267.51170    0.28900   88.59750  144.04260
 12231.50000  162.55580    8.35220   25.68880   26.52780   26.77630   27.15640   27.66770  128.89730 5272.85890    0.28910   88.51510  144.81160
 12232.00000  162.43250    8.35260   24.41420   25.06440   25.44160   26.01260   26.79420  129.01370 5288.13720    0.29030   88.52290  144.95150
 12232.50000  161.05400    8.34990   23.39630   23.90400   24.12920   24.50180   25.17800  128.48550 5301.64700    0.29290   88.83180  145.46730
 12233.00000  162.30070    8.34620   23.29500   24.23990   24.53710   25.00090   25.62460  130.35020 5285.70850    0.29550   89.42930  146.07220
 12233.50000  165.54670    8.34810   24.27210   25.34280   25.59950   25.94750   26.41520  132.78350 5269.76950    0.29780   89.77480  146.00360
 12234.00000  167.43360    8.35400   25.15820   25.53050   25.75900   26.10850   26.57930  135.67030 5289.99800    0.29560   89.21420  145.26130
 12234.50000  166.62370    8.32920   24.90400   25.29500   25.53610   25.90330   26.39970  137.83930 5332.40230    0.28420   88.05290  144.13590
 12235.00000  164.96360    8.34250   24.11750   24.61260   24.87560   25.27320   25.81250  139.17170 5344.38920    0.27160   86.12870  143.00370
 12235.50000  165.40810    8.34610   23.18270   23.88150   24.13590   24.52220   25.04570  138.35270 5344.67430    0.26450   85.05180  141.87150
 12236.00000  166.29060    8.34790   22.28410   23.17210   23.41820   23.79350   24.30130  131.53720 5344.98240    0.26020   84.27920  140.73920
 12236.50000  162.65080    8.34820   21.87580   22.85090   23.05380   23.40370   23.84110  123.58620 5345.33110    0.25680   83.84160  140.04910
 12237.00000  156.46880    8.34700   21.83610   23.26230   23.49160   23.75160   24.19710  119.26040 5345.67970    0.25650   83.80540  139.84550
 12237.50000  155.10940    8.34570   21.83610   22.90410   23.12570   23.62160   24.11500  119.94540 5345.92870    0.25920   84.10700  140.21890
 12238.00000  156.75450    8.34450   21.52860   22.32040   22.60360   23.00990   23.45720  123.76630 5346.15280    0.26460   84.75870  140.78410
 12238.50000  157.75670    8.34330   21.22500   21.49430   21.70300   22.02250   22.54190  126.25690 5346.68800    0.26870   85.71740  141.50400
 12239.00000  154.55680    8.34210   21.15590   21.48780   21.68530   21.98740   22.41090  126.69860 5349.61280    0.27250   86.22620  142.22380
 12239.50000  154.66780    8.34090   21.46030   22.12830   22.41060   23.09130   23.98390  131.96140 5343.91110    0.27520   86.43900  142.60640
 12240.00000  158.56370    8.33970   23.47760   24.14000   24.62180   25.18940   26.31860  145.02300 5348.71580    0.27250   85.99430  142.15840
 12240.50000  174.85280    8.33840   26.08640   26.39270   27.06300   27.45970   29.96510  154.72340 5347.87700    0.26720   85.35040  141.38570
 12241.00000  184.21870    8.33720   26.30140   27.98520   29.15930   29.81550   30.79830  150.34130 5347.03860    0.26220   84.72680  140.48560
 12241.50000  183.87040    8.33600   24.06950   27.89880   28.76420   29.82060   30.39230  142.26010 5346.20020    0.25760   84.09180  139.96260
 12242.00000  170.10720    8.33480   24.57180   26.34070   27.55120   28.77800   29.43920  131.41050 5345.36180    0.25590   83.75760  139.43960
 12242.50000  162.76320    8.33360   24.11540   25.17640   25.79530   26.84610   27.82080  125.62940 5331.80620    0.25750   83.76820  139.07630
 12243.00000  156.66650    8.33230   23.21980   24.06790   24.40070   24.91260   25.88460  123.93560 5311.53220    0.26120   84.30760  139.53950
 12243.50000  155.53640    8.33110   21.99280   22.76530   23.08150   23.56530   24.22430  126.43080 5308.39750    0.26560   85.06790  140.88790
 12244.00000  155.87170    8.32990   20.83060   21.53550   21.83360   22.29330   22.91490  128.90870 5324.70260    0.26960   85.59790  141.56840
 12244.50000  155.70640    8.32870   19.91430   20.36880   20.65310   21.08640   21.67770  130.25110 5319.91500    0.27340   86.18400  142.21090
 12245.00000  153.86190    8.32750   18.80300   19.24160   19.51680   19.93560   20.50540  129.25880 5309.17140    0.27740   86.63950  142.24730
 12245.50000  151.03170    8.32630   17.88180   18.20840   18.42240   18.81500   19.35480  127.81780 5309.34470    0.27780   86.75400  141.71550
 12246.00000  153.05990    8.32500   18.04140   18.37050   18.64010   19.14960   20.00350  128.34810 5276.06450    0.27360   86.37980  141.13370
 12246.50000  160.42230    8.32380   19.32680   20.16810   20.64270   21.38760   22.40320  130.81920 5278.17920    0.26940   85.74590  140.58890
 12247.00000  167.47600    8.32540   21.23720   22.15530   22.35890   22.67090   23.09030  134.66590 5285.15430    0.26650   85.28980  140.06290
 12247.50000  170.69950    8.32880   21.14130   21.75830   22.01710   22.37720   22.82790  137.58890 5301.01810    0.26550   84.90650  139.53700
 12248.00000  169.41220    8.33220   20.28510   20.89130   21.13120   21.50470   22.03020  141.66300 5299.16600    0.26530   84.76100  139.22710
 12248.50000  168.28710    8.33560   19.70590   20.58770   20.77060   21.14020   21.64930  146.18220 5261.55270    0.26570   85.12400  138.99780
 12249.00000  174.45650    8.33890   20.23250   21.45730   21.80300   22.40640   22.87500  157.06130 5241.28760    0.26680   85.22760  138.73730
 12249.50000  189.89290    8.34230   22.16840   23.46190   24.02780   24.92260   26.14560  166.91690 5251.76900    0.26500   84.88530  138.47130
 12250.00000  202.31610    8.34570   24.25210   26.37480   26.98290   27.90480   28.91020  175.73210 5291.13280    0.26240   84.58860  137.94170
 12250.50000  210.19150    8.34900   25.51000   28.87330   29.34820   30.08370   31.09020  182.42980 5337.65580    0.25970   84.27600  137.27520
 12251.00000  210.83950    8.35240   25.92390   31.04520   31.55670   32.34710   33.42450  184.75620 5336.06250    0.25780   84.09450  136.96640
 12251.50000  212.27260    8.35580   26.94890   33.38310   33.93140   34.78310   35.93820  181.84050 5315.66460    0.25470   83.63880  136.44720
 12252.00000  214.01920    8.35910   28.15320   35.39210   35.76890   36.34950   37.13120  172.50050 5299.65770    0.25090   82.79200  135.63020
 12252.50000  209.55480    8.36250   29.47050   36.49340   36.86180   37.41780   38.16550  163.98680 5308.84720    0.24450   82.10020  134.90010
 12253.00000  199.30320    8.36370   31.03820   37.38370   37.76500   38.35110   39.20790  155.37720 5323.31490    0.23790   81.56160  134.16990
 12253.50000  187.58090    8.36370   31.81660   38.69410   39.57960   40.56510   42.48650  152.20030 5347.68800    0.22930   80.01100  133.36170
 12254.00000  180.32630    8.36370   32.75170   40.71140   44.03320   45.73870   48.10080  145.39900 5371.01420    0.21730   77.97560  130.06640
 12254.50000  173.07180    8.36110   35.38630   42.95980   49.84940   51.77750   54.45170  138.59770 5373.46040    0.20300   76.28990  126.55150
 12255.00000  166.63610    8.35840   39.14630   48.00590   56.43380   58.61350   61.64230  123.50700 5337.68120    0.19420   74.93150  125.42320
 12255.50000  147.33330    8.35570   43.48720   53.78600   63.88790   66.35210   69.27850  109.73610 5332.62700    0.19040   74.50630  125.28860
 12256.00000  139.79290    8.35670   47.47100   58.92170   69.38250   70.68140   72.15470  104.71910 5387.29300    0.19240   74.63250  125.33880
 12256.50000  133.02710    8.35890   49.65550   59.62910   66.73290   69.53200   71.61800  103.45310 5417.19970    0.19880   75.64430  125.48950
 12257.00000  133.12380    8.35250   49.30800   53.21270   56.42250   59.29840   63.38680  105.98200 5432.03710    0.20940   77.14610  126.94320
 12257.50000  134.59630    8.32660   41.48330   44.06940   45.97620   49.01090   53.34810  110.03710 5423.93550    0.21990   78.85870  128.89380
 12258.00000  136.58110    8.31790   34.86560   37.78790   38.24020   41.63090   44.08800  113.32320 5421.63570    0.23050   80.29850  130.56180
 12258.50000  138.95680    8.31740   33.50500   36.28550   37.60090   38.77240   39.60900  116.01580 5427.48000    0.24310   81.70170  132.44040
