~Version ---------------------------------------------------
VERS.   2.0 : CWLS log ASCII Standard -VERSION 2.0
WRAP.    NO : One line per depth step
DLM . SPACE : Column Data Section Delimiter
~Well ------------------------------------------------------
STRT .F                 8311.0 : START DEPTH
STOP .F                12842.0 : STOP DEPTH
STEP .F                    0.5 : STEP
NULL .                -9999.25 : NULL VALUE
COMP .                         : COMPANY
WELL .                         : WELL
FLD  .                         : FIELD
LOC  .                         : LOCATION
PROV .                         : PROVINCE
CNTY .                         : COUNTY
STAT .                         : STATE
CTRY .                         : COUNTRY
SRVC .                         : SERVICE COMPANY
DATE .                         : DATE
UWI  .                         : UNIQUE WELL ID
API  .                         : API NUMBER
SLAT .WGS84 1.6716663163562018 : SURFACE LATITUDE
SLON .WGS84  8.495202386497994 : SURFACE LONGITUDE
DATUM.F                 3055.1 : DEPTH DATUM ELEV
~Curve Information -----------------------------------------
DEPT   .F     : 1 MEASURED DEPTH
GRR    .GAPI  : GAMMA RAY FROM RESISTIVITY LOG
HCALR  .IN    : HRCC CALIPER CALIBRATED FROM RESISTIVITY LOG
AT10   .OHMM  : ARRAY INDUCTION TWO FOOT RESISTIVITY A10
AT20   .OHMM  : ARRAY INDUCTION TWO FOOT RESISTIVITY A20
AT30   .OHMM  : ARRAY INDUCTION TWO FOOT RESISTIVITY A30
AT60   .OHMM  : ARRAY INDUCTION TWO FOOT RESISTIVITY A60
AT90   .OHMM  : ARRAY INDUCTION TWO FOOT RESISTIVITY A90
GRS    .GAPI  : GAMMA RAY FROM SONIC LOG
TENS   .LB    : TENSION FROM SONIC LOG
SPHI_LS.DEC   : SONIC POROSITY [LIMESTONE]
DTCO   .US/F  : DELTA-T COMPRESSIONAL
DTSM   .US/F  : DELTA-T SHEAR
~Params ----------------------------------------------------
~Other -----------------------------------------------------
~ASCII -----------------------------------------------------
# ...
 8843.00000   97.32310    8.30110   16.36650   18.92600   20.59640   24.81510   26.65850   79.57600 4002.83060    0.16790   71.34300  122.17390
 8843.50000   94.97700    8.30110   13.70410   15.01420   17.26710   19.01170   21.09960   76.64620 4001.54980    0.16390   70.37240  123.22580
 8844.00000   91.32210    8.30060   11.27160   11.05060   13.52400   14.61220   16.16950   74.38390 3996.47800    0.15580   69.42040  123.52460
 8844.50000   81.64490    8.29890    9.80560    8.73090   10.59240   11.36370   12.28540   69.88520 3991.40600    0.15050   68.73630  124.32600
 8845.00000   75.50770    8.29710   10.01870    9.99310   10.65690   11.07300   11.48770   64.34930 3996.64040    0.14570   68.00130  124.52440
 8845.50000   72.36870    8.30040   10.85090   11.51610   12.66600   14.34140   13.91170   59.54430 4020.72220    0.14160   67.52110  124.15640
 8846.00000   69.18880    8.30110   11.75130   12.60590   15.53480   20.80890   14.52330   57.78950 4034.22120    0.13630   66.76290  123.00300
 8846.50000   64.54210    8.27220   11.17770   12.45850   17.36280   29.31050   21.96240   56.61030 3986.54980    0.13130   66.08300  121.53610
 8847.00000   61.34260    8.29810    9.58610    8.96200   14.00990   19.22520   16.94660   54.78830 3920.30810    0.12130   64.72210  120.45970
 8847.50000   58.09350    8.29820    8.77320    8.73160   13.17920   15.28430   13.51850   52.75220 3939.93900    0.10860   62.96210  121.49410
 8848.00000   54.87450    8.29830    8.36330    7.01430   10.72440   15.19890   16.80280   51.36470 3972.63450    0.10450   61.92940  122.62330
 8848.50000   55.65840    8.29750    6.89220    5.60120    7.50860   11.50640   14.80740   47.36410 3960.76250    0.10530   62.17750  123.71930
 8849.00000   63.94330    8.29200    6.09000    7.06000    8.73120   10.21030   11.31020   42.56540 3927.66280    0.11640   64.45350  124.35630
 8849.50000   76.85450    8.28110    8.30680   10.73590   13.59530   16.05970   19.21250   40.93420 3922.91210    0.13410   66.88420  124.78040
 8850.00000   89.54120    8.27020   14.60010   18.06650   23.78290   30.88170   23.43870   48.25450 3959.83790    0.14970   69.11590  125.09470
 8850.50000   92.23570    8.25940   24.29670   25.17520   34.36590   53.11550   20.54770   59.85290 4001.05760    0.15660   69.84170  125.53360
 8851.00000   91.36450    8.25960   23.22150   25.43170   33.37080   51.21980   20.26570   70.09640 4004.46530    0.16460   70.79200  126.55640
 8851.50000   93.50050    8.26020   20.71600   24.87530   30.60990   41.12610   22.65900   69.70550 3985.56930    0.17470   72.33620  128.10240
 8852.00000  101.20340    8.25850   17.61960   20.71780   24.05570   33.87730   20.26600   65.64740 3979.13400    0.18440   73.64170  129.42680
 8852.50000  108.18230    8.25550   16.04900   17.25850   18.52480   22.23090   17.44340   64.14330 3972.69900    0.18800   74.11740  129.91090
 8853.00000  108.52690    8.24760   13.00460   15.31600   15.99470   17.45310   16.01490   70.09000 3966.26390    0.19200   74.73680  129.79870
 8853.50000  101.71760    8.25320   13.46560   15.85330   16.12060   17.01850   16.98790   76.85300 3959.82890    0.19550   75.17530  128.38590
 8854.00000   92.47370    8.25880   14.55400   15.16500   16.44580   17.01730   18.66210   77.10030 3963.71850    0.19180   74.24340  125.27450
 8854.50000   88.65300    8.26440   15.27000   14.30740   15.94830   16.86510   19.30480   74.94930 3987.17800    0.17900   72.51620  121.30350
 8855.00000   86.39480    8.27000   15.78940   14.00490   15.66450   16.30680   18.80000   71.56580 4027.27660    0.16640   70.93700  117.21880
 8855.50000   77.32420    8.27560   16.32660   14.37500   16.08620   16.21140   18.65060   69.00460 4067.37520    0.15850   69.84550  116.14500
 8856.00000   66.18430    8.28120   16.29180   14.35510   15.68080   16.11670   18.65060   64.14560 4060.08740    0.14350   67.10620  119.87880
 8856.50000   52.27750    8.32850   15.67810   13.89740   15.51020   15.76860   18.55090   55.53910 4051.95140    0.12360   64.78960  125.92320
 8857.00000   47.23050    8.56380   15.11140   13.90710   15.01610   15.32220   18.14440   47.63310 4043.81570    0.11590   63.54720  129.04670
 8857.50000   50.88800    8.50410   14.62290   13.86760   14.86120   15.05960   17.34670   41.30630 4035.67990    0.11830   64.59420  130.01890
 8858.00000   69.22600    8.32870   10.40950   10.85670   11.70940   13.42610   14.41670   41.11060 4021.06980    0.13340   66.85980  130.13070
 8858.50000   83.01320    8.32000    7.17200    7.44150    7.87140    8.82970    8.32530   50.52630 3997.86620    0.15040   69.51300  129.96460
 8859.00000   98.26420    8.31720    7.24580    8.25010    8.70990    9.61910   10.27730   65.99910 3974.66280    0.17430   73.00800  129.23750
 8859.50000  103.85920    8.31430   10.42060   11.99740   12.52090   13.08030   13.99810   77.70410 3956.90310    0.20320   76.00740  128.29560
 8860.00000  103.24570    8.31150   14.16600   13.55410   14.46030   15.10500   16.10880   83.49610 3994.29300    0.20990   77.10050  127.41880
 8860.50000   99.54010    8.30870   16.22270   14.36920   16.46090   16.87790   17.44660   81.96560 4010.20120    0.20510   76.26120  126.87220
 8861.00000   94.48620    8.30580   17.24970   15.23260   17.70710   18.30820   19.08060   78.13740 4018.64770    0.18530   73.84210  126.25840
 8861.50000   90.88420    8.30300   18.08180   16.19080   19.04770   19.97520   20.99430   74.30920 4027.09420    0.16810   71.35450  124.85770
 8862.00000   87.25040    8.30100   17.89350   17.23320   19.76660   20.34260   21.23980   71.50370 4035.54080    0.15950   70.09110  123.00620
 8862.50000   86.23420    8.30050   17.32530   17.31980   19.17810   19.86590   20.39360   70.67740 4030.82690    0.15860   70.00830  120.83020
 8863.00000   89.25400    8.30000   16.63760   16.07090   17.36380   18.00810   18.87810   73.26810 4021.63430    0.15880   70.01700  119.87100
 8863.50000   98.32600    8.29950   15.34790   14.89820   15.83060   16.29440   16.92400   78.28680 4012.44190    0.15950   70.11460  118.93380
 8864.00000  105.39460    8.29900   14.15330   13.78440   14.49980   14.92250   15.49530   85.11530 4003.24930    0.16170   70.41480  117.99660
 8864.50000  105.00860    8.29850   13.14600   13.56600   14.22660   14.42890   14.69790   92.56810 3989.65890    0.16460   70.79760  117.08320
 8865.00000  100.25410    8.29800   12.35840   12.89670   13.38440   13.89500   14.23210   90.04680 3969.31930    0.16700   71.11180  115.82490
 8865.50000   95.18320    8.29750   10.49250   11.16960   11.50740   12.04140   12.67830   84.39610 3948.98000    0.16330   70.08490  114.37480
 8866.00000   90.03110    8.29700   10.01330   10.24890   10.34080   11.02550   11.80950   76.90950 3949.32710    0.14030   67.73860  112.83000
 8866.50000   81.82090    8.29650   10.63070   11.58890   11.93600   12.63180   13.54860   69.76910 3963.15410    0.12680   65.10140  111.04060
 8867.00000   73.43850    8.29600   12.69110   13.42790   13.82180   14.19010   14.45060   61.27150 3987.61380    0.12200   64.71310  109.76230
 8867.50000   71.75010    8.29550   11.43620   11.99790   12.40920   13.09170   13.86440   54.69510 4030.39790    0.11580   64.04520  109.69200
 8868.00000   72.39690    8.29500    9.99360   10.37780   10.68030   11.26380   12.07750   53.74720 4029.81490    0.10990   62.98130  109.68230
 8868.50000   70.82920    8.29450    8.98900   10.45740   10.61840   10.92760   11.52250   56.35040 4012.26220    0.10680   62.61700  109.74820
 8869.00000   68.44700    8.29400    8.89700   11.17410   11.34630   11.61420   11.86320   58.09870 4007.42990    0.10910   63.07480  110.06400
 8869.50000   67.24760    8.29410    9.18670   10.92750   11.25110   11.68030   11.89100   57.63520 4035.42240    0.11240   63.44210  110.36110
 8870.00000   69.48700    8.29480    8.88490    9.49030    9.76140   10.19240   10.92360   57.14910 4063.41460    0.11290   63.53530  111.78420
 8870.50000   71.91440    8.29550    8.53340    8.90580    9.03330    9.35350    9.89710   59.75870 4042.14230    0.11200   63.36540  113.02130
