~Version ---------------------------------------------------
VERS.   2.0 : CWLS log ASCII Standard -VERSION 2.0
WRAP.    NO : One line per depth step
DLM . SPACE : Column Data Section Delimiter
~Well ------------------------------------------------------
STRT .F                 8311.0 : START DEPTH
STOP .F                12842.0 : STOP DEPTH
STEP .F                    0.5 : STEP
NULL .                -9999.25 : NULL VALUE
COMP .                         : COMPANY
WELL .                         : WELL
FLD  .                         : FIELD
LOC  .                         : LOCATION
PROV .                         : PROVINCE
CNTY .                         : COUNTY
STAT .                         : STATE
CTRY .                         : COUNTRY
SRVC .                         : SERVICE COMPANY
DATE .                         : DATE
UWI  .                         : UNIQUE WELL ID
API  .                         : API NUMBER
SLAT .WGS84 1.6716663163562018 : SURFACE LATITUDE
SLON .WGS84  8.495202386497994 : SURFACE LONGITUDE
DATUM.F                 3055.1 : DEPTH DATUM ELEV
~Curve Information -----------------------------------------
DEPT   .F     : 1 MEASURED DEPTH
GRR    .GAPI  : GAMMA RAY FROM RESISTIVITY LOG
HCALR  .IN    : HRCC CALIPER CALIBRATED FROM RESISTIVITY LOG
AT10   .OHMM  : ARRAY INDUCTION TWO FOOT RESISTIVITY A10
AT20   .OHMM  : ARRAY INDUCTION TWO FOOT RESISTIVITY A20
AT30   .OHMM  : ARRAY INDUCTION TWO FOOT RESISTIVITY A30
AT60   .OHMM  : ARRAY INDUCTION TWO FOOT RESISTIVITY A60
AT90   .OHMM  : ARRAY INDUCTION TWO FOOT RESISTIVITY A90
GRS    .GAPI  : GAMMA RAY FROM SONIC LOG
TENS   .LB    : TENSION FROM SONIC LOG
SPHI_LS.DEC   : SONIC POROSITY [LIMESTONE]
DTCO   .US/F  : DELTA-T COMPRESSIONAL
DTSM   .US/F  : DELTA-T SHEAR
~Params ----------------------------------------------------
~Other -----------------------------------------------------
~ASCII -----------------------------------------------------
# ...
 9683.00000   78.25170    8.30240   11.50640   13.74950   16.03040   18.38820   20.90540   57.40460 4263.02780    0.17080   72.32980  123.31510
 9683.50000   93.66760    8.30490    9.14100   10.60380   11.11070   11.93880   12.25530   69.61580 4236.80470    0.19300   75.53940  125.08490
 9684.00000  104.20450    8.30910    8.47630    8.85350    9.29920    9.47270   10.14920   82.06780 4210.58150    0.20570   77.12410  126.45940
 9684.50000  109.81260    8.31220    8.33520    9.52960    9.57970   10.23820   10.92770   86.76040 4194.31980    0.21190   77.71340  127.34720
 9685.00000  111.57010    8.31240   10.57350   11.89250   12.24060   12.84980   14.31150   85.61590 4211.15530    0.21570   78.02130  127.24970
 9685.50000  110.93810    8.31230   12.94820   14.02320   17.03030   17.35700   17.83150   84.15870 4242.91460    0.21620   78.11470  126.97450
 9686.00000  111.67750    8.31230   11.14920   12.71930   14.10760   15.71960   17.39720   84.70000 4274.67380    0.21210   77.60770  126.59640
 9686.50000  112.13340    8.31230    7.90820    8.75940    9.45320   10.61350   11.73180   85.91420 4300.60010    0.20720   76.71570  126.17400
 9687.00000  110.60790    8.31220    7.42290    8.13440    8.37700    9.27260   10.18320   85.89320 4312.36040    0.20390   76.19860  125.82450
 9687.50000  104.09920    8.31220    9.42100   10.86610   11.40020   11.60570   12.80510   84.50440 4301.05470    0.20110   76.06740  126.27030
 9688.00000   99.27180    8.31220   11.45930   13.45450   14.11470   14.30510   14.92450   82.20280 4289.74950    0.20160   76.10540  126.67680
 9688.50000   97.99760    8.31210   10.26560   11.03630   11.64090   12.18470   13.07360   81.46470 4278.44380    0.20610   76.71160  126.69840
 9689.00000  100.39160    8.31210    8.84200    9.05690    9.44100    9.98260   10.66090   83.73230 4276.81300    0.21540   77.71520  126.52830
 9689.50000  103.16880    8.31200    8.28780    8.65820    8.73500    9.03880   10.05750   87.37520 4278.24120    0.21960   78.55080  126.11670
 9690.00000  107.28760    8.31200    9.36120   10.39400   10.95040   11.84950   13.15590   86.66790 4279.66940    0.21730   78.03830  125.78540
 9690.50000  108.18780    8.31190   12.61450   13.62580   14.35540   15.47310   15.73380   84.47960 4281.09770    0.20730   77.00180  125.25730
 9691.00000  104.55560    8.31190   14.07320   14.69350   15.11110   15.52120   15.77550   82.35240 4281.14160    0.19910   75.72780  124.19630
 9691.50000   98.27270    8.31180   12.93450   13.53380   13.94090   14.32060   14.28740   80.68790 4281.07420    0.19500   74.85990  123.81960
 9692.00000   96.34360    8.31180   12.95620   13.23080   14.30850   14.72330   14.76420   80.30490 4283.04980    0.19460   74.86690  123.50120
 9692.50000   96.30130    8.31170   13.07620   13.28130   14.54130   14.75090   14.95760   80.57620 4288.79300    0.19480   75.06010  123.29060
 9693.00000   98.66640    8.31160   12.23380   12.66700   13.91330   14.18190   14.49160   83.69540 4294.53610    0.19910   75.80100  123.39170
 9693.50000  103.03830    8.31160   11.79800   11.97510   13.55190   13.75910   14.01570   87.59480 4300.27980    0.20580   76.69820  123.73180
 9694.00000  107.75640    8.31150   11.88050   12.05500   13.28770   13.66710   14.00630   91.23440 4306.02290    0.20410   76.44750  123.79920
 9694.50000  109.11280    8.31140   11.35590   11.69610   12.39720   12.92380   13.43930   92.29560 4312.46140    0.20020   75.84280  123.53240
 9695.00000  105.55710    8.31140   10.79490   11.29450   11.77980   12.63450   13.37530   89.20260 4317.61570    0.19730   75.50590  122.59230
 9695.50000   98.41780    8.31130   12.40900   13.30890   14.10450   14.93310   16.11000   81.74060 4319.33740    0.19510   75.19840  121.65880
 9696.00000   93.27120    8.31130   15.27540   16.49140   17.14050   18.14760   19.59000   74.93030 4321.05860    0.19210   74.72340  120.32620
 9696.50000   87.34420    8.31120   18.19210   19.74290   20.83010   22.06400   23.72820   71.92140 4322.78030    0.18640   73.62360  118.96200
 9697.00000   81.94410    8.31100   20.81460   23.43890   24.85610   26.01040   27.63190   69.51410 4324.50200    0.17590   72.29550  117.59470
 9697.50000   74.53450    8.31090   25.79830   27.50470   28.94520   30.29460   31.93080   64.83060 4326.22310    0.17130   71.65460  115.88110
 9698.00000   71.76280    8.31070   26.81710   30.41080   31.18900   31.60990   32.17510   59.21340 4309.22410    0.17170   71.86940  115.92600
 9698.50000   75.07960    8.31060   27.56800   29.08510   30.50540   31.00110   31.76420   56.76260 4290.72360    0.17480   72.42860  116.65260
 9699.00000   82.41180    8.31040   27.31670   29.74370   32.57060   34.23070   36.66650   60.43670 4272.22360    0.18050   73.11710  117.76140
 9699.50000   91.89940    8.31030   25.97760   31.83380   37.37080   39.13220   40.56650   67.23370 4259.91210    0.18430   73.61600  118.84040
 9700.00000   97.76590    8.31010   22.51680   26.15080   30.06820   32.01210   35.30020   75.93770 4249.25440    0.18780   74.28480  119.91940
 9700.50000   98.54300    8.31000   19.17190   21.82310   22.99800   25.73220   27.32040   82.50060 4257.85600    0.19260   75.12650  120.99850
 9701.00000   97.78080    8.30980   17.22630   21.24280   21.88730   23.39620   24.39320   84.36020 4271.91110    0.19880   75.83040  122.07750
 9701.50000   98.35240    8.30960   18.77140   21.36400   23.79070   24.80500   26.19560   85.81590 4285.96680    0.20100   76.01080  122.85960
 9702.00000   98.86840    8.30950   21.73300   22.27090   25.69550   26.06270   27.14180   86.63050 4300.02250    0.20180   76.14050  123.60290
 9702.50000   98.60480    8.30930   21.94140   22.97170   25.76310   26.19720   27.09700   86.59400 4310.32130    0.20230   76.19900  124.39860
 9703.00000   96.94170    8.30920   20.24530   21.63370   22.89480   23.98780   25.44450   86.22000 4308.41210    0.20270   76.19410  125.07380
 9703.50000   95.24220    8.30900   17.61040   18.88120   19.60050   20.53990   21.84710   85.67120 4295.17820    0.20330   76.32840  125.54700
 9704.00000   95.70510    8.30890   13.86430   15.28300   16.20590   17.55470   18.69860   84.91620 4281.94480    0.20460   76.42540  125.84670
 9704.50000   99.99530    8.30870   10.30160   11.23280   11.91290   13.03680   14.67250   85.48660 4268.71140    0.20560   76.62710  126.88750
 9705.00000  104.09060    8.30890    8.17720    8.80420    9.20510    9.85410   10.80100   87.94660 4255.47800    0.20640   76.80350  127.95830
 9705.50000  105.85630    8.30920    7.22470    7.46020    7.60690    7.88030    8.55320   91.50610 4260.02250    0.20710   76.91110  129.04770
 9706.00000  105.12820    8.30940    6.62170    6.82940    6.95730    7.15830    7.43430   90.89980 4285.03470    0.20680   76.91510  129.72990
 9706.50000   99.49800    8.30970    5.77490    6.07600    6.26500    6.54570    6.81180   88.00100 4310.04640    0.20650   76.82080  129.25860
 9707.00000   96.70720    8.31000    5.07310    5.19600    5.35850    5.61590    5.97540   85.71920 4325.02390    0.20350   76.34070  128.38280
 9707.50000   96.04450    8.31020    4.99320    5.06690    5.11150    5.24780    5.78530   85.79630 4325.21630    0.19820   75.73290  127.00390
 9708.00000   96.02950    8.31050    5.49250    5.99570    6.32850    6.77960    7.33950   85.86230 4329.77540    0.19210   74.80730  124.72460
 9708.50000   94.34270    8.31080    7.04680    7.51840    7.81930    8.29800    8.70390   82.46090 4335.47460    0.18390   73.56280  122.45810
 9709.00000   88.28510    8.31100    8.46210    8.70870    8.86110    9.10000    9.42360   77.62320 4337.98000    0.17200   71.77550  118.37650
 9709.50000   82.43920    8.31130    9.15950    9.42680    9.60150    9.92520   10.67520   72.48210 4328.81150    0.15260   68.76980  114.65190
 9710.00000   72.95520    8.31160   10.26750   10.92550   11.34900   12.02310   12.96300   66.82760 4319.64260    0.11600   63.61260  109.40170
 9710.50000   61.37440    8.31180   12.42720   13.39130   14.24070   15.66430   17.80250   57.61730 4310.47410    0.09000   60.19730  104.76950
