~Version ---------------------------------------------------
VERS.   2.0 : CWLS log ASCII Standard -VERSION 2.0
WRAP.    NO : One line per depth step
DLM . SPACE : Column Data Section Delimiter
~Well ------------------------------------------------------
STRT .F                 8311.0 : START DEPTH
STOP .F                12842.0 : STOP DEPTH
STEP .F                    0.5 : STEP
NULL .                -9999.25 : NULL VALUE
COMP .                         : COMPANY
WELL .                         : WELL
FLD  .                         : FIELD
LOC  .                         : LOCATION
PROV .                         : PROVINCE
CNTY .                         : COUNTY
STAT .                         : STATE
CTRY .                         : COUNTRY
SRVC .                         : SERVICE COMPANY
DATE .                         : DATE
UWI  .                         : UNIQUE WELL ID
API  .                         : API NUMBER
SLAT .WGS84 1.6716663163562018 : SURFACE LATITUDE
SLON .WGS84  8.495202386497994 : SURFACE LONGITUDE
DATUM.F                 3055.1 : DEPTH DATUM ELEV
~Curve Information -----------------------------------------
DEPT   .F     : 1 MEASURED DEPTH
GRR    .GAPI  : GAMMA RAY FROM RESISTIVITY LOG
HCALR  .IN    : HRCC CALIPER CALIBRATED FROM RESISTIVITY LOG
AT10   .OHMM  : ARRAY INDUCTION TWO FOOT RESISTIVITY A10
AT20   .OHMM  : ARRAY INDUCTION TWO FOOT RESISTIVITY A20
AT30   .OHMM  : ARRAY INDUCTION TWO FOOT RESISTIVITY A30
AT60   .OHMM  : ARRAY INDUCTION TWO FOOT RESISTIVITY A60
AT90   .OHMM  : ARRAY INDUCTION TWO FOOT RESISTIVITY A90
GRS    .GAPI  : GAMMA RAY FROM SONIC LOG
TENS   .LB    : TENSION FROM SONIC LOG
SPHI_LS.DEC   : SONIC POROSITY [LIMESTONE]
DTCO   .US/F  : DELTA-T COMPRESSIONAL
DTSM   .US/F  : DELTA-T SHEAR
~Params ----------------------------------------------------
~Other -----------------------------------------------------
~ASCII -----------------------------------------------------
# ...
 11951.00000  136.49960    8.29630   38.90830   34.24930   41.39190   44.54090   47.22210  126.39590 5117.49950    0.27770   86.81580  136.84560
 11951.50000  154.90590    8.29620   43.49300   50.01140   48.07590   52.78010   58.18570  135.17600 5112.07180    0.27890   86.93450  137.96620
 11952.00000  167.61150    8.29610   52.57120   75.11140   61.99550   67.08400   69.83390  137.55210 5101.98930    0.27840   86.87010  138.09550
 11952.50000  180.43380    8.29610   63.99340  112.71640   79.64270   80.75350   79.42360  136.17790 5088.02000    0.27810   86.85050  138.40560
 11953.00000  175.73570    8.29600   61.19930  123.53400   70.54170   77.51150   72.78870  130.39160 5074.05080    0.27780   86.82770  138.67410
 11953.50000  168.95740    8.29590   43.90570   60.38470   50.64690   55.76450   60.60740  126.76000 5077.88230    0.27740   86.80490  139.55260
 11954.00000  163.39530    8.29590   36.25590   38.93250   40.42690   41.49100   46.45690  127.52960 5095.89160    0.27750   86.81530  140.30790
 11954.50000  163.88860    8.29580   36.22190   40.66050   40.39200   41.46220   43.49910  133.57010 5113.90090    0.27800   86.83750  140.85850
 11955.00000  172.18800    8.29580   40.19140   43.11620   43.45520   44.56830   46.81560  141.67130 5120.93650    0.27890   86.88360  141.08130
 11955.50000  181.62970    8.29570   43.25060   44.59720   45.80000   46.43210   48.82990  152.81900 5123.25100    0.27980   86.98090  141.65080
 11956.00000  187.01440    8.29570   40.28590   43.29500   44.67400   45.64060   48.95170  158.60600 5125.56590    0.28100   87.21740  141.94720
 11956.50000  185.57860    8.29560   39.21870   42.08690   42.47400   43.08840   46.75400  158.89060 5127.88090    0.28270   87.42570  142.26720
 11957.00000  183.94110    8.29560   38.33970   40.28020   40.85520   41.74210   44.49080  154.22050 5130.19530    0.28390   87.61920  142.56640
 11957.50000  182.99290    8.29550   35.97260   37.76520   38.36040   39.27420   41.87240  149.48920 5147.53030    0.28370   87.65880  142.45880
 11958.00000  177.50960    8.29550   33.75160   35.30210   35.85860   36.71550   39.08110  142.83130 5165.53960    0.28430   87.67280  142.35060
 11958.50000  169.82720    8.29540   31.96080   33.56050   33.85720   34.33630   35.57900  135.04010 5183.54880    0.28410   87.70240  141.91500
 11959.00000  159.38270    8.29540   31.98090   33.32800   33.62260   34.28210   35.91790  127.66640 5201.55810    0.28200   87.40820  140.80900
 11959.50000  153.66440    8.29530   34.36660   35.76390   36.63670   38.42890   40.27070  123.10030 5218.42630    0.27880   86.91230  139.63450
 11960.00000  147.94620    8.29520   37.72250   40.27570   41.25840   43.06880   45.14170  120.69200 5234.71240    0.27270   86.09150  138.44510
 11960.50000  147.00010    8.29520   41.31080   43.68150   46.46310   48.27860   50.60440  118.19980 5250.99850    0.26840   85.42480  138.12140
 11961.00000  147.85110    8.29510   42.27870   46.56230   51.58270   52.38270   54.72410  116.76030 5267.28470    0.26570   85.08470  137.89760
 11961.50000  149.31720    8.29510   42.71430   48.54670   52.86780   53.59440   56.25490  117.19460 5287.11080    0.26480   84.94100  137.67390
 11962.00000  150.45440    8.29510   43.06840   47.09440   53.20190   53.92100   56.14340  122.09040 5273.16890    0.26390   84.81760  137.51840
 11962.50000  150.88320    8.29510   41.62590   45.92000   53.20190   53.92100   55.05680  130.34470 5258.61230    0.26290   84.72960  137.39400
 11963.00000  151.56380    8.29510   44.81810   48.73530   54.79850   56.11400   57.84670  137.06660 5248.71440    0.26210   84.60760  136.94560
 11963.50000  158.00700    8.29510   46.93100   53.35520   58.52490   60.08620   62.32500  141.42250 5248.61230    0.26140   84.51490  136.58030
 11964.00000  163.93000    8.29510   50.80070   58.42310   62.18490   65.07060   67.32550  136.90820 5249.04300    0.26020   84.24490  136.27710
 11964.50000  156.53580    8.29510   51.97220   60.15190   65.97250   68.65330   69.88050  126.91570 5250.59230    0.25680   83.78280  135.13060
 11965.00000  147.20200    8.29410   51.17930   58.78430   64.07010   67.69180   69.03520  122.99910 5252.14210    0.24800   82.57460  132.16250
 11965.50000  142.00420    8.29230   50.39860   57.32610   61.86690   65.56730   67.22430  123.17980 5247.27490    0.22700   80.38740  127.51900
 11966.00000  139.77280    8.29060   49.62970   56.21260   61.99540   62.73410   64.18830  121.48340 5224.84130    0.17870   73.59780  124.06500
 11966.50000  135.56510    8.29100   49.52850   55.73890   60.71560   61.58480   62.78520  113.35260 5210.65970    0.12720   65.41470  120.39480
 11967.00000  122.76170    8.29150   51.71780   58.51630   61.59320   62.49790   64.28480   97.12220 5207.51860    0.09890   60.98050  116.72460
 11967.50000  100.55130    8.29200   57.58640   66.60060   67.86300   73.07000   80.56090   78.93570 5204.37790    0.08580   59.51990  113.05450
 11968.00000   84.86280    8.29240   67.57560   77.06410   87.29600   93.98500  103.60600   55.70230 5201.23680    0.07580   57.95180  110.54880
 11968.50000   54.97970    8.29290   82.53660   95.79230  112.29380  121.37860  136.56110   43.77660 5198.09620    0.07550   58.66200  108.26620
 11969.00000   47.66060    8.29340  100.81000  113.88910  144.44990  153.30870  164.12900   38.15540 5194.95510    0.09290   60.96460  108.40260
 11969.50000   47.32710    8.29370  100.51880  111.25530  139.25010  147.89310  152.70920   43.81260 5191.02150    0.11970   66.21870  110.61740
 11970.00000   56.93750    8.29390   84.21990   94.36260  106.10550  113.79520  127.67060   59.32110 5187.08150    0.16110   72.22090  113.93310
 11970.50000   80.45960    8.29410   67.20480   77.63960   83.58500   92.68560  102.47360   78.19290 5183.14160    0.20800   77.68070  120.88870
 11971.00000  107.18500    8.29430   54.87920   65.79780   71.93290   81.38230   85.79200  106.00010 5179.20210    0.24400   81.99840  128.57940
 11971.50000  134.32720    8.29450   53.73670   64.08010   69.20570   72.14090   75.31320  130.18920 5175.26220    0.26280   84.44590  132.91480
 11972.00000  164.92880    8.29470   54.90170   62.30000   66.51430   67.68850   69.27080  140.05050 5171.32230    0.26730   85.40810  134.17220
 11972.50000  180.64980    8.29500   52.63610   59.35480   63.15830   64.48290   66.27160  138.79260 5171.16600    0.26650   85.34230  134.60460
 11973.00000  180.02730    8.29520   49.20310   55.14930   59.78220   61.03820   62.73640  128.67960 5172.45410    0.26210   84.60050  133.87560
 11973.50000  171.67700    8.29540   46.36270   51.29840   57.00890   58.04400   60.39740  126.06670 5176.37160    0.25920   84.10040  133.47550
 11974.00000  164.22680    8.29560   46.39640   51.73340   57.09050   58.09310   60.31100  129.47160 5177.69630    0.25770   84.05700  133.18190
 11974.50000  160.76580    8.29580   47.71110   53.59560   57.70180   59.67900   62.23260  134.22430 5174.73580    0.25690   83.88100  132.88830
 11975.00000  160.77780    8.29600   44.91510   52.17910   54.38420   59.14910   62.97850  134.36390 5171.77490    0.25470   83.53300  133.06400
 11975.50000  159.59610    8.29620   40.20180   46.69520   48.22700   50.16690   55.11040  130.41980 5168.73580    0.25370   83.36360  133.27320
 11976.00000  158.08130    8.29640   36.56950   41.69290   42.76690   44.39290   47.27440  126.78570 5165.69680    0.25390   83.39260  133.56960
 11976.50000  156.83150    8.29660   35.05240   39.65800   40.95770   41.59670   43.79780  123.00630 5170.75540    0.25460   83.57110  133.66720
 11977.00000  156.10270    8.29680   35.28430   39.02470   42.45630   43.20470   45.84550  120.94050 5193.30810    0.25420   83.64870  133.64630
 11977.50000  155.96480    8.29710   35.51740   39.52240   43.58440   44.31450   46.07940  120.20310 5196.93550    0.25380   83.51640  133.39750
 11978.00000  155.32460    8.29730   35.88580   41.02070   44.89110   45.92150   47.09270  121.33300 5200.30030    0.25370   83.36610  133.41550
 11978.50000  155.10860    8.29750   37.18500   43.28160   47.12130   48.14290   49.37140  123.21190 5203.66550    0.25370   83.35230  132.60110
