~Version ---------------------------------------------------
VERS.   2.0 : CWLS log ASCII Standard -VERSION 2.0
WRAP.    NO : One line per depth step
DLM . SPACE : Column Data Section Delimiter
~Well ------------------------------------------------------
STRT .F                 8311.0 : START DEPTH
STOP .F                12842.0 : STOP DEPTH
STEP .F                    0.5 : STEP
NULL .                -9999.25 : NULL VALUE
COMP .                         : COMPANY
WELL .                         : WELL
FLD  .                         : FIELD
LOC  .                         : LOCATION
PROV .                         : PROVINCE
CNTY .                         : COUNTY
STAT .                         : STATE
CTRY .                         : COUNTRY
SRVC .                         : SERVICE COMPANY
DATE .                         : DATE
UWI  .                         : UNIQUE WELL ID
API  .                         : API NUMBER
SLAT .WGS84 1.6716663163562018 : SURFACE LATITUDE
SLON .WGS84  8.495202386497994 : SURFACE LONGITUDE
DATUM.F                 3055.1 : DEPTH DATUM ELEV
~Curve Information -----------------------------------------
DEPT   .F     : 1 MEASURED DEPTH
GRR    .GAPI  : GAMMA RAY FROM RESISTIVITY LOG
HCALR  .IN    : HRCC CALIPER CALIBRATED FROM RESISTIVITY LOG
AT10   .OHMM  : ARRAY INDUCTION TWO FOOT RESISTIVITY A10
AT20   .OHMM  : ARRAY INDUCTION TWO FOOT RESISTIVITY A20
AT30   .OHMM  : ARRAY INDUCTION TWO FOOT RESISTIVITY A30
AT60   .OHMM  : ARRAY INDUCTION TWO FOOT RESISTIVITY A60
AT90   .OHMM  : ARRAY INDUCTION TWO FOOT RESISTIVITY A90
GRS    .GAPI  : GAMMA RAY FROM SONIC LOG
TENS   .LB    : TENSION FROM SONIC LOG
SPHI_LS.DEC   : SONIC POROSITY [LIMESTONE]
DTCO   .US/F  : DELTA-T COMPRESSIONAL
DTSM   .US/F  : DELTA-T SHEAR
~Params ----------------------------------------------------
~Other -----------------------------------------------------
~ASCII -----------------------------------------------------
# ...
 9963.00000  127.55130    8.28990   15.72950   18.01160   19.05130   20.75360   20.88930  105.30360 4386.88480    0.20260   76.56280  123.00920
 9963.50000  112.10290    8.29080   18.77100   19.94260   20.99260   21.96080   22.32740   97.62230 4404.98580    0.18440   73.53050  121.51850
 9964.00000   95.93920    8.29160   20.85780   23.00910   23.57650   24.47810   24.88690   87.82620 4416.64010    0.17650   72.48580  120.04290
 9964.50000   84.66480    8.29250   23.79610   25.98470   26.82810   28.02450   29.72630   78.50000 4426.87500    0.17530   72.35810  119.76650
 9965.00000   79.27260    8.29330   25.57720   29.37840   30.14570   30.54440   32.13140   72.91140 4427.56790    0.17870   72.50690  120.87250
 9965.50000   86.49990    8.29420   22.24520   26.85820   28.43890   29.36420   29.90570   78.06040 4416.46780    0.18740   74.37320  122.88450
 9966.00000   98.93060    8.29500   21.19700   23.40920   25.00110   25.90620   26.39830   88.46550 4405.36820    0.21260   76.88190  125.12810
 9966.50000  105.74890    8.29590   19.69660   21.30810   22.50120   23.00840   24.30670   94.56830 4394.26810    0.22440   78.98740  127.19170
 9967.00000  104.54210    8.29680   18.10780   19.61560   21.19950   21.63120   22.55320   93.86770 4386.45260    0.22840   79.86370  128.12420
 9967.50000  101.40740    8.29760   16.16410   18.61820   20.42310   20.69400   21.73730   89.62470 4391.20410    0.22990   80.05350  129.10040
 9968.00000  101.73350    8.29850   16.42900   18.39990   21.23200   21.66880   22.60400   86.41100 4391.14890    0.23060   80.07610  129.01150
 9968.50000  104.88700    8.29930   17.79340   19.80620   22.39150   22.98410   24.31770   83.95120 4391.09380    0.23020   80.06870  129.02090
 9969.00000  110.55520    8.30020   20.62930   21.57670   23.47020   24.22020   27.64550   83.59310 4391.03910    0.22840   79.86280  129.03030
 9969.50000  114.53720    8.30100   19.56100   20.68040   22.01630   23.46730   26.43030   84.93740 4390.98390    0.22760   79.71990  129.23270
 9970.00000  114.46440    8.30190   16.51490   17.77790   19.29320   20.08310   21.36000   86.41000 4390.92920    0.22680   79.67690  129.07290
 9970.50000  113.31300    8.30280   13.87910   15.27890   16.90680   18.20680   17.57690   86.49510 4390.87400    0.22610   79.61460  128.92550
 9971.00000  113.62110    8.30360   14.39460   14.92650   16.01150   17.25790   18.47760   85.98670 4380.47710    0.22370   79.29880  128.43310
 9971.50000  115.35070    8.30450   15.90710   17.12590   17.61810   18.64260   20.68290   88.93880 4366.38570    0.22120   78.89060  127.03190
 9972.00000  114.33040    8.30530   17.60890   19.15650   19.58320   20.31410   21.60920   92.42820 4377.49760    0.21440   77.85250  125.70430
 9972.50000  109.40680    8.30520   19.27880   21.29630   21.76740   22.22580   22.41330   93.97430 4398.56740    0.20550   76.37400  124.72500
 9973.00000  100.45430    8.30490   21.48900   22.44560   22.72260   23.24230   25.32300   89.73510 4419.63720    0.20020   75.88020  124.12990
 9973.50000   92.34180    8.30460   23.28900   23.87220   24.23890   24.79350   27.01680   82.77560 4417.98730    0.19890   75.67520  124.80180
 9974.00000   90.90740    8.30430   23.80140   24.72720   25.76920   26.18040   27.46960   79.05450 4391.18750    0.20340   76.33590  125.62350
 9974.50000   90.71450    8.30400   23.22000   24.44180   25.70140   26.31210   26.51840   79.48170 4364.38720    0.21120   77.26560  126.82230
 9975.00000   95.63770    8.30370   21.87110   23.35490   23.95300   25.40830   25.60140   82.53570 4374.13770    0.22430   79.11480  128.18980
 9975.50000  102.20900    8.30340   21.37200   22.57750   23.85570   25.81390   26.16310   87.78030 4435.57030    0.22930   79.96840  129.40070
 9976.00000  106.93620    8.30310   26.18230   27.78450   29.14140   31.06840   32.11740   92.86110 4468.37110    0.22880   80.10160  128.87130
 9976.50000  104.99980    8.29110   30.62650   32.47260   33.92280   35.56930   35.81620   96.35330 4436.40190    0.22180   78.92700  126.13030
 9977.00000   93.35590    8.27850   24.94420   26.01360   27.10870   29.85260   31.27250   91.66840 4425.41850    0.19800   75.55790  123.14250
 9977.50000   83.64040    8.30240   23.46270   25.11760   25.34210   25.91990   26.24360   82.59990 4434.70800    0.17950   73.00850  119.47760
 9978.00000   82.02770    8.30050   26.29480   27.15670   27.75930   28.70300   29.17050   72.92530 4443.86720    0.16900   71.47260  116.67560
 9978.50000   82.17770    8.30000   26.76420   29.88600   30.15320   30.55750   30.75640   71.34820 4453.02640    0.15950   69.55690  114.20990
 9979.00000   79.25490    8.29940   26.50350   28.50380   28.89880   29.50810   29.80690   70.74320 4462.18550    0.13720   66.70680  112.26230
 9979.50000   67.51870    8.29880   27.09860   28.91160   30.36710   34.04640   35.99680   67.34570 4439.34670    0.11000   62.50720  110.28010
 9980.00000   54.02340    8.30130   36.93310   41.88380   45.17690   50.63410   53.52090   59.94190 4403.49710    0.09260   60.85670  110.10970
 9980.50000   42.07150    8.29690   53.63130   62.25820   67.20920   71.70180   72.61700   48.13250 4400.03170    0.09990   61.60160  110.71480
 9981.00000   38.75160    8.26970   56.11140   59.94310   64.43120   67.37390   69.52330   40.32470 4440.94290    0.11540   63.85510  111.31590
 9981.50000   46.37220    8.28280   45.37690   48.63520   51.16790   54.20020   55.90380   41.72790 4480.75000    0.13390   66.45790  112.72340
 9982.00000   68.45510    8.28470   30.79270   34.78950   37.47050   41.88210   44.11620   50.66300 4470.46040    0.15800   69.77880  115.54520
 9982.50000   86.96020    8.28670   22.54890   24.13310   25.42770   28.42630   30.02470   64.88820 4434.55130    0.17630   72.51200  117.13580
 9983.00000   92.32600    8.28870   18.06800   19.83140   20.34110   21.65730   22.33240   72.93960 4398.64210    0.17720   72.48000  117.17390
 9983.50000   87.26670    8.29070   18.47730   19.97310   20.48830   22.03330   22.83100   75.23450 4407.65430    0.16270   70.89620  116.04240
 9984.00000   76.34250    8.29270   23.14200   25.07010   26.30570   28.29250   29.31660   67.98550 4437.45850    0.15220   69.00720  114.12230
 9984.50000   65.22600    8.29460   29.73900   32.18990   33.77490   36.40850   37.77010   58.03410 4466.92140    0.14290   67.47620  112.37330
 9985.00000   52.04510    8.29660   38.37330   41.70920   43.89020   48.68210   50.92130   52.61820 4409.37940    0.14090   67.42040  110.74980
 9985.50000   42.86650    8.29860   49.62810   54.33760   57.16410   66.82730   64.30400   47.05070 4369.74370    0.14740   68.51070  109.76820
 9986.00000   41.78240    8.30060   55.81850   65.01970   66.15350   72.31180   63.91980   42.82610 4384.39060    0.15840   69.87370  111.38370
 9986.50000   51.61320    8.30260   40.99700   46.01760   49.34250   54.96100   56.16340   44.45670 4401.90330    0.16750   71.05180  113.67690
 9987.00000   67.85020    8.30150   30.02090   32.88420   34.75020   38.03810   40.02450   55.06200 4395.87840    0.17120   71.68160  115.47800
 9987.50000   81.47600    8.26620   25.72360   26.99840   27.26250   30.50650   31.14990   68.84890 4362.82860    0.17740   72.82080  118.18210
 9988.00000   88.00890    8.26680   25.98010   28.96310   30.31790   34.18730   37.01000   79.70410 4342.38530    0.18390   73.68490  120.59960
 9988.50000   91.41790    8.28010   30.03290   36.76550   38.52320   49.12550   38.62990   83.48360 4333.87700    0.18160   73.10750  122.81400
 9989.00000   89.89660    8.29340   29.65290   32.98360   34.65120   46.60680   37.04810   79.91610 4325.36870    0.17510   72.26550  123.34220
 9989.50000   87.40860    8.29740   23.56700   25.54750   26.83930   31.46810   32.61570   74.96190 4358.57520    0.17660   72.36910  123.73210
 9990.00000   87.49190    8.29840   18.97580   20.21100   20.78860   25.26040   26.96050   71.21460 4371.71090    0.18690   74.01470  125.35170
 9990.50000   93.26520    8.29950   15.25290   16.58260   17.74290   20.29950   22.28580   69.03240 4383.84620    0.21200   77.22420  127.67130
