~Version ---------------------------------------------------
VERS.   2.0 : CWLS log ASCII Standard -VERSION 2.0
WRAP.    NO : One line per depth step
DLM . SPACE : Column Data Section Delimiter
~Well ------------------------------------------------------
STRT .F                 8311.0 : START DEPTH
STOP .F                12842.0 : STOP DEPTH
STEP .F                    0.5 : STEP
NULL .                -9999.25 : NULL VALUE
COMP .                         : COMPANY
WELL .                         : WELL
FLD  .                         : FIELD
LOC  .                         : LOCATION
PROV .                         : PROVINCE
CNTY .                         : COUNTY
STAT .                         : STATE
CTRY .                         : COUNTRY
SRVC .                         : SERVICE COMPANY
DATE .                         : DATE
UWI  .                         : UNIQUE WELL ID
API  .                         : API NUMBER
SLAT .WGS84 1.6716663163562018 : SURFACE LATITUDE
SLON .WGS84  8.495202386497994 : SURFACE LONGITUDE
DATUM.F                 3055.1 : DEPTH DATUM ELEV
~Curve Information -----------------------------------------
DEPT   .F     : 1 MEASURED DEPTH
GRR    .GAPI  : GAMMA RAY FROM RESISTIVITY LOG
HCALR  .IN    : HRCC CALIPER CALIBRATED FROM RESISTIVITY LOG
AT10   .OHMM  : ARRAY INDUCTION TWO FOOT RESISTIVITY A10
AT20   .OHMM  : ARRAY INDUCTION TWO FOOT RESISTIVITY A20
AT30   .OHMM  : ARRAY INDUCTION TWO FOOT RESISTIVITY A30
AT60   .OHMM  : ARRAY INDUCTION TWO FOOT RESISTIVITY A60
AT90   .OHMM  : ARRAY INDUCTION TWO FOOT RESISTIVITY A90
GRS    .GAPI  : GAMMA RAY FROM SONIC LOG
TENS   .LB    : TENSION FROM SONIC LOG
SPHI_LS.DEC   : SONIC POROSITY [LIMESTONE]
DTCO   .US/F  : DELTA-T COMPRESSIONAL
DTSM   .US/F  : DELTA-T SHEAR
~Params ----------------------------------------------------
~Other -----------------------------------------------------
~ASCII -----------------------------------------------------
# ...
 10243.00000  106.54830    8.28440   26.79270   28.21420   30.72910   31.14250   31.27720   92.64310 4484.41160    0.19730   74.72410  122.34940
 10243.50000   95.92390    8.27560   28.29790   30.57710   32.51420   33.39780   33.89570   91.03430 4471.86180    0.18190   72.41820  122.07730
 10244.00000   88.72200    8.26680   28.35540   32.85260   34.34320   34.80520   37.49550   84.32040 4459.31150    0.16860   71.00470  123.37360
 10244.50000   81.75180    8.27080   27.83740   31.04420   31.75200   32.87430   34.64090   74.91260 4447.01070    0.17180   72.04740  124.66980
 10245.00000   80.82110    8.27790   25.81570   27.27730   28.20180   29.39310   31.04630   66.87020 4436.25730    0.18810   74.26790  125.75610
 10245.50000   90.51760    8.28500   21.73810   23.02600   23.80340   25.03390   26.71780   67.50780 4447.38430    0.20140   76.33760  126.41420
 10246.00000  105.66960    8.29220   17.90130   19.04080   20.09100   22.24440   22.78650   75.88920 4458.51120    0.21010   77.30230  127.54370
 10246.50000  115.14640    8.29830   18.52260   19.66900   20.41270   22.02440   22.33750   85.53620 4462.61330    0.21180   77.47540  129.06160
 10247.00000  110.45860    8.29810   21.54750   22.10910   22.46890   24.11010   24.39810   91.76090 4449.10400    0.21140   77.27890  130.52430
 10247.50000  100.58180    8.29790   21.38910   22.08820   22.30250   23.73990   24.06250   89.33180 4435.59520    0.21110   77.23580  130.81830
 10248.00000   97.26080    8.29780   20.07650   20.78360   21.12290   21.80380   22.10540   83.62700 4422.08590    0.21090   77.38520  130.52160
 10248.50000  102.03060    8.29760   19.05940   19.78680   19.96260   20.28830   20.60060   82.33510 4428.68020    0.21070   77.42760  130.38580
 10249.00000  109.11250    8.29740   19.68020   20.82420   21.27570   22.00780   22.38280   84.81840 4438.19780    0.21070   77.22960  130.60580
 10249.50000  114.81680    8.29710   21.32000   22.08670   23.77700   24.62170   25.47420   92.06670 4447.71530    0.21110   77.30140  130.90180
 10250.00000  111.22100    8.29630   22.56210   23.24770   26.60130   27.42340   28.98130   97.29190 4457.23290    0.21020   77.34830  130.50580
 10250.50000  105.66140    8.29600   23.11000   23.66380   27.30630   27.72150   28.32010   95.86230 4466.75050    0.20770   76.96360  129.57130
 10251.00000  105.33580    8.28930   23.46390   23.82610   27.44580   27.86400   28.05940   92.92830 4478.95700    0.20650   76.73960  128.66880
 10251.50000  112.29220    8.28210   23.22840   24.11010   26.81950   27.46700   28.12640   92.82120 4489.12350    0.21120   77.37180  128.70550
 10252.00000  118.84490    8.28190   21.20800   21.94500   23.87150   24.74370   25.58160   94.84490 4482.12060    0.21590   78.11120  128.71960
 10252.50000  124.31930    8.28160   22.99670   23.93250   23.91290   25.43390   28.37490   97.07810 4467.65380    0.21500   77.97300  128.52840
 10253.00000  125.10280    8.28130   24.86670   26.57920   29.46770   31.33980   32.58080   97.43770 4460.43460    0.20930   77.07560  127.94160
 10253.50000  123.44220    8.28100   26.81700   29.36500   36.31280   38.43330   40.15060   97.69220 4470.23100    0.20430   76.37800  127.19660
 10254.00000  117.67950    8.28080   28.08110   32.44690   38.41520   39.13890   41.30500   98.22800 4507.06250    0.20440   76.44590  126.43790
 10254.50000  112.90670    8.28050   26.76240   32.11000   34.30530   35.52370   36.24910   98.62170 4549.73140    0.20750   76.86470  125.57510
 10255.00000  109.88330    8.28020   24.91280   27.92180   30.63510   31.73010   32.27310   98.90080 4548.90620    0.20410   76.55640  123.46890
 10255.50000  104.04030    8.28000   23.65620   25.03180   27.35760   28.33510   28.82420   99.02960 4512.84620    0.18870   74.16470  120.33190
 10256.00000   92.94770    8.28170   24.91500   26.41270   26.92880   28.47330   29.00120   95.82610 4493.59720    0.16700   70.86660  116.48550
 10256.50000   81.53300    8.28970   25.66840   29.40310   30.74560   32.19450   32.79130   85.22440 4523.01610    0.15480   69.35900  114.30850
 10257.00000   69.52830    8.29770   30.95450   32.61820   34.24470   34.53160   38.75730   72.02730 4544.03520    0.15530   69.42010  112.95470
 10257.50000   65.48040    8.30570   29.45890   30.73280   31.53920   32.82550   33.46090   63.07400 4534.35640    0.15770   70.17250  113.76660
 10258.00000   73.83770    8.30200   24.35200   26.27590   27.51760   28.79850   29.35980   57.55030 4523.58450    0.16860   71.51970  116.72670
 10258.50000   86.49380    8.26040   20.20680   21.15190   21.67740   23.28410   24.04410   59.97010 4482.79150    0.18470   73.59130  121.45770
 10259.00000   96.92810    8.24930   17.69620   18.46730   19.79330   20.42770   20.70060   67.72050 4509.20850    0.19660   75.70530  123.95820
 10259.50000   99.63520    8.24930   17.19750   17.88470   18.81800   19.16860   19.37700   75.69570 4541.94480    0.20720   76.67340  124.90330
 10260.00000  101.19160    8.24930   16.16000   16.95440   17.29640   17.76450   17.99990   80.35490 4574.68070    0.20130   75.76330  124.70760
 10260.50000  102.18090    8.24930   15.49930   16.32480   16.77400   16.99960   17.21900   80.86460 4528.03520    0.18810   73.96740  123.70180
 10261.00000  101.06910    8.24990   16.65910   17.79830   18.24140   18.93360   19.28050   79.09000 4480.60690    0.17850   72.82180  122.17900
 10261.50000   93.58970    8.25860   18.32190   19.52420   20.59380   21.56140   22.09210   76.91740 4465.42040    0.17880   72.79990  120.75680
 10262.00000   85.27590    8.26740   19.63820   21.43590   23.24950   24.52880   27.49890   76.14660 4492.89400    0.18140   73.31860  120.82600
 10262.50000   82.62020    8.27610   20.02040   23.56170   25.45760   26.15100   28.06620   77.15940 4524.34420    0.18400   73.74190  122.22990
 10263.00000   88.02490    8.28210   19.25120   23.08990   24.93750   24.57520   25.71100   81.37620 4516.77490    0.19460   75.17210  124.55700
 10263.50000   99.34690    8.28380   18.75790   19.22330   20.90760   22.08630   23.26870   88.41450 4494.23050    0.21150   77.30390  126.77440
 10264.00000  108.66920    8.28550   15.73780   16.73600   18.76930   19.22900   20.11400   91.41700 4471.68550    0.22140   79.37590  128.82610
 10264.50000  115.08150    8.28710   13.08760   13.81820   14.86190   15.90550   16.28560   93.03060 4473.75730    0.22480   79.32360  130.44540
 10265.00000  116.09230    8.28880    9.61470   10.82940   11.47550   12.59750   13.01620   94.47610 4487.28860    0.21630   78.23640  129.83650
 10265.50000  115.32810    8.29040    8.69190    8.95140    9.06500    9.66280    9.97020   94.77660 4503.49070    0.20720   76.18290  126.85910
 10266.00000  108.83290    8.29210    8.78360    9.60120   10.51850   11.91380   12.62820   91.82410 4503.69290    0.18530   73.30800  120.99520
 10266.50000   91.49470    8.29380   12.98090   14.81090   16.04030   18.10050   19.19050   82.83520 4453.29640    0.15190   68.01760  113.97990
 10267.00000   69.60610    8.29540   19.73580   22.51980   24.38100   27.30270   28.83040   71.31110 4401.05420    0.11140   63.68400  106.96470
 10267.50000   53.26870    8.29700   29.54150   33.29990   35.81030   39.96610   42.05560   56.05390 4432.89160    0.10750   62.65870  103.34270
 10268.00000   47.77220    8.29700   39.02660   40.82610   43.06800   44.68680   44.97770   47.13970 4472.64010    0.11130   63.47970  104.41040
 10268.50000   53.06450    8.29690   31.86640   34.84800   36.72300   38.52470   39.42930   43.59050 4516.01760    0.12880   66.38210  107.53250
 10269.00000   66.84300    8.29690   23.27820   25.77320   27.98220   30.27120   31.44010   51.32510 4512.87210    0.16040   69.62390  114.19540
 10269.50000   87.33450    8.29680   17.59750   18.65720   21.66670   23.10440   23.95960   65.72440 4484.60550    0.19480   75.22330  123.09630
 10270.00000  107.93350    8.29680   15.50650   16.63320   17.48550   18.61980   19.31640   79.91430 4489.77880    0.22880   80.64120  129.61250
 10270.50000  135.95350    8.29670   13.97880   15.10500   15.63650   16.24640   17.09430   94.43140 4508.48930    0.24520   82.27310  132.51650
