~Version ---------------------------------------------------
VERS.   2.0 : CWLS log ASCII Standard -VERSION 2.0
WRAP.    NO : One line per depth step
DLM . SPACE : Column Data Section Delimiter
~Well ------------------------------------------------------
STRT .F                 8311.0 : START DEPTH
STOP .F                12842.0 : STOP DEPTH
STEP .F                    0.5 : STEP
NULL .                -9999.25 : NULL VALUE
COMP .                         : COMPANY
WELL .                         : WELL
FLD  .                         : FIELD
LOC  .                         : LOCATION
PROV .                         : PROVINCE
CNTY .                         : COUNTY
STAT .                         : STATE
CTRY .                         : COUNTRY
SRVC .                         : SERVICE COMPANY
DATE .                         : DATE
UWI  .                         : UNIQUE WELL ID
API  .                         : API NUMBER
SLAT .WGS84 1.6716663163562018 : SURFACE LATITUDE
SLON .WGS84  8.495202386497994 : SURFACE LONGITUDE
DATUM.F                 3055.1 : DEPTH DATUM ELEV
~Curve Information -----------------------------------------
DEPT   .F     : 1 MEASURED DEPTH
GRR    .GAPI  : GAMMA RAY FROM RESISTIVITY LOG
HCALR  .IN    : HRCC CALIPER CALIBRATED FROM RESISTIVITY LOG
AT10   .OHMM  : ARRAY INDUCTION TWO FOOT RESISTIVITY A10
AT20   .OHMM  : ARRAY INDUCTION TWO FOOT RESISTIVITY A20
AT30   .OHMM  : ARRAY INDUCTION TWO FOOT RESISTIVITY A30
AT60   .OHMM  : ARRAY INDUCTION TWO FOOT RESISTIVITY A60
AT90   .OHMM  : ARRAY INDUCTION TWO FOOT RESISTIVITY A90
GRS    .GAPI  : GAMMA RAY FROM SONIC LOG
TENS   .LB    : TENSION FROM SONIC LOG
SPHI_LS.DEC   : SONIC POROSITY [LIMESTONE]
DTCO   .US/F  : DELTA-T COMPRESSIONAL
DTSM   .US/F  : DELTA-T SHEAR
~Params ----------------------------------------------------
~Other -----------------------------------------------------
~ASCII -----------------------------------------------------
# ...
 12791.00000   -9999.25    8.26820   31.62330   38.91430   45.05250   48.01180   48.97090   -9999.25 5613.76420   -9999.25   -9999.25   -9999.25
 12791.50000   -9999.25    8.25720   30.80820   35.34670   39.00670   43.53840   46.29840   -9999.25 5606.28320   -9999.25   -9999.25   -9999.25
 12792.00000   -9999.25    8.24090   28.36020   32.10980   34.20830   37.28450   39.65050   -9999.25 5598.80270   -9999.25   -9999.25   -9999.25
 12792.50000   -9999.25    8.22460   24.33630   26.68240   28.29380   30.47450   33.50520   -9999.25 5591.32230   -9999.25   -9999.25   -9999.25
 12793.00000   -9999.25    8.20830   18.06000   18.94010   21.38830   23.13750   25.72010   -9999.25 5583.84180   -9999.25   -9999.25   -9999.25
 12793.50000   -9999.25    8.19850   14.83220   17.68110   18.15900   19.74960   21.24690   -9999.25 5576.36080   -9999.25   -9999.25   -9999.25
 12794.00000   -9999.25    8.19840   18.10900   22.30480   23.50070   24.95380   28.19380   -9999.25 5584.68850   -9999.25   -9999.25   -9999.25
 12794.50000   -9999.25    8.19840   29.92400   30.82320   34.80840   40.67240   48.50820   -9999.25 5601.15430   -9999.25   -9999.25   -9999.25
 12795.00000   -9999.25    8.19840   36.98970   44.93680   51.31130   52.60760   53.67250   -9999.25 5617.61960   -9999.25   -9999.25   -9999.25
 12795.50000   -9999.25    8.19840   32.67260   43.09820   43.70800   51.01930   52.24770   -9999.25 5634.08540   -9999.25   -9999.25   -9999.25
 12796.00000   -9999.25    8.19840   31.43700   38.09640   42.96780   50.10460   51.08590   -9999.25 5650.55130   -9999.25   -9999.25   -9999.25
 12796.50000   -9999.25    8.19830   30.15390   33.83920   38.53010   44.84920   48.65440   -9999.25 5675.48780   -9999.25   -9999.25   -9999.25
 12797.00000   -9999.25    8.17290   26.61410   28.66500   31.99140   37.10300   40.39060   -9999.25 5700.61040   -9999.25   -9999.25   -9999.25
 12797.50000   -9999.25    8.12150   21.58230   25.05800   28.71990   32.67070   35.10070   -9999.25 5725.73290   -9999.25   -9999.25   -9999.25
 12798.00000   -9999.25    8.07000   24.34060   37.14400   40.55000   46.48290   55.52830   -9999.25 5741.98930   -9999.25   -9999.25   -9999.25
 12798.50000   -9999.25   -9999.25   39.55510   52.37220   64.70810   74.25140   88.08780   -9999.25 5737.63380   -9999.25   -9999.25   -9999.25
 12799.00000   -9999.25   -9999.25   53.52610   68.83570   87.66980   93.79950  102.13050   -9999.25 5733.27830   -9999.25   -9999.25   -9999.25
 12799.50000   -9999.25   -9999.25   52.39040   70.46180   74.89730   81.36550   81.80320   -9999.25 5728.92290   -9999.25   -9999.25   -9999.25
 12800.00000   -9999.25   -9999.25   51.11020   69.08100   80.75900   82.88610   84.34590   -9999.25 5724.56740   -9999.25   -9999.25   -9999.25
 12800.50000   -9999.25   -9999.25   54.83660   69.97940   85.59810   86.94620   87.59100   -9999.25 5720.21190   -9999.25   -9999.25   -9999.25
 12801.00000   -9999.25   -9999.25   57.04490   64.24690   70.88050   76.20660   79.96260   -9999.25 5715.85690   -9999.25   -9999.25   -9999.25
 12801.50000   -9999.25   -9999.25   53.52700   58.68450   60.94530   64.36590   69.47980   -9999.25 5706.77150   -9999.25   -9999.25   -9999.25
 12802.00000   -9999.25   -9999.25   48.59860   52.29250   54.46990   56.99640   60.37130   -9999.25 5692.24070   -9999.25   -9999.25   -9999.25
 12802.50000   -9999.25   -9999.25   41.87370   45.66580   47.77290   49.66420   52.31530   -9999.25 5677.71040   -9999.25   -9999.25   -9999.25
 12803.00000   -9999.25   -9999.25   35.43280   40.00420   42.02650   43.70280   46.01590   -9999.25 5663.17970   -9999.25   -9999.25   -9999.25
 12803.50000   -9999.25   -9999.25   34.38390   38.59000   39.96610   40.51420   41.81290   -9999.25 5642.86960   -9999.25   -9999.25   -9999.25
 12804.00000   -9999.25   -9999.25   36.74750   38.52100   39.80710   40.34080   42.21670   -9999.25 5610.07320   -9999.25   -9999.25   -9999.25
 12804.50000   -9999.25   -9999.25   36.98510   38.24330   39.80710   40.34080   43.27780   -9999.25 5577.27730   -9999.25   -9999.25   -9999.25
 12805.00000   -9999.25   -9999.25   32.80980   36.11290   38.88310   39.78280   41.89980   -9999.25 5595.32810   -9999.25   -9999.25   -9999.25
 12805.50000   -9999.25   -9999.25   29.17000   33.58890   35.52030   36.56740   37.97660   -9999.25 5613.67870   -9999.25   -9999.25   -9999.25
 12806.00000   -9999.25   -9999.25   27.90180   32.79310   34.25280   36.21110   37.23270   -9999.25 5632.02930   -9999.25   -9999.25   -9999.25
 12806.50000   -9999.25   -9999.25   36.34330   40.21440   42.28770   46.19710   50.76240   -9999.25 5650.37990   -9999.25   -9999.25   -9999.25
 12807.00000   -9999.25   -9999.25   47.40410   52.25960   54.79250   58.60090   64.10410   -9999.25 5670.65430   -9999.25   -9999.25   -9999.25
 12807.50000   -9999.25   -9999.25   56.46550   66.27270   68.96370   73.79270   80.67320   -9999.25 5693.10940   -9999.25   -9999.25   -9999.25
 12808.00000   -9999.25   -9999.25   59.79900   82.97000   86.12140   90.10430   96.82840   -9999.25 5715.56400   -9999.25   -9999.25   -9999.25
 12808.50000   -9999.25   -9999.25   61.44460   87.63960   95.91560  102.01160  116.34400   -9999.25 5738.01900   -9999.25   -9999.25   -9999.25
 12809.00000   -9999.25   -9999.25   70.87130   88.07380   97.74050  114.11210  139.79280   -9999.25 5745.30370   -9999.25   -9999.25   -9999.25
 12809.50000   -9999.25   -9999.25   78.01150   88.78690   98.20000  121.05500  142.95200   -9999.25 5739.30660   -9999.25   -9999.25   -9999.25
 12810.00000   -9999.25   -9999.25   74.80200   94.37530  111.49330  119.84610  128.64920   -9999.25 5733.31010   -9999.25   -9999.25   -9999.25
 12810.50000   -9999.25   -9999.25   71.15690   99.59570  113.36140  115.31960  119.59530   -9999.25 5727.31350   -9999.25   -9999.25   -9999.25
 12811.00000   -9999.25   -9999.25   64.18420   85.66740   97.74450  102.12170  109.58330   -9999.25 5721.31640   -9999.25   -9999.25   -9999.25
 12811.50000   -9999.25   -9999.25   60.96880   71.96850   82.88090   87.02820   92.90680   -9999.25 5715.31980   -9999.25   -9999.25   -9999.25
 12812.00000   -9999.25   -9999.25   58.55010   71.27020   75.65670   77.26020   79.52810   -9999.25 5709.32320   -9999.25   -9999.25   -9999.25
 12812.50000   -9999.25   -9999.25   56.36700   70.12930   71.80730   73.12630   75.07410   -9999.25 5703.44580   -9999.25   -9999.25   -9999.25
 12813.00000   -9999.25   -9999.25   55.15100   66.62180   68.00750   69.90460   71.74220   -9999.25 5699.10300   -9999.25   -9999.25   -9999.25
 12813.50000   -9999.25   -9999.25   52.23150   60.78410   62.09280   63.79330   66.29570   -9999.25 5694.75980   -9999.25   -9999.25   -9999.25
 12814.00000   -9999.25   -9999.25   47.21830   55.27980   57.52250   58.74240   60.89400   -9999.25 5690.41650   -9999.25   -9999.25   -9999.25
 12814.50000   -9999.25   -9999.25   46.15270   56.12660   58.37720   60.25290   64.41250   -9999.25 5686.07370   -9999.25   -9999.25   -9999.25
 12815.00000   -9999.25   -9999.25   54.18260   65.97660   68.27520   72.15610   77.63800   -9999.25 5681.73050   -9999.25   -9999.25   -9999.25
 12815.50000   -9999.25   -9999.25   70.46810   79.44410   83.54570   90.80780  101.35310   -9999.25 5677.38770   -9999.25   -9999.25   -9999.25
 12816.00000   -9999.25   -9999.25   80.44510   96.00360  110.75200  114.75490  119.95390   -9999.25 5678.23100   -9999.25   -9999.25   -9999.25
 12816.50000   -9999.25   -9999.25   86.49350  110.36630  121.52170  127.58590  133.31920   -9999.25 5682.56640   -9999.25   -9999.25   -9999.25
 12817.00000   -9999.25   -9999.25   90.25610  108.49360  133.76660  143.35730  158.26970   -9999.25 5686.90140   -9999.25   -9999.25   -9999.25
 12817.50000   -9999.25   -9999.25   92.80520  127.28540  172.65650  181.44780  193.28380   -9999.25 5691.23630   -9999.25   -9999.25   -9999.25
 12818.00000   -9999.25   -9999.25   93.95040  137.98680  202.91110  212.75230  222.28330   -9999.25 5694.35600   -9999.25   -9999.25   -9999.25
 12818.50000   -9999.25   -9999.25   98.46840  146.29450  225.97030  236.44020  254.97700   -9999.25 5705.62060   -9999.25   -9999.25   -9999.25
