~Version ---------------------------------------------------
VERS.   2.0 : CWLS log ASCII Standard -VERSION 2.0
WRAP.    NO : One line per depth step
DLM . SPACE : Column Data Section Delimiter
~Well ------------------------------------------------------
STRT .F                 8311.0 : START DEPTH
STOP .F                12842.0 : STOP DEPTH
STEP .F                    0.5 : STEP
NULL .                -9999.25 : NULL VALUE
COMP .                         : COMPANY
WELL .                         : WELL
FLD  .                         : FIELD
LOC  .                         : LOCATION
PROV .                         : PROVINCE
CNTY .                         : COUNTY
STAT .                         : STATE
CTRY .                         : COUNTRY
SRVC .                         : SERVICE COMPANY
DATE .                         : DATE
UWI  .                         : UNIQUE WELL ID
API  .                         : API NUMBER
SLAT .WGS84 1.6716663163562018 : SURFACE LATITUDE
SLON .WGS84  8.495202386497994 : SURFACE LONGITUDE
DATUM.F                 3055.1 : DEPTH DATUM ELEV
~Curve Information -----------------------------------------
DEPT   .F     : 1 MEASURED DEPTH
GRR    .GAPI  : GAMMA RAY FROM RESISTIVITY LOG
HCALR  .IN    : HRCC CALIPER CALIBRATED FROM RESISTIVITY LOG
AT10   .OHMM  : ARRAY INDUCTION TWO FOOT RESISTIVITY A10
AT20   .OHMM  : ARRAY INDUCTION TWO FOOT RESISTIVITY A20
AT30   .OHMM  : ARRAY INDUCTION TWO FOOT RESISTIVITY A30
AT60   .OHMM  : ARRAY INDUCTION TWO FOOT RESISTIVITY A60
AT90   .OHMM  : ARRAY INDUCTION TWO FOOT RESISTIVITY A90
GRS    .GAPI  : GAMMA RAY FROM SONIC LOG
TENS   .LB    : TENSION FROM SONIC LOG
SPHI_LS.DEC   : SONIC POROSITY [LIMESTONE]
DTCO   .US/F  : DELTA-T COMPRESSIONAL
DTSM   .US/F  : DELTA-T SHEAR
~Params ----------------------------------------------------
~Other -----------------------------------------------------
~ASCII -----------------------------------------------------
# ...
 11111.00000  111.83850    8.24950    8.75020    8.89020    8.97700    9.11090    9.20890   90.94780 4907.84030    0.20050   75.78230  128.65990
 11111.50000  111.21610    8.24950    8.66510    8.79280    8.87030    8.99040    9.07820   90.59890 4839.11280    0.19750   75.38630  128.75850
 11112.00000  110.21470    8.24950    8.72170    8.85280    8.93230    9.05540    9.14560   87.68160 4829.70410    0.19440   75.07010  129.35510
 11112.50000  107.13630    8.24950    8.80340    8.93560    9.01590    9.14020    9.23130   86.31360 4856.18460    0.19300   74.92130  129.50410
 11113.00000  102.20510    8.24950    8.87470    9.00870    9.08990    9.21770    9.31670   86.27460 4880.59570    0.19510   75.23520  128.58750
 11113.50000  101.30950    8.24940    9.07490    9.23480    9.33270    9.48430    9.59560   87.25780 4902.38960    0.19830   75.57020  127.29930
 11114.00000  104.55060    8.24940    9.25410    9.42720    9.51040    9.63900    9.73320   88.70210 4915.70650    0.19780   75.62200  126.60060
 11114.50000  112.20750    8.24940    8.36340    8.64640    8.82550    9.10200    9.33180   90.90660 4901.22560    0.19590   75.00100  125.46360
 11115.00000  117.06210    8.24410    7.70690    7.85280    8.01440    8.26460    8.45130   94.32030 4868.05960    0.18940   74.24740  124.32670
 11115.50000  114.81130    8.23830    7.64910    7.76170    7.84510    8.32090    8.56570   94.69650 4861.96680    0.18520   73.66550  124.09580
 11116.00000  108.87660    8.23250    8.38050    8.77710    9.02370    9.48280    9.75910   92.01010 4885.73050    0.18390   73.56100  124.16710
 11116.50000  102.60410    8.22670    9.63940   10.09330   10.35050   10.51670   10.63880   89.29680 4906.64260    0.18390   73.51500  124.23830
 11117.00000  104.80580    8.22090    9.73890   10.14700   10.33510   10.54660   10.65730   88.31510 4904.85400    0.18480   73.64940  124.30680
 11117.50000  109.40550    8.21820    9.04230    9.32420    9.49610    9.76460    9.96290   88.48570 4873.55080    0.18630   74.14110  124.75420
 11118.00000  113.93570    8.21820    8.92860    9.23960    9.32060    9.50490    9.64030   89.65760 4811.15280    0.19420   74.91290  125.67560
 11118.50000  115.88130    8.22370    9.32350    9.73700    9.93880   10.94880   11.88290   92.12580 4783.12700    0.20250   76.21810  127.39810
 11119.00000  114.85420    8.23020   11.50670   13.41670   14.45320   15.95750   16.42270   96.75320 4811.19290    0.21540   78.18720  128.77230
 11119.50000  115.66880    8.23670   13.12090   13.89970   14.74810   15.23230   15.85210  104.16680 4853.62010    0.22760   79.83660  131.22150
 11120.00000  123.02850    8.24320   10.54510   11.54400   12.08270   12.94210   13.36050  112.80040 4896.04690    0.23960   81.67830  134.40810
 11120.50000  135.65010    8.24890    9.95820   10.40880   10.49970   11.18350   11.54700  119.15270 4904.89400    0.25220   82.95650  138.45450
 11121.00000  144.85590    8.24990   10.27020   10.51630   10.61350   10.86230   10.96910  123.22540 4852.70360    0.25760   83.88680  141.55690
 11121.50000  154.06180    8.24980    9.67490   10.26460   10.64500   10.80170   10.91650  124.01150 4808.08740    0.25700   83.87380  143.49350
 11122.00000  149.81860    8.24930    7.79700    8.48210    8.81970    9.32690    9.71350  121.20900 4802.65920    0.25210   83.17010  143.09980
 11122.50000  145.03260    8.24890    6.23440    6.61480    6.85900    7.14810    7.65100  116.52880 4871.14750    0.24330   82.34720  141.38560
 11123.00000  138.29390    8.25700    5.40250    5.44820    5.56330    5.93470    6.21510  112.37040 4933.67140    0.23030   80.21010  138.34330
 11123.50000  127.05490    8.24440    5.44480    5.59160    5.69030    5.93170    6.07620  108.18140 4903.65230    0.21240   77.70120  134.58640
 11124.00000  113.41580    8.22890    6.15500    6.61940    7.09530    7.81190    8.24560  101.97750 4880.83200    0.20350   76.07190  131.52390
 11124.50000  105.83780    8.21780    8.15260    8.88660    9.26590    9.48610    9.60480   95.71500 4869.14840    0.19910   75.64570  130.60010
 11125.00000  106.41370    8.21780    8.74920    9.01760    9.27060    9.54380    9.64200   96.09790 4857.46480    0.19990   75.76670  130.69030
 11125.50000  112.76690    8.21780    7.87940    8.17590    8.37890    8.65770    8.88090  100.98930 4938.80270    0.20120   75.90940  131.77560
 11126.00000  117.25950    8.21300    7.31400    7.48350    7.60770    7.81640    7.99440  104.68860 4960.83300    0.20040   75.85470  132.25180
 11126.50000  117.60020    8.21070    7.12820    7.24730    7.32140    7.42440    7.50270  105.22690 4963.21830    0.19960   75.73950  132.68680
 11127.00000  116.75390    8.22120    6.85180    6.98390    7.06550    7.19760    7.29500  102.16280 4952.12740    0.19830   75.55880  132.69500
 11127.50000  115.36910    8.24830    6.61870    6.72440    6.79160    6.91130    7.00050   98.38400 4903.88570    0.19820   75.54600  132.02890
 11128.00000  113.11300    8.24270    6.56630    6.88230    7.08140    7.39530    7.63080   95.33840 4890.59470    0.19730   75.42130  131.16490
 11128.50000  111.33590    8.23710    7.54510    7.86520    7.99700    8.10710    8.18750   96.59700 4908.76370    0.19260   74.73650  130.29940
 11129.00000  112.76520    8.23150    6.63500    6.99830    7.25880    7.67370    7.95190   99.47980 4926.93310    0.18790   74.12100  129.43390
 11129.50000  113.97900    8.22590    6.00290    6.12080    6.18590    6.37460    6.62400  101.70800 4928.70210    0.18670   73.99880  129.01120
 11130.00000  111.43280    8.22030    6.10040    6.26990    6.44270    6.73170    6.95580  101.31520 4912.91750    0.18690   74.06100  129.24430
 11130.50000  105.75600    8.22060    6.85920    7.17830    7.31240    7.53240    7.70200   98.17350 4893.15430    0.18710   74.07440  130.73570
 11131.00000  102.01350    8.22450    7.65270    7.81910    7.96570    8.25860    8.37500   95.35320 4873.39110    0.18730   73.98840  132.07130
 11131.50000  103.38160    8.22830    7.18710    7.66370    7.92180    8.23520    8.38780   95.13510 4866.45210    0.18840   74.22980  132.30630
 11132.00000  106.89920    8.23220    6.13300    6.47810    6.69690    7.04050    7.30310   96.29130 4893.92680    0.19080   74.57500  132.22430
 11132.50000  109.90790    8.23580    5.42100    5.60520    5.66130    5.95090    6.17290   97.20390 4933.90230    0.19150   74.51370  132.08840
 11133.00000  109.65740    8.23930    5.54260    5.68240    5.78470    6.02950    6.21270   94.75750 4939.99410    0.18980   74.13440  131.95240
 11133.50000  107.08230    8.24270    6.15080    6.45040    6.62920    6.90870    7.12050   89.10770 4886.42920    0.18660   73.80890  131.77820
 11134.00000  104.81740    8.24610    6.85390    7.39200    7.59690    7.91690    8.10520   84.44530 4844.89600    0.18600   73.93300  131.70470
 11134.50000  106.32170    8.24940    7.09150    7.51040    7.77690    8.03950    8.18050   83.16450 4831.07570    0.18860   74.33890  131.94840
 11135.00000  112.12940    8.24770    6.48850    6.73780    6.92730    7.18020    7.37070   88.63140 4817.25540    0.19260   75.15220  131.68280
 11135.50000  118.58800    8.24600    5.85190    6.04080    6.17040    6.39540    6.56390   93.63200 4871.53810    0.19940   75.46930  130.67890
 11136.00000  117.54250    8.24440    5.89760    6.05440    6.21840    6.54540    6.74770   94.60610 4880.15480    0.19740   75.07800  129.07050
 11136.50000  112.32810    8.24270    6.66870    7.01330    7.36970    7.51620    7.72190   91.20240 4874.98540    0.19170   74.58820  128.18040
 11137.00000  107.15170    8.24110    7.81070    8.09290    8.18540    8.29500    8.50570   86.43570 4843.49710    0.19020   74.36470  127.45190
 11137.50000  105.38150    8.24030    7.73590    7.97440    8.05290    8.16580    8.42670   84.83690 4812.99270    0.18870   74.18140  126.56980
 11138.00000  102.96540    8.23940    7.61800    7.89200    8.04960    8.15730    8.39640   85.95170 4828.99950    0.18690   73.93310  125.98370
 11138.50000  100.48980    8.23860    7.82180    8.08870    8.20860    8.36020    8.73040   87.98560 4895.76320    0.18500   73.68790  125.49460
