~Version ---------------------------------------------------
VERS.   2.0 : CWLS log ASCII Standard -VERSION 2.0
WRAP.    NO : One line per depth step
DLM . SPACE : Column Data Section Delimiter
~Well ------------------------------------------------------
STRT .F                 8311.0 : START DEPTH
STOP .F                12842.0 : STOP DEPTH
STEP .F                    0.5 : STEP
NULL .                -9999.25 : NULL VALUE
COMP .                         : COMPANY
WELL .                         : WELL
FLD  .                         : FIELD
LOC  .                         : LOCATION
PROV .                         : PROVINCE
CNTY .                         : COUNTY
STAT .                         : STATE
CTRY .                         : COUNTRY
SRVC .                         : SERVICE COMPANY
DATE .                         : DATE
UWI  .                         : UNIQUE WELL ID
API  .                         : API NUMBER
SLAT .WGS84 1.6716663163562018 : SURFACE LATITUDE
SLON .WGS84  8.495202386497994 : SURFACE LONGITUDE
DATUM.F                 3055.1 : DEPTH DATUM ELEV
~Curve Information -----------------------------------------
DEPT   .F     : 1 MEASURED DEPTH
GRR    .GAPI  : GAMMA RAY FROM RESISTIVITY LOG
HCALR  .IN    : HRCC CALIPER CALIBRATED FROM RESISTIVITY LOG
AT10   .OHMM  : ARRAY INDUCTION TWO FOOT RESISTIVITY A10
AT20   .OHMM  : ARRAY INDUCTION TWO FOOT RESISTIVITY A20
AT30   .OHMM  : ARRAY INDUCTION TWO FOOT RESISTIVITY A30
AT60   .OHMM  : ARRAY INDUCTION TWO FOOT RESISTIVITY A60
AT90   .OHMM  : ARRAY INDUCTION TWO FOOT RESISTIVITY A90
GRS    .GAPI  : GAMMA RAY FROM SONIC LOG
TENS   .LB    : TENSION FROM SONIC LOG
SPHI_LS.DEC   : SONIC POROSITY [LIMESTONE]
DTCO   .US/F  : DELTA-T COMPRESSIONAL
DTSM   .US/F  : DELTA-T SHEAR
~Params ----------------------------------------------------
~Other -----------------------------------------------------
~ASCII -----------------------------------------------------
# ...
 9403.00000   70.40770    8.24890   32.62390   39.19420   40.20150   42.64430   44.48610   57.32000 4152.67820    0.10410   62.25730  105.92590
 9403.50000   73.32470    8.25970   29.94960   35.51290   36.01440   39.18270   40.64650   59.70210 4145.60890    0.09910   61.24470  105.53390
 9404.00000   73.79810    8.26160   28.92620   33.36540   36.07050   38.41070   39.36140   61.40840 4155.44870    0.08990   59.93100  105.46460
 9404.50000   70.54090    8.26770   30.32770   34.93660   38.22170   40.15150   41.21960   59.63550 4183.18210    0.08410   59.11230  105.39540
 9405.00000   63.96950    8.27370   30.45510   33.24490   36.16810   39.73640   42.36370   55.15400 4193.33250    0.08070   58.86050  105.37790
 9405.50000   58.24110    8.29260   24.23570   25.97630   28.96970   32.25960   35.46580   49.81460 4194.27830    0.07960   58.74190  105.42410
 9406.00000   58.14560    8.28310   23.03450   24.01710   24.55470   28.76440   27.66120   46.07700 4201.12940    0.08140   58.90130  105.66630
 9406.50000   62.83730    8.29690   21.88090   23.45850   24.14180   28.48690   26.59680   47.17170 4201.50200    0.08720   60.30960  107.06530
 9407.00000   67.59240    8.29760   20.75170   24.60860   24.94920   28.30150   26.36740   51.39830 4201.87400    0.09670   61.35670  109.07610
 9407.50000   73.15150    8.29820   22.83450   23.80400   25.32960   27.41990   26.25810   55.27960 4202.24660    0.11440   63.83990  111.45480
 9408.00000   82.91640    8.29890   17.51460   19.20980   20.31650   22.87940   23.51400   60.70610 4202.61910    0.13690   67.24990  114.86600
 9408.50000  123.05970    8.29960   14.35020   15.55750   15.86930   16.92550   16.82430   74.72230 4203.01900    0.16550   71.33940  119.77050
 9409.00000  200.31860    8.30020    9.81830   11.22210   11.82670   13.87860   13.88030   98.77080 4208.07320    0.18140   73.79560  124.61420
 9409.50000  246.06360    8.29320    7.84540    8.38880    8.72480    9.28550    9.86600  133.37530 4213.12790    0.19810   75.36010  126.32470
 9410.00000  258.65500    8.28400    7.76290    8.90150    9.24000   10.05740   11.79730  186.35290 4218.18210    0.20280   76.28620  126.28650
 9410.50000  218.55820    8.27490   11.24270   12.52180   13.13580   14.75930   16.82290  193.87270 4219.26760    0.20260   75.83800  125.52550
 9411.00000  151.51490    8.26570   15.27130   17.60250   18.67410   20.83780   22.94890  160.63070 4215.78320    0.18670   73.88540  121.91190
 9411.50000  118.08640    8.25660   17.76760   21.55940   22.13810   22.87360   23.42860  123.24070 4219.58150    0.15820   69.96180  118.81420
 9412.00000   99.92410    8.25350   17.54020   18.68920   19.15150   20.01870   21.14170   95.98690 4226.60010    0.13820   67.01030  115.31260
 9412.50000   91.79340    8.26170   17.27990   18.19740   18.50320   19.77610   21.73110   82.20770 4233.61870    0.12650   65.11370  112.67840
 9413.00000   78.23470    8.28530   20.72420   22.72590   24.43070   27.32030   31.68990   74.19850 4219.63870    0.11470   63.49030  110.75330
 9413.50000   64.67600    8.30020   29.56440   33.35700   35.90570   41.46330   49.32930   62.79910 4199.69730    0.10250   61.49440  109.32130
 9414.00000   51.11740    8.30020   41.97790   49.06310   52.77050   56.00490   57.08350   50.94080 4192.39400    0.09340   60.61150  108.21050
 9414.50000   48.98920    8.29410   42.19350   45.45530   48.50630   50.57890   53.71470   43.15350 4214.80470    0.09630   61.45410  108.20850
 9415.00000   60.51080    8.26880   30.06860   36.37000   38.24250   40.98710   44.93040   43.24200 4225.64790    0.10140   62.00810  109.24710
 9415.50000   77.49110    8.26880   25.96450   28.52720   33.78240   34.81030   36.68820   50.99460 4195.68900    0.11250   64.16400  112.16850
 9416.00000   92.31280    8.27240   25.05010   28.34190   31.52890   32.19900   33.29880   63.10890 4162.21830    0.14840   69.68640  115.34480
 9416.50000  102.79820    8.28690   25.87070   26.95960   29.50620   29.73950   30.88030   74.04300 4157.59670    0.18390   74.87160  118.49150
 9417.00000  110.30920    8.29990   19.96360   21.35930   23.95900   25.47320   27.64360   82.37370 4156.58940    0.20140   76.05030  121.43080
 9417.50000  115.85260    8.29340   16.23090   17.22400   17.96450   19.47310   20.11300   89.52090 4155.55370    0.20380   76.38520  122.64930
 9418.00000  121.19840    8.28430   16.78240   19.69430   20.85010   22.74980   24.49390   95.14480 4147.32860    0.20510   76.61260  123.55310
 9418.50000  120.29490    8.26370   23.55600   25.26320   25.98160   27.10920   28.60760   98.06830 4140.70700    0.20990   77.27400  124.19680
 9419.00000  118.09580    8.29040   26.78660   29.01690   29.65670   30.87380   32.83660   97.13330 4154.08640    0.21310   77.67230  124.19480
 9419.50000  118.59940    8.27540   25.91780   28.50630   29.78530   31.03260   33.09420   95.73720 4167.46530    0.21090   77.20140  123.80810
 9420.00000  125.75420    8.26200   22.85320   24.01890   24.82530   26.13150   26.06750   96.74120 4169.59620    0.20500   76.33630  123.01840
 9420.50000  132.45430    8.26440   21.00740   21.52760   21.73790   23.28120   23.60490   99.91330 4169.32710    0.19250   74.23230  121.07330
 9421.00000  123.63500    8.26680   23.13210   24.65460   25.27050   27.85650   28.97810   99.21900 4169.05860    0.16640   69.58780  118.25510
 9421.50000  102.68740    8.24930   30.78940   32.87550   34.61770   38.02950   38.75230   85.09270 4168.79000    0.13070   66.02280  114.83990
 9422.00000   83.51450    8.25390   38.51130   42.77640   44.07040   45.91060   46.28270   67.59260 4180.60600    0.13110   66.16670  112.87290
 9422.50000   73.84330    8.26170   38.17490   40.20780   41.16730   43.22520   43.24030   54.53430 4192.81200    0.13980   67.22710  112.43110
 9423.00000   79.91510    8.26720   32.68260   34.48920   35.87750   37.54680   39.86390   53.63680 4202.97750    0.15290   69.30920  113.81920
 9423.50000   91.13000    8.26460   27.69090   29.22040   30.82800   32.24980   34.41100   63.25920 4211.74710    0.17220   71.80820  115.62730
 9424.00000   95.64400    8.26200   23.46160   24.74150   26.48920   28.22000   30.02870   74.34210 4220.51660    0.18760   73.62570  117.13310
 9424.50000   96.01950    8.26060   21.42760   22.39570   23.13430   25.04240   26.20460   80.03510 4229.28660    0.19360   74.87670  118.49650
 9425.00000   93.27140    8.26060   21.29100   22.04520   23.28620   24.11220   24.56010   81.67340 4238.05620    0.19190   74.62330  119.09960
 9425.50000   90.55250    8.26010   21.36110   21.92340   23.56020   24.42370   24.91010   80.89470 4256.96730    0.18820   74.15190  118.31300
 9426.00000   90.38860    8.26030   21.29920   21.61240   22.91630   24.53330   25.05920   78.76830 4269.21000    0.18380   73.65380  117.33740
 9426.50000   93.00560    8.26040   21.58730   21.95020   23.11910   24.06560   24.53990   75.88460 4261.55180    0.17680   72.35320  116.01320
 9427.00000   94.41380    8.26050   22.17390   22.80770   24.48230   25.03350   25.85400   73.89970 4253.89310    0.16470   70.49180  114.99960
 9427.50000   92.44240    8.26070   23.66490   24.20400   25.92590   26.88640   27.77570   72.27170 4229.11330    0.15770   69.77000  115.07200
 9428.00000   88.54320    8.26080   24.74100   25.56650   27.27420   28.74770   30.58430   69.36480 4248.12550    0.15770   69.80530  115.14450
 9428.50000   84.41550    8.26100   23.48320   25.02270   26.28590   27.38490   30.71290   65.70510 4259.10010    0.16270   70.86850  115.37200
 9429.00000   88.00670    8.26110   19.98350   21.85430   23.98900   25.05900   26.13110   66.58090 4242.93700    0.17040   71.98700  116.66980
 9429.50000   94.51360    8.26130   18.66840   19.75760   21.89280   23.33710   23.58340   73.69560 4230.96090    0.17670   72.87730  119.11400
 9430.00000   99.42360    8.26140   19.06760   20.72900   23.25010   24.50860   24.93580   81.90390 4234.64500    0.18480   73.84310  120.17950
 9430.50000   99.79960    8.26150   20.61850   22.67390   25.93500   27.26750   28.85750   87.22340 4238.32960    0.18880   74.57320  120.87750
