~Version ---------------------------------------------------
VERS.   2.0 : CWLS log ASCII Standard -VERSION 2.0
WRAP.    NO : One line per depth step
DLM . SPACE : Column Data Section Delimiter
~Well ------------------------------------------------------
STRT .F                 8311.0 : START DEPTH
STOP .F                12842.0 : STOP DEPTH
STEP .F                    0.5 : STEP
NULL .                -9999.25 : NULL VALUE
COMP .                         : COMPANY
WELL .                         : WELL
FLD  .                         : FIELD
LOC  .                         : LOCATION
PROV .                         : PROVINCE
CNTY .                         : COUNTY
STAT .                         : STATE
CTRY .                         : COUNTRY
SRVC .                         : SERVICE COMPANY
DATE .                         : DATE
UWI  .                         : UNIQUE WELL ID
API  .                         : API NUMBER
SLAT .WGS84 1.6716663163562018 : SURFACE LATITUDE
SLON .WGS84  8.495202386497994 : SURFACE LONGITUDE
DATUM.F                 3055.1 : DEPTH DATUM ELEV
~Curve Information -----------------------------------------
DEPT   .F     : 1 MEASURED DEPTH
GRR    .GAPI  : GAMMA RAY FROM RESISTIVITY LOG
HCALR  .IN    : HRCC CALIPER CALIBRATED FROM RESISTIVITY LOG
AT10   .OHMM  : ARRAY INDUCTION TWO FOOT RESISTIVITY A10
AT20   .OHMM  : ARRAY INDUCTION TWO FOOT RESISTIVITY A20
AT30   .OHMM  : ARRAY INDUCTION TWO FOOT RESISTIVITY A30
AT60   .OHMM  : ARRAY INDUCTION TWO FOOT RESISTIVITY A60
AT90   .OHMM  : ARRAY INDUCTION TWO FOOT RESISTIVITY A90
GRS    .GAPI  : GAMMA RAY FROM SONIC LOG
TENS   .LB    : TENSION FROM SONIC LOG
SPHI_LS.DEC   : SONIC POROSITY [LIMESTONE]
DTCO   .US/F  : DELTA-T COMPRESSIONAL
DTSM   .US/F  : DELTA-T SHEAR
~Params ----------------------------------------------------
~Other -----------------------------------------------------
~ASCII -----------------------------------------------------
# ...
 10831.00000  103.36040    8.30120    9.72470    9.91870   10.03930   10.22200   10.35810   88.23830 4637.08060    0.15630   69.78800  121.21990
 10831.50000  102.60860    8.30110   10.15060   10.35290   10.47860   10.67010   10.81200   86.38050 4643.48050    0.15440   69.42870  121.41660
 10832.00000  100.95550    8.30090   10.59520   10.80640   10.93700   11.11210   11.22910   82.11680 4650.29250    0.15360   69.21770  121.14230
 10832.50000   98.55270    8.30080   10.79740   10.95550   11.05300   11.20160   11.31110   80.42160 4657.10500    0.15370   69.21830  120.60750
 10833.00000   97.87420    8.30070   10.56380   10.74420   10.85590   11.02650   11.15230   81.24910 4654.73440    0.15380   69.21890  120.73150
 10833.50000  100.10840    8.30050   10.28450   10.44820   10.55620   10.72270   10.84470   82.40840 4643.60250    0.15360   69.23170  120.85560
 10834.00000  104.88400    8.30040   10.39780   10.61760   10.75340   10.96140   11.11530   82.62470 4643.95650    0.15300   69.15610  120.33970
 10834.50000  106.42770    8.30030   10.82150   11.13960   11.28210   11.50040   11.64950   81.43160 4649.11520    0.15110   68.95410  119.59460
 10835.00000  104.66220    8.30010   11.04370   11.27400   11.38460   11.55340   11.67610   80.31930 4654.27340    0.15030   68.77590  118.84420
 10835.50000  101.34140    8.30000   10.87270   11.03190   11.13870   11.30470   11.42670   79.86310 4659.43210    0.14970   68.76330  118.25500
 10836.00000   98.34680    8.30020   10.98810   11.17120   11.28470   11.45720   11.58500   79.66790 4664.59030    0.14910   68.71380  117.94750
 10836.50000   96.48360    8.30050   11.27060   11.45830   11.57040   11.73970   11.86450   78.67890 4669.74900    0.14850   68.56990  117.70570
 10837.00000   97.09260    8.30080   11.52950   11.71950   11.83690   12.01610   12.14700   77.68980 4672.21090    0.14820   68.54740  117.89880
 10837.50000   97.64990    8.30110   11.60240   11.92110   12.03150   12.19970   12.39540   77.04530 4674.43850    0.14910   68.61330  118.69210
 10838.00000   98.15900    8.30140   11.60930   12.04300   12.15090   12.31490   12.83330   77.66030 4681.36620    0.14920   68.82270  119.41940
 10838.50000  100.15030    8.30180   11.44510   11.96470   12.11890   12.28290   12.49980   79.20940 4695.62600    0.15390   69.31560  119.84070
 10839.00000  101.97750    8.30210   10.99390   11.24320   11.39690   11.64350   11.85520   80.76110 4709.88570    0.15780   69.69680  120.06440
 10839.50000  101.75900    8.30240   10.41110   10.64660   10.79230   11.01750   11.18420   81.57670 4724.14550    0.15880   69.85770  120.14660
 10840.00000   99.87150    8.30270    9.88410   10.08180   10.21980   10.43380   10.58990   81.70680 4733.27640    0.15700   69.83260  120.01680
 10840.50000   97.22330    8.30300    9.41040    9.55850    9.67770   10.01450   10.11850   81.64220 4737.43650    0.15300   69.03240  119.88710
 10841.00000   93.20530    8.30330    9.30430    9.69910    9.86540   10.22920   10.40970   80.81530 4741.59620    0.14720   68.29560  119.95110
 10841.50000   88.77080    8.30360   10.05020   10.47210   10.65150   10.98840   11.25110   79.14350 4745.75630    0.14430   67.93550  120.12300
 10842.00000   88.49530    8.30400   10.74590   11.15070   11.25300   11.64210   12.11450   77.85720 4749.91600    0.14450   68.23620  120.47470
 10842.50000   94.40340    8.30390   10.27700   10.74250   10.93720   11.62940   11.68090   79.86420 4754.07620    0.15170   69.04290  120.82630
 10843.00000   97.31940    8.30360    9.57130    9.88110   10.06200   10.37920   10.84910   82.54780 4758.23580    0.15650   69.74490  121.66460
 10843.50000   97.00660    8.30330    9.20170    9.33640    9.41950    9.55800   10.07660   85.57120 4762.02440    0.15890   70.38390  122.42690
 10844.00000   94.83010    8.30300    9.34070    9.49450    9.58970    9.73470    9.93430   85.41010 4751.97710    0.15920   70.42720  122.76840
 10844.50000   91.45790    8.30260    9.56760    9.72510    9.82250    9.97130   10.08370   82.87310 4732.97800    0.15950   70.20600  122.71260
 10845.00000   90.69080    8.30230    9.72800    9.87050    9.95830   10.09220   10.19080   81.36620 4717.72660    0.15870   70.06630  122.58100
 10845.50000   91.80980    8.30200    9.72800    9.87050    9.95830   10.09220   10.19080   81.17980 4717.72660    0.16090   70.38500  122.16210
 10846.00000   94.26100    8.30170    9.76680    9.91690   10.00980   10.15090   10.25510   82.79080 4717.14400    0.16220   70.62250  121.73690
 10846.50000   96.05260    8.30140    9.94800   10.12700   10.23810   10.40660   10.53140   83.63470 4708.37160    0.16240   70.59000  121.41170
 10847.00000   94.40000    8.30110   10.28360   10.45610   10.55970   10.73190   10.88080   82.60910 4699.59910    0.16210   70.49290  121.21520
 10847.50000   90.42260    8.30080   10.71570   10.98030   11.14230   11.61080   11.93660   79.85140 4690.82670    0.16140   70.32360  121.12140
 10848.00000   87.86530    8.30050   11.60980   11.80670   11.91180   12.07200   12.19000   77.85230 4682.05420    0.16080   70.24150  121.11650
 10848.50000   87.33410    8.30010   11.22390   11.55380   11.75820   12.01850   12.16020   77.58350 4673.28170    0.16140   70.25240  121.13620
 10849.00000   88.95420    8.29980   10.35840   10.66310   10.85130   11.14380   11.35640   79.02010 4664.50880    0.16200   70.46390  121.41830
 10849.50000   91.73080    8.29950   10.22310   10.37530   10.46920   10.66960   10.85690   79.63260 4659.97170    0.16260   70.66980  121.61070
 10850.00000   94.68270    8.29920   10.24000   10.39550   10.48870   10.63500   11.09060   78.91660 4659.11380    0.16300   70.61990  122.17760
 10850.50000   97.78830    8.29890    9.98910   10.21500   10.34720   10.52270   10.64190   78.02960 4658.25540    0.16350   70.71370  122.79360
 10851.00000  103.24160    8.29860    9.46690    9.69350    9.81850   10.02250   10.16990   77.56080 4660.81490    0.16570   71.01690  123.14340
 10851.50000  105.05530    8.29830    9.01330    9.32410    9.40550    9.54680    9.65130   78.98950 4667.09910    0.16750   71.20700  123.14250
 10852.00000  105.57210    8.29790    9.01320    9.27450    9.35470    9.48280    9.57550   81.16800 4672.28170    0.16680   71.08730  123.14150
 10852.50000  105.77160    8.29760    8.99920    9.27400    9.35430    9.48240    9.57500   83.10110 4677.46390    0.16490   70.68310  123.13270
 10853.00000  106.52050    8.29730    8.77420    8.95730    9.06480    9.23750    9.36380   84.21470 4682.64600    0.16250   70.42710  122.89620
 10853.50000  105.18360    8.29700    8.63550    8.90830    8.99070    9.13620    9.24210   85.22350 4695.49220    0.16030   70.20290  122.32770
 10854.00000  101.84190    8.29670    8.87210    9.17120    9.27020    9.42790    9.54310   85.18280 4700.48630    0.15880   70.00380  121.60940
 10854.50000   99.40330    8.29650    9.16770    9.49590    9.60050    9.76390    9.88310   82.98590 4702.98630    0.15730   69.80470  121.15920
 10855.00000   99.23650    8.29650    9.53300    9.83410    9.94270   10.11130   10.23560   79.08340 4705.48680    0.15750   69.91390  121.10730
 10855.50000   99.21300    8.29650    9.91290   10.18480   10.29700   10.47160   10.58940   77.03330 4708.22220    0.15850   70.05060  121.22090
 10856.00000   99.20120    8.29640    9.98200   10.24750   10.37940   10.52150   10.62430   77.47420 4711.20610    0.15960   70.18740  121.63210
 10856.50000   99.77610    8.29640    9.73500   10.01890   10.14400   10.30080   10.41430   79.72910 4714.18950    0.16070   70.33380  122.23360
 10857.00000  102.03200    8.29640    9.49410    9.79590    9.90380   10.05680   10.16740   81.30730 4717.17330    0.16180   70.47660  122.38200
 10857.50000  104.16430    8.29640    9.25920    9.59030    9.67510    9.81900    9.92680   82.11170 4720.15720    0.16190   70.48790  122.38010
 10858.00000  100.94800    8.29640    9.21340    9.61280    9.70420    9.84790   10.03240   82.04350 4723.14110    0.16230   70.54950  122.25370
 10858.50000   93.81150    8.29640    9.82490   10.17530   10.35350   10.62750   10.83140   80.01810 4730.90380    0.16410   70.79240  122.29010
