~Version ---------------------------------------------------
VERS.   2.0 : CWLS log ASCII Standard -VERSION 2.0
WRAP.    NO : One line per depth step
DLM . SPACE : Column Data Section Delimiter
~Well ------------------------------------------------------
STRT .F                 8311.0 : START DEPTH
STOP .F                12842.0 : STOP DEPTH
STEP .F                    0.5 : STEP
NULL .                -9999.25 : NULL VALUE
COMP .                         : COMPANY
WELL .                         : WELL
FLD  .                         : FIELD
LOC  .                         : LOCATION
PROV .                         : PROVINCE
CNTY .                         : COUNTY
STAT .                         : STATE
CTRY .                         : COUNTRY
SRVC .                         : SERVICE COMPANY
DATE .                         : DATE
UWI  .                         : UNIQUE WELL ID
API  .                         : API NUMBER
SLAT .WGS84 1.6716663163562018 : SURFACE LATITUDE
SLON .WGS84  8.495202386497994 : SURFACE LONGITUDE
DATUM.F                 3055.1 : DEPTH DATUM ELEV
~Curve Information -----------------------------------------
DEPT   .F     : 1 MEASURED DEPTH
GRR    .GAPI  : GAMMA RAY FROM RESISTIVITY LOG
HCALR  .IN    : HRCC CALIPER CALIBRATED FROM RESISTIVITY LOG
AT10   .OHMM  : ARRAY INDUCTION TWO FOOT RESISTIVITY A10
AT20   .OHMM  : ARRAY INDUCTION TWO FOOT RESISTIVITY A20
AT30   .OHMM  : ARRAY INDUCTION TWO FOOT RESISTIVITY A30
AT60   .OHMM  : ARRAY INDUCTION TWO FOOT RESISTIVITY A60
AT90   .OHMM  : ARRAY INDUCTION TWO FOOT RESISTIVITY A90
GRS    .GAPI  : GAMMA RAY FROM SONIC LOG
TENS   .LB    : TENSION FROM SONIC LOG
SPHI_LS.DEC   : SONIC POROSITY [LIMESTONE]
DTCO   .US/F  : DELTA-T COMPRESSIONAL
DTSM   .US/F  : DELTA-T SHEAR
~Params ----------------------------------------------------
~Other -----------------------------------------------------
~ASCII -----------------------------------------------------
# ...
 11391.00000  100.63760    8.24980    6.93440    7.30210    7.48780    7.63910    7.75120   75.50490 4951.96480    0.21560   78.24820  132.79860
 11391.50000  102.28680    8.24930    7.43510    7.76680    7.88760    8.04720    8.16470   81.71760 4945.83590    0.22240   79.08360  133.61030
 11392.00000  104.92110    8.24880    7.54620    8.08020    8.15690    8.26780    8.34930   88.90260 4939.70700    0.22570   79.52780  134.51250
 11392.50000  107.79550    8.24840    7.59810    8.00690    8.07950    8.18990    8.27130   96.17250 4949.48970    0.22910   79.81670  135.48880
 11393.00000  113.43790    8.24840    7.62580    7.93440    8.00640    8.11580    8.20180  102.92820 4963.27930    0.23380   80.89470  136.46510
 11393.50000  122.88050    8.24880    7.84170    8.01170    8.09560    8.22520    8.35370  107.99400 4977.06880    0.24690   82.36830  137.52970
 11394.00000  131.09630    8.24930    8.22870    8.43870    8.56930    8.76890    8.91610  113.80760 4978.17190    0.25650   83.84910  139.52780
 11394.50000  134.64710    8.24970    8.56950    9.00920    9.14790    9.35600    9.50600  120.17460 4956.85060    0.26100   84.45910  140.58730
 11395.00000  138.18290    8.25010    8.53050    9.17890    9.31150    9.47930    9.60330  126.40070 4944.39600    0.26130   84.70240  140.94010
 11395.50000  144.03320    8.25050    8.38880    8.88300    8.96880    9.10090    9.21630  131.00150 4961.54980    0.26140   84.56820  140.94950
 11396.00000  150.31120    8.25090    8.51880    8.84390    8.93750    9.08000    9.18490  130.43670 4978.70310    0.25850   84.08730  140.43830
 11396.50000  149.25660    8.25140    8.76940    9.10910    9.20560    9.35210    9.46010  122.96970 4995.85640    0.25250   82.58110  139.14450
 11397.00000  140.03490    8.25180    9.02730    9.30000    9.38300    9.50870    9.60150  107.38290 5013.01030    0.23030   79.32440  136.94760
 11397.50000  121.03340    8.25220    8.95860    9.29960    9.38300    9.50870    9.60150   90.58720 5019.26950    0.21080   76.98440  134.82910
 11398.00000  112.66120    8.25260    8.78730    9.12310    9.21330    9.35020    9.45130   86.05280 5019.62300    0.20070   75.69690  134.05610
 11398.50000  105.59130    8.25300    8.61920    8.96210    9.04300    9.16570    9.25790   84.04320 5019.85110    0.19770   75.37500  133.38210
 11399.00000  104.38870    8.25340    8.59940    8.89900    8.97920    9.10070    9.19040   83.32930 5015.62450    0.19920   75.67900  132.56210
 11399.50000   99.79010    8.25390    8.59940    8.85790    8.95120    9.07180    9.16100   80.06710 5011.39840    0.20160   76.15100  131.89880
 11400.00000   94.48470    8.25430    8.59950    8.85750    8.99740    9.11880    9.20860   75.87030 5007.17190    0.20410   76.28270  131.52350
 11400.50000   91.09440    8.25470    8.60850    8.85800    9.04390    9.16700    9.25710   75.00440 5002.94530    0.20670   76.48730  131.38950
 11401.00000   92.01660    8.25510    8.66220    8.85740    9.09830    9.22270    9.31360   77.95690 4998.71880    0.21020   77.28600  131.70440
 11401.50000   95.98640    8.25550    8.71630    8.94080    9.11550    9.23910    9.32940   78.77190 4994.49220    0.21570   78.22300  132.02130
 11402.00000   98.19530    8.25370    8.77080    9.07910    9.12460    9.28840    9.41240   80.23680 4990.26560    0.22320   78.96570  133.50410
 11402.50000  101.51400    8.25050    8.87420    9.44100    9.68860    9.92980   10.11400   82.91550 4986.03960    0.22710   79.60300  134.89740
 11403.00000  105.93010    8.25660    9.09090    9.79510   10.06490   10.20290   10.30360   89.23440 4981.81300    0.22890   80.07210  136.36370
 11403.50000  112.09190    8.25920    9.00610    9.75260   10.03240   10.18650   10.29670   93.01690 4977.47170    0.22990   80.27500  136.96410
 11404.00000  116.63720    8.24670    8.41090    8.91580    9.16720    9.55690    9.81170   91.89240 4966.72020    0.23080   80.28420  137.62360
 11404.50000  115.35990    8.24380    7.70630    7.94310    8.08740    8.34420    8.58770   87.71170 4955.96880    0.23150   80.29330  139.48570
 11405.00000  110.66660    8.24880    7.15320    7.31250    7.43440    7.64440    7.79870   85.92670 4945.21680    0.23550   81.08190  141.39140
 11405.50000  106.91170    8.25400    7.12260    7.23140    7.29740    7.42670    7.50070   86.34680 4934.46530    0.24720   82.78870  143.06830
 11406.00000  109.16250    8.25750    7.21370    7.32380    7.39070    7.49800    7.57270   89.65400 4923.71390    0.25840   83.91660  144.73390
 11406.50000  119.19260    8.25800    7.20490    7.32280    7.39350    7.50010    7.57800   95.97800 4912.96240    0.26120   84.52760  145.69660
 11407.00000  129.77440    8.25780    7.03750    7.16160    7.23250    7.34120    7.42050  104.24090 4904.43360    0.26200   84.45490  146.49170
 11407.50000  139.51360    8.25760    6.86640    6.97000    7.03230    7.12970    7.21340  112.81120 4912.64990    0.25520   83.71630  146.67330
 11408.00000  146.76810    8.25690    6.79980    6.90230    6.96400    7.06050    7.13090  114.80320 4920.34620    0.25010   82.90630  146.39620
 11408.50000  142.09480    8.25520    6.73370    6.83530    6.89640    6.99190    7.07010  108.08080 4925.01370    0.25090   82.96860  146.40500
 11409.00000  130.50670    8.25510    6.75660    6.97480    7.04550    7.15240    7.23080   96.96920 4929.68120    0.25280   83.35900  147.50720
 11409.50000  118.58160    8.25490    6.79060    6.94030    7.20640    7.31200    7.38950   89.01850 4934.34860    0.25390   83.44890  148.58320
 11410.00000  109.82360    8.25480    6.10610    6.31250    6.48110    6.68850    6.85710   85.64820 4935.25880    0.25460   83.52470  148.67380
 11410.50000  106.82520    8.25460    5.47200    5.67970    5.80450    6.00390    6.15170   86.16730 4932.90580    0.25500   83.59160  148.60390
 11411.00000  107.06830    8.25450    5.04380    5.18900    5.23680    5.39500    5.52830   87.45870 4930.55270    0.25140   82.98130  148.53400
 11411.50000  108.10890    8.25430    5.02210    5.17060    5.22190    5.30090    5.35890   88.49290 4928.19970    0.23890   81.29230  147.33940
 11412.00000  109.11900    8.25410    5.19630    5.30760    5.37290    5.47190    5.54550   88.66000 4925.84620    0.23020   79.74430  145.67000
 11412.50000  108.89700    8.25400    5.43450    5.53860    5.59790    5.68450    5.75010   87.53420 4923.49320    0.22410   79.23500  144.87570
 11413.00000  105.72960    8.25380    5.63390    5.74030    5.80770    5.91080    5.98670   83.70030 4953.53220    0.22020   78.84990  144.45420
 11413.50000   98.23390    8.25370    5.84060    5.95760    6.02190    6.12140    6.19430   78.56510 4985.23390    0.21350   77.65620  144.00540
 11414.00000   92.58840    8.25370    6.04650    6.15480    6.22150    6.30730    6.37130   78.77810 5016.93550    0.21440   78.06880  143.77240
 11414.50000   90.85930    8.25370    6.00310    6.10520    6.16640    6.26260    6.33280   82.51330 5028.42090    0.21900   78.87870  143.67870
 11415.00000   96.91000    8.25370    5.91930    6.01100    6.06410    6.15410    6.21550   86.83610 5020.31250    0.22660   79.69720  143.54880
 11415.50000  102.08780    8.25380    5.99530    6.12730    6.19140    6.29060    6.36330   88.78930 5001.77640    0.22900   80.05380  143.10500
 11416.00000  103.00230    8.25380    6.07490    6.20400    6.25860    6.34370    6.40580   90.04250 4990.21480    0.22850   79.94940  142.66120
 11416.50000  101.10730    8.25380    6.04210    6.18100    6.23540    6.32020    6.38210   89.82620 4996.97710    0.22570   79.53600  142.21750
 11417.00000  102.38830    8.25390    5.99220    6.12520    6.17970    6.26540    6.32880   88.61690 5003.73930    0.22210   78.99080  141.18270
 11417.50000  106.26200    8.25390    5.96770    6.14310    6.21860    6.33440    6.41930   86.47530 5010.50150    0.21810   78.37560  139.95440
 11418.00000  108.78770    8.25390    6.16770    6.41950    6.49760    6.61830    6.70140   83.62050 5017.26370    0.21540   78.05550  138.73380
 11418.50000  108.79990    8.25400    6.51000    6.66800    6.74150    6.85510    6.93880   80.78090 5024.02640    0.21560   78.06950  139.01430
