~Version ---------------------------------------------------
VERS.   2.0 : CWLS log ASCII Standard -VERSION 2.0
WRAP.    NO : One line per depth step
DLM . SPACE : Column Data Section Delimiter
~Well ------------------------------------------------------
STRT .F                 8311.0 : START DEPTH
STOP .F                12842.0 : STOP DEPTH
STEP .F                    0.5 : STEP
NULL .                -9999.25 : NULL VALUE
COMP .                         : COMPANY
WELL .                         : WELL
FLD  .                         : FIELD
LOC  .                         : LOCATION
PROV .                         : PROVINCE
CNTY .                         : COUNTY
STAT .                         : STATE
CTRY .                         : COUNTRY
SRVC .                         : SERVICE COMPANY
DATE .                         : DATE
UWI  .                         : UNIQUE WELL ID
API  .                         : API NUMBER
SLAT .WGS84 1.6716663163562018 : SURFACE LATITUDE
SLON .WGS84  8.495202386497994 : SURFACE LONGITUDE
DATUM.F                 3055.1 : DEPTH DATUM ELEV
~Curve Information -----------------------------------------
DEPT   .F     : 1 MEASURED DEPTH
GRR    .GAPI  : GAMMA RAY FROM RESISTIVITY LOG
HCALR  .IN    : HRCC CALIPER CALIBRATED FROM RESISTIVITY LOG
AT10   .OHMM  : ARRAY INDUCTION TWO FOOT RESISTIVITY A10
AT20   .OHMM  : ARRAY INDUCTION TWO FOOT RESISTIVITY A20
AT30   .OHMM  : ARRAY INDUCTION TWO FOOT RESISTIVITY A30
AT60   .OHMM  : ARRAY INDUCTION TWO FOOT RESISTIVITY A60
AT90   .OHMM  : ARRAY INDUCTION TWO FOOT RESISTIVITY A90
GRS    .GAPI  : GAMMA RAY FROM SONIC LOG
TENS   .LB    : TENSION FROM SONIC LOG
SPHI_LS.DEC   : SONIC POROSITY [LIMESTONE]
DTCO   .US/F  : DELTA-T COMPRESSIONAL
DTSM   .US/F  : DELTA-T SHEAR
~Params ----------------------------------------------------
~Other -----------------------------------------------------
~ASCII -----------------------------------------------------
# ...
 11671.00000  157.36030    8.40340    8.38880    9.12730    9.39070    9.51820    9.86370  128.93620 5021.25590    0.27650   86.44140  145.93170
 11671.50000  154.88290    8.41410    8.58270    9.13860    9.42080    9.66990   10.01840  124.10810 5028.56010    0.26880   85.59880  145.49890
 11672.00000  154.91860    8.41490    9.00980    9.62310   10.00730   10.36200   10.63790  124.03930 5035.86430    0.26710   85.34870  145.52720
 11672.50000  159.52370    8.38520    9.67770   10.31910   11.21640   11.49360   11.72670  128.29260 5043.16850    0.26620   85.32770  145.34740
 11673.00000  168.31140    8.37210   10.08030   10.56380   11.52600   11.82770   11.95510  131.59440 5050.47270    0.26420   85.11050  144.69260
 11673.50000  171.05840    8.39080    9.64590   10.06290   10.46760   10.85670   11.22380  131.90200 5057.77690    0.26160   84.60600  144.45480
 11674.00000  164.53260    8.40300    8.72670    9.08560    9.30650    9.65070   10.09970  124.08950 5064.72020    0.25790   84.11860  144.63470
 11674.50000  153.62340    8.41650    8.22850    8.46680    8.55620    8.71570    9.08810  111.07990 5064.92630    0.25770   83.97390  146.27880
 11675.00000  139.32160    8.43610    7.76910    8.07800    8.27510    8.43940    8.54720   99.95840 5065.13230    0.26400   84.96180  150.69880
 11675.50000  131.42670    8.35040    6.87550    7.11810    7.34030    7.62710    7.85220   94.30140 5065.33790    0.27940   87.24580  157.24900
 11676.00000  134.43260    8.31070    6.03960    6.17820    6.27450    6.59790    6.91720   99.85720 5063.07420    0.29580   90.05250  163.03890
 11676.50000  138.92330    8.28340    5.51840    5.71750    5.81650    5.96000    6.08320  107.95610 5057.45360    0.31230   92.01990  168.40770
 11677.00000  143.41520    8.28710    5.29000    5.39780    5.44550    5.52390    5.63810  114.16000 5051.83250    0.31680   92.40280  170.13140
 11677.50000  144.47340    8.29080    5.28600    5.48670    5.54210    5.62800    5.69750  118.24210 5047.69780    0.31900   92.75620  171.65630
 11678.00000  145.40470    8.28500    5.38020    5.58620    5.68720    5.77500    5.84170  117.25350 5043.96920    0.32130   93.11840  172.04210
 11678.50000  146.92250    8.28450    5.49590    5.66320    5.71810    5.79620    5.86740  113.82140 5040.24120    0.32360   93.37610  171.76520
 11679.00000  149.26000    8.28520    5.58980    5.70420    5.75480    5.83610    5.92260  112.69330 5036.51270    0.32550   93.72900  170.81120
 11679.50000  147.70070    8.28590    5.75380    5.90980    5.99560    6.11240    6.21540  112.87440 5032.78470    0.32830   94.26860  169.85720
 11680.00000  145.18330    8.28670    5.97190    6.16500    6.37800    6.46010    6.56700  113.93010 5029.05620    0.33120   94.57880  169.04390
 11680.50000  140.98490    8.28740    6.32610    6.59040    6.69790    6.81410    6.92690  114.28380 5025.32810    0.33540   95.28090  168.71100
 11681.00000  139.23730    8.28820    6.88640    6.94870    7.03790    7.17740    7.29010  113.52540 5021.59960    0.34010   96.02590  168.30490
 11681.50000  141.27130    8.28890    6.89120    7.14410    7.36550    7.47340    7.56090  114.00860 5017.87110    0.34410   96.24680  167.60550
 11682.00000  146.48220    8.28960    6.79400    7.12330    7.34930    7.45110    7.53430  117.46710 5014.14310    0.34370   96.03270  166.11200
 11682.50000  156.02730    8.29040    6.93140    7.19170    7.34700    7.44610    7.53640  123.95530 5010.41460    0.34080   95.65520  163.68970
 11683.00000  160.14690    8.30150    7.20700    7.59150    7.67730    7.85960    8.00880  129.53430 5006.68650    0.33760   95.13710  161.03510
 11683.50000  161.77620    8.32850    7.55410    8.08390    8.20920    8.40490    8.56370  130.35280 5002.95800    0.33390   94.38680  158.04940
 11684.00000  160.53770    8.35550    7.78170    8.62650    8.74240    8.86040    8.95580  128.39290 4999.23000    0.32800   93.61460  156.62280
 11684.50000  156.58840    8.37340    8.01240    8.64020    8.71910    8.84040    8.93850  125.44840 4995.50150    0.32400   92.85540  155.30280
 11685.00000  151.93600    8.38250    8.15820    8.65980    8.74660    8.88120    8.98990  124.83690 4992.34860    0.31650   92.06210  154.01590
 11685.50000  150.41030    8.39160    8.30030    8.93680    9.04450    9.21060    9.34590  127.46190 4992.55030    0.31040   91.10220  152.24110
 11686.00000  151.10020    8.40820    8.58380    9.25990    9.44180    9.61560    9.75650  130.37380 4992.75200    0.29510   89.52920  151.86580
 11686.50000  154.06220    8.47860    8.89030    9.57970    9.83850   10.00090   10.13290  131.99160 4992.95360    0.28460   88.07060  151.49060
 11687.00000  159.74310    8.53600    8.94130    9.90970   10.15100   10.30610   10.42850  131.40090 4993.15480    0.28230   87.45680  150.96410
 11687.50000  166.66200    8.55360    8.94170   10.06690   10.20150   10.34220   10.45620  129.39700 4995.32280    0.28400   87.54410  149.29870
 11688.00000  172.44320    8.48790    8.85650    9.59400   10.05570   10.27180   10.39460  127.99910 4997.82230    0.28080   87.41270  147.16500
 11688.50000  171.16960    8.39440    8.70110    9.02790    9.20740    9.47580    9.69550  126.79380 5000.32230    0.27320   86.34250  144.70030
 11689.00000  161.21120    8.30100    8.61030    8.68790    8.76630    8.88720    8.98510  124.40630 5002.82230    0.25670   84.28620  142.88980
 11689.50000  153.18260    8.23980    8.75500    8.89880    8.99360    9.14020    9.25920  119.27720 5005.32180    0.25610   83.63090  142.76260
 11690.00000  145.17200    8.23060    8.92840    9.18310    9.28120    9.43240    9.55380  114.52860 5007.82180    0.25780   83.81800  143.46920
 11690.50000  133.21500    8.23070    8.69790    8.85260    9.10480    9.38690    9.57450  108.00010 5010.32130    0.26420   84.91490  147.29440
 11691.00000  126.59660    8.23620    7.78280    8.07110    8.25210    8.52930    8.74590  104.01990 5012.82130    0.28240   86.84230  151.50790
 11691.50000  124.03080    8.24380    6.99200    7.25230    7.41430    7.66780    7.87590  103.69760 5015.32130    0.30130   90.31360  157.33170
 11692.00000  123.73460    8.24160    6.33130    6.52840    6.66150    6.88900    7.07590  105.93960 5017.82080    0.32030   94.13360  164.15120
 11692.50000  127.21860    8.23450    5.98710    6.08180    6.13700    6.27960    6.42060  113.55770 5020.32080    0.33790   95.79160  170.95280
 11693.00000  143.57930    8.22740    5.91240    6.01750    6.07210    6.15610    6.22420  128.83430 5022.82080    0.34960   97.22140  174.52610
 11693.50000  169.44670    8.22040    5.90070    6.03080    6.08450    6.16730    6.23480  143.53030 5025.32030    0.35760   98.54740  177.44250
 11694.00000  192.79560    8.21330    6.07930    6.22390    6.31310    6.45080    6.56320  160.06850 5034.90230    0.36040   98.45360  177.22860
 11694.50000  208.33580    8.20620    6.44880    6.60190    6.69620    6.84210    6.96120  166.42920 5052.02340    0.35330   97.06050  175.64630
 11695.00000  206.78870    8.19910    6.64360    6.88250    6.94460    7.04040    7.11790  162.84870 5069.14400    0.34400   95.60920  173.78770
 11695.50000  198.52150    8.19200    6.72140    6.90110    6.96200    7.05600    7.13200  158.37140 5081.55520    0.33400   94.59320  169.33960
 11696.00000  182.77420    8.21000    6.77430    6.97330    7.03820    7.13860    7.21990  146.26080 5066.94530    0.32240   93.28520  165.04670
 11696.50000  167.02680    8.23530    6.82750    7.08430    7.15030    7.25230    7.33480  134.82400 5052.33590    0.30890   91.17090  159.92600
 11697.00000  150.46860    8.26300    6.87590    7.19710    7.26410    7.47950    7.66520  116.84640 5046.45650    0.28090   87.22750  154.69100
 11697.50000  143.40550    8.27890    7.42660    7.82510    7.98400    8.39140    8.76420  101.69660 5055.12650    0.25930   83.94270  150.04590
 11698.00000  127.84170    8.28240    8.62600    9.15120    9.59500   10.21270   10.73890   88.89360 5059.04930    0.24770   82.21510  147.24620
 11698.50000  111.27450    8.28160   10.09180   11.30470   11.91880   12.64500   13.29580   78.00620 5059.25100    0.26720   86.21470  147.24820
