~Version ---------------------------------------------------
VERS.   2.0 : CWLS log ASCII Standard -VERSION 2.0
WRAP.    NO : One line per depth step
DLM . SPACE : Column Data Section Delimiter
~Well ------------------------------------------------------
STRT .FT               1450.0 : START DEPTH
STOP .FT               9380.0 : STOP DEPTH
STEP .FT                  0.5 : STEP
NULL .               -9999.25 : NULL VALUE
COMP .                        : COMPANY
WELL .                        : WELL
FLD  .                        : FIELD
LOC  .                        : LOCATION
PROV .                        : PROVINCE
CNTY .                        : COUNTY
STAT .                        : STATE
CTRY .                        : COUNTRY
SRVC .                        : SERVICE COMPANY
DATE .                        : DATE
UWI  .                        : UNIQUE WELL ID
API  .                        : API NUMBER
SLAT .WGS84 4.551584023272596 : SURFACE LATITUDE
SLON .WGS84 2.128099622465001 : SURFACE LONGITUDE
DATUM.F                   nan : DEPTH DATUM ELEV
~Curve Information -----------------------------------------
DEPT   .FT    : 
AT10   .OHMM  : ARRAY INDUCTION TWO FOOT RESISTIVITY A10
AT20   .OHMM  : ARRAY INDUCTION TWO FOOT RESISTIVITY A20
AT30   .OHMM  : ARRAY INDUCTION TWO FOOT RESISTIVITY A30
AT60   .OHMM  : ARRAY INDUCTION TWO FOOT RESISTIVITY A60
AT90   .OHMM  : ARRAY INDUCTION TWO FOOT RESISTIVITY A90
CALR   .IN    : CALIPER FROM RESISTIVITY LOG
CALS   .IN    : CALIPER FROM SONIC LOG
DPHZ_LS.DEC   : HGRD STANDARD RESOLUTION DENSITY POROSITY
DTCO   .US/F  : DELTA-T COMPRESSIONAL
DTSM   .US/F  : DELTA-T SHEAR
GRD    .GAPI  : GAMMA RAY FROM DENSITY LOG
HDRA   .G/C3  : HRDD SPINE AND RIBS DENSITY CORRECTION
PEFZ   .B/E   : HRDD STANDARD RESOLUTION FORMATION PHOTOELECTRIC FACTOR
RHOZ   .G/C3  : HRDD STANDARD RESOLUTION FORMATION DENSITY
SPHI_LS.DEC   : SONIC POROSITY [LIMESTONE]
SPR    .MV    : SPONTANEOUS POTENTIAL FROM RESISTIVITY LOG
TEND   .LB    : TENSION FROM DENSITY LOG
TENR   .LB    : TENSION FROM RESISTIVITY LOG
TENS   .LB    : TENSION FROM SONIC LOG
TNPH_LS.DEC   : THERMAL NEUTRON POROSITY [LIMESTONE]
~Params ----------------------------------------------------
~Other -----------------------------------------------------
~ASCII -----------------------------------------------------
# ...
 7207.50000    1.22390    1.84740    2.17970    2.29020    2.29750   12.10700   12.13410    0.22530   92.82950  192.08510  108.43950    0.07030    3.55380    2.31680   -9999.25    2.16220 4409.04560 4429.37020 4445.66380    0.34230
 7208.00000    1.14620    1.69460    1.95000    2.03980    2.22210   12.21570   12.15110    0.23730   99.29250  220.66330  110.66230    0.07820    3.64870    2.29740   -9999.25    2.30420 4421.89240 4452.18840 4453.60390    0.38150
 7208.50000    1.06590    1.55270    1.69720    1.89720    1.92880   12.43320   12.21560    0.24520  102.01310  239.45360  111.27000    0.09380    3.80170    2.29860   -9999.25    2.73880 4403.90680 4452.13620 4461.54400    0.42360
 7209.00000    1.02890    1.47420    1.63870    1.82640    1.85220   12.34260   12.36530    0.22830  102.20590  239.72570  112.31790    0.10740    3.83700    2.32820   -9999.25    3.14650 4388.11910 4436.83690 4451.97680    0.41020
 7209.50000    1.03570    1.51290    1.64670    1.83250    1.86710   12.32480   12.27000    0.20510  100.96810  239.72550  112.21000    0.11150    3.75170    2.36450   -9999.25    3.39120 4387.19020 4425.14420 4442.40960    0.38110
 7210.00000    1.08090    1.60970    1.82230    1.96160    2.03880   12.05450   12.09600    0.18710   99.66450  239.72550  113.22330    0.10320    3.63370    2.38860   -9999.25    3.39120 4386.26130 4420.66460 4432.84240    0.35650
 7210.50000    1.13450    1.70650    1.99790    2.14480    2.21040   12.00150   12.02950    0.19850   98.86860  227.88920  110.60650    0.10090    3.55580    2.36300   -9999.25    3.39120 4385.33250 4417.65740 4423.27520    0.34540
 7211.00000    1.16730    1.80330    2.06810    2.30580    2.32940   12.01930   12.03190    0.21980   98.02860  219.99870  107.89010    0.10140    3.47790    2.32740   -9999.25    3.39120 4384.40360 4418.54090 4413.70800    0.33600
 7211.50000    1.15130    1.81790    2.02840    2.23370    2.28110   12.17510   12.15580    0.23840   98.43750  226.42270  109.86230    0.10450    3.56330    2.29530   -9999.25    3.48220 4383.47470 4390.42280 4404.14080    0.35060
 7212.00000    1.12950    1.78170    1.97870    2.14350    2.21650   12.22220   12.22460    0.24680   99.10320  233.60250  112.11330    0.10750    3.68950    2.28940   -9999.25    3.59540 4382.54590 4406.68080 4408.48080    0.35430
 7212.50000    1.10880    1.72140    1.92760    2.12540    2.20360   11.99830   12.01140    0.24300  100.28720  233.87440  113.93720    0.11050    3.75920    2.29790   -9999.25    3.70870 4381.61700 4410.44190 4420.73100    0.35600
 7213.00000    1.10770    1.66110    1.87090    2.13880    2.20360   12.20350   12.18150    0.23290  101.56040  238.29560  114.53720    0.09840    3.70760    2.31680   -9999.25    3.80140 4380.68820 4414.20290 4420.73100    0.37450
 7213.50000    1.08680    1.60210    1.81410    2.11210    2.13130   12.36330   12.30810    0.22390  102.20690  239.72390  113.92520    0.08840    3.59690    2.33040   -9999.25    3.81190 4379.75930 4411.88390 4420.73100    0.36280
 7214.00000    1.06110    1.54400    1.75740    2.01340    2.05900   12.24510   12.32760    0.22010  102.59370   -9999.25  112.02950    0.07620    3.53870    2.33490   -9999.25    3.82240 4378.83040 4389.00600 4417.78180    0.39740
 7214.50000    1.03720    1.48580    1.69640    1.91460    1.93530   12.17830   12.13680    0.21760  103.18650   -9999.25  110.48710    0.07380    3.53300    2.34140   -9999.25    3.83300 4377.90160 4408.40860 4424.65500    0.36750
 7215.00000    1.00240    1.43220    1.61660    1.84020    1.87750   12.17980   12.18010    0.21180  103.77700   -9999.25  113.95710    0.07490    3.58450    2.35370   -9999.25    3.84350 4376.97270 4410.77800 4431.52810    0.38140
 7215.50000    0.94610    1.32730    1.46630    1.64850    1.70740   12.12250   12.13050    0.20590  103.16230   -9999.25  116.33970    0.08470    3.63960    2.35620   -9999.25    3.85400 4376.04380 4413.14740 4438.40130    0.38270
 7216.00000    0.88820    1.28030    1.34610    1.46850    1.50550   12.10920   12.10150    0.21030  102.97750   -9999.25  113.83260    0.09140    3.68370    2.34930   -9999.25    3.93740 4375.11500 4415.51680 4441.00940    0.38740
 7216.50000    0.91280    1.33980    1.43770    1.54020    1.59850   12.09270   12.09550    0.21280  103.07340   -9999.25  110.95710    0.08980    3.62110    2.34520   -9999.25    4.12990 4374.18610 4411.87640 4440.77420    0.41800
 7217.00000    0.98380    1.44980    1.55380    1.71940    1.78630   12.07200   12.09700    0.21280  104.05120   -9999.25  110.00060    0.08720    3.49970    2.34840   -9999.25    4.20690 4381.13430 4425.88400 4440.53890    0.39730
 7217.50000    1.03950    1.55970    1.65560    1.89870    1.93370   12.08990   12.08140    0.20890  103.55260   -9999.25  111.30050    0.07020    3.37330    2.35340   -9999.25    4.27130 4379.10130 4428.06350 4440.30360    0.40790
 7218.00000    1.04770    1.56450    1.68700    1.90430    1.94020   12.10160   12.12020    0.21250  103.40460   -9999.25  111.54020    0.05230    3.29640    2.34530   -9999.25    4.43220 4363.51330 4412.50090 4417.17990    0.39220
 7218.50000    1.03720    1.52520    1.65090    1.85860    1.88910   12.17100   12.17120    0.21860  103.61520   -9999.25  114.76850    0.05050    3.29450    2.33630   -9999.25    4.59310 4347.92530 4399.48090 4388.33420    0.41730
 7219.00000    1.02000    1.48590    1.61040    1.81290    1.83790   12.12160   12.12790    0.22040  103.68030   -9999.25  117.73600    0.04860    3.34180    2.33290   -9999.25    4.75410 4332.33730 4368.50990 4359.48840    0.43070
 7219.50000    1.01920    1.46230    1.60770    1.79460    1.80300   12.08630   12.08470    0.21810  103.44240  240.13000  118.27500    0.04870    3.40370    2.33820   -9999.25    4.75060 4316.74930 4372.06350 4339.07260    0.43230
 7220.00000    1.02180    1.48940    1.62010    1.79460    1.80370   12.02290   12.03790    0.20780  103.35210  234.28040  116.38670    0.05920    3.48920    2.35730   -9999.25    4.63760 4331.95850 4367.96510 4339.33490    0.42460
 7220.50000    1.03790    1.52330    1.63670    1.81130    1.82860   12.00850   12.00950    0.19790  102.77980  236.14560  112.73070    0.06890    3.61180    2.37300   -9999.25    4.62950 4298.64160 4357.35210 4339.59720    0.41110
 7221.00000    1.06000    1.55720    1.67080    1.85330    1.89310   11.98890   11.98750    0.19710  101.37580  240.12950  112.74590    0.07090    3.63490    2.37030   -9999.25    4.64770 4316.57890 4345.12120 4339.85950    0.38780
 7221.50000    1.08010    1.59110    1.72500    1.88680    1.94820   11.98250   11.98010    0.20530   99.67500  240.17470  111.13150    0.07180    3.54020    2.35820   -9999.25    4.66580 4376.24480 4383.35060 4347.32850    0.38210
 7222.00000    1.09660    1.63800    1.77910    1.95510    2.00330   11.97310   11.97280    0.20470   98.67770  239.20420  113.26030    0.06790    3.41720    2.36100   -9999.25    4.68400 4385.51350 4394.05550 4344.26990    0.39130
 7222.50000    1.12550    1.68810    1.89190    2.05710    2.05840   11.98640   11.94670    0.19610   98.76410  233.79120  111.14430    0.05980    3.33990    2.37600   -9999.25    4.75020 4304.06010 4380.80590 4341.21130    0.37450
 7223.00000    1.14830    1.71810    1.96610    2.15900    2.11360   12.07970   12.05890    0.19050   99.04690  227.06910  112.60390    0.05380    3.29640    2.38360   -9999.25    5.05560 4336.53340 4355.32480 4354.62820    0.37280
 7223.50000    1.12780    1.69270    1.88750    2.13180    2.03710   12.10790   12.09780    0.19460   99.10150  240.26480  110.54780    0.03960    3.23110    2.37610   -9999.25    5.38730 4369.00660 4394.97590 4361.71600    0.32980
 7224.00000    1.09500    1.65030    1.80880    1.97870    1.96070   12.10020   12.09220    0.19700   99.62950  240.26470  109.83130    0.03590    3.20390    2.37310   -9999.25    5.38200 4382.21930 4390.46350 4364.47560    0.34390
 7224.50000    1.06860    1.62980    1.73010    1.88680    1.92820   12.11510   12.08890    0.19500  100.45970   -9999.25  108.02630    0.03130    3.18480    2.37890   -9999.25    5.37660 4350.86310 4367.22000 4367.23520    0.35240
