~Version ---------------------------------------------------
VERS.   2.0 : CWLS log ASCII Standard -VERSION 2.0
WRAP.    NO : One line per depth step
DLM . SPACE : Column Data Section Delimiter
~Well ------------------------------------------------------
STRT .FT               1450.0 : START DEPTH
STOP .FT               9380.0 : STOP DEPTH
STEP .FT                  0.5 : STEP
NULL .               -9999.25 : NULL VALUE
COMP .                        : COMPANY
WELL .                        : WELL
FLD  .                        : FIELD
LOC  .                        : LOCATION
PROV .                        : PROVINCE
CNTY .                        : COUNTY
STAT .                        : STATE
CTRY .                        : COUNTRY
SRVC .                        : SERVICE COMPANY
DATE .                        : DATE
UWI  .                        : UNIQUE WELL ID
API  .                        : API NUMBER
SLAT .WGS84 4.551584023272596 : SURFACE LATITUDE
SLON .WGS84 2.128099622465001 : SURFACE LONGITUDE
DATUM.F                   nan : DEPTH DATUM ELEV
~Curve Information -----------------------------------------
DEPT   .FT    : 
AT10   .OHMM  : ARRAY INDUCTION TWO FOOT RESISTIVITY A10
AT20   .OHMM  : ARRAY INDUCTION TWO FOOT RESISTIVITY A20
AT30   .OHMM  : ARRAY INDUCTION TWO FOOT RESISTIVITY A30
AT60   .OHMM  : ARRAY INDUCTION TWO FOOT RESISTIVITY A60
AT90   .OHMM  : ARRAY INDUCTION TWO FOOT RESISTIVITY A90
CALR   .IN    : CALIPER FROM RESISTIVITY LOG
CALS   .IN    : CALIPER FROM SONIC LOG
DPHZ_LS.DEC   : HGRD STANDARD RESOLUTION DENSITY POROSITY
DTCO   .US/F  : DELTA-T COMPRESSIONAL
DTSM   .US/F  : DELTA-T SHEAR
GRD    .GAPI  : GAMMA RAY FROM DENSITY LOG
HDRA   .G/C3  : HRDD SPINE AND RIBS DENSITY CORRECTION
PEFZ   .B/E   : HRDD STANDARD RESOLUTION FORMATION PHOTOELECTRIC FACTOR
RHOZ   .G/C3  : HRDD STANDARD RESOLUTION FORMATION DENSITY
SPHI_LS.DEC   : SONIC POROSITY [LIMESTONE]
SPR    .MV    : SPONTANEOUS POTENTIAL FROM RESISTIVITY LOG
TEND   .LB    : TENSION FROM DENSITY LOG
TENR   .LB    : TENSION FROM RESISTIVITY LOG
TENS   .LB    : TENSION FROM SONIC LOG
TNPH_LS.DEC   : THERMAL NEUTRON POROSITY [LIMESTONE]
~Params ----------------------------------------------------
~Other -----------------------------------------------------
~ASCII -----------------------------------------------------
# ...
 3060.00000    1.76900    3.03030    3.17290    3.60280    3.67400   12.92100   13.23940    0.26600   88.66060  169.23350  102.36150    0.11310    4.32570    2.24530    0.29070  -30.92970 3384.89350 3468.00890 3450.30690    0.26980
 3060.50000    1.79840    3.05240    3.24420    3.50200    3.61440   12.54680   12.34110    0.27790   87.83330  171.00160  108.26480    0.09710    4.27120    2.25550    0.28530  -30.57170 3381.86060 3435.33010 3382.25150    0.27670
 3061.00000    1.84810    3.10420    3.40470    3.87160    3.91320   13.47280   13.23940    0.24180   87.25260  171.19890  111.80690    0.07420    3.99890    2.33240    0.28110  -30.21380 3362.38980 3415.96470 3427.62270    0.27130
 3061.50000    1.87630    3.15590    3.45080    3.79950    3.84030   12.69470   12.54530    0.19970   86.37000  171.30510  105.23600    0.05630    3.81070    2.36560    0.27450  -29.85580 3388.66600 3396.59920 3472.99390    0.25400
 3062.00000    1.89630    3.20770    3.48640    3.87230    4.02680   13.00390   12.36830    0.18590   85.71490  170.86290  105.50980    0.06330    3.72810    2.39400    0.26910  -29.74070 3515.32560 3427.44810 3518.36510    0.25650
 3062.50000    1.88810    3.18250    3.46470    3.94510    4.07680   12.32090   12.29350    0.19920   86.98920  170.85870  106.78780    0.07060    3.79150    2.36860    0.27890  -29.63180 3487.94400 3434.53110 3544.07640    0.27570
 3063.00000    1.86920    3.05650    3.39390    3.82640    3.90090   12.26990   12.30030    0.21790   88.10680  173.70720  109.23590    0.08840    3.91090    2.33440    0.28670  -29.52300 3460.56240 3430.43050 3536.51630    0.29490
 3063.50000    1.84100    2.93040    3.27820    3.70760    3.72490   12.61650   12.68910    0.24390   88.88790  175.13570  107.65440    0.10220    4.00690    2.28820    0.29230  -29.41420 3403.89410 3432.44640 3531.98020    0.30050
 3064.00000    1.81850    2.82960    3.07000    3.63630    3.62790   12.59270   12.70050    0.25830   89.19060  174.07860  105.23600    0.10900    4.02610    2.28480    0.29480  -29.06580 3386.78540 3451.95340 3518.37000    0.30430
 3064.50000    1.93660    2.99260    3.30090    3.79830    3.91900   13.47620   13.10430    0.21650   89.26560  172.97890  107.97140    0.11770    3.84090    2.34650    0.29510  -27.86850 3418.59520 3497.69740 3501.35740    0.30360
 3065.00000    2.02310    3.26410    3.61360    4.14810    4.30380   13.83970   13.23090    0.16960   88.40120  172.94060  112.16620    0.11100    3.63630    2.40540    0.28910  -26.79080 3399.86750 3461.38980 3480.09170    0.30050
 3065.50000    2.06560    3.38400    3.70550    4.08680    4.40830   12.22400   12.24680    0.15810   86.98980  171.40710  116.14230    0.10130    3.42790    2.44190    0.27870  -26.70870 3385.22550 3442.32030 3458.82600    0.26340
 3066.00000    2.08070    3.40290    3.72870    4.01020    4.37880   12.16800   12.26040    0.16200   86.68070  167.69300  120.15580    0.07420    3.32420    2.43420    0.27650  -27.00440 3387.03930 3431.60190 3450.32040    0.24500
 3066.50000    2.09570    3.42170    3.67460    4.20040    4.34550   12.13740   12.26720    0.17010   87.43290  167.80930  114.35340    0.06350    3.32170    2.42600    0.28230  -26.89120 3408.37590 3466.00640 3450.32160    0.24470
 3067.00000    2.11080    3.41540    3.53930    3.95890    4.09800   12.30050   12.17870    0.18440   87.25820  169.21890  110.25220    0.06680    3.43070    2.39900    0.28090  -26.88690 3399.86750 3412.82300 3450.32160    0.26770
 3067.50000    2.07110    3.28770    3.40410    3.71730    3.71770   12.29540   12.33820    0.19560   88.32620  170.62850  104.82540    0.07010    3.49750    2.38010    0.28870  -27.64710 3399.19270 3406.11250 3450.32410    0.27410
 3068.00000    2.04530    3.15480    3.26880    3.52410    3.57970   12.55940   12.55690    0.18950   86.98590  170.70910  107.08410    0.07220    3.54020    2.38600    0.27790  -27.48940 3412.30220 3426.33810 3450.32480    0.27740
 3068.50000    2.09670    3.12820    3.18770    3.60420    3.63350   12.23930   12.68230    0.16970   88.13040  170.09170  102.10460    0.07380    3.49620    2.41490    0.28670  -27.27440 3417.47750 3452.15330 3463.93740    0.25430
 3069.00000    2.13840    3.19150    3.25640    3.65920    3.68750   12.72860   12.48840    0.15430   87.79160  169.74870  103.99580    0.05620    3.37070    2.44380    0.28470  -27.86860 3422.65280 3479.36590 3496.99400    0.24140
 3069.50000    2.18810    3.25480    3.32520    3.64390    3.68330   12.21890   12.34200    0.15200   87.00340  169.03780  103.81530    0.03900    3.26010    2.44870    0.27920  -28.44120 3362.93430 3458.33350 3504.77290    0.23890
 3070.00000    2.23500    3.31800    3.39390    3.53730    3.65440   12.35150   12.33520    0.14820   86.42840  165.53270  104.64770    0.02450    3.17770    2.45750    0.27470  -29.01380 3429.15860 3464.66030 3512.33470    0.23610
 3070.50000    2.23460    3.33070    3.35310    3.40290    3.56820   12.22530   12.34200    0.14840   86.37130  164.76280  105.48020    0.01450    3.05890    2.45600    0.27470  -29.58630 3469.82710 3491.87850 3497.21060    0.23470
 3071.00000    2.18310    3.21970    3.25090    3.26860    3.37120   12.01510   12.14470    0.14200   86.65580  166.11880  104.20930    0.00390    3.01340    2.46490    0.27730  -30.15890 3365.76330 3413.64490 3477.55010    0.23430
 3071.50000    2.17050    3.10870    3.14870    3.27150    3.35380   12.16120   12.10390    0.13510   86.24790  164.90260  105.92560    0.00460    2.96870    2.47510    0.27380  -30.50250 3402.64270 3405.18210 3477.55010    0.22970
 3072.00000    2.23980    3.06990    3.15380    3.38830    3.44130   12.41260   12.85250    0.12960   85.87580  163.48440  102.41670    0.00560    2.95730    2.48490    0.27180  -30.50250 3453.19650 3462.25870 3477.55010    0.21650
 3072.50000    2.31230    3.09370    3.21760    3.45840    3.62950   12.95290   13.02940    0.12720   84.73200  162.98840   98.16510    0.00670    2.93570    2.49340    0.26260  -30.20320 3401.80900 3454.97650 3477.55010    0.20300
 3073.00000    2.24670    3.11740    3.26860    3.33750    3.51920   12.13060   12.12430    0.12720   83.32680  162.07120   94.76380    0.00760    2.91400    2.49200    0.25200  -29.90380 3381.25400 3446.51490 3477.55010    0.19840
 3073.50000    2.15920    3.14120    3.26860    3.31300    3.40890   12.19520   12.13790    0.13020   84.78730  160.99780  102.14280    0.00820    2.89240    2.49170    0.26370  -29.60450 3381.25400 3438.05340 3477.55640    0.19860
 3074.00000    2.17910    3.16490    3.26860    3.37270    3.43350   12.22920   12.20590    0.14210   86.81540  160.97630  110.33980    0.00970    2.91580    2.47490    0.27760  -29.30520 3381.25400 3415.74650 3477.55700    0.22030
 3074.50000    2.15980    3.18870    3.30330    3.43240    3.56360   12.61910   12.59610    0.15870   88.53420  162.37510  117.31620    0.01130    3.07330    2.44830    0.28980  -29.00580 3368.15110 3390.51690 3450.33670    0.24370
 3075.00000    2.11010    3.20770    3.34160    3.50200    3.59500   12.25970   12.33520    0.16830   88.55520  163.87490  114.11120    0.03160    3.30720    2.42480    0.28970  -28.70650 3396.30060 3438.23340 3454.34160    0.25200
 3075.50000    2.10330    3.18760    3.24820    3.52660    3.62630   12.39730   12.32160    0.15290   87.10310  162.48240  110.45000    0.04770    3.48890    2.43440    0.28050  -28.40720 3435.14060 3497.87900 3458.34580    0.24590
 3076.00000    2.10320    3.24000    3.46870    3.55740    3.78920   12.81020   12.45770    0.13220   84.53990  160.38470  105.95720    0.05090    3.50450    2.47010    0.26190  -28.10780 3392.04710 3489.29800 3462.35010    0.21790
 3076.50000    2.10320    3.50170    3.68910    3.78250    3.81530   12.41260   12.32160    0.11540   81.44630  158.34440  102.44700    0.02900    3.16620    2.50510    0.24010  -26.73940 3407.38480 3453.62760 3466.35440    0.20030
 3077.00000    2.14100    3.76340    3.90960    4.31730    4.33880   12.27500   12.28250    0.11460   78.53830  155.46590   99.05550    0.00710    2.91350    2.51600    0.21910  -26.19200 3412.17970 3501.69140 3470.35860    0.19090
