~Version ---------------------------------------------------
VERS.   2.0 : CWLS log ASCII Standard -VERSION 2.0
WRAP.    NO : One line per depth step
DLM . SPACE : Column Data Section Delimiter
~Well ------------------------------------------------------
STRT .FT               1450.0 : START DEPTH
STOP .FT               9380.0 : STOP DEPTH
STEP .FT                  0.5 : STEP
NULL .               -9999.25 : NULL VALUE
COMP .                        : COMPANY
WELL .                        : WELL
FLD  .                        : FIELD
LOC  .                        : LOCATION
PROV .                        : PROVINCE
CNTY .                        : COUNTY
STAT .                        : STATE
CTRY .                        : COUNTRY
SRVC .                        : SERVICE COMPANY
DATE .                        : DATE
UWI  .                        : UNIQUE WELL ID
API  .                        : API NUMBER
SLAT .WGS84 4.551584023272596 : SURFACE LATITUDE
SLON .WGS84 2.128099622465001 : SURFACE LONGITUDE
DATUM.F                   nan : DEPTH DATUM ELEV
~Curve Information -----------------------------------------
DEPT   .FT    : 
AT10   .OHMM  : ARRAY INDUCTION TWO FOOT RESISTIVITY A10
AT20   .OHMM  : ARRAY INDUCTION TWO FOOT RESISTIVITY A20
AT30   .OHMM  : ARRAY INDUCTION TWO FOOT RESISTIVITY A30
AT60   .OHMM  : ARRAY INDUCTION TWO FOOT RESISTIVITY A60
AT90   .OHMM  : ARRAY INDUCTION TWO FOOT RESISTIVITY A90
CALR   .IN    : CALIPER FROM RESISTIVITY LOG
CALS   .IN    : CALIPER FROM SONIC LOG
DPHZ_LS.DEC   : HGRD STANDARD RESOLUTION DENSITY POROSITY
DTCO   .US/F  : DELTA-T COMPRESSIONAL
DTSM   .US/F  : DELTA-T SHEAR
GRD    .GAPI  : GAMMA RAY FROM DENSITY LOG
HDRA   .G/C3  : HRDD SPINE AND RIBS DENSITY CORRECTION
PEFZ   .B/E   : HRDD STANDARD RESOLUTION FORMATION PHOTOELECTRIC FACTOR
RHOZ   .G/C3  : HRDD STANDARD RESOLUTION FORMATION DENSITY
SPHI_LS.DEC   : SONIC POROSITY [LIMESTONE]
SPR    .MV    : SPONTANEOUS POTENTIAL FROM RESISTIVITY LOG
TEND   .LB    : TENSION FROM DENSITY LOG
TENR   .LB    : TENSION FROM RESISTIVITY LOG
TENS   .LB    : TENSION FROM SONIC LOG
TNPH_LS.DEC   : THERMAL NEUTRON POROSITY [LIMESTONE]
~Params ----------------------------------------------------
~Other -----------------------------------------------------
~ASCII -----------------------------------------------------
# ...
 3585.00000    2.02590    3.27170    3.55960    4.01940    4.03890   12.14500   12.10850    0.14250   89.92650  177.01240  119.05490    0.03820    3.28900    2.46580    0.29880  -28.46880 3489.21030 3555.77680 3510.84860    0.23510
 3585.50000    2.00860    3.23640    3.53320    4.01940    4.04730   12.15910   12.15970    0.14730   89.98100  177.44850  115.77920    0.04710    3.31760    2.45850    0.29880  -28.46880 3489.21030 3538.37770 3507.26800    0.24260
 3586.00000    1.99130    3.20100    3.48010    4.01940    4.05580   12.19010   12.13850    0.15200   90.28220  177.98020  113.56130    0.05590    3.36160    2.45110   -9999.25  -28.79500 3489.21030 3541.08980 3517.61520    0.25760
 3586.50000    1.98930    3.19500    3.49480    4.01940    4.10980   12.17200   12.11730    0.15190   90.28400  178.89480  113.86460    0.06350    3.41480    2.45090   -9999.25  -28.88800 3489.21030 3533.65740 3537.24760    0.26530
 3587.00000    1.99120    3.23300    3.54410    4.09940    4.21830   12.12040   12.13520    0.14780   90.35350  180.16350  115.82980    0.06670    3.45770    2.45760   -9999.25  -29.28430 3489.21030 3524.64820 3556.88010    0.26490
 3587.50000    1.99320    3.27100    3.59340    4.13120    4.21460   12.19860   12.18900    0.14000   90.36060  179.86780  118.70490    0.06990    3.46620    2.47050   -9999.25  -29.01960 3489.21030 3503.75090 3553.61390    0.25480
 3588.00000    1.99510    3.27700    3.56020    4.09080    4.20510   12.23120   12.30900    0.13820   90.01110  179.59970  120.04780    0.07240    3.47530    2.47390   -9999.25  -28.52100 3489.21030 3530.57190 3558.44380    0.24980
 3588.50000    1.99650    3.24610    3.52680    4.05030    4.19570   12.26600   12.24260    0.14060   89.96980  179.33170  120.22450    0.07110    3.48520    2.46860   -9999.25  -28.06470 3489.21030 3550.19730 3563.27370    0.24770
 3589.00000    1.99730    3.23800    3.52430    4.00980    4.18630   12.28720   12.37020    0.14310   89.97500  179.19160  120.29440    0.06490    3.52290    2.46340   -9999.25  -28.06110 3516.12280 3576.44470 3568.10370    0.26120
 3589.50000    1.99800    3.22990    3.51350    3.96930    4.17680   12.23980   12.24770    0.14100   90.01290  179.58800  120.05690    0.05920    3.52130    2.47170   -9999.25  -27.65330 3520.24040 3534.87640 3572.93360    0.27250
 3590.00000    1.99950    3.22180    3.50280    3.97180    4.16740   12.23910   12.19200    0.13620   90.13510  180.19390  121.07070    0.04810    3.51120    2.47800   -9999.25  -27.24540 3524.35800 3518.10230 3573.89780    0.27920
 3590.50000    2.00380    3.21370    3.49210    3.97500    4.15800   12.14750   12.13640    0.13370   90.67380  181.30060  118.90350    0.04180    3.48850    2.48180   -9999.25  -26.83760 3499.62570 3539.14420 3573.89910    0.27920
 3591.00000    2.00040    3.20860    3.48130    3.97810    4.14860   12.11130   12.12730    0.13540   90.56360  181.63520  120.22030    0.04280    3.46570    2.47650   -9999.25  -26.83760 3510.04560 3560.18610 3573.90030    0.27180
 3591.50000    2.00230    3.21550    3.48970    3.98130    4.13910   12.18370   12.18310    0.14270   90.57130  181.49150  119.45920    0.04440    3.52460    2.46700   -9999.25  -26.42980 3490.29940 3570.59810 3573.90160    0.27510
 3592.00000    2.01500    3.22250    3.55020    3.98440    4.12970   12.23930   12.22730    0.14420   90.57890  181.52990  121.03230    0.06310    3.64640    2.46260   -9999.25  -26.51310 3488.51020 3578.35260 3565.99840    0.27720
 3592.50000    2.01580    3.22940    3.55420    3.98750    4.12030   12.14950   12.13540    0.14280   90.40670  181.61370  121.14540    0.06980    3.69210    2.46630   -9999.25  -26.59630 3486.72110 3574.24440 3556.11940    0.27850
 3593.00000    2.01670    3.23630    3.55820    3.99070    4.11080   12.05970   12.10480    0.13860   90.03180  181.66400  121.38360    0.07240    3.73780    2.47450   -9999.25  -26.66290 3484.93200 3562.22770 3537.27700    0.28080
 3593.50000    2.02050    3.24320    3.45000    3.99380    4.10140   12.21530   12.29880    0.13820   90.17050  181.24300  122.85340    0.07230    3.76540    2.47470   -9999.25  -26.37780 3483.14280 3550.21100 3537.04240    0.26690
 3594.00000    2.02630    3.25010    3.46400    3.99700    4.08950   12.20340   12.13540    0.13640   90.41250  180.82210  123.18660    0.07210    3.73530    2.47450   -9999.25  -26.09270 3481.35370 3538.19440 3536.80770    0.27090
 3594.50000    2.02790    3.25710    3.47790    4.00010    4.00270   12.19140   12.21710    0.14270   90.41250  180.59430  124.36570    0.07200    3.69770    2.46480   -9999.25  -25.80770 3479.56450 3526.17770 3536.57310    0.27100
 3595.00000    2.02840    3.26400    3.49180    4.00320    3.99060   12.21110   12.20180    0.14370   90.36150  180.69870  123.81760    0.07190    3.67710    2.46330   -9999.25  -25.52260 3477.77540 3514.16100 3531.37570    0.26410
 3595.50000    2.06130    3.26810    3.53180    4.00640    4.00660   12.17580   12.14130    0.14490   90.18880  180.37010  122.74120    0.07090    3.64090    2.46390    0.29920  -25.09500 3475.98630 3502.14430 3522.86990    0.25470
 3596.00000    2.05710    3.29410    3.56020    4.00950    4.04390   12.14470   12.07760    0.14040   90.07110  180.19290  123.34880    0.06950    3.60460    2.47200    0.29900  -24.63190 3474.19710 3491.66950 3514.36400    0.24910
 3596.50000    2.06450    3.32000    3.57720    4.01270    4.09110   12.13170   12.12970    0.13330   89.95340  180.20400  125.57630    0.06810    3.56840    2.48400    0.29840  -24.16870 3472.40800 3487.36200 3505.85820    0.24990
 3597.00000    2.07190    3.34600    3.49340    4.01580    4.12670   12.16730   12.17140    0.12820   89.95340  180.21510  126.99670    0.06480    3.60380    2.49180    0.30000  -24.28930 3479.58730 3483.05450 3487.63050    0.25170
 3597.50000    2.07920    3.34560    3.51180    4.01890    4.10530   12.17790   12.15020    0.12800   89.95940  180.30090  124.47430    0.06110    3.64260    2.49180    0.29980  -24.39420 3435.18650 3469.02000 3469.40290    0.26330
 3598.00000    2.08660    3.33860    3.53030    4.02210    4.08400   12.12930   12.12420    0.13140   89.96690  180.25180  121.95190    0.05740    3.64460    2.48660    0.29960  -24.39800 3396.35620 3438.68370 3454.82070    0.26050
 3598.50000    2.09400    3.33160    3.54870    4.02520    4.06260   12.12090   12.20950    0.13150   89.90240  180.56900  122.60930    0.05370    3.57220    2.48490    0.29940  -24.40180 3357.52580 3438.33760 3457.00960    0.24750
 3599.00000    2.10140    3.34590    3.56050    4.02840    4.09680   12.12750   12.16280    0.12600   89.85870  180.21990  127.19490    0.05000    3.49980    2.49430    0.29930  -24.40560 3341.21880 3437.99150 3460.65680    0.23980
 3599.50000    2.10880    3.35480    3.59340    4.03150    4.11380   12.13420   12.11610    0.12470   89.80040  179.63010  129.53740    0.04630    3.42730    2.50240    0.29910  -24.81690 3415.00480 3437.64550 3464.30390    0.25420
 3600.00000    2.11620    3.36360    3.60680    4.03460    4.11380   12.14330   12.10310    0.12090   89.59640  179.04020  131.91310    0.04270    3.38440    2.50250    0.29840  -25.07310 3488.79070 3437.29940 3475.70580    0.25990
 3600.50000    2.12220    3.37250    3.59770    4.03780    4.11380   12.15600   12.14020    0.12350   89.40680  178.12550  129.74640    0.03900    3.35010    2.50000    0.29640  -25.00750 3488.94620 3436.95330 3476.47960    0.25600
 3601.00000    2.12260    3.38130    3.60160    4.04090    4.11960   12.16880   12.18820    0.12420   89.47970  176.99390  126.04030    0.03540    3.35740    2.49750    0.29620  -24.28860 3440.01460 3436.60730 3477.25330    0.24760
 3601.50000    2.13250    3.39020    3.65740    4.04410    4.13420   12.17790   12.22730    0.12450   89.29020  178.14180  123.03300    0.03290    3.36660    2.49750    0.29490  -23.85920 3391.08290 3436.26120 3478.02700    0.25160
 3602.00000    2.14200    3.39900    3.69520    4.04310    4.14870   12.23810   12.23800    0.12110   89.34130  177.73390  124.92360    0.03060    3.37590    2.50330    0.29530  -23.62280 3424.21070 3462.71350 3478.64600    0.25830
