~Version ---------------------------------------------------
VERS.   2.0 : CWLS log ASCII Standard -VERSION 2.0
WRAP.    NO : One line per depth step
DLM . SPACE : Column Data Section Delimiter
~Well ------------------------------------------------------
STRT .FT               1450.0 : START DEPTH
STOP .FT               9380.0 : STOP DEPTH
STEP .FT                  0.5 : STEP
NULL .               -9999.25 : NULL VALUE
COMP .                        : COMPANY
WELL .                        : WELL
FLD  .                        : FIELD
LOC  .                        : LOCATION
PROV .                        : PROVINCE
CNTY .                        : COUNTY
STAT .                        : STATE
CTRY .                        : COUNTRY
SRVC .                        : SERVICE COMPANY
DATE .                        : DATE
UWI  .                        : UNIQUE WELL ID
API  .                        : API NUMBER
SLAT .WGS84 4.551584023272596 : SURFACE LATITUDE
SLON .WGS84 2.128099622465001 : SURFACE LONGITUDE
DATUM.F                   nan : DEPTH DATUM ELEV
~Curve Information -----------------------------------------
DEPT   .FT    : 
AT10   .OHMM  : ARRAY INDUCTION TWO FOOT RESISTIVITY A10
AT20   .OHMM  : ARRAY INDUCTION TWO FOOT RESISTIVITY A20
AT30   .OHMM  : ARRAY INDUCTION TWO FOOT RESISTIVITY A30
AT60   .OHMM  : ARRAY INDUCTION TWO FOOT RESISTIVITY A60
AT90   .OHMM  : ARRAY INDUCTION TWO FOOT RESISTIVITY A90
CALR   .IN    : CALIPER FROM RESISTIVITY LOG
CALS   .IN    : CALIPER FROM SONIC LOG
DPHZ_LS.DEC   : HGRD STANDARD RESOLUTION DENSITY POROSITY
DTCO   .US/F  : DELTA-T COMPRESSIONAL
DTSM   .US/F  : DELTA-T SHEAR
GRD    .GAPI  : GAMMA RAY FROM DENSITY LOG
HDRA   .G/C3  : HRDD SPINE AND RIBS DENSITY CORRECTION
PEFZ   .B/E   : HRDD STANDARD RESOLUTION FORMATION PHOTOELECTRIC FACTOR
RHOZ   .G/C3  : HRDD STANDARD RESOLUTION FORMATION DENSITY
SPHI_LS.DEC   : SONIC POROSITY [LIMESTONE]
SPR    .MV    : SPONTANEOUS POTENTIAL FROM RESISTIVITY LOG
TEND   .LB    : TENSION FROM DENSITY LOG
TENR   .LB    : TENSION FROM RESISTIVITY LOG
TENS   .LB    : TENSION FROM SONIC LOG
TNPH_LS.DEC   : THERMAL NEUTRON POROSITY [LIMESTONE]
~Params ----------------------------------------------------
~Other -----------------------------------------------------
~ASCII -----------------------------------------------------
# ...
 7732.50000    1.25340    1.90080    2.10370    2.37390    2.33250   11.73200   11.69150    0.20310   96.05920  210.58940  107.90730    0.08360    3.36740    2.36320   -9999.25   11.54030 4526.47390 4540.25690 4534.36850    0.37360
 7733.00000    1.28010    1.93050    2.15550    2.46000    2.41710   11.87060   11.78000    0.19380   96.10670  213.11470  106.68700    0.07900    3.29980    2.37870   -9999.25   11.54020 4483.39540 4536.73540 4534.36850    0.38460
 7733.50000    1.31140    2.00480    2.23120    2.56810    2.52330   12.01460   12.03720    0.18720   95.85830  217.32350  103.43380    0.07180    3.26920    2.39060   -9999.25   11.14560 4445.80220 4533.21380 4534.36850    0.39800
 7734.00000    1.30890    2.04930    2.24580    2.53700    2.49280   11.89980   11.90310    0.18500   95.54930  213.12490  101.16030    0.06700    3.26550    2.39270   -9999.25   11.14020 4498.28010 4529.69230 4534.36850    0.40770
 7734.50000    1.30280    2.05330    2.23050    2.50920    2.46550   11.80470   11.87390    0.18640   95.38220  208.86940  101.27190    0.06610    3.24270    2.39100   -9999.25   10.73900 4532.37550 4526.17080 4534.36850    0.37850
 7735.00000    1.29480    2.05740    2.22150    2.49360    2.45010   11.65100   11.60170    0.19000   95.57910  209.37260  104.98350    0.06510    3.23180    2.38450   -9999.25   10.74690 4493.55180 4506.40440 4534.36850    0.34890
 7735.50000    1.29460    2.06140    2.19590    2.48100    2.43770   11.99390   12.01000    0.19260   95.48400  210.16280  105.40730    0.06420    3.23330    2.38040   -9999.25   10.85160 4528.01300 4512.61100 4544.59040    0.32520
 7736.00000    1.30370    2.06540    2.21810    2.53030    2.48620   11.95710   11.91470    0.19680   95.44120  211.01700  103.55160    0.06620    3.24250    2.37360   -9999.25   11.14890 4529.78040 4530.86120 4551.19760    0.33870
 7736.50000    1.31900    2.06950    2.24600    2.59230    2.54710   11.92810   11.91470    0.20490   95.44240  205.89630  101.87320    0.06900    3.26860    2.35860   -9999.25   11.15430 4531.54770 4574.01100 4545.19470    0.35410
 7737.00000    1.32500    2.07350    2.26810    2.58480    2.53970   12.17200   12.12890    0.22080   95.38410  207.86050  101.36620    0.07170    3.36010    2.33520   -9999.25   11.15980 4520.06890 4531.90150 4539.19190    0.38290
 7737.50000    1.32470    2.07510    2.29030    2.57100    2.52610   11.96490   11.94190    0.23100   95.62410  212.77100  102.36070    0.07450    3.45160    2.31440   -9999.25   11.55440 4505.27850 4521.27220 4535.52430    0.36010
 7738.00000    1.31140    2.07510    2.24590    2.52500    2.48100   11.81600   11.81820    0.22930   95.84590  212.68360  101.64740    0.09020    3.54440    2.32020   -9999.25   11.45200 4499.26720 4533.06450 4541.19740    0.36160
 7738.50000    1.30350    2.05650    2.20140    2.47540    2.43220   11.85940   11.75090    0.21070   95.69390  214.23130  100.06320    0.09350    3.58050    2.35510   -9999.25   11.32410 4532.37550 4532.24900 4546.87060    0.40030
 7739.00000    1.29740    2.03310    2.19110    2.45100    2.40820   11.96840   11.94950    0.19260   95.22920  211.22610   98.48520    0.08180    3.50950    2.38190   -9999.25   11.19620 4510.17760 4543.76340 4552.54370    0.42130
 7739.50000    1.32090    2.03690    2.24750    2.54140    2.49710   12.07740   12.08340    0.18300   94.85010  206.98370  100.49480    0.06160    3.43200    2.39740   -9999.25   11.06830 4531.99780 4528.49890 4551.74980    0.40430
 7740.00000    1.35730    2.10280    2.32010    2.67020    2.62360   12.12100   12.15990    0.17350   94.43100  202.85480  102.76100    0.05640    3.42350    2.41340   -9999.25   10.84040 4509.76670 4523.03400 4546.64450    0.37020
 7740.50000    1.38800    2.16870    2.39280    2.75020    2.70220   11.84580   12.00910    0.16890   94.22850  200.90050  102.87620    0.05360    3.43090    2.42110   -9999.25   10.74540 4524.47360 4524.28610 4541.53910    0.36090
 7741.00000    1.36180    2.12360    2.37550    2.66930    2.62280   12.02840   11.93380    0.17180   94.00400  205.79480  101.88760    0.05070    3.38870    2.41770   -9999.25   10.85190 4521.59090 4535.61380 4536.43380    0.37840
 7741.50000    1.33420    2.07970    2.31090    2.57860    2.53360   12.22970   12.23120    0.17940   93.65170  204.34600  101.86180    0.04870    3.33010    2.40300   -9999.25   11.14930 4471.19120 4550.33860 4532.78100    0.37900
 7742.00000    1.31720    2.04930    2.25410    2.51740    2.47340   12.05410   12.12050    0.18680   93.67140  203.44820  103.51040    0.05200    3.32740    2.39010   -9999.25   11.47390 4531.72660 4548.21380 4530.09660    0.36400
 7742.50000    1.32180    2.08860    2.31320    2.56110    2.51650   12.12390   12.13090    0.18580   93.71100  204.14870  104.35890    0.05850    3.34840    2.39170   -9999.25   11.55470 4528.65920 4517.41750 4527.41220    0.35350
 7743.00000    1.35800    2.12780    2.37230    2.66780    2.62120   12.14260   12.14010    0.17890   93.30430  204.49250  102.18270    0.06280    3.36950    2.40610   -9999.25   11.55470 4525.59170 4538.97270 4524.72780    0.34060
 7743.50000    1.35670    2.11140    2.36050    2.65310    2.60680   12.14190   12.16170    0.17550   92.99520  206.76910   98.90060    0.07920    3.39030    2.40960   -9999.25   11.39570 4509.49110 4505.38690 4519.08850    0.33600
 7744.00000    1.33150    2.10750    2.30150    2.57010    2.52530   12.06030   12.06070    0.18230   93.62170  205.64480   95.52830    0.07890    3.38970    2.39780   -9999.25   11.06170 4454.04300 4499.11500 4512.71050    0.35120
 7744.50000    1.33500    2.10360    2.32910    2.60060    2.55520   12.07440   12.05520    0.18950   94.11610  198.34690   99.22900    0.07590    3.33090    2.38520   -9999.25   10.98100 4455.72130 4487.80690 4506.33250    0.35830
 7745.00000    1.35100    2.10130    2.37260    2.66730    2.62080   12.05680   12.08360    0.19310   94.57150  199.15610  101.16370    0.07330    3.30950    2.37980   -9999.25   10.90040 4471.80600 4505.27580 4506.05060    0.36180
 7745.50000    1.35180    2.11090    2.37350    2.62710    2.58130   12.00510   12.06300    0.20000   94.02450  206.30540  103.16660    0.07260    3.29520    2.36580   -9999.25   10.81970 4481.23630 4505.88610 4511.72390    0.34330
 7746.00000    1.33570    2.12300    2.36610    2.56640    2.52170   12.00930   11.99890    0.20690   93.32870  204.90320  103.14280    0.07460    3.26710    2.35600   -9999.25   10.73910 4514.35460 4522.15750 4517.39720    0.36570
 7746.50000    1.35490    2.16650    2.45090    2.66590    2.61940   12.07730   12.06650    0.20190   93.01890  201.36490  102.48480    0.07490    3.22760    2.36340   -9999.25   10.74150 4496.36910 4491.20470 4523.07060    0.37730
 7747.00000    1.39500    2.23100    2.55690    2.83470    2.78530   11.97500   12.07740    0.18840   93.36910  198.82210  101.95030    0.07250    3.19320    2.38360   -9999.25   10.74400 4466.39330 4489.52480 4524.97890    0.38430
 7747.50000    1.40560    2.29550    2.55410    2.84900    2.79930   12.08120   12.07750    0.17680   93.37530  204.98290   97.78630    0.06300    3.16510    2.40350   -9999.25   10.74640 4478.38360 4507.38990 4534.93190    0.37290
 7748.00000    1.35450    2.24720    2.40930    2.69660    2.64960   12.09620   12.13030    0.17800   93.90540  209.08850   95.28070    0.05410    3.15100    2.40690   -9999.25   10.74890 4508.35940 4523.65060 4544.88500    0.34590
 7748.50000    1.31130    2.16620    2.30750    2.53870    2.49440   12.12720   12.10170    0.18340   95.03790  207.31990   93.69280    0.05070    3.13690    2.39850   -9999.25   10.75130 4531.74780 4540.94190 4554.83810    0.35300
 7749.00000    1.30790    2.08510    2.32830    2.60110    2.55580   12.13650   12.08530    0.18880   95.96390  206.92720   96.63120    0.04730    3.12560    2.38860   -9999.25   10.85160 4528.78650 4498.92840 4541.98680    0.36160
 7749.50000    1.31140    2.01110    2.33660    2.62140    2.57570   12.09110   12.06880    0.19320   96.57610  210.71540   98.94620    0.05010    3.14100    2.38230   -9999.25   11.18220 4525.82510 4479.00020 4535.63630    0.37370
