~Version ---------------------------------------------------
VERS.   2.0 : CWLS log ASCII Standard -VERSION 2.0
WRAP.    NO : One line per depth step
DLM . SPACE : Column Data Section Delimiter
~Well ------------------------------------------------------
STRT .FT               1450.0 : START DEPTH
STOP .FT               9380.0 : STOP DEPTH
STEP .FT                  0.5 : STEP
NULL .               -9999.25 : NULL VALUE
COMP .                        : COMPANY
WELL .                        : WELL
FLD  .                        : FIELD
LOC  .                        : LOCATION
PROV .                        : PROVINCE
CNTY .                        : COUNTY
STAT .                        : STATE
CTRY .                        : COUNTRY
SRVC .                        : SERVICE COMPANY
DATE .                        : DATE
UWI  .                        : UNIQUE WELL ID
API  .                        : API NUMBER
SLAT .WGS84 4.551584023272596 : SURFACE LATITUDE
SLON .WGS84 2.128099622465001 : SURFACE LONGITUDE
DATUM.F                   nan : DEPTH DATUM ELEV
~Curve Information -----------------------------------------
DEPT   .FT    : 
AT10   .OHMM  : ARRAY INDUCTION TWO FOOT RESISTIVITY A10
AT20   .OHMM  : ARRAY INDUCTION TWO FOOT RESISTIVITY A20
AT30   .OHMM  : ARRAY INDUCTION TWO FOOT RESISTIVITY A30
AT60   .OHMM  : ARRAY INDUCTION TWO FOOT RESISTIVITY A60
AT90   .OHMM  : ARRAY INDUCTION TWO FOOT RESISTIVITY A90
CALR   .IN    : CALIPER FROM RESISTIVITY LOG
CALS   .IN    : CALIPER FROM SONIC LOG
DPHZ_LS.DEC   : HGRD STANDARD RESOLUTION DENSITY POROSITY
DTCO   .US/F  : DELTA-T COMPRESSIONAL
DTSM   .US/F  : DELTA-T SHEAR
GRD    .GAPI  : GAMMA RAY FROM DENSITY LOG
HDRA   .G/C3  : HRDD SPINE AND RIBS DENSITY CORRECTION
PEFZ   .B/E   : HRDD STANDARD RESOLUTION FORMATION PHOTOELECTRIC FACTOR
RHOZ   .G/C3  : HRDD STANDARD RESOLUTION FORMATION DENSITY
SPHI_LS.DEC   : SONIC POROSITY [LIMESTONE]
SPR    .MV    : SPONTANEOUS POTENTIAL FROM RESISTIVITY LOG
TEND   .LB    : TENSION FROM DENSITY LOG
TENR   .LB    : TENSION FROM RESISTIVITY LOG
TENS   .LB    : TENSION FROM SONIC LOG
TNPH_LS.DEC   : THERMAL NEUTRON POROSITY [LIMESTONE]
~Params ----------------------------------------------------
~Other -----------------------------------------------------
~ASCII -----------------------------------------------------
# ...
 6175.00000    1.63080    3.21410    4.01950    5.05050    4.75700   12.88360   12.93780    0.20220   84.14600  167.39070  119.65230    0.08180    3.61690    2.35940    0.25960   -9.57420 4145.20190 4187.82560 4186.39990    0.33360
 6175.50000    1.63010    3.17130    4.01950    5.11400    4.81530   12.78580   12.81450    0.20550   84.25770  168.59110  120.41330    0.07460    3.68250    2.36040    0.26000   -9.57420 4217.05500 4220.96520 4218.88270    0.33710
 6176.00000    1.61850    3.12840    3.95210    5.11400    4.87360   12.86730   12.89680    0.20450   84.59050  170.37960  120.34420    0.06640    3.76370    2.35770    0.26360   -9.57420 4136.08090 4163.86440 4232.65720    0.32970
 6176.50000    1.59970    3.08550    3.84940    5.00610    4.84770   13.08750   13.16420    0.20840   85.58590  171.25610  121.82230    0.06750    3.83880    2.35580    0.26980   -9.57420 4048.03560 4107.65820 4204.07510    0.32560
 6177.00000    1.58660    3.06550    3.80430    4.89820    4.84120   13.62390   13.54960    0.20420   85.29600  171.84910  119.35970    0.07110    3.85010    2.36300    0.26610   -9.57420 4072.19870 4136.52490 4175.49300    0.32260
 6177.50000    1.56990    3.07340    3.79420    4.85180    4.91710   13.20370   13.15370    0.20040   85.20990  172.94550  116.83180    0.07400    3.80750    2.37150    0.26700   -9.84620 4096.36190 4146.73310 4151.32660    0.33160
 6178.00000    1.58220    3.08130    3.85930    4.92520    4.99310   13.03040   13.01040    0.19190   85.43180  172.65110  117.26310    0.07710    3.76510    2.38280    0.26860  -10.08650 4106.39060 4154.50030 4144.82280    0.31320
 6178.50000    1.58420    3.08920    3.81880    4.91230    5.02220   12.83790   13.00770    0.19460   85.61500  172.98660  121.54100    0.08020    3.77260    2.37660    0.26940  -10.38700 4095.21760 4080.70440 4138.31910    0.33540
 6179.00000    1.56990    3.07810    3.77830    4.84730    4.93990   13.08480   13.06210    0.19700   85.85440  173.17710  125.28520    0.07850    3.79980    2.37330    0.27050  -10.14150 4094.57610 4110.58640 4131.81530    0.34770
 6179.50000    1.56990    3.06690    3.74610    4.78240    4.85760   12.89450   12.97770    0.19650   86.96220  173.33110  125.96340    0.07840    3.77670    2.37440    0.27980  -10.60990 4109.73170 4172.02820 4143.79530    0.36420
 6180.00000    1.57200    3.05580    3.77710    4.74350    4.85330   13.39290   13.50510    0.19680   86.39580  174.02190  126.48800    0.07830    3.74750    2.36750    0.27380  -10.43710 4101.68250 4104.00230 4150.01780    0.34280
 6180.50000    1.58260    3.06030    3.78120    4.74350    4.88370   13.38110   13.35440    0.20340   86.12380  174.17800  124.18330    0.08650    3.77440    2.35940    0.27190  -10.69170 4067.23610 4089.44440 4147.86950    0.31800
 6181.00000    1.59670    3.12750    3.82060    4.77330    4.91410   12.98970   13.00770    0.20890   85.51830  174.93820  122.27920    0.09620    3.83870    2.35530    0.26820  -10.89070 4135.77990 4165.65130 4145.72120    0.32240
 6181.50000    1.61750    3.19470    3.84860    4.79160    4.94450   13.21390   13.25270    0.19630   85.67400  175.00450  128.23400    0.10220    3.90300    2.37580    0.27180  -10.58610 4131.40810 4182.07250 4153.45020    0.32790
 6182.00000    1.63440    3.24220    3.91670    4.88300    4.97480   12.90810   12.92550    0.18130   86.80350  173.10460  124.12720    0.10020    3.92840    2.39880    0.27850  -10.48770 4127.03640 4198.49370 4155.48350    0.32420
 6182.50000    1.63360    3.20580    3.98490    4.95620    5.00520   12.94150   12.95420    0.17490   85.44240  171.94360  123.66520    0.08690    3.86180    2.41200    0.26540  -10.67370 4122.66460 4171.16700 4157.51680    0.31720
 6183.00000    1.62690    3.16940    3.90280    4.75670    4.90780   12.99710   13.00400    0.18710   84.24830  171.35670  119.14130    0.08510    3.84050    2.39090    0.26180  -10.60220 4138.41330 4179.70400 4152.64120    0.31300
 6183.50000    1.61360    3.13290    3.80170    4.59710    4.74530   13.01680   13.01350    0.19640   85.85930  171.49760  121.93260    0.08730    3.83860    2.37440    0.27260  -10.53070 4167.57560 4228.28500 4160.52590    0.31540
 6184.00000    1.61720    3.09180    3.80250    4.59750    4.77410   13.08480   13.07100    0.18650   86.33430  171.67360  125.06530    0.09040    3.79970    2.39340    0.27430  -10.58280 4138.90240 4200.98650 4168.41060    0.31280
 6184.50000    1.60830    3.04760    3.82340    4.67020    4.82200   13.03430   12.96890    0.16470   86.63800  172.49040  129.02160    0.09370    3.72580    2.42410    0.27700  -11.05760 4141.41560 4179.35730 4176.29530    0.31300
 6185.00000    1.60900    3.00340    3.75250    4.66770    4.78600   12.90810   12.99400    0.15820   86.60480  174.20650  127.29470    0.09540    3.65270    2.44070    0.27540  -11.47170 4143.92880 4179.35730 4173.71250    0.32380
 6185.50000    1.57040    3.03120    3.63290    4.48330    4.64810   12.90810   12.89880    0.16620   85.93190  175.04580  126.35530    0.09390    3.58720    2.42720    0.27050  -11.69190 4146.44200 4172.20420 4175.33830    0.33240
 6186.00000    1.58250    3.11240    3.61160    4.71730    4.94100   13.82550   13.58200    0.17350   85.50870  174.48070  127.54060    0.09380    3.51720    2.41400    0.26800  -11.64390 4168.33520 4213.38890 4176.96410    0.32290
 6186.50000    1.63000    3.21230    4.02020    5.30240    5.47510   13.89350   14.02850    0.17970   85.03350  173.06790  130.14550    0.09360    3.50140    2.40220    0.26420  -12.03630 4136.65420 4210.84870 4173.47320    0.31500
 6187.00000    1.67090    3.27160    4.26540    5.65340    5.79560   13.16640   13.15410    0.17990   84.19920  172.06060  125.20520    0.09470    3.48560    2.40440    0.25840  -11.79270 4136.65420 4151.95240 4161.64300    0.31110
 6187.50000    1.66470    3.31370    4.26540    5.44730    5.52080   12.98720   12.96070    0.17930   84.31690  171.36410  123.16570    0.09710    3.47800    2.40420    0.26070  -11.72540 4136.65420 4148.36440 4157.89770    0.32180
 6188.00000    1.65860    3.25040    4.17710    5.27680    5.31460   12.80800   12.86200    0.18080   84.79430  171.60980  121.19830    0.09920    3.50350    2.40020    0.26370  -12.10270 4136.65420 4166.62270 4154.15240    0.31450
 6188.50000    1.63220    3.11690    3.88870    5.12740    5.20030   12.96250   12.73540    0.20070   88.01990  173.80850  122.29790    0.09180    3.51370    2.36250    0.29120  -10.43840 4136.65420 4161.41510 4155.29800    0.31640
 6189.00000    1.59770    2.98330    3.64460    4.70910    4.80510   13.13010   13.15910    0.22640   87.97040  178.28800  123.93140    0.08060    3.52910    2.31620    0.28470  -10.41400 4136.65420 4164.28750 4161.90750    0.31760
 6189.50000    1.55620    2.98000    3.40050    4.29080    4.40990   13.46540   13.44520    0.24190   87.83980  179.62950  123.98980    0.09380    3.51230    2.29690    0.28530  -10.38970 4136.65420 4154.83250 4168.51690    0.32760
 6190.00000    1.59350    3.07080    3.55030    4.39500    4.55040   13.13920   13.15740    0.23310   88.39410  181.28770  124.40950    0.11030    3.43670    2.31790    0.28840   -9.92360 4136.65420 4188.01340 4175.12630    0.32110
 6190.50000    1.64410    3.17760    3.86970    4.65550    4.90170   13.35660   13.36150    0.21770   87.21250  181.17960  125.35920    0.11100    3.32230    2.33850    0.27970   -9.29450 4220.74500 4200.14540 4181.73570    0.30970
 6191.00000    1.67260    3.23160    3.94370    4.86390    4.97200   12.55470   12.55850    0.21750   85.82050  179.44130  125.65580    0.10470    3.22770    2.33860    0.26880   -9.35170 4136.69210 4197.13160 4188.34510    0.29970
 6191.50000    1.67650    3.28560    3.91930    4.86390    4.97200   12.42700   12.41580    0.20980   84.96070  178.24120  126.26020    0.09840    3.22350    2.35170    0.26460   -9.78860 4164.88240 4220.80150 4194.95450    0.29830
 6192.00000    1.67630    3.33110    3.95180    4.86390    4.89840   12.41880   12.32630    0.19930   85.36780  177.66660  123.34270    0.10080    3.24220    2.36790    0.26870  -10.61670 4160.33560 4183.08290 4181.05110    0.29750
