~Version ---------------------------------------------------
VERS.   2.0 : CWLS log ASCII Standard -VERSION 2.0
WRAP.    NO : One line per depth step
DLM . SPACE : Column Data Section Delimiter
~Well ------------------------------------------------------
STRT .FT               1450.0 : START DEPTH
STOP .FT               9380.0 : STOP DEPTH
STEP .FT                  0.5 : STEP
NULL .               -9999.25 : NULL VALUE
COMP .                        : COMPANY
WELL .                        : WELL
FLD  .                        : FIELD
LOC  .                        : LOCATION
PROV .                        : PROVINCE
CNTY .                        : COUNTY
STAT .                        : STATE
CTRY .                        : COUNTRY
SRVC .                        : SERVICE COMPANY
DATE .                        : DATE
UWI  .                        : UNIQUE WELL ID
API  .                        : API NUMBER
SLAT .WGS84 4.551584023272596 : SURFACE LATITUDE
SLON .WGS84 2.128099622465001 : SURFACE LONGITUDE
DATUM.F                   nan : DEPTH DATUM ELEV
~Curve Information -----------------------------------------
DEPT   .FT    : 
AT10   .OHMM  : ARRAY INDUCTION TWO FOOT RESISTIVITY A10
AT20   .OHMM  : ARRAY INDUCTION TWO FOOT RESISTIVITY A20
AT30   .OHMM  : ARRAY INDUCTION TWO FOOT RESISTIVITY A30
AT60   .OHMM  : ARRAY INDUCTION TWO FOOT RESISTIVITY A60
AT90   .OHMM  : ARRAY INDUCTION TWO FOOT RESISTIVITY A90
CALR   .IN    : CALIPER FROM RESISTIVITY LOG
CALS   .IN    : CALIPER FROM SONIC LOG
DPHZ_LS.DEC   : HGRD STANDARD RESOLUTION DENSITY POROSITY
DTCO   .US/F  : DELTA-T COMPRESSIONAL
DTSM   .US/F  : DELTA-T SHEAR
GRD    .GAPI  : GAMMA RAY FROM DENSITY LOG
HDRA   .G/C3  : HRDD SPINE AND RIBS DENSITY CORRECTION
PEFZ   .B/E   : HRDD STANDARD RESOLUTION FORMATION PHOTOELECTRIC FACTOR
RHOZ   .G/C3  : HRDD STANDARD RESOLUTION FORMATION DENSITY
SPHI_LS.DEC   : SONIC POROSITY [LIMESTONE]
SPR    .MV    : SPONTANEOUS POTENTIAL FROM RESISTIVITY LOG
TEND   .LB    : TENSION FROM DENSITY LOG
TENR   .LB    : TENSION FROM RESISTIVITY LOG
TENS   .LB    : TENSION FROM SONIC LOG
TNPH_LS.DEC   : THERMAL NEUTRON POROSITY [LIMESTONE]
~Params ----------------------------------------------------
~Other -----------------------------------------------------
~ASCII -----------------------------------------------------
# ...
 4092.50000    3.18830    5.09320    5.03640    5.63810    7.49560   12.40520   12.41310    0.10410   77.67140  136.93910   97.50260    0.04580    3.39610    2.53630    0.21310  -35.40870 3563.29300 3595.90540 3595.87520    0.15090
 4093.00000    3.07420    4.72660    4.65650    4.89020    6.12070   12.43260   12.37560    0.11650   79.31190  141.66310  104.36610    0.05740    3.37070    2.52010    0.22440  -35.59650 3562.25170 3582.73860 3597.03950    0.16260
 4093.50000    2.89090    4.36010    3.94130    4.04310    4.98210   12.46580   12.45050    0.12800   80.31220  146.48050  109.12950    0.07630    3.42390    2.49730    0.23140  -36.70180 3561.21040 3590.47280 3598.20380    0.17510
 4094.00000    3.00010    4.47500    3.78500    3.65810    4.63990   12.71860   12.74310    0.13080   81.40860  147.51010  111.42820    0.07400    3.51280    2.48610    0.23970  -40.28100 3560.16910 3598.20700 3599.36810    0.18680
 4094.50000    3.25360    5.04970    3.76290    3.45270    4.11540   12.31950   12.37840    0.13510   80.00400  147.19580  110.37840    0.06910    3.52250    2.48030    0.22880  -43.63250 3559.12780 3587.59960 3600.53250    0.19810
 4095.00000    3.58720    5.62430    3.74080    3.24730    3.81740   12.09200   12.02600    0.13150   76.05760  146.53630  102.73020    0.03360    3.47940    2.48270    0.20130  -47.76940 3558.08650 3595.16650 3601.69680    0.18700
 4095.50000    3.76760    5.85420    3.68110    3.18680    3.41300   12.07030   11.98770    0.12600   71.35400  138.31670   88.27860    0.02020    3.42570    2.49270    0.16710  -51.90640 3557.04520 3602.73340 3615.77460    0.16270
 4096.00000    3.49170    4.97170    3.27720    2.87070    2.80030   12.08330   12.09660    0.11990   69.88990  132.40780   73.11430    0.01600    3.39370    2.50510    0.15850  -57.36730 3556.00390 3610.30040 3615.14510    0.14450
 4096.50000    3.21590    4.08930    2.85810    2.41020    2.18760   12.18220   12.19870    0.12890   69.70500  130.04270   61.45050    0.01850    3.43200    2.48830    0.15700  -62.82810 3554.96260 3612.12210 3611.99150    0.13610
 4097.00000    2.94000    3.20680    2.46610    2.00110    1.88380   12.16350   12.15760    0.15130   69.05370  127.65770   62.22230    0.02210    3.41380    2.45160    0.15210  -68.10560 3553.92130 3606.09670 3608.83800    0.14240
 4097.50000    2.70760    2.93730    2.20580    1.79730    1.65030   12.08650   12.03250    0.16480   71.12900  128.08530   67.95450    0.01910    3.38450    2.42880    0.16640  -72.82120 3552.88000 3600.07140 3605.68440    0.15170
 4098.00000    2.73380    2.78810    2.02130    1.72880    1.53820   12.00940   12.02630    0.15360   73.65050  128.54200   73.51160    0.01540    3.35520    2.44400    0.18400  -76.26070 3551.83870 3594.04600 3602.53090    0.14190
 4098.50000    2.63450    2.59510    1.95300    1.57590    1.41550   12.02020   12.02010    0.14370   75.64470  130.68460   73.71910    0.01250    3.29900    2.46150    0.19930  -80.53230 3550.79740 3588.02070 3599.37730    0.13080
 4099.00000    2.42050    2.39050    1.79310    1.47040    1.30240   12.00800   12.01400    0.15000   77.14820  132.75650   71.60200    0.01180    3.23040    2.45620    0.20930  -82.81280 3549.75610 3596.14910 3596.22380    0.13270
 4099.50000    2.11950    2.18590    1.67040    1.35370    1.18930   12.01320   12.02460    0.16150   78.37960  134.54320   77.55980    0.00860    3.17880    2.42700    0.21800  -85.09320 3548.71480 3586.21370 3593.07020    0.13930
 4100.00000    1.95940    1.98130    1.59650    1.29850    1.15550   11.99840   11.98300    0.18810   79.79340  136.54500   84.50810    0.00540    3.10770    2.38870    0.22830  -87.37370 3547.67350 3576.27830 3539.41500    0.16390
 4100.50000    1.81440    1.85390    1.52260    1.26500    1.13420   12.01240   11.94180    0.20200   80.10600  138.53370   85.89770    0.00220    3.03650    2.36220    0.22990  -89.47980 3546.63220 3566.34290 3548.24250    0.17400
 4101.00000    1.80020    1.83540    1.51820    1.27970    1.14140   12.02640   11.96900    0.21420   78.87940  139.69980   77.68420    0.00030    2.96540    2.34390    0.22140  -91.05500 3545.59090 3566.19190 3557.07000    0.17390
 4101.50000    1.97850    1.85860    1.60670    1.35940    1.20100   11.99830   11.99630    0.19940   77.24080  136.35060   68.52000    0.00190    2.97620    2.36590    0.21010  -91.60540 3544.54960 3585.30820 3578.35600    0.16570
 4102.00000    2.35860    2.06930    1.75760    1.47980    1.30370   11.94670   11.93320    0.17670   76.45840  131.21220   59.41670    0.00590    3.10540    2.40400    0.20400  -92.39540 3543.50830 3591.51210 3590.36680    0.14600
 4102.50000    2.82240    2.28000    1.96080    1.61910    1.42680   11.93680   11.93530    0.15740   74.79810  128.41070   52.45480    0.00890    3.25100    2.43600    0.19300  -93.09800 3542.46700 3608.81060 3602.37760    0.12790
 4103.00000    3.09520    2.49070    2.16390    1.77610    1.53800   11.92660   11.93410    0.15600   73.54490  126.42680   47.77880    0.01110    3.36200    2.44310    0.18420  -93.79310 3541.42570 3626.10900 3614.38840    0.12530
 4103.50000    3.21970    2.69050    2.30900    1.89500    1.64600   11.89600   11.90170    0.15980   73.28250  124.56660   49.94310    0.01330    3.49450    2.43840    0.18210  -94.48830 3540.38440 3638.83870 3615.79080    0.12750
 4104.00000    3.20410    2.69050    2.37340    1.98670    1.71060   11.87940   11.86300    0.15010   74.49150  127.06800   47.63940    0.03160    3.64700    2.45250    0.19070  -94.90540 3539.34310 3620.95250 3610.12100    0.12250
 4104.50000    2.87290    2.67370    2.30150    1.98980    1.73990   11.86410   11.87570    0.14340   75.67850  133.53930   45.24830    0.05390    3.74660    2.46340    0.19920  -94.90540 3538.30180 3616.26560 3604.45110    0.11820
 4105.00000    2.41120    2.58240    2.18160    1.87770    1.67310   11.97040   11.98130    0.15660   76.86380  134.78950   44.62470    0.05390    3.70480    2.45040    0.20740  -94.01600 3537.26050 3629.49490 3598.78130    0.12750
 4105.50000    2.01950    2.45800    2.06180    1.73470    1.59470   11.98540   11.98960    0.17220   77.11890  135.17830   58.09940    0.03300    3.55760    2.41300    0.20870  -92.90410 3536.21920 3608.26020 3585.60060    0.15030
 4106.00000    1.94500    2.37340    1.94200    1.73470    1.60440   12.00830   11.92720    0.17460   76.99320  135.09250   71.57420    0.01770    3.46930    2.41090    0.20790  -91.79230 3535.17790 3587.02540 3580.42130    0.16190
 4106.50000    2.12190    2.69690    2.11850    2.11110    1.82300   12.03650   12.02790    0.15890   76.30530  133.56030   77.71030    0.01170    3.43030    2.42320    0.20330  -92.03730 3534.13660 3553.25040 3575.24200    0.15510
 4107.00000    2.85140    3.27190    2.94020    2.91390    2.34400   12.09830   12.10920    0.14590   74.73820  130.49680   67.57680    0.00770    3.39130    2.45880    0.19260  -93.94510 3533.09530 3565.85700 3584.05410    0.14120
 4107.50000    3.60930    4.18930    3.76190    3.71670    3.31870   12.11270   12.11940    0.13320   71.18250  123.80890   57.44340    0.00400    3.43200    2.48540    0.16750  -95.91960 3532.05400 3571.80270 3590.20590    0.12730
 4108.00000    4.36720    5.10680    4.58350    4.51950    4.29330   12.10940   12.11470    0.12050   68.97610  120.94810   49.86640    0.00030    3.43870    2.50400    0.15220  -96.62360 3531.01270 3567.75700 3593.36080    0.11340
 4108.50000    4.72810    6.02430    5.40520    5.32230    5.26800   12.11270   12.11150    0.11410   67.31330  118.03480   45.40890    0.00040    3.39120    2.51530    0.13980  -98.36060 3529.97140 3602.39030 3596.51560    0.09930
 4109.00000    4.88510    6.96470    6.22690    6.12510    6.24260   12.12060   12.10830    0.11280   66.35750  114.69700   41.14700    0.00080    3.31020    2.51710    0.13280 -100.09760 3528.93010 3610.23430 3599.67050    0.08710
 4109.50000    5.05630    8.29790    6.93970    6.92790    7.21730   12.08990   12.10510    0.11280   65.74390  111.61270   36.67530    0.00110    3.28300    2.51910    0.12850 -100.87660 3527.88880 3591.77190 3596.31690    0.08070
