~Version ---------------------------------------------------
VERS.   2.0 : CWLS log ASCII Standard -VERSION 2.0
WRAP.    NO : One line per depth step
DLM . SPACE : Column Data Section Delimiter
~Well ------------------------------------------------------
STRT .FT               1450.0 : START DEPTH
STOP .FT               9380.0 : STOP DEPTH
STEP .FT                  0.5 : STEP
NULL .               -9999.25 : NULL VALUE
COMP .                        : COMPANY
WELL .                        : WELL
FLD  .                        : FIELD
LOC  .                        : LOCATION
PROV .                        : PROVINCE
CNTY .                        : COUNTY
STAT .                        : STATE
CTRY .                        : COUNTRY
SRVC .                        : SERVICE COMPANY
DATE .                        : DATE
UWI  .                        : UNIQUE WELL ID
API  .                        : API NUMBER
SLAT .WGS84 4.551584023272596 : SURFACE LATITUDE
SLON .WGS84 2.128099622465001 : SURFACE LONGITUDE
DATUM.F                   nan : DEPTH DATUM ELEV
~Curve Information -----------------------------------------
DEPT   .FT    : 
AT10   .OHMM  : ARRAY INDUCTION TWO FOOT RESISTIVITY A10
AT20   .OHMM  : ARRAY INDUCTION TWO FOOT RESISTIVITY A20
AT30   .OHMM  : ARRAY INDUCTION TWO FOOT RESISTIVITY A30
AT60   .OHMM  : ARRAY INDUCTION TWO FOOT RESISTIVITY A60
AT90   .OHMM  : ARRAY INDUCTION TWO FOOT RESISTIVITY A90
CALR   .IN    : CALIPER FROM RESISTIVITY LOG
CALS   .IN    : CALIPER FROM SONIC LOG
DPHZ_LS.DEC   : HGRD STANDARD RESOLUTION DENSITY POROSITY
DTCO   .US/F  : DELTA-T COMPRESSIONAL
DTSM   .US/F  : DELTA-T SHEAR
GRD    .GAPI  : GAMMA RAY FROM DENSITY LOG
HDRA   .G/C3  : HRDD SPINE AND RIBS DENSITY CORRECTION
PEFZ   .B/E   : HRDD STANDARD RESOLUTION FORMATION PHOTOELECTRIC FACTOR
RHOZ   .G/C3  : HRDD STANDARD RESOLUTION FORMATION DENSITY
SPHI_LS.DEC   : SONIC POROSITY [LIMESTONE]
SPR    .MV    : SPONTANEOUS POTENTIAL FROM RESISTIVITY LOG
TEND   .LB    : TENSION FROM DENSITY LOG
TENR   .LB    : TENSION FROM RESISTIVITY LOG
TENS   .LB    : TENSION FROM SONIC LOG
TNPH_LS.DEC   : THERMAL NEUTRON POROSITY [LIMESTONE]
~Params ----------------------------------------------------
~Other -----------------------------------------------------
~ASCII -----------------------------------------------------
# ...
 8257.50000    1.29890    2.05430    2.29030    2.52680    2.48270   11.90080   11.93180    0.19920   95.70700  209.43190  107.66670    0.04320    3.02940    2.36840   -9999.25   12.87980 4662.77110 4695.00390 4677.51300    0.33290
 8258.00000    1.32130    2.13060    2.37660    2.61770    2.57200   12.10420   11.95420    0.19440   94.30120  207.09160  109.29770    0.03970    3.02440    2.37640   -9999.25   13.03660 4676.26030 4688.61630 4688.85740    0.34320
 8258.50000    1.36680    2.20680    2.46290    2.72780    2.66700   12.10670   12.05830    0.18860   93.54800  203.36950  109.32480    0.03970    3.04730    2.38510   -9999.25   13.19340 4676.26030 4685.91120 4700.20180    0.35250
 8259.00000    1.39870    2.28310    2.54920    2.93280    2.80250   11.92770   11.94010    0.18320   93.16720  201.72370  107.85980    0.03780    3.07710    2.39490   -9999.25   13.60110 4676.26030 4683.20610 4707.00850    0.35190
 8259.50000    1.39500    2.29910    2.61820    2.90790    2.81180   11.92050   11.94160    0.18350   93.18570  199.91550  109.47980    0.03580    3.10690    2.39910   -9999.25   13.60110 4676.26030 4680.50100 4695.66410    0.35150
 8260.00000    1.35470    2.24060    2.44690    2.71750    2.67010   11.79020   11.79290    0.18930   93.55140  201.65760  110.19880    0.03650    3.13670    2.39150   -9999.25   13.60110 4676.26030 4677.79590 4684.31980    0.34810
 8260.50000    1.31200    2.14290    2.29540    2.62930    2.58340   11.77140   11.74420    0.19010   94.44720  200.85480  106.76940    0.03810    3.16640    2.38390   -9999.25   13.60110 4676.26030 4675.09080 4672.97540    0.35070
 8261.00000    1.30650    2.04530    2.27540    2.61480    2.56920   11.76720   11.73040    0.18590   96.00370  199.97950  101.98480    0.03980    3.22480    2.39270   -9999.25   13.60110 4649.28190 4675.99410 4670.70760    0.35250
 8261.50000    1.29200    1.94770    2.26680    2.56860    2.52380   11.79140   11.78530    0.17740   97.35160  217.12060   98.16770    0.04150    3.26330    2.40790   -9999.25   13.60110 4659.64970 4685.92080 4676.38070    0.34500
 8262.00000    1.25570    1.86960    2.19800    2.43360    2.39110   11.71220   11.76640    0.18260   97.84200  203.85670   97.14990    0.04180    3.22860    2.40040   -9999.25   13.60110 4672.37740 4687.45530 4682.05390    0.36640
 8262.50000    1.24640    1.85800    2.07640    2.37970    2.33820   11.69070   11.70350    0.19680   98.45560  205.00230   98.53880    0.04020    3.15550    2.37500   -9999.25   13.73730 4667.89540 4683.39500 4687.72710    0.39490
 8263.00000    1.28060    1.90340    2.17710    2.45970    2.41680   11.70710   11.60350    0.21300   98.70710  206.29530  102.41030    0.03790    3.07260    2.34630   -9999.25   13.96390 4663.41340 4705.24870 4680.69670    0.41030
 8263.50000    1.29570    1.96020    2.25260    2.59330    2.54800   11.81420   11.79490    0.21480   98.32470  207.01030  106.82460    0.04030    3.06300    2.34330   -9999.25   13.95480 4659.58810 4714.20460 4670.49050    0.40880
 8264.00000    1.28000    2.01700    2.20170    2.47150    2.42840   11.82330   11.81820    0.21120   98.21660  207.82380  111.30040    0.04430    3.14600    2.34850   -9999.25   13.81880 4656.20040 4680.71220 4660.28420    0.38660
 8264.50000    1.25350    2.00370    2.15070    2.34930    2.30830   11.74300   11.71640    0.20830   97.83300  208.63740  109.28000    0.06190    3.22930    2.35570   -9999.25   13.68290 4652.81270 4677.83720 4650.07800    0.38770
 8265.00000    1.25300    1.94210    2.09970    2.33470    2.29400   11.69730   11.68610    0.20930   97.45640  210.42930  109.51070    0.07890    3.27670    2.35260   -9999.25   13.81550 4649.42500 4684.20980 4655.71680    0.38250
 8265.50000    1.26140    1.90510    2.11740    2.37470    2.33330   11.64930   11.65910    0.21360   97.52380  208.64390  109.48180    0.08180    3.32410    2.34460   -9999.25   14.81030 4660.54920 4683.43370 4659.85100    0.38040
 8266.00000    1.28280    1.96210    2.16410    2.43970    2.39720   11.66020   11.65480    0.21290   97.72100  199.87360  109.37390    0.08230    3.34490    2.34700   -9999.25   14.81030 4662.83700 4682.65750 4663.98530    0.36670
 8266.50000    1.29430    1.99050    2.21070    2.49360    2.45010   11.70050   11.68200    0.20830   97.78090  202.33860  111.79040    0.08230    3.30940    2.35410   -9999.25   14.81030 4673.73550 4681.88140 4668.11950    0.36590
 8267.00000    1.28260    1.98450    2.17870    2.45920    2.41630   11.73400   11.71790    0.20290   97.87270  205.33790  112.17750    0.07060    3.26030    2.36350   -9999.25   14.40960 4604.31790 4666.73080 4672.25380    0.36740
 8267.50000    1.26220    1.95400    2.12530    2.39030    2.34860   11.76420   11.75380    0.20610   98.23860  204.02650  112.23010    0.06500    3.21070    2.35750   -9999.25   13.98340 4644.28590 4667.78600 4676.38800    0.36780
 8268.00000    1.25240    1.92360    2.07190    2.36720    2.32590   11.79430   11.76160    0.21240   98.47650  202.84490  112.12660    0.05810    3.16560    2.34760   -9999.25   13.76650 4676.26030 4668.84120 4680.52230    0.37060
 8268.50000    1.25290    1.89320    2.05060    2.34920    2.30820   11.80800   11.80780    0.21320   98.64820  206.91820  114.08230    0.05370    3.12530    2.34520   -9999.25   13.19350 4676.26030 4655.46800 4684.65660    0.37600
 8269.00000    1.25350    1.89320    2.06350    2.33980    2.29900   11.80860   11.75000    0.20850   98.50660  206.91820  114.51950    0.05210    3.15410    2.35240   -9999.25   13.75780 4680.44640 4665.77810 4698.36620    0.39900
 8269.50000    1.25410    1.88460    2.09870    2.34250    2.30160   11.87510   11.80400    0.20280   98.03320  212.62850  115.72600    0.05270    3.19930    2.36200   -9999.25   14.17850 4701.37690 4680.85010 4714.46970    0.37630
 8270.00000    1.26530    1.90050    2.13390    2.36340    2.32220   11.87250   11.83380    0.19720   97.88240  219.15910  113.33360    0.05470    3.24460    2.37330   -9999.25   14.26370 4722.30740 4714.97010 4730.57330    0.34280
 8270.50000    1.27890    1.91640    2.16910    2.43460    2.39210   11.86990   11.84680    0.19220   97.83770  217.71230  110.98110    0.05670    3.25400    2.38170   -9999.25   14.34890 4674.43800 4719.67670 4721.54530    0.32560
 8271.00000    1.24150    1.92910    2.15260    2.34820    2.30720   11.86730   11.86510    0.19330   97.62090  216.51440  108.91870    0.05720    3.26870    2.37910   -9999.25   14.51910 4656.06160 4693.08780 4701.13090    0.34970
 8271.50000    1.20910    1.89600    2.06770    2.20860    2.17010   11.83470   11.85940    0.20030   97.38910  214.83620  112.87370    0.05950    3.26780    2.36300   -9999.25   14.82490 4657.06720 4678.62040 4680.71650    0.36770
 8272.00000    1.22470    1.85460    2.01270    2.22860    2.18970   11.72430   11.78160    0.21550   97.28380  207.05380  114.67650    0.06170    3.25500    2.34100   -9999.25   14.74330 4648.55960 4682.33530 4668.50840    0.36720
 8272.50000    1.25030    1.85800    2.07710    2.34020    2.29940   11.72100   11.71800    0.22010   97.90270  196.73180  112.49810    0.06390    3.31600    2.33420   -9999.25   14.41710 4671.29410 4686.05010 4668.60980    0.36090
 8273.00000    1.24340    1.88140    2.09390    2.35320    2.31220   11.72130   11.68330    0.21510   99.12990  208.48090  108.39850    0.07690    3.38280    2.34340   -9999.25   14.74390 4671.29410 4683.43650 4668.71120    0.34680
 8273.50000    1.19880    1.83510    2.03920    2.21300    2.17440   11.72170   11.71660    0.21030  100.10610  212.42840  107.14990    0.08120    3.46360    2.35200   -9999.25   14.82300 4635.25260 4679.24080 4668.81260    0.34680
 8274.00000    1.17970    1.81200    1.98450    2.10010    2.06340   11.70620   11.70680    0.20850  100.68350  201.61330  107.80670    0.08110    3.47540    2.35340   -9999.25   14.82060 4667.62760 4677.43200 4668.91410    0.35390
 8274.50000    1.20050    1.83670    1.97620    2.17300    2.13510   11.70750   11.71520    0.21030  100.85390  210.77320  108.64510    0.07890    3.42180    2.35120   -9999.25   14.81830 4665.82730 4660.44400 4669.01550    0.35810
