~Version ---------------------------------------------------
VERS.   2.0 : CWLS log ASCII Standard -VERSION 2.0
WRAP.    NO : One line per depth step
DLM . SPACE : Column Data Section Delimiter
~Well ------------------------------------------------------
STRT .FT               1450.0 : START DEPTH
STOP .FT               9380.0 : STOP DEPTH
STEP .FT                  0.5 : STEP
NULL .               -9999.25 : NULL VALUE
COMP .                        : COMPANY
WELL .                        : WELL
FLD  .                        : FIELD
LOC  .                        : LOCATION
PROV .                        : PROVINCE
CNTY .                        : COUNTY
STAT .                        : STATE
CTRY .                        : COUNTRY
SRVC .                        : SERVICE COMPANY
DATE .                        : DATE
UWI  .                        : UNIQUE WELL ID
API  .                        : API NUMBER
SLAT .WGS84 4.551584023272596 : SURFACE LATITUDE
SLON .WGS84 2.128099622465001 : SURFACE LONGITUDE
DATUM.F                   nan : DEPTH DATUM ELEV
~Curve Information -----------------------------------------
DEPT   .FT    : 
AT10   .OHMM  : ARRAY INDUCTION TWO FOOT RESISTIVITY A10
AT20   .OHMM  : ARRAY INDUCTION TWO FOOT RESISTIVITY A20
AT30   .OHMM  : ARRAY INDUCTION TWO FOOT RESISTIVITY A30
AT60   .OHMM  : ARRAY INDUCTION TWO FOOT RESISTIVITY A60
AT90   .OHMM  : ARRAY INDUCTION TWO FOOT RESISTIVITY A90
CALR   .IN    : CALIPER FROM RESISTIVITY LOG
CALS   .IN    : CALIPER FROM SONIC LOG
DPHZ_LS.DEC   : HGRD STANDARD RESOLUTION DENSITY POROSITY
DTCO   .US/F  : DELTA-T COMPRESSIONAL
DTSM   .US/F  : DELTA-T SHEAR
GRD    .GAPI  : GAMMA RAY FROM DENSITY LOG
HDRA   .G/C3  : HRDD SPINE AND RIBS DENSITY CORRECTION
PEFZ   .B/E   : HRDD STANDARD RESOLUTION FORMATION PHOTOELECTRIC FACTOR
RHOZ   .G/C3  : HRDD STANDARD RESOLUTION FORMATION DENSITY
SPHI_LS.DEC   : SONIC POROSITY [LIMESTONE]
SPR    .MV    : SPONTANEOUS POTENTIAL FROM RESISTIVITY LOG
TEND   .LB    : TENSION FROM DENSITY LOG
TENR   .LB    : TENSION FROM RESISTIVITY LOG
TENS   .LB    : TENSION FROM SONIC LOG
TNPH_LS.DEC   : THERMAL NEUTRON POROSITY [LIMESTONE]
~Params ----------------------------------------------------
~Other -----------------------------------------------------
~ASCII -----------------------------------------------------
# ...
 5650.00000    1.68690    2.95260    3.39310    3.80450    4.07160   13.09800   13.31830    0.19480   83.35070  158.60390  101.98250    0.12300    3.91620    2.37420    0.25350  -11.20590 3923.06980 4005.70980 3991.45230    0.26470
 5650.50000    1.69330    3.06810    3.60270    4.13320    4.34510   13.54650   13.61390    0.19260   83.76770  160.18100  105.30180    0.12490    3.93250    2.38000    0.25700  -11.47190 3926.61440 3997.04660 3996.70840    0.27050
 5651.00000    1.69770    3.07600    3.72840    4.26470    4.52980   13.50570   13.64870    0.18340   84.34020  162.44050  106.00470    0.12110    3.89170    2.39450    0.26160  -11.73800 3930.15900 3943.53160 4001.96450    0.27340
 5651.50000    1.62250    2.88410    3.50760    4.05190    4.18660   13.50570   13.47180    0.18070   85.28170  164.89650  104.84890    0.11720    3.88860    2.40160    0.26750  -11.96710 3933.70350 4008.09240 4007.22060    0.28090
 5652.00000    1.54710    2.69230    3.28680    3.78590    3.91200   13.87270   13.70320    0.19510   85.87680  165.83190  104.57290    0.11400    3.96090    2.37650    0.27170  -11.95400 3937.24810 4004.77140 4008.35860    0.28420
 5652.50000    1.51760    2.72790    3.17720    3.78590    3.99230   13.87270   13.91420    0.20720   86.23160  166.75000  104.15900    0.11130    4.04610    2.35480    0.27330  -11.80070 3940.79270 3964.18870 4008.46710    0.28960
 5653.00000    1.57350    2.91970    3.50620    4.12190    4.39360   13.91800   13.90820    0.21310   85.26980  167.49130  102.31410    0.11050    4.10880    2.34690    0.26520  -12.12560 3944.33720 3969.33930 4008.57560    0.29670
 5653.50000    1.63190    3.04650    3.70360    4.51220    4.74620   13.50570   13.51260    0.19700   84.35950  167.03800  102.90990    0.11250    4.00440    2.37510    0.25980  -12.11910 3947.88180 3974.11760 4008.68410    0.28180
 5654.00000    1.58330    2.91360    3.48400    4.42660    4.46810   13.79120   13.79850    0.17740   83.98430  166.37600  104.70750    0.11150    3.87130    2.40900    0.25790  -12.11260 3951.42640 3992.57470 4008.79260    0.28500
 5654.50000    1.54110    2.78070    3.34850    4.21260    4.00470   13.81150   13.85830    0.16770   83.90430  165.45770  107.14280    0.10030    3.81310    2.42440    0.25810  -11.33280 3954.97090 3999.92630 4008.90110    0.28100
 5655.00000    1.52660    2.78070    3.28490    3.99850    3.85320   14.52510   14.53350    0.17300   84.78120  165.00510  109.06890    0.09080    3.84910    2.41330    0.26420  -11.09330 3958.51550 3995.22250 4009.00960    0.27910
 5655.50000    1.52630    2.78070    3.28490    4.00550    3.80910   14.17170   14.13870    0.18520   85.21520  165.40410  105.66260    0.09330    3.93920    2.39200    0.26690  -10.98880 3962.06010 3982.48160 4009.11820    0.28340
 5656.00000    1.52090    2.80710    3.32930    4.12980    3.80910   14.33480   14.35650    0.19050   85.16470  166.07990  105.00460    0.09760    3.97800    2.38620    0.26540  -10.88440 3965.60470 3972.12490 4009.22670    0.29500
 5656.50000    1.53690    2.87320    3.37360    4.25410    4.02340   13.84330   13.74400    0.18060   84.90110  168.66900  105.73140    0.10270    3.95340    2.40210    0.26330  -11.34130 3969.14920 3974.21470 4009.33520    0.29580
 5657.00000    1.57560    2.93930    3.51900    4.37840    4.23770   14.37560   14.35650    0.16460   84.28680  168.69240  110.18890    0.10430    3.92880    2.42940    0.25900  -11.11230 3972.69380 3997.77760 4014.20080    0.28600
 5657.50000    1.57460    2.99220    3.60620    4.45600    4.23770   13.98820   14.28840    0.16100   84.16460  167.79190  110.87970    0.10600    3.90420    2.43730    0.25970  -10.88330 3976.23840 4015.85170 4016.62210    0.27590
 5658.00000    1.54610    2.90510    3.46170    4.15270    4.08790   13.73680   13.68960    0.17150   84.82760  168.96310  107.84060    0.10540    3.95380    2.41650    0.26520  -10.65430 3979.78290 4017.20270 4013.67500    0.28570
 5658.50000    1.50950    2.79310    3.28110    3.84930    3.90060   13.92710   13.96180    0.18550   86.02640  173.21170  105.51760    0.10510    4.10190    2.39250    0.27380  -10.78080 3983.32750 4014.37290 4010.72790    0.31220
 5659.00000    1.46380    2.68110    3.10060    3.54600    3.71330   13.72320   13.67590    0.18870   86.92710  174.52270  109.46940    0.10530    4.20880    2.38750    0.27930  -10.23750 3985.30690 4011.54310 4008.91250    0.30890
 5659.50000    1.43770    2.63500    2.99220    3.40320    3.56350   13.77760   13.78170    0.18390   87.62890  175.97660  115.59060    0.10320    4.23900    2.39840    0.28410   -9.69410 3985.48030 4035.78240 4011.62390    0.30470
 5660.00000    1.44960    2.62860    3.00460    3.45700    3.60220   13.79120   13.78480    0.18330   87.98860  177.54050  118.39380    0.09550    4.18680    2.39600    0.28620   -9.21630 3985.65360 4037.40650 4014.33540    0.30060
 5660.50000    1.46140    2.62220    3.06620    3.59150    3.69900   13.77080   13.70320    0.19000   87.96120  179.54420  119.67890    0.08870    4.14930    2.38290    0.28450   -8.86690 3985.82690 3996.88540 4014.47210    0.26780
 5661.00000    1.48020    2.63450    3.16310    3.72600    3.79580   13.80480   13.83930    0.19800   87.21950  179.67410  118.99250    0.08560    4.13690    2.37270    0.27980   -9.13170 3986.00020 3993.11980 4013.47950    0.26600
 5661.50000    1.49170    2.64280    3.23560    3.83360    3.89260   13.41060   13.44110    0.19420   87.84880  177.50490  117.49210    0.08170    4.13690    2.37890    0.28620   -9.46550 3986.17360 4006.54660 4026.24120    0.28900
 5662.00000    1.48900    2.65100    3.22700    3.80970    3.91200   13.68920   13.74400    0.19060   88.74760  178.35510  117.19100    0.08260    4.18410    2.38530    0.29240   -9.79930 3986.34690 4034.36740 4039.00290    0.29550
 5662.50000    1.45890    2.61280    3.14180    3.68660    3.81110   13.91350   14.07070    0.20390   89.48860  179.58520  120.02620    0.08850    4.23120    2.35500    0.29720  -10.13300 3986.52020 4058.68580 4049.21280    0.29570
 5663.00000    1.44020    2.59430    3.08270    3.56350    3.68500   14.18530   14.13870    0.22420   90.38240  181.53840  120.88850    0.09350    4.27840    2.32880    0.29950  -10.20010 3986.69360 4042.62380 4032.20030    0.31260
 5663.50000    1.43520    2.57570    3.02370    3.48960    3.68800   13.94070   13.92090    0.21630   90.34280  184.43380  114.41430    0.10930    4.25040    2.34510    0.29960  -10.25270 3986.86690 3991.24230 4015.18780    0.31680
 5664.00000    1.45620    2.61630    3.11310    3.63910    3.75860   14.49790   14.36750    0.18700   90.22310  186.83050  111.04090    0.12590    4.13810    2.38830    0.29950   -9.89500 3987.04020 3966.28990 3998.17520    0.34400
 5664.50000    1.45520    2.61270    3.17700    3.76220    3.70200   14.12420   13.80170    0.17220   90.19520  187.38390  109.09760    0.12070    4.00750    2.41730    0.29950   -9.69390 3987.21360 3964.34310 3989.41550    0.33830
 5665.00000    1.43810    2.57380    3.10890    3.73870    3.56030   13.75040   13.73040    0.17220   90.00490  188.08490  117.10820    0.10240    3.93520    2.41510    0.29940   -9.72790 3987.04380 3967.35340 3996.65120    0.35530
 5665.50000    1.40690    2.53340    3.02280    3.59890    3.41870   13.75040   13.74860    0.17050   90.22480  188.08200  120.30860    0.09140    3.93680    2.41880    0.29930  -10.40770 3989.16750 3990.00870 4003.88690    0.32310
 5666.00000    1.36280    2.48710    2.96380    3.45910    3.31160   14.29410   14.12660    0.16670   90.99290  187.22490  121.08920    0.08540    3.99540    2.42540    0.29930  -10.34150 3973.20430 3980.31150 4006.20320    0.30390
 5666.50000    1.35020    2.46480    2.90480    3.38190    3.37540   14.00860   14.07060    0.16660   91.55750  185.35180  119.14060    0.08730    4.02810    2.42610    0.29920  -10.45150 3884.89360 3962.52600 4001.14040    0.30540
 5667.00000    1.34790    2.44240    2.92020    3.45960    3.53510   14.11350   14.13740    0.17040   89.31510  181.30460  116.71350    0.08920    4.01940    2.42020    0.29240  -10.82750 3896.35860 3973.63560 3996.07760    0.32760
