~Version ---------------------------------------------------
VERS.   2.0 : CWLS log ASCII Standard -VERSION 2.0
WRAP.    NO : One line per depth step
DLM . SPACE : Column Data Section Delimiter
~Well ------------------------------------------------------
STRT .FT               1450.0 : START DEPTH
STOP .FT               9380.0 : STOP DEPTH
STEP .FT                  0.5 : STEP
NULL .               -9999.25 : NULL VALUE
COMP .                        : COMPANY
WELL .                        : WELL
FLD  .                        : FIELD
LOC  .                        : LOCATION
PROV .                        : PROVINCE
CNTY .                        : COUNTY
STAT .                        : STATE
CTRY .                        : COUNTRY
SRVC .                        : SERVICE COMPANY
DATE .                        : DATE
UWI  .                        : UNIQUE WELL ID
API  .                        : API NUMBER
SLAT .WGS84 4.551584023272596 : SURFACE LATITUDE
SLON .WGS84 2.128099622465001 : SURFACE LONGITUDE
DATUM.F                   nan : DEPTH DATUM ELEV
~Curve Information -----------------------------------------
DEPT   .FT    : 
AT10   .OHMM  : ARRAY INDUCTION TWO FOOT RESISTIVITY A10
AT20   .OHMM  : ARRAY INDUCTION TWO FOOT RESISTIVITY A20
AT30   .OHMM  : ARRAY INDUCTION TWO FOOT RESISTIVITY A30
AT60   .OHMM  : ARRAY INDUCTION TWO FOOT RESISTIVITY A60
AT90   .OHMM  : ARRAY INDUCTION TWO FOOT RESISTIVITY A90
CALR   .IN    : CALIPER FROM RESISTIVITY LOG
CALS   .IN    : CALIPER FROM SONIC LOG
DPHZ_LS.DEC   : HGRD STANDARD RESOLUTION DENSITY POROSITY
DTCO   .US/F  : DELTA-T COMPRESSIONAL
DTSM   .US/F  : DELTA-T SHEAR
GRD    .GAPI  : GAMMA RAY FROM DENSITY LOG
HDRA   .G/C3  : HRDD SPINE AND RIBS DENSITY CORRECTION
PEFZ   .B/E   : HRDD STANDARD RESOLUTION FORMATION PHOTOELECTRIC FACTOR
RHOZ   .G/C3  : HRDD STANDARD RESOLUTION FORMATION DENSITY
SPHI_LS.DEC   : SONIC POROSITY [LIMESTONE]
SPR    .MV    : SPONTANEOUS POTENTIAL FROM RESISTIVITY LOG
TEND   .LB    : TENSION FROM DENSITY LOG
TENR   .LB    : TENSION FROM RESISTIVITY LOG
TENS   .LB    : TENSION FROM SONIC LOG
TNPH_LS.DEC   : THERMAL NEUTRON POROSITY [LIMESTONE]
~Params ----------------------------------------------------
~Other -----------------------------------------------------
~ASCII -----------------------------------------------------
# ...
 1502.50000    3.36740    5.82310    4.80830    4.93870    3.88520   12.70820   12.69830    0.20890   98.40630  204.77460   79.77590    0.00490    2.68710    2.35440   -9999.25  -20.32340 2792.86390 2806.35290 2826.15890    0.21440
 1503.00000    3.36790    5.88540    4.78560    4.91860    3.87770   12.75980   12.79980    0.20610   99.26930  205.40850   76.32940    0.00570    2.68430    2.35880   -9999.25  -22.20840 2795.01290 2817.35490 2827.52120    0.22760
 1503.50000    3.36840    5.94780    4.78110    4.90250    3.91330   12.93110   12.93100    0.21040  100.08470  206.98610   76.23210    0.00610    2.65610    2.35090   -9999.25  -24.22990 2797.16190 2813.72490 2828.88350    0.24080
 1504.00000    3.36900    5.82350    4.78110    4.90250    3.96560   12.99290   12.94710    0.21250  100.02760  207.78150   75.71020    0.00350    2.64400    2.34720   -9999.25  -25.71460 2799.31100 2819.70180 2830.24580    0.24480
 1504.50000    3.36950    5.84950    4.93340    4.93340    4.05540   12.95210   12.93620    0.20960   99.56910  207.28340   78.49090    0.00210    2.60470    2.35100   -9999.25  -27.21860 2801.46000 2832.99730 2831.60820    0.24100
 1505.00000    3.37000    5.95140    5.05870    5.07460    4.15960   12.91670   12.92520    0.20070   99.21930  206.34760   77.27690    0.00060    2.60940    2.36650   -9999.25  -28.11000 2803.60900 2835.65500 2832.97050    0.23050
 1505.50000    3.37060    6.02220    5.21990    5.39600    4.35330   12.90690   12.92080    0.19300   98.68360  204.27040   77.64020    0.00060    2.61530    2.38200   -9999.25  -28.88600 2805.75810 2838.31270 2834.33280    0.21600
 1506.00000    3.37110    6.11230    5.48760    5.69750    4.62020   12.91320   12.91060    0.18840   97.86890  201.06330   77.77220    0.00060    2.62120    2.38880   -9999.25  -30.00230 2807.90710 2825.08720 2835.69480    0.21730
 1506.50000    3.44770    6.34430    5.73990    5.99900    4.95360   12.86490   12.85760    0.18760   96.37510  198.40000   77.25880    0.00200    2.62720    2.39000   -9999.25  -31.03970 2810.05620 2811.86170 2837.05680    0.20860
 1507.00000    3.52190    6.56840    5.99220    6.30050    5.33710   12.81480   12.82300    0.19250   95.76670  196.14570   73.56270    0.00400    2.67230    2.38260   -9999.25  -32.06870 2812.20520 2808.43870 2838.41880    0.21220
 1507.50000    3.58660    6.27610    6.05290    6.26110    5.62200   12.79080   12.81490    0.19360   96.32770  194.50470   74.01990    0.00640    2.73050    2.37940   -9999.25  -33.50220 2814.35420 2819.71940 2839.78070    0.21660
 1508.00000    3.67370    6.23700    5.97820    6.01500    5.88160   12.76690   12.79810    0.19260   96.93870  194.62040   75.16290    0.01020    2.78910    2.38130   -9999.25  -34.79240 2816.50330 2850.41890 2841.14270    0.22010
 1508.50000    3.71360    6.27590    5.90350    5.73480    5.68050   12.74290   12.78130    0.19330   97.39050  194.52770   78.97320    0.01150    2.85710    2.38040   -9999.25  -36.32770 2847.36110 2860.08510 2842.50470    0.21950
 1509.00000    3.74620    6.23310    5.84370    5.73480    5.40420   12.82520   12.92900    0.19820   98.28370  193.94310   80.10740    0.01270    2.92270    2.37220   -9999.25  -38.15920 2809.30790 2861.25640 2843.86660    0.21990
 1509.50000    3.77980    6.38600    5.84370    5.66330    5.06300   13.15590   13.21690    0.20600   98.75670  193.35860   83.21740    0.01250    2.99000    2.35650   -9999.25  -39.99080 2835.79780 2862.42780 2845.22860    0.22290
 1510.00000    3.81230    6.46060    5.76390    5.48850    4.92150   12.55600   12.58060    0.21860   98.86520  195.72390   76.35780    0.01060    3.02850    2.33450   -9999.25  -42.33640 2812.90920 2867.03550 2846.59050    0.23270
 1510.50000    3.65090    6.02970    5.36510    5.21040    4.77090   12.35320   12.39680    0.23430   99.18710  198.98530   68.50880    0.00870    2.90750    2.30650   -9999.25  -44.81050 2830.90650 2872.50230 2847.95250    0.23140
 1511.00000    3.42260    5.57830    4.96620    4.77110    4.33710   12.23850   12.21650    0.25130  100.36970  202.10770   58.82660    0.00680    2.75630    2.27430   -9999.25  -46.99640 2848.90390 2886.55630 2851.62870    0.22240
 1511.50000    3.25400    5.12680    4.56730    4.33170    3.87890   12.21690   12.20840    0.26750  102.27260  206.63890   51.88570    0.00460    2.62260    2.24610   -9999.25  -48.75150 2866.90120 2876.29230 2855.88340    0.21880
 1512.00000    3.10690    4.67540    4.16850    3.89240    3.59240   12.14590   12.19870    0.27880  103.55410  208.72080   49.04590    0.00230    2.56560    2.23310   -9999.25  -50.43220 2870.76330 2866.02820 2860.13820    0.22510
 1512.50000    2.97860    4.22400    3.76960    3.45300    3.27520   12.12350   12.18950    0.28140  104.59260  211.86120   49.12430    0.00010    2.56170    2.22920   -9999.25  -51.56930 2859.86330 2860.35570 2864.39290    0.23140
 1513.00000    2.85020    3.84800    3.40750    3.08210    3.02370   12.14820   12.18040    0.28360  105.24790  214.53820   48.23320   -0.00210    2.54220    2.22440   -9999.25  -52.33640 2874.72690 2861.57070 2868.64760    0.23770
 1513.50000    2.82990    3.77340    3.29830    2.98700    2.89870   12.18250   12.19760    0.28870  105.95340  216.51830   45.33160   -0.00440    2.50650    2.21620   -9999.25  -53.10350 2829.73800 2862.54260 2872.90240    0.23280
 1514.00000    2.79710    3.69230    3.22050    2.93130    2.85620   12.19780   12.20950    0.29750  105.66020  217.93910   42.85950   -0.00660    2.46130    2.20180   -9999.25  -53.87070 2821.93370 2857.44830 2877.15710    0.23280
 1514.50000    2.67340    3.43560    3.04500    2.83980    2.71860   12.18150   12.19410    0.30020  105.49310  219.38880   40.35980   -0.00860    2.39520    2.18960   -9999.25  -54.47410 2862.37500 2852.35390 2871.20390    0.22410
 1515.00000    2.54070    3.25600    2.88970    2.65530    2.57630   12.16520   12.17430    0.30040  105.41690  220.50100   39.28480   -0.00830    2.35540    2.18620   -9999.25  -55.00430 2810.17840 2839.31560 2852.06460    0.22190
 1515.50000    2.49850    3.22050    2.84080    2.63480    2.55150   12.16970   12.18670    0.30060  105.32950  219.18110   38.39960   -0.00800    2.35550    2.19330   -9999.25  -55.36610 2809.44150 2826.27740 2832.92530    0.21500
 1516.00000    2.58390    3.30230    2.93840    2.74490    2.65310   12.23300   12.19910    0.29630  105.09990  219.21230   39.94480   -0.00770    2.37860    2.20360   -9999.25  -54.90240 2808.70470 2805.31150 2808.87700    0.20940
 1516.50000    2.70020    3.45010    3.04750    2.85490    2.77670   12.18010   12.19930    0.29200  104.90040  219.15860   43.58680   -0.00720    2.40160    2.21220   -9999.25  -54.68390 2807.96780 2771.98660 2783.69270    0.21390
 1517.00000    2.81640    3.60990    3.15670    2.96500    2.90030   12.12890   12.12190    0.28770  105.09790  219.50370   47.22180   -0.00640    2.41990    2.22030   -9999.25  -54.59660 2807.23090 2782.73550 2797.82810    0.22130
 1517.50000    2.88620    3.68930    3.26110    3.02470    2.96200   12.11390   12.10360    0.28340  105.33100  218.34190   48.89500   -0.00570    2.41880    2.22540   -9999.25  -54.59660 2806.49410 2793.48450 2811.96350    0.22290
 1518.00000    2.88620    3.68050    3.28160    3.00580    2.96200   12.09890   12.10800    0.28670  105.15860  217.40230   47.17220   -0.00470    2.41770    2.21870   -9999.25  -54.82310 2805.75720 2804.23340 2809.45210    0.22440
 1518.50000    2.88350    3.59830    3.22650    2.98700    2.95180   12.06960   12.10280    0.29140  105.65990  216.84860   44.04330   -0.00530    2.35950    2.20950   -9999.25  -55.00430 2788.08960 2814.70740 2795.22740    0.22730
 1519.00000    2.84050    3.51600    3.17150    2.96310    2.90100   12.01840   12.06450    0.29510  105.94940  217.50570   45.78840   -0.00590    2.31050    2.20710   -9999.25  -55.17000 2805.75720 2797.00660 2790.28860    0.23100
 1519.50000    2.83240    3.51600    3.19540    2.93130    2.87050   12.00450   12.02620    0.29120  105.27550  218.71030   46.77370   -0.00650    2.27550    2.21120   -9999.25  -55.44600 2803.43270 2788.56440 2785.34970    0.23480
