~Version ---------------------------------------------------
VERS.   2.0 : CWLS log ASCII Standard -VERSION 2.0
WRAP.    NO : One line per depth step
DLM . SPACE : Column Data Section Delimiter
~Well ------------------------------------------------------
STRT .FT               1450.0 : START DEPTH
STOP .FT               9380.0 : STOP DEPTH
STEP .FT                  0.5 : STEP
NULL .               -9999.25 : NULL VALUE
COMP .                        : COMPANY
WELL .                        : WELL
FLD  .                        : FIELD
LOC  .                        : LOCATION
PROV .                        : PROVINCE
CNTY .                        : COUNTY
STAT .                        : STATE
CTRY .                        : COUNTRY
SRVC .                        : SERVICE COMPANY
DATE .                        : DATE
UWI  .                        : UNIQUE WELL ID
API  .                        : API NUMBER
SLAT .WGS84 4.551584023272596 : SURFACE LATITUDE
SLON .WGS84 2.128099622465001 : SURFACE LONGITUDE
DATUM.F                   nan : DEPTH DATUM ELEV
~Curve Information -----------------------------------------
DEPT   .FT    : 
AT10   .OHMM  : ARRAY INDUCTION TWO FOOT RESISTIVITY A10
AT20   .OHMM  : ARRAY INDUCTION TWO FOOT RESISTIVITY A20
AT30   .OHMM  : ARRAY INDUCTION TWO FOOT RESISTIVITY A30
AT60   .OHMM  : ARRAY INDUCTION TWO FOOT RESISTIVITY A60
AT90   .OHMM  : ARRAY INDUCTION TWO FOOT RESISTIVITY A90
CALR   .IN    : CALIPER FROM RESISTIVITY LOG
CALS   .IN    : CALIPER FROM SONIC LOG
DPHZ_LS.DEC   : HGRD STANDARD RESOLUTION DENSITY POROSITY
DTCO   .US/F  : DELTA-T COMPRESSIONAL
DTSM   .US/F  : DELTA-T SHEAR
GRD    .GAPI  : GAMMA RAY FROM DENSITY LOG
HDRA   .G/C3  : HRDD SPINE AND RIBS DENSITY CORRECTION
PEFZ   .B/E   : HRDD STANDARD RESOLUTION FORMATION PHOTOELECTRIC FACTOR
RHOZ   .G/C3  : HRDD STANDARD RESOLUTION FORMATION DENSITY
SPHI_LS.DEC   : SONIC POROSITY [LIMESTONE]
SPR    .MV    : SPONTANEOUS POTENTIAL FROM RESISTIVITY LOG
TEND   .LB    : TENSION FROM DENSITY LOG
TENR   .LB    : TENSION FROM RESISTIVITY LOG
TENS   .LB    : TENSION FROM SONIC LOG
TNPH_LS.DEC   : THERMAL NEUTRON POROSITY [LIMESTONE]
~Params ----------------------------------------------------
~Other -----------------------------------------------------
~ASCII -----------------------------------------------------
# ...
 8765.00000    1.29350    1.99210    2.13970    2.33450    2.29380   11.79360   11.77940    0.19540   96.57410  212.17200  102.25290    0.04800    2.94770    2.37660   -9999.25   12.83530 4678.74640 4747.55170 4766.33890    0.36630
 8765.50000    1.29010    1.99400    2.13970    2.32690    2.28630   11.83430   11.87120    0.19860   96.79280  212.07000  104.24610    0.04920    2.94770    2.37050   -9999.25   12.95410 4697.33010 4742.05730 4771.82780    0.37370
 8766.00000    1.28850    1.99590    2.13970    2.32690    2.28630   11.65490   11.71610    0.19820   96.86960  214.72290  104.38710    0.04920    2.96720    2.37070   -9999.25   13.07300 4708.92690 4736.56300 4770.88480    0.37320
 8766.50000    1.28950    1.99780    2.13970    2.33720    2.29640   11.35730   11.44930    0.19310   97.89590  209.72340  103.31660    0.05340    3.04050    2.37790   -9999.25   13.19180 4692.57650 4729.66960 4769.94170    0.36170
 8767.00000    1.29050    1.99970    2.13450    2.34940    2.30840   11.73870   11.70300    0.18630   98.08640  210.22120  102.02770    0.05760    3.15980    2.38920   -9999.25   13.60900 4676.22600 4735.33410 4768.99860    0.35020
 8767.50000    1.29770    2.00160    2.12580    2.36950    2.32820   11.64400   11.72480    0.18340   97.83130  211.80740  101.42840    0.07580    3.28900    2.39600   -9999.25   13.60420 4714.09070 4756.96390 4774.71540    0.33840
 8768.00000    1.29340    2.00350    2.11710    2.32960    2.28890   11.60600   11.59340    0.18510   97.75860  210.86400  103.01840    0.08730    3.42520    2.39390   -9999.25   13.13950 4751.95550 4782.58500 4790.42210    0.35410
 8768.50000    1.28900    2.00540    2.11710    2.29980    2.25970   11.64810   11.60400    0.19280   97.43730  209.59670  105.03020    0.09060    3.42530    2.38150   -9999.25   12.79750 4789.82020 4808.20610 4806.12880    0.36480
 8769.00000    1.29110    2.00730    2.15190    2.33100    2.29030   11.64790   11.63680    0.19440   97.14780  209.47730  104.96770    0.08250    3.36280    2.37700   -9999.25   12.79680 4819.69190 4833.82720 4832.06390    0.36170
 8769.50000    1.29680    2.00920    2.18410    2.37480    2.33340   11.67590   11.66360    0.18760   96.99120  209.96830  106.22980    0.07560    3.33010    2.38830   -9999.25   12.79610 4817.59150 4813.30050 4815.59040    0.38060
 8770.00000    1.30990    2.01110    2.22440    2.41790    2.37580   11.70570   11.66600    0.17750   96.37500  210.02080  101.69640    0.06830    3.35120    2.40400   -9999.25   12.79540 4740.39710 4773.78000 4786.42080    0.37950
 8770.50000    1.31160    2.01300    2.24130    2.46110    2.41820   11.73550   11.66850    0.17030   96.59040  209.97260  100.89460    0.05980    3.37860    2.41560   -9999.25   12.79470 4712.23150 4736.47200 4757.25110    0.40520
 8771.00000    1.30850    2.01490    2.21300    2.42740    2.38510   11.78030   11.73680    0.16980   97.19840  211.16770   99.08100    0.05560    3.37390    2.42030   -9999.25   12.79400 4676.76440 4743.32640 4753.56840    0.39590
 8771.50000    1.28990    2.01600    2.18480    2.38980    2.34810   11.82290   11.82760    0.17250   97.34430  213.41890   97.76950    0.05000    3.30120    2.41480   -9999.25   12.87250 4696.13620 4750.18090 4758.94330    0.39740
 8772.00000    1.28000    2.01380    2.15990    2.39150    2.34980   11.67140   11.66660    0.17540   97.20350  214.56540   98.69580    0.04870    3.22520    2.41090   -9999.25   12.97090 4748.20270 4753.04550 4764.31820    0.39250
 8772.50000    1.27600    2.00270    2.14110    2.40060    2.35870   11.55020   11.61280    0.18000   97.49170  217.22250  100.87720    0.04650    3.14430    2.40190   -9999.25   13.06920 4733.90560 4749.92530 4769.69300    0.40370
 8773.00000    1.27270    1.99160    2.15440    2.40040    2.35850   11.87510   11.81680    0.18420   97.57890  219.87960  104.51680    0.04360    3.08900    2.39460   -9999.25   13.16760 4742.66870 4746.80510 4767.80030    0.41360
 8773.50000    1.26150    1.98050    2.13900    2.39480    2.35310   11.75390   11.85220    0.18980   97.70260  220.99260  103.35910    0.03540    3.03370    2.38620   -9999.25   12.79380 4728.83360 4778.74750 4770.69060    0.40740
 8774.00000    1.25170    1.96940    2.10470    2.39350    2.35170   11.77170   11.72150    0.19290   98.00390  217.80520  100.02890    0.02760    3.15820    2.38110   -9999.25   12.80270 4714.99850 4787.18910 4773.58090    0.39510
 8774.50000    1.25790    1.95830    2.12280    2.44960    2.40680   11.79430   11.74280    0.19180   98.54960  215.89480   99.03840    0.03400    3.30950    2.38080   -9999.25   13.00480 4732.57070 4760.02500 4776.47120    0.39310
 8775.00000    1.26410    1.95790    2.16380    2.47810    2.43490   11.82040   11.81040    0.18800   99.01570  214.47720  100.49330    0.04040    3.43950    2.38810   -9999.25   13.19070 4745.23000 4769.70850 4775.95640    0.40080
 8775.50000    1.27900    1.99010    2.21160    2.53080    2.48660   11.84660   11.84460    0.18760   99.05740  214.42410  101.80290    0.04590    3.46160    2.38950   -9999.25   12.91710 4730.36640 4756.80460 4774.59020    0.39600
 8776.00000    1.30060    2.05010    2.28660    2.63260    2.58670   11.74100   11.79670    0.19020   98.83690  211.40140  102.35990    0.05340    3.40130    2.38470   -9999.25   13.19740 4726.96870 4775.84450 4773.22410    0.37650
 8776.50000    1.32440    2.11010    2.36170    2.73600    2.68830   11.64260   11.65310    0.19360   98.39540  208.37860  100.43150    0.06020    3.34210    2.37870   -9999.25   13.18710 4726.43730 4781.20200 4771.85800    0.35560
 8777.00000    1.35250    2.17010    2.44650    2.86140    2.81150   11.64770   11.64280    0.19530   97.66170  207.32040  101.65900    0.06820    3.30950    2.37540   -9999.25   12.79430 4755.53660 4786.55950 4782.79760    0.34890
 8777.50000    1.37250    2.23000    2.52120    2.92110    2.87020   11.66660   11.69630    0.19430   97.46750  207.17940  100.33960    0.07160    3.29670    2.37760   -9999.25   12.79760 4762.42960 4780.77570 4793.73720    0.35150
 8778.00000    1.39790    2.29000    2.59320    2.97280    2.92100   11.64000   11.63330    0.19490   97.15550  206.51880  101.10270    0.07090    3.28390    2.37760   -9999.25   12.80080 4820.14520 4811.82630 4807.59350    0.36140
 8778.50000    1.41080    2.31400    2.65090    3.06730    3.01380   11.55210   11.57030    0.19480   96.76410  207.21620  101.59540    0.07020    3.26580    2.37640   -9999.25   12.80400 4798.98560 4818.94550 4825.24880    0.37040
 8779.00000    1.38360    2.28100    2.53250    2.91380    2.86300   11.52450   11.46080    0.19410   96.85900  208.48600  103.67050    0.06500    3.22180    2.37730   -9999.25   12.80730 4777.82610 4840.49290 4816.45120    0.37330
 8779.50000    1.34150    2.22590    2.38870    2.73090    2.68320   11.68350   11.64140    0.19360   96.73960  209.14980  104.69660    0.05210    3.19110    2.37890   -9999.25   13.22270 4756.66660 4837.85140 4807.65360    0.36290
 8780.00000    1.33150    2.17090    2.37730    2.66470    2.61820   11.77390   11.76250    0.19180   96.53680  208.26200  103.32530    0.03980    3.17530    2.38170   -9999.25   13.16040 4724.22190 4808.68400 4798.85600    0.35380
 8780.50000    1.35350    2.20200    2.40680    2.70640    2.65190   11.73110   11.74970    0.19120   96.11970  205.84930   98.49610    0.03000    3.18340    2.38350   -9999.25   12.76300 4684.25390 4790.37430 4814.42420    0.34000
 8781.00000    1.38400    2.25470    2.48060    2.81760    2.72460   11.69160   11.66890    0.18870   95.58340  204.70750   93.98440    0.02230    3.16650    2.38730   -9999.25   13.22870 4704.22520 4746.69060 4805.19760    0.36700
 8781.50000    1.39870    2.30750    2.55440    2.88430    2.72520   11.79760   11.67230    0.18460   95.18020  204.38920   92.35530    0.02460    3.11310    2.39430   -9999.25   12.79400 4760.39850 4758.81030 4795.97090    0.37680
 8782.00000    1.39010    2.32050    2.56000    2.87410    2.70780   11.68750   11.69810    0.18680   95.03390  205.71890   95.00870    0.03000    3.02890    2.38990   -9999.25   13.30370 4777.09040 4757.43810 4794.22240    0.37120
