~Version ---------------------------------------------------
VERS.   2.0 : CWLS log ASCII Standard -VERSION 2.0
WRAP.    NO : One line per depth step
DLM . SPACE : Column Data Section Delimiter
~Well ------------------------------------------------------
STRT .FT               1450.0 : START DEPTH
STOP .FT               9380.0 : STOP DEPTH
STEP .FT                  0.5 : STEP
NULL .               -9999.25 : NULL VALUE
COMP .                        : COMPANY
WELL .                        : WELL
FLD  .                        : FIELD
LOC  .                        : LOCATION
PROV .                        : PROVINCE
CNTY .                        : COUNTY
STAT .                        : STATE
CTRY .                        : COUNTRY
SRVC .                        : SERVICE COMPANY
DATE .                        : DATE
UWI  .                        : UNIQUE WELL ID
API  .                        : API NUMBER
SLAT .WGS84 4.551584023272596 : SURFACE LATITUDE
SLON .WGS84 2.128099622465001 : SURFACE LONGITUDE
DATUM.F                   nan : DEPTH DATUM ELEV
~Curve Information -----------------------------------------
DEPT   .FT    : 
AT10   .OHMM  : ARRAY INDUCTION TWO FOOT RESISTIVITY A10
AT20   .OHMM  : ARRAY INDUCTION TWO FOOT RESISTIVITY A20
AT30   .OHMM  : ARRAY INDUCTION TWO FOOT RESISTIVITY A30
AT60   .OHMM  : ARRAY INDUCTION TWO FOOT RESISTIVITY A60
AT90   .OHMM  : ARRAY INDUCTION TWO FOOT RESISTIVITY A90
CALR   .IN    : CALIPER FROM RESISTIVITY LOG
CALS   .IN    : CALIPER FROM SONIC LOG
DPHZ_LS.DEC   : HGRD STANDARD RESOLUTION DENSITY POROSITY
DTCO   .US/F  : DELTA-T COMPRESSIONAL
DTSM   .US/F  : DELTA-T SHEAR
GRD    .GAPI  : GAMMA RAY FROM DENSITY LOG
HDRA   .G/C3  : HRDD SPINE AND RIBS DENSITY CORRECTION
PEFZ   .B/E   : HRDD STANDARD RESOLUTION FORMATION PHOTOELECTRIC FACTOR
RHOZ   .G/C3  : HRDD STANDARD RESOLUTION FORMATION DENSITY
SPHI_LS.DEC   : SONIC POROSITY [LIMESTONE]
SPR    .MV    : SPONTANEOUS POTENTIAL FROM RESISTIVITY LOG
TEND   .LB    : TENSION FROM DENSITY LOG
TENR   .LB    : TENSION FROM RESISTIVITY LOG
TENS   .LB    : TENSION FROM SONIC LOG
TNPH_LS.DEC   : THERMAL NEUTRON POROSITY [LIMESTONE]
~Params ----------------------------------------------------
~Other -----------------------------------------------------
~ASCII -----------------------------------------------------
# ...
 6700.00000    3.35620    7.82090    8.87800   10.97850   10.36670   12.26740   12.25930    0.05700   65.57220  117.63410   63.12910    0.00060    3.31910    2.61380    0.12600    1.03380 4244.56820 4315.59900 4277.78410    0.10470
 6700.50000    3.34810    8.77810    8.98610   10.97850   10.70850   12.27190   12.27130    0.06020   65.09690  117.59250   65.35920    0.00080    3.34740    2.60830    0.12540    1.57400 4244.56820 4271.13570 4301.31350    0.10660
 6701.00000    3.36020    8.62220    9.31790   11.11690   11.02770   12.27640   12.27400    0.06670   67.06950  116.06370   66.43690   -0.00070    3.37570    2.59670    0.13990    1.50370 4244.56820 4267.73490 4292.97460    0.10580
 6701.50000    3.46490    8.34180   10.34730   12.43220   12.59420   12.28100   12.27670    0.07020   65.61840  114.02310   63.92590   -0.00440    3.40490    2.59080    0.12700    0.17250 4244.56820 4281.45830 4283.81400    0.09910
 6702.00000    3.64750    9.96040   12.15750   14.10780   14.66200   12.28550   12.27940    0.07190   64.89290  112.79870   59.77870   -0.00740    3.39390    2.58700    0.12220    0.06060 4244.56820 4271.85320 4276.48540    0.08840
 6702.50000    3.67620   10.04110   11.51020   13.58580   15.14170   12.30300   12.30860    0.07330   64.89290  114.08950   57.92620   -0.00950    3.29800    2.58510    0.12360   -2.00290 4244.56820 4262.24810 4276.48540    0.09100
 6703.00000    3.45630    8.54190    9.64590   11.46290   11.77320   12.28220   12.28440    0.07860   65.71540  113.80960   62.02800   -0.01050    3.19110    2.57450    0.13030   -1.89150 4244.56820 4251.54050 4276.48540    0.10420
 6703.50000    3.19320    7.04280    8.29650    9.34000    9.60140   12.27720   12.27620    0.08230   67.06940  113.20690   66.74660   -0.01000    3.07430    2.56920    0.13920   -1.78000 4244.56820 4249.39960 4276.48540    0.13280
 6704.00000    3.02330    6.76570    7.71960    8.16900    8.44240   12.28400   12.27980    0.08550   68.43110  114.97550   69.62360   -0.00950    3.03250    2.56480    0.14970   -1.83960 4244.56820 4260.10870 4276.48540    0.13900
 6704.50000    3.01380    6.71030    7.14270    8.05030    8.06830   12.29080   12.28350    0.08560   70.00590  114.97560   68.85070   -0.00900    3.03310    2.56430    0.16120   -1.92570 4244.56820 4242.72260 4276.48540    0.12640
 6705.00000    3.02480    6.60290    6.91500    8.38730    7.90020   12.28790   12.28720    0.08490   71.55310  120.31520   69.68300   -0.00860    3.05360    2.56410    0.17160   -2.32480 4218.36280 4218.31270 4276.48540    0.12720
 6705.50000    3.04790    6.44520    6.81580    9.03990    7.83300   12.33080   12.34600    0.08880   73.19140  123.89990   69.36480   -0.00820    3.18010    2.55550    0.18110   -3.11170 4240.20060 4268.88080 4275.14110    0.12880
 6706.00000    2.97610    6.00050    6.55880    8.96580    7.44440   12.37500   12.37470    0.09590   72.28960  125.26940   68.79990   -0.00620    3.30920    2.54420    0.17320   -2.48430 4235.98820 4264.88860 4268.40060    0.12760
 6706.50000    2.80110    5.80400    6.24060    8.02510    6.79720   12.37840   12.36660    0.09910   70.82280  125.52500   67.30120   -0.00430    3.50560    2.54210    0.16570   -2.84920 4214.89170 4247.25620 4261.66020    0.12470
 6707.00000    2.93550    5.99430    7.39270    8.95440    7.83300   12.78620   12.80210    0.08930   68.10620  124.53560   63.93690   -0.00230    3.63960    2.56880    0.14200   -3.03070 4204.23250 4245.24780 4254.91970    0.10600
 6707.50000    3.31420    9.19350   10.43190   12.32350   11.48180   12.36800   12.29850    0.06740   64.09330  123.54620   56.01580   -0.00040    3.68830    2.60600    0.11220   -3.92100 4244.56820 4249.03680 4251.62170    0.08300
 6708.00000    3.65530   13.78650   14.74560   18.69570   15.13060   12.30370   12.28700    0.04930   58.81370  116.19840   46.36720   -0.00040    3.66550    2.63320    0.07850   -3.95180 4244.56820 4252.82590 4253.48740    0.06010
 6708.50000    3.99350   18.37960   24.15740   27.06990   24.81240   12.18480   12.19030    0.04030   55.19290  108.85060   41.98470   -0.00040    3.56730    2.63830    0.05380   -4.06780 4249.14800 4256.61490 4255.35300    0.04210
 6709.00000    4.08490   21.94590   33.56930   37.10970   36.00260   12.19820   12.20430    0.04950   54.62190  103.95650   43.93010   -0.00040    3.48860    2.62060    0.04980   -4.31190 4256.78100 4243.70480 4261.49740    0.04730
 6709.50000    3.80450   15.25070   23.95460   31.48010   30.62150   12.20010   12.22050    0.06490   63.13660  107.38250   52.74570    0.00480    3.46040    2.56660    0.11600   -4.55590 4261.79230 4275.89250 4270.98890    0.07240
 6710.00000    3.31240    8.64870   10.08890   13.82650   21.78780   12.19800   12.22840    0.13910   71.26090  119.86300   66.62100    0.03480    3.54800    2.42480    0.17870   -4.80000 4256.31660 4287.93220 4277.03860    0.11180
 6710.50000    2.60270    5.96420    6.66900    9.26420   12.95410   12.23230   12.24700    0.22110   78.63320  132.51920   78.80820    0.09220    3.81380    2.30440    0.22040   -3.84690 4250.84100 4269.59880 4283.08830    0.15120
 6711.00000    2.06240    3.74630    3.89150    4.92450    4.12030   12.75360   13.11520    0.25310   79.09960  133.61350   88.91560    0.13030    3.92950    2.29700    0.22500   -3.94130 4245.36540 4245.75200 4276.51000    0.21660
 6711.50000    1.92380    3.45080    3.85470    4.20820    3.91920   12.40560   12.40740    0.22180   80.26580  139.05660   86.82230    0.16610    3.86350    2.39560    0.22770   -2.89730 4239.88980 4218.22960 4257.36990    0.21700
 6712.00000    2.00460    3.96670    4.53780    5.34130    5.01790   12.79890   12.67960    0.13870   78.42680  138.77530   81.66640    0.16110    3.73770    2.51200    0.21540   -1.68430 4204.16450 4225.96000 4263.75080    0.18440
 6712.50000    2.13710    4.59410    5.56250    6.69130    5.70990   12.61750   12.73410    0.08000   74.47280  133.32340   74.26450    0.13020    3.66080    2.57180    0.18090   -2.04000 4244.60570 4278.89240 4270.13160    0.15900
 6713.00000    2.21640    5.10170    6.32820    8.13290    6.35280   12.46000   12.28490    0.09230   68.87050  127.93150   69.01620    0.07420    3.61730    2.54670    0.14180   -2.37960 4244.60570 4298.55310 4276.51240    0.15240
 6713.50000    2.29070    5.75740    7.46870   12.76040    8.02230   12.39880   12.26150    0.12220   67.95410  120.81550   68.40850    0.05180    3.62320    2.49420    0.14500   -2.73240 4244.60570 4305.46470 4265.17060    0.15230
 6714.00000    2.19470    4.77900    6.96060   13.66160    8.21500   12.24250   12.27080    0.15640   76.35600  119.01210   72.65380    0.07140    3.72260    2.41980    0.22330   -2.78770 4236.43180 4261.38000 4253.82870    0.16910
 6714.50000    1.91100    3.80070    5.00950    6.40420    6.36070   12.87750   12.66000    0.19060   84.35820  121.09800   81.87960    0.10470    3.88810    2.34960    0.26410   -3.96990 4226.21430 4226.11230 4242.48680    0.20180
 6715.00000    1.81830    3.27180    3.73730    5.24690    5.21910   13.80950   13.98630    0.22480   89.98960  105.04520   91.10550    0.13010    3.96930    2.30980    0.29550   -5.06070 4215.99680 4235.12560 4237.53790    0.23940
 6715.50000    1.76890    3.04260    3.68740    4.86070    5.51940   13.08520   13.06070    0.24310   96.33800  116.84810   97.53580    0.13940    3.99160    2.29560    0.29900   -6.15140 4205.77930 4243.25750 4242.17840    0.27700
 6716.00000    1.77660    2.79220    3.24290    4.71070    5.88710   13.01730   13.23460    0.23670  104.07830   81.74970  103.26820    0.12930    3.90000    2.30520    0.29900   -7.24220 4195.56180 4234.99810 4246.81890    0.29080
 6716.50000    1.61080    2.36090    2.68710    3.76810    4.75450   12.55850   12.36660    0.22980   98.99470   89.70810  105.54400    0.11260    3.77690    2.31620    0.29900   -8.22980 4185.34440 4246.21180 4251.45950    0.29910
 6717.00000    1.42740    2.05170    2.13140    2.58100    3.36350   12.90850   12.98450    0.20180  103.15670   97.78700  105.33870    0.07910    3.69990    2.35730    0.29900   -9.19170 4175.12690 4270.40760 4256.10000    0.29980
