~Version ---------------------------------------------------
VERS.   2.0 : CWLS log ASCII Standard -VERSION 2.0
WRAP.    NO : One line per depth step
DLM . SPACE : Column Data Section Delimiter
~Well ------------------------------------------------------
STRT .FT               1450.0 : START DEPTH
STOP .FT               9380.0 : STOP DEPTH
STEP .FT                  0.5 : STEP
NULL .               -9999.25 : NULL VALUE
COMP .                        : COMPANY
WELL .                        : WELL
FLD  .                        : FIELD
LOC  .                        : LOCATION
PROV .                        : PROVINCE
CNTY .                        : COUNTY
STAT .                        : STATE
CTRY .                        : COUNTRY
SRVC .                        : SERVICE COMPANY
DATE .                        : DATE
UWI  .                        : UNIQUE WELL ID
API  .                        : API NUMBER
SLAT .WGS84 4.551584023272596 : SURFACE LATITUDE
SLON .WGS84 2.128099622465001 : SURFACE LONGITUDE
DATUM.F                   nan : DEPTH DATUM ELEV
~Curve Information -----------------------------------------
DEPT   .FT    : 
AT10   .OHMM  : ARRAY INDUCTION TWO FOOT RESISTIVITY A10
AT20   .OHMM  : ARRAY INDUCTION TWO FOOT RESISTIVITY A20
AT30   .OHMM  : ARRAY INDUCTION TWO FOOT RESISTIVITY A30
AT60   .OHMM  : ARRAY INDUCTION TWO FOOT RESISTIVITY A60
AT90   .OHMM  : ARRAY INDUCTION TWO FOOT RESISTIVITY A90
CALR   .IN    : CALIPER FROM RESISTIVITY LOG
CALS   .IN    : CALIPER FROM SONIC LOG
DPHZ_LS.DEC   : HGRD STANDARD RESOLUTION DENSITY POROSITY
DTCO   .US/F  : DELTA-T COMPRESSIONAL
DTSM   .US/F  : DELTA-T SHEAR
GRD    .GAPI  : GAMMA RAY FROM DENSITY LOG
HDRA   .G/C3  : HRDD SPINE AND RIBS DENSITY CORRECTION
PEFZ   .B/E   : HRDD STANDARD RESOLUTION FORMATION PHOTOELECTRIC FACTOR
RHOZ   .G/C3  : HRDD STANDARD RESOLUTION FORMATION DENSITY
SPHI_LS.DEC   : SONIC POROSITY [LIMESTONE]
SPR    .MV    : SPONTANEOUS POTENTIAL FROM RESISTIVITY LOG
TEND   .LB    : TENSION FROM DENSITY LOG
TENR   .LB    : TENSION FROM RESISTIVITY LOG
TENS   .LB    : TENSION FROM SONIC LOG
TNPH_LS.DEC   : THERMAL NEUTRON POROSITY [LIMESTONE]
~Params ----------------------------------------------------
~Other -----------------------------------------------------
~ASCII -----------------------------------------------------
# ...
 2535.00000    1.58520    2.43950    2.64790    3.02390    3.12270   13.02760   13.05960    0.20460  100.48340  204.55330  125.23620    0.08630    3.77490    2.36610   -9999.25  -27.98130 3359.69280 3360.28380 3344.41990    0.29230
 2535.50000    1.57080    2.41400    2.61060    2.98620    3.07100   13.29610   13.36510    0.19770   99.99930  204.95550  127.32450    0.09400    3.77930    2.37620   -9999.25  -28.06190 3371.20780 3382.13300 3392.05950    0.30040
 2536.00000    1.57300    2.40830    2.62950    2.98620    3.06770   13.78870   13.74700    0.19180   99.42440  208.60290  125.23760    0.09770    3.79520    2.38470   -9999.25  -27.23500 3356.11850 3417.55530 3439.69910    0.31730
 2536.50000    1.60870    2.45250    2.66270    3.02680    3.13290   12.82370   12.82820    0.18820   99.12740  210.18620  120.55660    0.10340    3.80920    2.38980   -9999.25  -26.64980 3471.77240 3473.33720 3462.83910    0.32300
 2537.00000    1.62890    2.55880    2.75030    3.13580    3.26810   12.51570   12.64450    0.18320   98.50250  207.51950  118.11260    0.10310    3.75030    2.39760   -9999.25  -26.68390 3489.21030 3529.11910 3476.44990    0.32730
 2537.50000    1.63590    2.58700    2.72600    3.17940    3.32210   12.51930   12.47090    0.18540   98.21900  206.31500  119.21630    0.08980    3.65650    2.39360   -9999.25  -26.67450 3397.03260 3487.15600 3435.61940    0.33160
 2538.00000    1.62150    2.51510    2.66470    3.05070    3.17880   12.86450   12.69210    0.18470   98.78900  205.62180  119.47170    0.08020    3.59790    2.39480   -9999.25  -26.00430 3353.24060 3439.19550 3383.12070    0.33120
 2538.50000    1.60530    2.44320    2.60520    2.96750    3.03540   12.56550   12.89630    0.18570   99.32740  205.53210  119.13220    0.06680    3.58860    2.39300   -9999.25  -25.26760 3350.01080 3414.73890 3363.67780    0.31220
 2539.00000    1.60100    2.39840    2.56190    2.91220    2.96410   13.19070   12.79370    0.18360   99.41890  204.63930  120.35820    0.05560    3.60610    2.39690   -9999.25  -24.46770 3346.78110 3407.70000 3344.23490    0.33170
 2539.50000    1.61950    2.41470    2.59240    2.89400    3.01290   14.06060   14.13490    0.18570   99.03910  203.97610  121.40650    0.04900    3.64040    2.39350   -9999.25  -23.41500 3343.55140 3390.52720 3326.73620    0.33700
 2540.00000    1.64490    2.51100    2.63570    2.94900    3.06180   13.31310   13.51150    0.18220   98.04450  203.19150  118.69200    0.04220    3.61730    2.39750   -9999.25  -22.64610 3203.86000 3332.81810 3304.05120    0.33280
 2540.50000    1.67410    2.60720    2.71450    3.02390    3.14320   12.85090   12.82140    0.17690   96.86270  201.82040  116.18290    0.04000    3.54410    2.40780   -9999.25  -23.01310 3243.65580 3295.91380 3272.29070    0.31190
 2541.00000    1.73020    2.68420    2.76080    3.12170    3.24950   12.41600   12.52420    0.16960   95.31280  199.75030  117.70030    0.04140    3.47100    2.41950   -9999.25  -23.38000 3268.66700 3329.48880 3270.02330    0.30050
 2541.50000    1.75350    2.68420    2.85770    3.23980    3.28270   12.29820   12.59680    0.16760   94.42040  197.34420  113.90320    0.04370    3.41540    2.42340   -9999.25  -23.74690 3207.91070 3258.85130 3264.35320    0.28990
 2542.00000    1.73370    2.64740    2.82100    3.13260    3.14980   12.41600   12.28040    0.17710   94.15650  193.62010  115.27000    0.05350    3.44140    2.40760   -9999.25  -24.11380 3214.49360 3212.39810 3258.68300    0.26940
 2542.50000    1.71400    2.60310    2.75650    3.02390    3.09050   12.19850   12.22250    0.18710   93.51040  191.82650  111.93730    0.06350    3.46700    2.38950   -9999.25  -24.55680 3199.63470 3195.06310 3272.29510    0.27300
 2543.00000    1.69350    2.56550    2.69800    3.00500    3.04970   12.75580   12.74660    0.19350   93.80560  189.42960  114.68010    0.07640    3.42740    2.38020   -9999.25  -25.30440 3169.08750 3181.19510 3274.39010    0.27670
 2543.50000    1.69170    2.52780    2.68480    2.96750    3.04610   12.60630   12.48790    0.18380   94.21030  190.70390  113.54940    0.07420    3.29830    2.39700   -9999.25  -26.05190 3188.54410 3200.30980 3277.00890    0.27250
 2544.00000    1.68630    2.50530    2.69400    2.96750    3.01910   12.07620   12.05240    0.17410   95.03060  193.56890  117.07560    0.06350    3.14590    2.41200   -9999.25  -26.64990 3167.05010 3235.88040 3279.62760    0.26900
 2544.50000    1.69620    2.50530    2.74280    3.00500    3.07340   12.43410   12.67170    0.17230   95.72430  194.20570  120.60190    0.05590    3.09790    2.41420   -9999.25  -26.65000 3145.55610 3253.99120 3282.24640    0.26880
 2545.00000    1.72580    2.55850    2.79170    3.09110    3.14260   11.99470   12.65130    0.17820   95.34250  193.51140  122.69320    0.04500    3.17330    2.40320   -9999.25  -25.83450 3171.28740 3257.57960 3284.86520    0.26830
 2545.50000    1.74990    2.62500    2.85540    3.14020    3.23270   12.06260   12.07960    0.18150   95.02750  192.83230  119.35380    0.04520    3.30720    2.39950   -9999.25  -25.32480 3323.19030 3273.16970 3299.52410    0.26840
 2546.00000    1.75840    2.69150    2.88970    3.19940    3.28270   12.48400   12.31780    0.17810   94.56750  191.46900  118.21560    0.04620    3.40910    2.40690   -9999.25  -24.81510 3140.29120 3171.75890 3394.80220    0.26570
 2546.50000    1.75890    2.72320    2.91700    3.23980    3.30600   12.64030   12.54920    0.16810   94.36630  189.89620  116.06690    0.04710    3.50260    2.42550   -9999.25  -24.61130 3223.47360 3210.03820 3408.41420    0.28320
 2547.00000    1.77320    2.74910    2.94630    3.28110    3.32920   12.38880   12.49470    0.16310   94.23590  189.35210  114.49520    0.04960    3.55960    2.43250   -9999.25  -24.73120 3237.41180 3287.31390 3394.80460    0.29970
 2547.50000    1.79340    2.76970    2.92650    3.33270    3.38150   12.95970   12.41990    0.16040   94.14080  188.95540  116.10190    0.05320    3.56310    2.43520   -9999.25  -25.03100 3203.01130 3263.06660 3348.13940    0.32290
 2548.00000    1.78580    2.76970    2.90670    3.34300    3.39360   12.68780   12.69890    0.16220   94.38000  188.55870  118.33660    0.05140    3.58000    2.43250   -9999.25  -25.33070 3205.62930 3238.81930 3285.91950    0.31840
 2548.50000    1.74860    2.74090    2.88680    3.28070    3.30270   12.61310   12.77380    0.16210   94.98970  189.51100  121.27420    0.05000    3.57400    2.42760   -9999.25  -25.63050 3208.24730 3218.65940 3245.08720    0.29750
 2549.00000    1.72530    2.67680    2.85790    3.19940    3.26740   13.36740   13.47470    0.17040   95.69760  191.70930  120.65180    0.05300    3.56810    2.40940   -9999.25  -25.93030 3210.86530 3214.84920 3204.25610    0.27990
 2549.50000    1.68360    2.57350    2.74890    3.15960    3.20070   12.66340   12.68530    0.18190   96.53790  194.53850  117.09400    0.05610    3.56210    2.39140   -9999.25  -26.23000 3213.48330 3211.80110 3204.25670    0.28770
 2550.00000    1.66850    2.52100    2.72680    3.08130    3.17940   12.64710   12.51810    0.19070   97.75670  197.58100  114.45540    0.06130    3.59390    2.37460   -9999.25  -26.52980 3216.10130 3235.09600 3231.47950    0.29680
 2550.50000    1.67620    2.52100    2.76330    3.06200    3.21960   12.15780   12.32410    0.19880   98.56540  199.41600  115.53290    0.07560    3.63270    2.36830   -9999.25  -26.64970 3218.71930 3264.21470 3285.92270    0.29460
 2551.00000    1.70140    2.61770    2.78380    3.13980    3.32210   12.71500   12.18120    0.19740   97.84840  200.47960  117.54510    0.09060    3.67600    2.37370   -9999.25  -26.59150 3220.61820 3278.85720 3302.93710    0.31300
 2551.50000    1.72560    2.61410    2.80820    3.21960    3.34300   12.61990   12.66100    0.19510   97.56650  201.03140  119.64200    0.10340    3.68010    2.38900   -9999.25  -26.30030 3219.64080 3236.95180 3217.86970    0.33060
 2552.00000    1.69970    2.59400    2.83250    3.21960    3.30130   12.23930   12.19140    0.18110   97.28610  201.44250  120.56630    0.10760    3.64450    2.41660   -9999.25  -26.00900 3218.66340 3210.24060 3190.64900    0.31550
