~Version ---------------------------------------------------
VERS.   2.0 : CWLS log ASCII Standard -VERSION 2.0
WRAP.    NO : One line per depth step
DLM . SPACE : Column Data Section Delimiter
~Well ------------------------------------------------------
STRT .FT               1450.0 : START DEPTH
STOP .FT               9380.0 : STOP DEPTH
STEP .FT                  0.5 : STEP
NULL .               -9999.25 : NULL VALUE
COMP .                        : COMPANY
WELL .                        : WELL
FLD  .                        : FIELD
LOC  .                        : LOCATION
PROV .                        : PROVINCE
CNTY .                        : COUNTY
STAT .                        : STATE
CTRY .                        : COUNTRY
SRVC .                        : SERVICE COMPANY
DATE .                        : DATE
UWI  .                        : UNIQUE WELL ID
API  .                        : API NUMBER
SLAT .WGS84 4.551584023272596 : SURFACE LATITUDE
SLON .WGS84 2.128099622465001 : SURFACE LONGITUDE
DATUM.F                   nan : DEPTH DATUM ELEV
~Curve Information -----------------------------------------
DEPT   .FT    : 
AT10   .OHMM  : ARRAY INDUCTION TWO FOOT RESISTIVITY A10
AT20   .OHMM  : ARRAY INDUCTION TWO FOOT RESISTIVITY A20
AT30   .OHMM  : ARRAY INDUCTION TWO FOOT RESISTIVITY A30
AT60   .OHMM  : ARRAY INDUCTION TWO FOOT RESISTIVITY A60
AT90   .OHMM  : ARRAY INDUCTION TWO FOOT RESISTIVITY A90
CALR   .IN    : CALIPER FROM RESISTIVITY LOG
CALS   .IN    : CALIPER FROM SONIC LOG
DPHZ_LS.DEC   : HGRD STANDARD RESOLUTION DENSITY POROSITY
DTCO   .US/F  : DELTA-T COMPRESSIONAL
DTSM   .US/F  : DELTA-T SHEAR
GRD    .GAPI  : GAMMA RAY FROM DENSITY LOG
HDRA   .G/C3  : HRDD SPINE AND RIBS DENSITY CORRECTION
PEFZ   .B/E   : HRDD STANDARD RESOLUTION FORMATION PHOTOELECTRIC FACTOR
RHOZ   .G/C3  : HRDD STANDARD RESOLUTION FORMATION DENSITY
SPHI_LS.DEC   : SONIC POROSITY [LIMESTONE]
SPR    .MV    : SPONTANEOUS POTENTIAL FROM RESISTIVITY LOG
TEND   .LB    : TENSION FROM DENSITY LOG
TENR   .LB    : TENSION FROM RESISTIVITY LOG
TENS   .LB    : TENSION FROM SONIC LOG
TNPH_LS.DEC   : THERMAL NEUTRON POROSITY [LIMESTONE]
~Params ----------------------------------------------------
~Other -----------------------------------------------------
~ASCII -----------------------------------------------------
# ...
 4617.50000    2.53120    4.23890    4.67740    5.41370    4.98650   11.01940   11.04190    0.29960   78.19370  153.63730  102.44590    0.06740    3.89790    2.17320    0.21660  -31.03070 3619.34250 3653.04690 3684.89960    0.21150
 4618.00000    2.46180    4.05810    4.51670    5.09560    4.93150   11.11280   11.24630    0.29030   78.82340  150.00790   96.26060    0.14360    4.04450    2.20620    0.22110  -31.35910 3619.65950 3669.57240 3682.77960    0.20940
 4618.50000    2.37150    3.87720    4.27940    5.04280    4.87660   11.63410   11.76680    0.26610   80.92450  149.80760   97.84660    0.21980    4.18890    2.26650    0.23560  -31.68740 3662.11510 3692.60320 3688.99190    0.22170
 4619.00000    2.30620    3.80480    4.18080    4.99000    4.84370   12.14320   12.20280    0.24180   82.58720  151.12260  100.94120    0.24890    4.29190    2.30730    0.24910  -31.79240 3710.70600 3713.75280 3700.41630    0.23410
 4619.50000    2.28200    3.80480    4.23940    4.95880    4.84370   12.80300   12.68880    0.24650   83.46850  151.99780  106.21310    0.24480    4.32020    2.28920    0.25050  -31.74850 3745.02860 3732.08060 3711.84070    0.24640
 4620.00000    2.27030    3.80480    4.34340    5.01090    4.84370   13.72770   13.81850    0.24980   79.92240  152.54640  107.51830    0.21970    4.23900    2.28400    0.22960  -31.70460 3751.56380 3746.13680 3723.26510    0.24880
 4620.50000    2.30370    3.98160    4.48440    5.35900    4.84370   13.54120   13.32860    0.22940   79.72400  153.85040  105.68760    0.19750    4.01630    2.33280    0.22740  -31.66070 3751.15210 3754.17840 3734.68950    0.23370
 4621.00000    2.35040    4.19120    4.81590    5.72790    5.46120   12.64050   12.67520    0.17340   79.97050  154.41480  103.85680    0.17450    3.71870    2.41500    0.22900  -31.61680 3750.74050 3737.00770 3746.11390    0.23580
 4621.50000    2.31620    4.23310    4.74350    5.57750    5.46120   12.45840   12.47110    0.15640   81.85030  154.61830  105.06040    0.13750    3.54530    2.44210    0.24250  -30.58570 3750.32880 3737.00770 3757.32450    0.24490
 4622.00000    2.23280    4.06710    4.50800    5.42710    5.22790   12.56710   12.71610    0.16250   81.85240  154.82180  109.82890    0.09940    3.45370    2.43140    0.24280  -29.55470 3749.91710 3731.91210 3768.21440    0.25710
 4622.50000    2.19680    4.02270    4.40250    5.27670    5.00790   12.70300   12.57990    0.17400   80.92600  155.02520  111.27030    0.09470    3.41260    2.41080    0.23570  -28.52360 3749.50550 3743.80590 3779.10430    0.24770
 4623.00000    2.18750    3.94860    4.36320    5.21380    5.00790   12.70300   12.67520    0.18250   80.66750  155.73060  109.79910    0.08930    3.37460    2.39710    0.23420  -27.49250 3749.09380 3772.12170 3789.99410    0.25630
 4623.50000    2.19220    3.93380    4.38470    5.28050    5.06410   12.67590   12.55950    0.17860   80.67450  160.75260  108.30370    0.08970    3.37450    2.40380    0.23420  -26.46140 3748.68210 3776.05640 3800.88400    0.26220
 4624.00000    2.17530    3.93380    4.57060    5.39150    5.10900   12.56910   12.45740    0.17190   80.42700  179.14690  110.93450    0.09090    3.37430    2.41620    0.23220  -25.55170 3748.27040 3792.62760 3806.75450    0.27410
 4624.50000    2.14170    3.93380    4.50200    5.36300    5.10420   12.30690   12.31320    0.17250   79.99950  139.98690  112.93200    0.09210    3.38740    2.41550    0.22970  -25.12730 3747.85880 3799.36510 3805.09590    0.26690
 4625.00000    2.11970    3.85740    4.42840    5.29960    5.08000   12.39720   12.48470    0.17530   82.20350  154.73900  111.10680    0.09160    3.41790    2.41180    0.24490  -24.70290 3747.44710 3766.76740 3803.43740    0.27040
 4625.50000    2.09650    3.79740    4.39300    5.23620    5.05580   12.24090   12.19540    0.18040   84.08300  168.95460  107.56810    0.08180    3.43870    2.40250    0.25810  -24.27850 3747.03540 3754.91630 3801.77880    0.27010
 4626.00000    2.06820    3.74620    4.37250    5.18660    5.02190   12.38360   12.38560    0.18220   83.13920  158.04720  106.24210    0.07640    3.45940    2.40000    0.25150  -23.85410 3751.46740 3748.51760 3800.12030    0.26390
 4626.50000    2.05680    3.69510    4.30590    5.14040    4.97330   12.36320   12.42370    0.18100   82.35090  161.08690  111.30720    0.08310    3.48020    2.39830    0.24560  -23.42970 3759.12840 3731.81870 3798.46170    0.27100
 4627.00000    2.03100    3.66550    4.25980    5.08470    4.92470   12.48050   12.38940    0.17510   83.08570  161.44470  112.32020    0.09030    3.49760    2.40970    0.25120  -23.00530 3766.78940 3769.51790 3796.80310    0.27040
 4627.50000    2.00640    3.59150    4.21370    4.99040    4.87610   12.67590   12.26690    0.16820   83.74820  165.41850  118.06970    0.08950    3.47710    2.42180    0.25570  -22.58080 3772.66360 3807.21700 3795.14460    0.28360
 4628.00000    1.98180    3.51750    4.13590    4.98660    4.81150   12.37680   12.53910    0.16670   83.82610  170.74290  121.09780    0.08690    3.43920    2.42730    0.25630  -22.15640 3717.28190 3789.26930 3792.11650    0.27200
 4628.50000    1.95720    3.44350    3.97050    4.61020    4.59400   12.17300   12.29410    0.17230   83.91770  164.12690  123.66730    0.06920    3.41900    2.41520    0.25760  -21.52400 3693.40880 3757.41000 3783.61020    0.27590
 4629.00000    1.93260    3.48210    3.91090    4.50330    4.52440   12.25450   12.14440    0.17790   84.30500  165.40800  118.49570    0.06590    3.40470    2.40620    0.26140  -20.95210 3716.79870 3765.90570 3775.10400    0.27520
 4629.50000    1.93240    3.54880    4.04450    4.73820    4.64040   12.25260   12.25240    0.17510   82.65240  167.54320  114.65880    0.06370    3.37660    2.41090    0.24960  -20.28570 3740.18850 3774.40150 3766.59780    0.27780
 4630.00000    1.94420    3.61010    4.06970    5.02360    4.75630   12.21370   12.28440    0.16700   83.92280  168.59720  113.48670    0.06580    3.33930    2.42520    0.25680  -20.17900 3763.57840 3769.30550 3758.09150    0.28500
 4630.50000    1.94290    3.58050    4.06700    5.06930    4.73150   12.32520   12.30750    0.16420   84.60060  168.47480  117.26560    0.06790    3.30070    2.43010    0.26270  -19.98300 3760.64540 3748.06970 3749.58530    0.29400
 4631.00000    1.88950    3.39760    3.99920    4.83080    4.49140   12.29080   12.33490    0.17350   85.61700  168.16910  121.57390    0.06850    3.32760    2.41430    0.26910  -19.42980 3779.38620 3726.83390 3741.07900    0.29660
 4631.50000    1.83610    3.25450    3.78760    4.49340    4.25120   12.41760   12.41660    0.18350   86.08920  167.80850  120.05620    0.06470    3.39970    2.39690    0.27230  -19.30100 3744.49580 3744.78430 3754.22720    0.29190
 4632.00000    1.79990    3.21340    3.71360    4.37900    4.12760   12.24430   12.19190    0.18900   86.51420  167.85070  115.86120    0.07060    3.55950    2.38770    0.27510  -19.27820 3744.84980 3767.22240 3772.78890    0.30160
 4632.50000    1.80760    3.17230    3.74760    4.42180    4.29600   12.21830   12.17080    0.18700   86.15150  166.77930  109.91640    0.08540    3.68790    2.39140    0.27290  -19.44840 3745.20390 3775.73620 3791.35060    0.31890
 4633.00000    1.78000    3.13120    3.72480    4.47120    4.29600   12.20920   12.22140    0.17950   85.90210  168.09760  113.11720    0.09620    3.78560    2.40540    0.27110  -19.61860 3745.55790 3780.76900 3809.91240    0.31930
 4633.50000    1.75620    3.08000    3.68690    4.49980    4.29600   12.59430   12.48760    0.17570   86.58070  165.15380  119.24060    0.09490    3.80510    2.41000    0.27590  -19.78880 3745.91200 3801.85260 3819.44850    0.30820
 4634.00000    1.74580    3.02060    3.64900    4.52850    4.29600   12.39720   12.62080    0.17910   87.50020  159.42300  125.44600    0.09350    3.78400    2.40510    0.28240  -19.95900 3746.26600 3820.14270 3815.44640    0.30430
 4634.50000    1.71320    2.96110    3.58640    4.55710    4.29600   12.20020   12.19880    0.18130   86.66210  158.44690  123.60650    0.08820    3.74590    2.40090    0.27660  -19.49650 3746.62010 3803.08340 3811.44420    0.30000
