~Version ---------------------------------------------------
VERS.   2.0 : CWLS log ASCII Standard -VERSION 2.0
WRAP.    NO : One line per depth step
DLM . SPACE : Column Data Section Delimiter
~Well ------------------------------------------------------
STRT .FT               1450.0 : START DEPTH
STOP .FT               9380.0 : STOP DEPTH
STEP .FT                  0.5 : STEP
NULL .               -9999.25 : NULL VALUE
COMP .                        : COMPANY
WELL .                        : WELL
FLD  .                        : FIELD
LOC  .                        : LOCATION
PROV .                        : PROVINCE
CNTY .                        : COUNTY
STAT .                        : STATE
CTRY .                        : COUNTRY
SRVC .                        : SERVICE COMPANY
DATE .                        : DATE
UWI  .                        : UNIQUE WELL ID
API  .                        : API NUMBER
SLAT .WGS84 4.551584023272596 : SURFACE LATITUDE
SLON .WGS84 2.128099622465001 : SURFACE LONGITUDE
DATUM.F                   nan : DEPTH DATUM ELEV
~Curve Information -----------------------------------------
DEPT   .FT    : 
AT10   .OHMM  : ARRAY INDUCTION TWO FOOT RESISTIVITY A10
AT20   .OHMM  : ARRAY INDUCTION TWO FOOT RESISTIVITY A20
AT30   .OHMM  : ARRAY INDUCTION TWO FOOT RESISTIVITY A30
AT60   .OHMM  : ARRAY INDUCTION TWO FOOT RESISTIVITY A60
AT90   .OHMM  : ARRAY INDUCTION TWO FOOT RESISTIVITY A90
CALR   .IN    : CALIPER FROM RESISTIVITY LOG
CALS   .IN    : CALIPER FROM SONIC LOG
DPHZ_LS.DEC   : HGRD STANDARD RESOLUTION DENSITY POROSITY
DTCO   .US/F  : DELTA-T COMPRESSIONAL
DTSM   .US/F  : DELTA-T SHEAR
GRD    .GAPI  : GAMMA RAY FROM DENSITY LOG
HDRA   .G/C3  : HRDD SPINE AND RIBS DENSITY CORRECTION
PEFZ   .B/E   : HRDD STANDARD RESOLUTION FORMATION PHOTOELECTRIC FACTOR
RHOZ   .G/C3  : HRDD STANDARD RESOLUTION FORMATION DENSITY
SPHI_LS.DEC   : SONIC POROSITY [LIMESTONE]
SPR    .MV    : SPONTANEOUS POTENTIAL FROM RESISTIVITY LOG
TEND   .LB    : TENSION FROM DENSITY LOG
TENR   .LB    : TENSION FROM RESISTIVITY LOG
TENS   .LB    : TENSION FROM SONIC LOG
TNPH_LS.DEC   : THERMAL NEUTRON POROSITY [LIMESTONE]
~Params ----------------------------------------------------
~Other -----------------------------------------------------
~ASCII -----------------------------------------------------
# ...
 5142.50000    2.09170    3.88110    4.40850    5.37330    5.14230   13.46460   13.18620    0.20200   83.03880  163.74870  115.72870    0.13420    4.43480    2.35840    0.25090  -13.53650 3929.22870 3946.51610 3987.63690    0.30580
 5143.00000    2.12140    3.88110    4.56170    5.60990    5.35180   12.85290   13.17940    0.17130   83.00290  164.03300  117.27990    0.15420    4.31980    2.40500    0.25030  -13.98960 3929.13030 3953.66360 3987.68060    0.30750
 5143.50000    2.14070    3.97020    4.74000    5.79910    5.56140   12.90730   13.19980    0.15860   82.71410  163.57120  119.75430    0.15150    4.21530    2.43790    0.24840  -13.26470 3928.87990 3952.23490 3987.72420    0.30070
 5144.00000    2.14070    4.05940    4.70000    5.74630    5.58640   12.97530   12.66270    0.16030   82.66830  163.06600  120.89640    0.13260    4.15450    2.43710    0.24920  -12.24540 3928.62940 3945.08860 3968.44260    0.27660
 5144.50000    2.13090    4.14860    4.63140    5.65820    5.48010   12.57430   12.41980    0.16490   82.92290  161.85440  118.29670    0.11670    4.15930    2.42770    0.25060  -11.63380 3928.37890 3950.38970 3965.21490    0.27490
 5145.00000    2.10640    4.08940    4.56270    5.57010    5.37370   13.08400   12.90030    0.16660   83.19280  161.47280  120.24340    0.12130    4.19590    2.42530    0.25250  -12.13860 3928.12840 3963.98920 3961.98720    0.27420
 5145.50000    2.10220    4.01550    4.49410    5.48200    5.26740   13.36940   13.30530    0.16270   83.25530  161.54590  120.99430    0.12590    4.19530    2.43070    0.25270  -12.42980 3927.87800 3956.99240 3958.75940    0.27700
 5146.00000    2.13160    3.99550    4.51140    5.43730    5.26030   13.69560   13.59180    0.15260   83.22620  161.86810  121.30270    0.12830    4.16130    2.44720    0.25220  -12.72110 3927.62750 3957.30030 3956.25870    0.28900
 5146.50000    2.16090    4.04330    4.59810    5.49890    5.33120   13.21990   13.48560    0.14960   83.26680  162.19030  119.15710    0.12840    4.11440    2.45290    0.25260  -12.72110 3927.37700 3970.64990 3956.66630    0.28960
 5147.00000    2.15860    4.09120    4.66020    5.56040    5.38790   13.38300   13.21340    0.16170   83.16090  162.48210  122.18210    0.12840    4.12630    2.42890    0.25160  -12.52700 3927.12660 3960.52840 3957.07390    0.28760
 5147.50000    2.17700    4.13900    4.71600    5.56700    5.38790   13.46460   13.49920    0.18410   82.96100  161.76030  125.23040    0.13720    4.15600    2.39620    0.25040  -12.33280 3926.87610 3942.23750 3957.48150    0.28150
 5148.00000    2.18500    4.19320    4.77190    5.53700    5.37600   12.89620   12.91290    0.19230   82.98830  162.39430  125.69860    0.16050    4.15630    2.37910    0.25040  -12.13870 3926.62560 3943.08140 3960.62010    0.29380
 5148.50000    2.18870    4.16540    4.74270    5.50690    5.36110   12.32780   12.50710    0.17100   82.82650  162.16980  123.29930    0.18810    4.14290    2.41010    0.24970  -11.94450 3926.37520 3943.92530 3965.57950    0.28310
 5149.00000    2.19000    4.13770    4.69400    5.47680    5.34630   12.36820   12.27420    0.14680   82.96690  161.24600  120.74790    0.21560    4.15870    2.45880    0.25100  -12.29150 3926.12470 3918.39260 3970.53890    0.28730
 5149.50000    2.18210    4.12100    4.64530    5.44670    5.33140   12.28890   12.45120    0.13440   83.07020  162.08920  122.06350    0.20970    4.23790    2.47690    0.25160  -12.77370 3925.87420 3919.80600 3962.12500    0.28360
 5150.00000    2.17390    4.03970    4.59660    5.44670    5.31650   12.71700   12.77780    0.16100   83.15340  161.81380  123.08070    0.18110    4.35950    2.41420    0.25210  -13.25590 3925.62370 3944.65930 3976.50180    0.27530
 5150.50000    2.16660    4.00630    4.52710    5.41310    5.22390   13.23350   13.21340    0.19430   83.13170  161.66620  125.10260    0.15250    4.43940    2.38160    0.25160  -13.73820 3925.37330 3976.90150 3990.87860    0.26900
 5151.00000    2.17660    3.97280    4.45890    5.27870    5.10810   12.96170   12.90040    0.20800   82.97150  161.51850  123.45990    0.13670    4.44720    2.35200    0.24980  -14.22040 3925.12280 3991.65200 4005.25540    0.26740
 5151.50000    2.16590    3.98590    4.55440    5.39590    5.15610   12.62190   12.75060    0.20110   82.49720  161.22390  121.61180    0.13780    4.42280    2.36230    0.24590  -14.70260 3924.87230 3983.84500 3999.53490    0.26740
 5152.00000    2.18720    4.07920    4.71110    5.59140    5.39590   13.16560   13.04330    0.17130   81.68460  160.33720  124.99130    0.15500    4.40760    2.41710    0.24060  -14.89550 3924.62190 3979.55140 3988.79020    0.27000
 5152.50000    2.19710    4.19590    4.86780    5.78690    5.63570   13.35580   13.33590    0.15510   81.23150  159.76060  126.12930    0.17060    4.40550    2.44640    0.23800  -13.98940 3924.37140 3989.31170 3978.04550    0.25330
 5153.00000    2.23600    4.27040    4.97130    5.98230    5.87560   13.25800   13.22740    0.14800   81.42030  159.14150  125.46920    0.16910    4.40340    2.44920    0.24020  -13.08330 3924.12090 3987.08250 3967.30080    0.24150
 5153.50000    2.23540    4.17670    4.96570    5.97350    5.73580   13.22900   13.32230    0.17670   81.84230  158.06430  124.27350    0.16250    4.43930    2.39690    0.24370  -12.17720 3923.87050 3957.52000 3973.42620    0.23330
 5154.00000    2.20850    4.08310    4.78150    5.73410    5.56110   13.04320   12.77790    0.21070   82.51850  159.79630  121.51230    0.16160    4.50670    2.33550    0.24810  -11.36180 3923.62000 3965.06510 3983.63540    0.24330
 5154.50000    2.16490    3.98940    4.56810    5.49460    5.38640   12.92090   12.90470    0.24720   83.16260  163.88250  120.61780    0.16580    4.62190    2.27980    0.25270  -10.81810 3923.36950 3989.83620 3993.84450    0.25590
 5155.00000    2.14160    3.93320    4.52410    5.44670    5.31650   13.49860   13.46550    0.26170   83.69860  163.43230  121.79010    0.16920    4.64120    2.26800    0.25540  -11.08990 3923.11900 3984.97440 3994.64490    0.25890
 5155.50000    2.15040    4.08110    4.62590    5.41270    5.31650   13.45780   13.70340    0.24020   83.50630  164.15370  122.71250    0.17030    4.48740    2.31530    0.25290  -10.95400 3922.86860 3949.32420 3978.90150    0.26180
 5156.00000    2.19660    4.22910    4.79570    5.48030    5.31650   13.19270   13.18350    0.16510   82.68120  164.56510  122.45950    0.16470    4.20690    2.43420    0.24680  -11.09000 3922.61810 3926.78640 3963.15820    0.26410
 5156.50000    2.25020    4.31790    4.96540    5.81850    5.57640   13.02960   13.02030    0.12900   81.97520  163.54870  123.78200    0.14960    3.98250    2.49260    0.24300  -11.27120 3922.36760 3924.45000 3936.67550    0.25580
 5157.00000    2.27210    4.31210    5.03330    5.97410    5.79780   12.70000   12.81720    0.12260   82.09690  162.68370  124.14280    0.13450    3.91650    2.50710    0.24490  -11.72430 3922.11720 3935.58120 3956.67550    0.24520
 5157.50000    2.23810    4.26720    4.85820    5.73760    5.57220   12.74650   12.60040    0.14190   82.45180  161.92630  126.73590    0.11940    3.99440    2.47070    0.24740  -12.17730 3921.86670 3952.45360 3967.76460    0.23740
 5158.00000    2.20060    4.15730    4.63930    5.50110    5.34660   13.57330   13.53760    0.16280   82.88140  160.68170  127.84830    0.11710    4.08880    2.42940    0.25100  -12.63040 3921.61620 3977.93780 3978.85360    0.24900
 5158.50000    2.14340    4.04740    4.43450    5.29530    5.14220   13.73640   13.69640    0.17700   83.56090  162.05640  130.44180    0.11880    4.14790    2.40790    0.25590  -12.99290 3921.36580 3974.29830 3987.72550    0.26540
 5159.00000    2.16160    3.95950    4.43170    5.30040    5.14220   13.21310   13.62170    0.16680   83.93740  163.42620  126.75970    0.12060    4.10330    2.42390    0.25630  -12.99290 3921.11530 3966.82950 3968.50170    0.26110
 5159.50000    2.17860    3.98770    4.56460    5.40890    5.14220   12.67630   12.62810    0.15370   83.31500  164.33400  123.75490    0.11740    4.04860    2.44530    0.25180  -12.41030 3920.86480 3952.03100 3949.27790    0.25730
