~Version ---------------------------------------------------
VERS.   2.0 : CWLS log ASCII Standard -VERSION 2.0
WRAP.    NO : One line per depth step
DLM . SPACE : Column Data Section Delimiter
~Well ------------------------------------------------------
STRT .FT               1450.0 : START DEPTH
STOP .FT               9380.0 : STOP DEPTH
STEP .FT                  0.5 : STEP
NULL .               -9999.25 : NULL VALUE
COMP .                        : COMPANY
WELL .                        : WELL
FLD  .                        : FIELD
LOC  .                        : LOCATION
PROV .                        : PROVINCE
CNTY .                        : COUNTY
STAT .                        : STATE
CTRY .                        : COUNTRY
SRVC .                        : SERVICE COMPANY
DATE .                        : DATE
UWI  .                        : UNIQUE WELL ID
API  .                        : API NUMBER
SLAT .WGS84 4.551584023272596 : SURFACE LATITUDE
SLON .WGS84 2.128099622465001 : SURFACE LONGITUDE
DATUM.F                   nan : DEPTH DATUM ELEV
~Curve Information -----------------------------------------
DEPT   .FT    : 
AT10   .OHMM  : ARRAY INDUCTION TWO FOOT RESISTIVITY A10
AT20   .OHMM  : ARRAY INDUCTION TWO FOOT RESISTIVITY A20
AT30   .OHMM  : ARRAY INDUCTION TWO FOOT RESISTIVITY A30
AT60   .OHMM  : ARRAY INDUCTION TWO FOOT RESISTIVITY A60
AT90   .OHMM  : ARRAY INDUCTION TWO FOOT RESISTIVITY A90
CALR   .IN    : CALIPER FROM RESISTIVITY LOG
CALS   .IN    : CALIPER FROM SONIC LOG
DPHZ_LS.DEC   : HGRD STANDARD RESOLUTION DENSITY POROSITY
DTCO   .US/F  : DELTA-T COMPRESSIONAL
DTSM   .US/F  : DELTA-T SHEAR
GRD    .GAPI  : GAMMA RAY FROM DENSITY LOG
HDRA   .G/C3  : HRDD SPINE AND RIBS DENSITY CORRECTION
PEFZ   .B/E   : HRDD STANDARD RESOLUTION FORMATION PHOTOELECTRIC FACTOR
RHOZ   .G/C3  : HRDD STANDARD RESOLUTION FORMATION DENSITY
SPHI_LS.DEC   : SONIC POROSITY [LIMESTONE]
SPR    .MV    : SPONTANEOUS POTENTIAL FROM RESISTIVITY LOG
TEND   .LB    : TENSION FROM DENSITY LOG
TENR   .LB    : TENSION FROM RESISTIVITY LOG
TENS   .LB    : TENSION FROM SONIC LOG
TNPH_LS.DEC   : THERMAL NEUTRON POROSITY [LIMESTONE]
~Params ----------------------------------------------------
~Other -----------------------------------------------------
~ASCII -----------------------------------------------------
# ...
 9290.00000    0.88680    1.50020    1.77260    2.05810    2.02770   -9999.25    4.23820   -9999.25   98.08890  222.64680   -9999.25   -9999.25   -9999.25   -9999.25   -9999.25    4.97340 4808.11600 4863.39570 4851.98600   -9999.25
 9290.50000    0.86800    1.47320    1.69730    2.04420    2.02390   -9999.25    4.24160   -9999.25   98.68190  224.32290   -9999.25   -9999.25   -9999.25   -9999.25   -9999.25    5.01730 4805.35310 4848.62190 4847.21050   -9999.25
 9291.00000    0.85210    1.44630    1.66720    1.93730    1.91830   -9999.25    4.24590   -9999.25   99.28150  226.42200   -9999.25   -9999.25   -9999.25   -9999.25   -9999.25    5.06120 4812.10850 4839.75760 4842.43510   -9999.25
 9291.50000    0.87070    1.41930    1.66720    1.97310    1.91830   -9999.25    4.25010   -9999.25   99.09410  217.44340   -9999.25   -9999.25   -9999.25   -9999.25   -9999.25    5.10510 4789.11530 4861.99350 4837.65970   -9999.25
 9292.00000    0.91310    1.55880    1.89560    2.21330    2.11840   -9999.25    4.25440   -9999.25   97.56840  220.08310   -9999.25   -9999.25   -9999.25   -9999.25   -9999.25    5.14900 4791.99000 4884.22930 4836.10760   -9999.25
 9292.50000    0.93510    1.67040    1.97450    2.41780    2.33940   -9999.25    4.25860   -9999.25   97.56850  219.31000   -9999.25   -9999.25   -9999.25   -9999.25   -9999.25    5.09940 4797.21530 4906.46510 4839.39050   -9999.25
 9293.00000    0.91030    1.61730    1.86920    2.24210    2.19730   -9999.25    4.26880   -9999.25   99.94920  216.67950   -9999.25   -9999.25   -9999.25   -9999.25   -9999.25    5.20750 4817.40660 4914.66420 4842.67340   -9999.25
 9293.50000    0.88940    1.52510    1.76390    2.02240    1.98480   -9999.25   -9999.25   -9999.25   98.58880  213.08810   -9999.25   -9999.25   -9999.25   -9999.25   -9999.25    5.46240 4770.07440 4866.71640 4836.20920   -9999.25
 9294.00000    0.89290    1.54500    1.80640    2.04970    2.00650   -9999.25   -9999.25   -9999.25   97.16040  213.51920   -9999.25   -9999.25   -9999.25   -9999.25   -9999.25    5.31670 4774.17410 4818.76870 4832.21730   -9999.25
 9294.50000    0.91180    1.60030    1.87720    2.18590    2.12020   -9999.25   -9999.25   -9999.25   98.74110  217.02020   -9999.25   -9999.25   -9999.25   -9999.25   -9999.25    5.25850 4778.27390 4802.71220 4828.22540   -9999.25
 9295.00000    0.92260    1.63260    1.94800    2.27050    2.22950   -9999.25   -9999.25   -9999.25   99.88120  210.28620   -9999.25   -9999.25   -9999.25   -9999.25   -9999.25    5.25840 4782.37360 4825.09490 4824.23350   -9999.25
 9295.50000    0.90910    1.60840    1.88940    2.18020    2.14210   -9999.25   -9999.25   -9999.25   97.58460  209.06700   -9999.25   -9999.25   -9999.25   -9999.25   -9999.25    4.95260 4790.11940 4829.58940 4839.27950   -9999.25
 9296.00000    0.89040    1.57870    1.80870    2.05290    2.01190   -9999.25   -9999.25   -9999.25   98.25950  207.37510   -9999.25   -9999.25   -9999.25   -9999.25   -9999.25    4.83470 4815.58730 4867.80600 4858.08610   -9999.25
 9296.50000    0.90660    1.58190    1.87800    2.19560    2.13710   -9999.25   -9999.25   -9999.25   97.09250  206.53470   -9999.25   -9999.25   -9999.25   -9999.25   -9999.25    4.81470 4827.84590 4886.80550 4876.89270   -9999.25
 9297.00000    0.93440    1.62380    1.96470    2.32820    2.28180   -9999.25   -9999.25   -9999.25   97.56860  200.08330   -9999.25   -9999.25   -9999.25   -9999.25   -9999.25    4.79470 4846.40340 4885.44170 4895.69940   -9999.25
 9297.50000    0.95310    1.66570    1.99940    2.42180    2.37950   -9999.25   -9999.25   -9999.25   95.40210  203.91970   -9999.25   -9999.25   -9999.25   -9999.25   -9999.25    4.77470 4814.45440 4876.61790 4884.35880   -9999.25
 9298.00000    0.94390    1.67330    1.99940    2.37970    2.33820   -9999.25   -9999.25   -9999.25   95.79310  209.67430   -9999.25   -9999.25   -9999.25   -9999.25   -9999.25    4.75480 4844.65140 4875.34260 4873.01820   -9999.25
 9298.50000    0.94410    1.65820    1.99940    2.36080    2.31960   -9999.25   -9999.25   -9999.25   95.50940  198.65500   -9999.25   -9999.25   -9999.25   -9999.25   -9999.25    4.80580 4818.22690 4875.95440 4861.67760   -9999.25
 9299.00000    0.94420    1.64310    1.97220    2.34840    2.30750   -9999.25   -9999.25   -9999.25   95.98920  199.38440   -9999.25   -9999.25   -9999.25   -9999.25   -9999.25    5.06160 4807.51220 4859.53280 4855.48410   -9999.25
 9299.50000    0.93570    1.62800    1.92700    2.29070    2.25080   -9999.25   -9999.25   -9999.25   96.50620  202.30400   -9999.25   -9999.25   -9999.25   -9999.25   -9999.25    5.25830 4807.51220 4860.39140 4857.01120   -9999.25
 9300.00000    0.93570    1.61890    1.88170    2.20690    2.16840   -9999.25   -9999.25   -9999.25   95.23480  201.04880   -9999.25   -9999.25   -9999.25   -9999.25   -9999.25    4.90100 4807.51220 4861.25000 4858.53830   -9999.25
 9300.50000    0.93570    1.61890    1.89070    2.23210    2.18340   -9999.25   -9999.25   -9999.25   94.09980  200.00660   -9999.25   -9999.25   -9999.25   -9999.25   -9999.25    5.09370 4807.51220 4862.10860 4860.06540   -9999.25
 9301.00000    0.95380    1.65610    1.98090    2.29880    2.25710   -9999.25   -9999.25   -9999.25   95.19790  199.12740   -9999.25   -9999.25   -9999.25   -9999.25   -9999.25    4.99370 4807.51220 4862.96720 4853.96840   -9999.25
 9301.50000    0.97340    1.72370    2.07110    2.38200    2.30760   -9999.25   -9999.25   -9999.25   93.52620  198.43220   -9999.25   -9999.25   -9999.25   -9999.25   -9999.25    4.15640 4807.51220 4861.65190 4847.87140   -9999.25
 9302.00000    0.99370    1.79140    2.16140    2.46940    2.35100   -9999.25   -9999.25   -9999.25   92.76870  197.87890   -9999.25   -9999.25   -9999.25   -9999.25   -9999.25    4.51860 4807.51220 4858.12640 4841.77450   -9999.25
 9302.50000    1.01580    1.85900    2.25160    2.50100    2.35280   -9999.25   -9999.25   -9999.25   93.29480  201.48650   -9999.25   -9999.25   -9999.25   -9999.25   -9999.25    5.25870 4807.51220 4847.93400 4835.67750   -9999.25
 9303.00000    1.02840    1.92660    2.32380    2.60310    2.41200   -9999.25   -9999.25   -9999.25   94.79140  211.27770   -9999.25   -9999.25   -9999.25   -9999.25   -9999.25    5.16270 4807.51220 4839.78000 4844.44410   -9999.25
 9303.50000    1.01930    1.94140    2.27460    2.75770    2.53360   -9999.25   -9999.25   -9999.25   95.18820  212.18570   -9999.25   -9999.25   -9999.25   -9999.25   -9999.25    5.04280 4783.67790 4874.73130 4856.92660   -9999.25
 9304.00000    1.00150    1.86330    2.17360    2.66970    2.47360   -9999.25   -9999.25   -9999.25  101.03800  215.16520   -9999.25   -9999.25   -9999.25   -9999.25   -9999.25    4.92280 4781.19790 4888.32780 4869.40900   -9999.25
 9304.50000    0.97620    1.78520    2.07260    2.44970    2.33180   -9999.25   -9999.25   -9999.25   97.96490  219.06170   -9999.25   -9999.25   -9999.25   -9999.25   -9999.25    4.91810 4778.71790 4856.78550 4859.76260   -9999.25
 9305.00000    0.96790    1.70710    2.01190    2.32860    2.18900   -9999.25   -9999.25   -9999.25   94.69510  203.71630   -9999.25   -9999.25   -9999.25   -9999.25   -9999.25    4.99360 4776.23790 4825.24320 4842.87480   -9999.25
 9305.50000    0.96040    1.67570    2.01190    2.31770    2.21210   -9999.25   -9999.25   -9999.25   93.82790  201.67330   -9999.25   -9999.25   -9999.25   -9999.25    0.30080    4.28330 4773.75790 4793.70080 4827.86490   -9999.25
 9306.00000    0.95390    1.65480    2.01190    2.31770    2.25180   -9999.25   -9999.25   -9999.25   89.20250  205.76440   -9999.25   -9999.25   -9999.25   -9999.25    0.29420    5.25400 4733.92460 4781.84040 4812.85490   -9999.25
 9306.50000    0.94260    1.63510    1.97070    2.31770    2.23300   -9999.25   -9999.25   -9999.25   90.30960  204.50840   -9999.25   -9999.25   -9999.25   -9999.25    0.30050    5.23100 4723.11750 4799.50280 4805.22400   -9999.25
 9307.00000    0.92740    1.61690    1.91920    2.24840    2.19360   -9999.25   -9999.25   -9999.25   90.70670  204.74590   -9999.25   -9999.25   -9999.25   -9999.25    0.30080    5.20810 4754.42480 4817.16520 4812.09880   -9999.25
