~Version ---------------------------------------------------
VERS.   2.0 : CWLS log ASCII Standard -VERSION 2.0
WRAP.    NO : One line per depth step
DLM . SPACE : Column Data Section Delimiter
~Well ------------------------------------------------------
STRT .FT               1450.0 : START DEPTH
STOP .FT               9380.0 : STOP DEPTH
STEP .FT                  0.5 : STEP
NULL .               -9999.25 : NULL VALUE
COMP .                        : COMPANY
WELL .                        : WELL
FLD  .                        : FIELD
LOC  .                        : LOCATION
PROV .                        : PROVINCE
CNTY .                        : COUNTY
STAT .                        : STATE
CTRY .                        : COUNTRY
SRVC .                        : SERVICE COMPANY
DATE .                        : DATE
UWI  .                        : UNIQUE WELL ID
API  .                        : API NUMBER
SLAT .WGS84 4.551584023272596 : SURFACE LATITUDE
SLON .WGS84 2.128099622465001 : SURFACE LONGITUDE
DATUM.F                   nan : DEPTH DATUM ELEV
~Curve Information -----------------------------------------
DEPT   .FT    : 
AT10   .OHMM  : ARRAY INDUCTION TWO FOOT RESISTIVITY A10
AT20   .OHMM  : ARRAY INDUCTION TWO FOOT RESISTIVITY A20
AT30   .OHMM  : ARRAY INDUCTION TWO FOOT RESISTIVITY A30
AT60   .OHMM  : ARRAY INDUCTION TWO FOOT RESISTIVITY A60
AT90   .OHMM  : ARRAY INDUCTION TWO FOOT RESISTIVITY A90
CALR   .IN    : CALIPER FROM RESISTIVITY LOG
CALS   .IN    : CALIPER FROM SONIC LOG
DPHZ_LS.DEC   : HGRD STANDARD RESOLUTION DENSITY POROSITY
DTCO   .US/F  : DELTA-T COMPRESSIONAL
DTSM   .US/F  : DELTA-T SHEAR
GRD    .GAPI  : GAMMA RAY FROM DENSITY LOG
HDRA   .G/C3  : HRDD SPINE AND RIBS DENSITY CORRECTION
PEFZ   .B/E   : HRDD STANDARD RESOLUTION FORMATION PHOTOELECTRIC FACTOR
RHOZ   .G/C3  : HRDD STANDARD RESOLUTION FORMATION DENSITY
SPHI_LS.DEC   : SONIC POROSITY [LIMESTONE]
SPR    .MV    : SPONTANEOUS POTENTIAL FROM RESISTIVITY LOG
TEND   .LB    : TENSION FROM DENSITY LOG
TENR   .LB    : TENSION FROM RESISTIVITY LOG
TENS   .LB    : TENSION FROM SONIC LOG
TNPH_LS.DEC   : THERMAL NEUTRON POROSITY [LIMESTONE]
~Params ----------------------------------------------------
~Other -----------------------------------------------------
~ASCII -----------------------------------------------------
# ...
 2027.50000    1.28690    1.83120    2.01930    2.52440    2.92920   12.05680   12.04470    0.26710  121.32710  105.56720  107.95390    0.01080    3.47380    2.25500   -9999.25  -15.34530 2960.43520 3057.82750 3042.88220    0.40720
 2028.00000    1.27060    1.80830    1.96820    2.38100    2.78960   12.10220   12.15490    0.26490  118.99430   98.89750  107.80240    0.01230    3.47230    2.26740   -9999.25  -16.78270 2986.06820 3064.44170 3043.14700    0.40450
 2028.50000    1.26210    1.81970    1.93750    2.30220    2.59440   12.09530   12.22110    0.25570  123.86890   92.05310  106.72060    0.01400    3.44770    2.29960   -9999.25  -18.22010 2960.38910 3004.84740 3039.20230    0.38890
 2029.00000    1.32690    1.91330    2.01180    2.42820    2.71970   12.08830   12.09990    0.22700  123.39270   89.47560  111.19040    0.03130    3.39670    2.35440   -9999.25  -19.31870 2960.12780 2982.66930 3029.07580    0.36980
 2029.50000    1.56650    2.67840    3.28630    3.32400    3.62930   12.21000   12.17070    0.18900  122.74660   89.54220  113.22800    0.03060    3.35140    2.39790   -9999.25  -20.32180 2946.36740 2960.49120 3018.94920    0.30170
 2030.00000    1.90530    3.55850    4.53530    5.91870    6.08330   12.34240   12.32860    0.20080  116.46990   89.14510  114.37140    0.02670    3.46120    2.33570   -9999.25  -21.32480 2940.99390 2941.69580 3008.82270    0.29830
 2030.50000    2.13080    4.11230    5.35150    8.09540    8.19760   12.39450   12.48650    0.24300  108.81820   88.14570  109.71620    0.02280    3.73820    2.25250   -9999.25  -22.18160 2948.20070 2941.60040 2998.69620    0.19200
 2031.00000    1.94800    3.81960    3.98530    6.31110    5.98930   13.01630   13.24190    0.28510   77.17640  133.45490  104.86310    0.02050    3.92060    2.18970    0.21330  -22.45330 2929.25650 2952.32500 2988.56960    0.20230
 2031.50000    1.91650    3.62750    3.93560    5.30160    5.49710   14.40090   14.61800    0.26320   83.63220  164.47280   99.94920    0.03250    3.84880    2.28870    0.25360  -22.72500 2943.81760 2939.97450 2978.44310    0.22370
 2032.00000    2.14600    4.03050    5.30960    7.87760    8.15150   12.59830   12.67710    0.20440   90.89220  167.48370   94.35370    0.03900    3.60980    2.41070    0.29940  -22.52930 2948.49950 2927.62400 2968.31660    0.24540
 2032.50000    2.34540    4.51790    6.62340   10.46910   12.09850   12.54930   12.53070    0.18010  100.40070  166.05530   94.79370    0.02700    3.50590    2.35950    0.29980  -23.08150 2946.59510 2915.27340 2958.19000    0.23660
 2033.00000    2.13700    3.69780    5.01270    6.75750    7.71300   12.67430   12.71790    0.25930  109.09720  174.95240   91.40190    0.01500    4.06210    2.17990   -9999.25  -23.19200 2944.69080 2947.59280 2962.08010    0.22900
 2033.50000    1.61380    2.65440    2.60170    3.73550    4.01340   12.34010   12.21670    0.29900  102.86890  189.97740   87.66730    0.01420    4.77020    1.99870   -9999.25  -22.98810 2942.78650 2989.20000 2965.97010    0.25660
 2034.00000    1.31280    1.81970    1.97880    2.36240    2.51140   13.69920   13.97780    0.29970   96.73340  201.43540   91.63640    0.04050    5.43620    1.79280   -9999.25  -22.98810 2886.45820 2958.22200 2969.86020    0.29990
 2034.50000    1.26810    1.74150    1.83120    2.10210    2.30940   15.39820   15.52230    0.30000   93.61580  206.62910   99.30120    0.07850    5.48360    1.90320   -9999.25  -24.00750 2885.69710 2927.24400 2973.75020    0.38110
 2035.00000    1.39130    1.79700    2.13020    2.41660    2.56540   15.18530   15.07730    0.29970  104.44560  206.12360   98.67760    0.11650    4.76580    2.08040   -9999.25  -27.06560 2884.93600 2923.18570 2977.64030    0.38660
 2035.50000    1.60130    2.34390    2.65880    2.86300    3.09870   14.22930   14.22870    0.26570  101.38470  196.38800   96.28000    0.11920    3.94280    2.32010    0.29950  -29.51210 2903.36070 2937.07380 2981.53030    0.30050
 2036.00000    1.79490    2.87950    3.14020    3.24030    3.68480   13.09220   13.14660    0.17990   98.74020  184.75650   92.78160    0.09460    3.34260    2.41530    0.29950  -30.32760 2908.75950 2936.01360 2985.42040    0.26860
 2036.50000    1.76620    2.89070    2.99930    3.06110    3.30210   12.49400   12.53410    0.15820   84.23830  181.67670   93.04260    0.04800    3.02100    2.44000    0.25820  -30.32760 2808.28200 2924.98770 2971.81080    0.21620
 2037.00000    1.68960    2.65110    2.83600    2.86240    2.91260   12.53250   12.51190    0.16460   86.98430  181.15600   94.64190    0.01850    2.89850    2.42910    0.26960  -29.37620 2877.69960 2913.96190 2954.79810    0.22290
 2037.50000    1.68560    2.55320    2.80500    2.83450    2.85830   12.55750   12.62260    0.18670   91.27050  175.44230   95.25220    0.01480    2.97670    2.39910    0.29550  -28.53350 2900.12310 2908.15080 2944.59110    0.23570
 2038.00000    1.70480    2.38300    2.61750    2.78750    2.96790   12.56450   12.78590    0.23380   95.84700  179.00600   97.59400    0.02570    3.35340    2.32540    0.29950  -28.26170 2899.50920 2903.25060 2930.98090    0.26080
 2038.50000    1.63760    2.12690    2.36510    2.57630    2.77010   12.57000   12.51370    0.28090  100.41190  193.25320   99.49510    0.04470    3.80160    2.23670    0.29950  -27.98990 2893.13590 2925.16550 2938.74890    0.29340
 2039.00000    1.56160    1.96190    2.11270    2.38260    2.43510   12.66630   12.96290    0.29960  102.23010  201.65860  101.39620    0.06750    4.15690    2.14800    0.29950  -27.47340 2886.76270 2942.61860 2946.51700    0.36910
 2039.50000    1.57640    1.93750    1.98670    2.26640    2.36810   13.34590   13.39160    0.29930   99.19860  196.98670  101.29120    0.08530    4.28490    2.12400    0.29950  -27.06570 2944.49680 2955.34360 2954.28500    0.35020
 2040.00000    1.70250    2.03720    2.31890    2.44100    2.54740   13.07400   13.06490    0.28360   96.86120  200.25160   96.96390    0.09600    3.91030    2.27220    0.29950  -27.88080 2918.77050 2946.75080 2962.05300    0.31440
 2040.50000    1.88220    2.43960    2.65110    2.77010    2.91260   14.78660   14.31550    0.20560   92.40600  193.30080   95.07950    0.08010    3.41140    2.35890    0.29950  -29.71570 2942.40240 2942.58930 2969.82110    0.27530
 2041.00000    2.00630    2.89440    2.66780    2.77010    2.84040   13.00350   12.79950    0.17960   88.60050  186.41140   92.94800    0.03920    3.13640    2.40220    0.29900  -31.24480 2916.15000 2986.59280 2977.58910    0.24770
 2041.50000    2.00820    2.89440    2.57250    2.67540    2.55690   12.67990   12.79650    0.18020   85.28070  179.34230   94.14780    0.01990    3.02870    2.40380    0.26500  -32.77380 2932.87230 3020.73270 2985.35710    0.23290
 2042.00000    1.97170    2.84040    2.49960    2.59810    2.40550   12.35370   12.39900    0.18280   88.02110  173.88860   89.01430    0.00810    2.98420    2.39710    0.28270  -33.99710 2944.71960 3019.86420 2993.12520    0.21260
 2042.50000    1.91820    2.72010    2.42670    2.52080    2.30940   12.50320   12.47060    0.17700   88.93120  171.47710   91.01440    0.00130    2.98910    2.40620    0.29140  -34.67670 2938.62320 3027.32550 3000.89320    0.21000
 2043.00000    1.92360    2.58540    2.38300    2.48990    2.27200   12.66630   12.73830    0.17590   90.15520  176.42780   90.57010    0.00590    3.11050    2.41050    0.29890  -35.35630 2935.73550 2976.69430 2999.38510    0.21940
 2043.50000    1.99900    2.58540    2.48220    2.54260    2.20020   12.61190   12.63940    0.18510   89.95030  182.43050   88.50820    0.01170    3.24610    2.39750    0.29240  -35.71100 2939.58580 2962.17530 2994.28220    0.22880
 2044.00000    2.00530    2.65110    2.48990    2.50560    2.26840   12.48960   12.53580    0.19740   94.66930  181.04610   85.20070    0.02090    3.34390    2.37570    0.29920  -34.53700 2943.43610 2961.57940 2989.17930    0.23530
 2044.50000    1.84620    2.34110    2.24310    2.35000    2.25220   12.33560   12.38760    0.20800   99.38830  177.58520   89.37600    0.02970    3.40030    2.36020    0.29930  -31.14120 2947.28650 2978.75000 2985.09700    0.24650
