~Version ---------------------------------------------------
VERS.   2.0 : CWLS log ASCII Standard -VERSION 2.0
WRAP.    NO : One line per depth step
DLM . SPACE : Column Data Section Delimiter
~Well ------------------------------------------------------
STRT .F                 317.0 : START DEPTH
STOP .F                5799.0 : STOP DEPTH
STEP .F                   0.5 : STEP
NULL .               -9999.25 : NULL VALUE
COMP .                        : COMPANY
WELL .                        : WELL
FLD  .                        : FIELD
LOC  .                        : LOCATION
PROV .                        : PROVINCE
CNTY .                        : COUNTY
STAT .                        : STATE
CTRY .                        : COUNTRY
SRVC .                        : SERVICE COMPANY
DATE .                        : DATE
UWI  .                        : UNIQUE WELL ID
API  .                        : API NUMBER
SLAT .WGS84 7.069063439464898 : SURFACE LATITUDE
SLON .WGS84 2.933435631362002 : SURFACE LONGITUDE
DATUM.F               1180.98 : DEPTH DATUM ELEV
~Curve Information -----------------------------------------
DEPT   .F     : 
GRR    .GAPI  : GAMMA RAY FROM RESISTIVITY LOG
SPR    .MV    : SPONTANEOUS POTENTIAL FROM RESISTIVITY LOG
ILM    .OHMM  : INDUCTION MEDIUM RESISTIVITY
CIDP   .MMHO  : INCUCTION DEEP PHASOR CONDUCTIVITY
IDPH   .OHMM  : INDUCTION DEEP PHASOR RESISTIVITY
SFLU   .OHMM  : SHALLOW FOCUSED RESISTIVITY (UNAVERAGED)
DTCO   .US/F  : DELTA-T COMPRESSIONAL
DTSM   .US/F  : DELTA-T SHEAR
CALD   .IN    : CALIPER FROM DENSITY LOG
DRHO   .G/C3  : BULK DENSITY CORRECTION
DPHI_LS.DEC   : DENSITY POROSITY LIMESTONE
NPHI_LS.DEC   : NEUTRON POROSITY LIMESTONE
PEF    .B/E   : PHOTOELECTRIC FACTOR
RHOB   .G/C3  : BULK DENSITY
~Params ----------------------------------------------------
~Other -----------------------------------------------------
~ASCII -----------------------------------------------------
# ...
 3992.00000  107.76490  -27.37890    5.39930   -9999.25    5.04270    6.14180   80.35420  152.80710    8.74660   -0.01020    0.05970    0.25060    3.45580    2.60840
 3992.50000  115.83630  -27.99520    5.39820   -9999.25    5.02210    6.14240   80.53830  153.49210    8.74100   -0.00920    0.05550    0.25480    3.48400    2.61430
 3993.00000  119.64120  -28.01270    5.32000   -9999.25    4.98490    6.31570   80.47480  154.68240    8.73870   -0.00770    0.04980    0.25750    3.45850    2.62550
 3993.50000  119.17880  -28.03020    5.16990   -9999.25    4.96890    6.31640   80.38500  155.87350    8.74880   -0.00670    0.04680    0.26050    3.48130    2.63040
 3994.00000  115.27420  -28.04790    5.10330   -9999.25    4.96760    6.40530   80.38280  157.06430    8.75650   -0.00600    0.04990    0.26470    3.36640    2.62400
 3994.50000  111.66890  -28.06590    5.09020   -9999.25    4.96620    6.26000   80.59800  158.13380    8.76560   -0.00600    0.05400    0.26750    3.25550    2.61620
 3995.00000  109.26170  -28.08380    5.03080   -9999.25    4.99260    6.14540   81.11500  158.72430    8.75630   -0.00880    0.05630    0.26230    3.23970    2.61240
 3995.50000  110.14440  -28.10180    5.02970   -9999.25    5.03290    6.06130   81.71190  159.44980    8.75350   -0.01080    0.05640    0.24700    3.30310    2.61270
 3996.00000  114.17390  -28.11980    5.02870   -9999.25    5.03150    6.06190   82.00590  159.90540    8.75020   -0.01090    0.05390    0.23970    3.24570    2.61940
 3996.50000  112.36500  -28.13770    5.02760   -9999.25    5.08560    6.14730   81.61570  160.49590    8.75100   -0.00750    0.05350    0.24110    3.04520    2.61740
 3997.00000  111.00520  -27.94780    5.02660   -9999.25    5.17030    6.23370   80.94590  160.33640    8.75100    0.00680    0.05730    0.25630    2.95270    2.61300
 3997.50000  110.99270  -27.57140    5.02550   -9999.25    5.16870    6.26340   80.34520  159.89610    8.74850    0.01990    0.05290    0.27110    3.09080    2.61660
 3998.00000  114.12390  -27.15770    5.09480   -9999.25    5.23960    6.23490   79.98020  159.29970    8.75480    0.01940    0.05350    0.27690    3.30860    2.61810
 3998.50000  119.50060  -26.41320    5.09370   -9999.25    5.31160    6.23560   79.62050  159.11950    8.74550    0.00940    0.04950    0.28000    3.45380    2.62390
 3999.00000  123.82760  -26.43110    5.09260   -9999.25    5.45960    6.15030   79.46990  158.51630    8.73610    0.00270    0.04470    0.27620    3.51970    2.63250
 3999.50000  121.26850  -25.25490    5.16260   -9999.25    5.45810    6.23680   79.31940  157.31930    8.72680   -0.00370    0.05000    0.26880    3.48830    2.62490
 4000.00000  111.60260  -25.59030    5.18820   -9999.25    5.53300    6.59330   79.31710  155.72550    8.69400   -0.00710    0.05690    0.26480    3.35130    2.61290
 4000.50000  112.12350  -26.59600    5.26840   -9999.25    5.49360    6.87340   79.31490  155.12310    8.66580   -0.00910    0.05580    0.26290    3.25310    2.61360
 4001.00000  109.42730  -27.06590    5.34850   -9999.25    5.45410    6.87340   79.31270  154.52080    8.73420   -0.00960    0.04680    0.26350    3.33970    2.62820
 4001.50000  105.98180  -27.66470    5.42860   -9999.25    5.41470    6.81040   79.31050  153.91840    8.82880   -0.00880    0.04070    0.26120    3.47310    2.63860
 4002.00000  105.97890  -28.26350    5.50880   -9999.25    5.36600    6.50250   79.30830  153.90950    8.84400   -0.00630    0.04250    0.25570    3.51480    2.63750
 4002.50000  107.32400  -28.39860    5.37580   -9999.25    5.21530    6.41290   79.15770  153.30710    8.84230   -0.00200    0.04590    0.25070    3.36990    2.63100
 4003.00000  109.56730  -28.86230    5.30030   -9999.25    5.15740    6.41290   79.30390  152.70470    8.84050    0.00090    0.04820    0.24850    3.31900    2.62680
 4003.50000  112.70880  -28.86230    5.29920   -9999.25    5.15670    6.50250   79.45010  152.69580    8.83880   -0.00340    0.04940    0.24740    3.38680    2.62500
 4004.00000  114.50300  -29.46110    5.29810   -9999.25    5.15600    6.50250   79.59640  152.68690    8.82770   -0.00780    0.05420    0.24650    3.32340    2.61870
 4004.50000  113.60260  -29.46110    5.37120   -9999.25    5.15530    6.50250   79.89080  153.27150    8.80980   -0.01070    0.05880    0.24650    3.24860    2.61080
 4005.00000  113.15130  -29.46110    5.37010   -9999.25    5.22670    6.50250   80.18530  154.44950    8.82110   -0.00880    0.05440    0.24670    3.28830    2.61530
 4005.50000  114.94550  -29.46110    5.36900   -9999.25    5.31600    6.50250   80.33160  155.62750    8.83240   -0.00580    0.04630    0.24740    3.38330    2.62880
 4006.00000  116.73970  -29.46110    5.36790   -9999.25    5.39120    6.41290   80.62600  156.21370    8.84060   -0.00170    0.04130    0.25100    3.43110    2.63810
 4006.50000  115.09020  -29.46110    5.36680   -9999.25    5.44680    6.32460   80.77230  156.79820    8.84170    0.00090    0.04350    0.25640    3.49090    2.63580
 4007.00000  114.93880  -29.46110    5.36570   -9999.25    5.44610    6.23740   80.76990  156.78770    8.83310   -0.00010    0.04860    0.26560    3.62030    2.62820
 4007.50000  119.42790  -29.46110    5.36460   -9999.25    5.44520    6.32460   80.47100  157.37390    8.86970   -0.00330    0.05330    0.27100    3.63580    2.62000
 4008.00000  120.17260  -29.46110    5.36350   -9999.25    5.44440    6.44280   80.17210  157.36340    8.88710   -0.00350    0.05370    0.27230    3.51510    2.61820
 4008.50000  109.39200  -28.75660    5.36240   -9999.25    5.44370    6.50250   80.02150  157.35450    8.90450    0.00030    0.05220    0.26930    3.63820    2.61960
 4009.00000  103.92650  -27.77860    5.32010   -9999.25    5.44290    6.50250   80.16760  156.75210    8.92200    0.00000    0.05270    0.26540    3.65690    2.61960
 4009.50000  102.12800  -27.06590    5.28630   -9999.25    5.44220    6.50250   80.16550  155.55620    8.90640   -0.00270    0.05430    0.25860    3.50460    2.61680
 4010.00000  113.57790  -26.70640    5.35910   -9999.25    5.44150    6.36880   80.46000  155.54730    8.89960   -0.00470    0.05320    0.25190    3.45060    2.61820
 4010.50000  131.09070  -25.86830    5.32990   -9999.25    5.44070    6.19450   80.75450  156.72540    8.89160   -0.00660    0.05200    0.24680    3.43830    2.62020
 4011.00000  129.06740  -25.26950    5.35690   -9999.25    5.44000    6.10910   80.90070  157.31160    8.95500   -0.00750    0.05150    0.25090    3.43330    2.62020
 4011.50000  127.94240  -25.26950    5.35570   -9999.25    5.43930    5.94200   80.58850  158.48800    8.96080   -0.00820    0.04980    0.26210    3.35590    2.62380
 4012.00000  127.94010  -25.26950    5.35450   -9999.25    5.43850    5.94200   80.30270  158.47900    8.95770   -0.00890    0.04960    0.26840    3.22340    2.62460
 4012.50000  113.12000  -25.34410    5.35340   -9999.25    5.43770    5.98320   80.28190  158.47010    8.95460   -0.00940    0.04970    0.27270    3.28160    2.62480
 4013.00000  107.87600  -26.56920    5.35230   -9999.25    5.43700    6.12320   80.10740  157.86780    8.95130   -0.00970    0.04830    0.27430    3.48380    2.62620
 4013.50000  109.07100  -27.19450    5.36370   -9999.25    5.43620    6.20870   79.67850  157.26540    8.95670   -0.00990    0.05030    0.27030    3.55500    2.62220
 4014.00000  112.66150  -27.82010    5.41360   -9999.25    5.43540    6.38340   79.40360  156.06950    8.96410   -0.01000    0.05430    0.26440    3.48240    2.61580
 4014.50000  113.55750  -28.86230    5.42380   -9999.25    5.43470    6.41290   79.54990  154.87370    8.97460   -0.00810    0.05340    0.25970    3.43370    2.61930
 4015.00000  123.43550  -29.26650    5.49830   -9999.25    5.43400    6.41290   79.72800  154.27130    8.98510   -0.00460    0.05130    0.26060    3.39290    2.62440
 4015.50000  127.02620  -29.46110    5.49740   -9999.25    5.46600    6.32460   79.87680  153.66890    8.99260   -0.00480    0.04770    0.26730    3.37450    2.63010
 4016.00000  129.71860  -29.46110    5.52390   -9999.25    5.50860    6.23740   79.98840  154.84690    8.99080   -0.00750    0.04360    0.27150    3.32850    2.63510
