~Version ---------------------------------------------------
VERS.   2.0 : CWLS log ASCII Standard -VERSION 2.0
WRAP.    NO : One line per depth step
DLM . SPACE : Column Data Section Delimiter
~Well ------------------------------------------------------
STRT .F                 317.0 : START DEPTH
STOP .F                5799.0 : STOP DEPTH
STEP .F                   0.5 : STEP
NULL .               -9999.25 : NULL VALUE
COMP .                        : COMPANY
WELL .                        : WELL
FLD  .                        : FIELD
LOC  .                        : LOCATION
PROV .                        : PROVINCE
CNTY .                        : COUNTY
STAT .                        : STATE
CTRY .                        : COUNTRY
SRVC .                        : SERVICE COMPANY
DATE .                        : DATE
UWI  .                        : UNIQUE WELL ID
API  .                        : API NUMBER
SLAT .WGS84 7.069063439464898 : SURFACE LATITUDE
SLON .WGS84 2.933435631362002 : SURFACE LONGITUDE
DATUM.F               1180.98 : DEPTH DATUM ELEV
~Curve Information -----------------------------------------
DEPT   .F     : 
GRR    .GAPI  : GAMMA RAY FROM RESISTIVITY LOG
SPR    .MV    : SPONTANEOUS POTENTIAL FROM RESISTIVITY LOG
ILM    .OHMM  : INDUCTION MEDIUM RESISTIVITY
CIDP   .MMHO  : INCUCTION DEEP PHASOR CONDUCTIVITY
IDPH   .OHMM  : INDUCTION DEEP PHASOR RESISTIVITY
SFLU   .OHMM  : SHALLOW FOCUSED RESISTIVITY (UNAVERAGED)
DTCO   .US/F  : DELTA-T COMPRESSIONAL
DTSM   .US/F  : DELTA-T SHEAR
CALD   .IN    : CALIPER FROM DENSITY LOG
DRHO   .G/C3  : BULK DENSITY CORRECTION
DPHI_LS.DEC   : DENSITY POROSITY LIMESTONE
NPHI_LS.DEC   : NEUTRON POROSITY LIMESTONE
PEF    .B/E   : PHOTOELECTRIC FACTOR
RHOB   .G/C3  : BULK DENSITY
~Params ----------------------------------------------------
~Other -----------------------------------------------------
~ASCII -----------------------------------------------------
# ...
 2571.00000   72.31590  -36.58480   -9999.25  319.51750    3.42240    4.04220   83.78180  180.17330   -9999.25   -9999.25   -9999.25   -9999.25   -9999.25   -9999.25
 2571.50000   76.67770  -36.59340   -9999.25  322.71950    3.42060    3.66100   79.75360  179.21120   -9999.25   -9999.25   -9999.25   -9999.25   -9999.25   -9999.25
 2572.00000   78.93070  -36.60240   -9999.25  318.19230    3.41870    3.54820   78.32060  183.80120   -9999.25   -9999.25   -9999.25   -9999.25   -9999.25   -9999.25
 2572.50000   80.80720  -36.34550   -9999.25  306.51030    3.41680    3.54650   80.53700  188.97080   -9999.25   -9999.25   -9999.25   -9999.25   -9999.25   -9999.25
 2573.00000   74.25120  -36.01810   -9999.25  268.58870    3.42170    3.76760   82.48970  198.93360   -9999.25   -9999.25   -9999.25   -9999.25   -9999.25   -9999.25
 2573.50000   63.55220  -36.02710   -9999.25  215.97760    3.56340    4.69450   85.08800  206.20880   -9999.25   -9999.25   -9999.25   -9999.25   -9999.25   -9999.25
 2574.00000   52.85310  -36.03690   -9999.25  166.02330    3.98950    7.28730   87.96160  210.94240   -9999.25   -9999.25   -9999.25   -9999.25   -9999.25   -9999.25
 2574.50000   45.24210  -35.59020   -9999.25  130.21750    6.20530   11.32480   82.69340  211.81650   -9999.25   -9999.25   -9999.25   -9999.25   -9999.25   -9999.25
 2575.00000   41.84840  -35.10030   -9999.25   71.15890   10.74920   15.00990   75.86870  197.56820   -9999.25   -9999.25   -9999.25   -9999.25   -9999.25   -9999.25
 2575.50000   47.48930  -34.61040   -9999.25   55.44100   16.39070   15.58560   68.69390  175.42940   -9999.25   -9999.25   -9999.25   -9999.25   -9999.25   -9999.25
 2576.00000   47.71050  -34.26510   -9999.25   51.78730   20.07300   14.43530   62.35590  160.39910   -9999.25   -9999.25   -9999.25   -9999.25   -9999.25   -9999.25
 2576.50000   45.21980  -34.23290   -9999.25   61.53340   22.52800   12.12800   58.54240  148.77330   -9999.25   -9999.25   -9999.25   -9999.25   -9999.25   -9999.25
 2577.00000   46.79610  -33.68190   -9999.25  109.13880   22.63250    8.90280   57.48370  129.48140   -9999.25   -9999.25   -9999.25   -9999.25   -9999.25   -9999.25
 2577.50000   55.97820  -33.68980   -9999.25  228.78860   14.01420    5.65810   55.03330  121.21640   -9999.25   -9999.25   -9999.25   -9999.25   -9999.25   -9999.25
 2578.00000   65.76000  -33.36560   -9999.25  269.90860    5.44440    4.28310   56.17330  118.59980   -9999.25   -9999.25   -9999.25   -9999.25   -9999.25   -9999.25
 2578.50000   72.53220  -32.87560   -9999.25  423.90000    3.30090    3.66250   62.06010  126.98900   -9999.25   -9999.25   -9999.25   -9999.25   -9999.25   -9999.25
 2579.00000   77.04500  -32.51200   -9999.25  532.72880    2.31700    3.23420   65.64750  136.03260   -9999.25   -9999.25   -9999.25   -9999.25   -9999.25   -9999.25
 2579.50000   79.59970  -32.52110   -9999.25  580.99630    1.73350    2.78820   72.10910  148.69000   -9999.25   -9999.25   -9999.25   -9999.25   -9999.25   -9999.25
 2580.00000   80.57230  -32.53160   -9999.25  591.86580    1.52110    2.42470   93.55100  175.86610   -9999.25   -9999.25   -9999.25   -9999.25   -9999.25   -9999.25
 2580.50000   77.93150  -32.53920   -9999.25  577.24210    1.34860    2.29880   96.34130  197.83690   -9999.25   -9999.25   -9999.25   -9999.25   -9999.25   -9999.25
 2581.00000   71.52630  -32.54820   -9999.25  530.40530    1.38630    2.16560   91.87300  210.40910   -9999.25   -9999.25   -9999.25   -9999.25   -9999.25   -9999.25
 2581.50000   63.31230  -32.76910   -9999.25  477.79850    1.63520    2.28120   90.91770  216.77280   -9999.25   -9999.25   -9999.25   -9999.25   -9999.25   -9999.25
 2582.00000   52.38740  -33.27710   -9999.25  394.05560    1.89320    2.67680   89.11980  219.44250   -9999.25   -9999.25   -9999.25   -9999.25   -9999.25   -9999.25
 2582.50000   42.66740  -33.78520   -9999.25  313.41650    2.47520    3.36670   87.17990  218.63460   -9999.25   -9999.25   -9999.25   -9999.25   -9999.25   -9999.25
 2583.00000   37.39040  -34.39330   -9999.25  257.33520    3.20620    4.19730   89.87670  213.61970   -9999.25   -9999.25   -9999.25   -9999.25   -9999.25   -9999.25
 2583.50000   33.62030  -34.80130   -9999.25  211.09190    4.00260    4.91780   93.28840  203.40560   -9999.25   -9999.25   -9999.25   -9999.25   -9999.25   -9999.25
 2584.00000   36.24970  -35.30930   -9999.25  189.92220    4.53620    5.46970   92.24910  192.67470   -9999.25   -9999.25   -9999.25   -9999.25   -9999.25   -9999.25
 2584.50000   41.59040  -35.81720   -9999.25  178.57030    4.72700    5.57870   92.30220  181.00040   -9999.25   -9999.25   -9999.25   -9999.25   -9999.25   -9999.25
 2585.00000   46.47980  -36.23490   -9999.25  171.28620    4.72520    5.53340   89.28030  172.64380   -9999.25   -9999.25   -9999.25   -9999.25   -9999.25   -9999.25
 2585.50000   50.16400  -36.24420   -9999.25  175.83180    4.72290    5.40750   83.64160  161.20320   -9999.25   -9999.25   -9999.25   -9999.25   -9999.25   -9999.25
 2586.00000   52.86920  -36.73890   -9999.25  194.90970    4.72140    5.28160   76.96430  151.57260   -9999.25   -9999.25   -9999.25   -9999.25   -9999.25   -9999.25
 2586.50000   54.36930  -37.24690   -9999.25  197.49220    4.71950    5.15040   70.43530  148.06540   -9999.25   -9999.25   -9999.25   -9999.25   -9999.25   -9999.25
 2587.00000   55.86940  -37.47590   -9999.25  203.48360    4.66410    4.85820   70.58310  146.97950   -9999.25   -9999.25   -9999.25   -9999.25   -9999.25   -9999.25
 2587.50000   58.27340  -37.66060   -9999.25  214.42050    4.53690    4.85690   71.76920  148.20950   -9999.25   -9999.25   -9999.25   -9999.25   -9999.25   -9999.25
 2588.00000   55.03000  -38.09640   -9999.25  232.34840    4.40960    4.77810   72.36190  149.38860   -9999.25   -9999.25   -9999.25   -9999.25   -9999.25   -9999.25
 2588.50000   48.47270  -38.10600   -9999.25  248.43310    4.25980    4.70330   73.39970  150.56800   -9999.25   -9999.25   -9999.25   -9999.25   -9999.25   -9999.25
 2589.00000   43.72320  -38.11450   -9999.25  251.83740    4.15510    4.70180   73.99250  151.74730   -9999.25   -9999.25   -9999.25   -9999.25   -9999.25   -9999.25
 2589.50000   42.58820  -38.12350   -9999.25  253.16960    4.10580    4.70030   75.03030  152.29100   -9999.25   -9999.25   -9999.25   -9999.25   -9999.25   -9999.25
 2590.00000   41.82960  -38.13250   -9999.25  255.47180    4.10390    4.69880   77.40350  151.61260   -9999.25   -9999.25   -9999.25   -9999.25   -9999.25   -9999.25
 2590.50000   41.67320  -37.98390   -9999.25  257.06330    4.10200    4.69730   80.07340  149.82970   -9999.25   -9999.25   -9999.25   -9999.25   -9999.25   -9999.25
 2591.00000   43.47470  -37.49390   -9999.25  249.37640    4.10020    4.76630   82.29810  148.11870   -9999.25   -9999.25   -9999.25   -9999.25   -9999.25   -9999.25
 2591.50000   46.78250  -36.95570   -9999.25  232.01780    4.09790    4.88920   82.38580  148.11280   -9999.25   -9999.25   -9999.25   -9999.25   -9999.25   -9999.25
 2592.00000   50.69300  -36.51400   -9999.25  212.05470    4.50610    4.99420   82.74180  148.79420   -9999.25   -9999.25   -9999.25   -9999.25   -9999.25   -9999.25
 2592.50000   55.20470  -36.37050   -9999.25  189.87120    5.31430    4.99240   84.22470  152.90790   -9999.25   -9999.25   -9999.25   -9999.25   -9999.25   -9999.25
 2593.00000   59.39510  -36.37950   -9999.25  169.89120    6.47110    4.99100   83.77890  155.29980   -9999.25   -9999.25   -9999.25   -9999.25   -9999.25   -9999.25
 2593.50000   62.19740  -36.52810   -9999.25  144.88200    7.90230    5.07940   84.07490  158.25620   -9999.25   -9999.25   -9999.25   -9999.25   -9999.25   -9999.25
 2594.00000   62.71870  -37.03600   -9999.25  121.63960    9.52830    5.32970   81.55190  160.54610   -9999.25   -9999.25   -9999.25   -9999.25   -9999.25   -9999.25
 2594.50000   60.90540  -37.61270   -9999.25  102.33830   11.31550    6.07600   72.94580  159.24640   -9999.25   -9999.25   -9999.25   -9999.25   -9999.25   -9999.25
 2595.00000   57.88820  -38.48380   -9999.25   85.61910   11.82220    8.01940   68.49400  151.47450   -9999.25   -9999.25   -9999.25   -9999.25   -9999.25   -9999.25
