~Version ---------------------------------------------------
VERS.   2.0 : CWLS log ASCII Standard -VERSION 2.0
WRAP.    NO : One line per depth step
DLM . SPACE : Column Data Section Delimiter
~Well ------------------------------------------------------
STRT .F                 317.0 : START DEPTH
STOP .F                5799.0 : STOP DEPTH
STEP .F                   0.5 : STEP
NULL .               -9999.25 : NULL VALUE
COMP .                        : COMPANY
WELL .                        : WELL
FLD  .                        : FIELD
LOC  .                        : LOCATION
PROV .                        : PROVINCE
CNTY .                        : COUNTY
STAT .                        : STATE
CTRY .                        : COUNTRY
SRVC .                        : SERVICE COMPANY
DATE .                        : DATE
UWI  .                        : UNIQUE WELL ID
API  .                        : API NUMBER
SLAT .WGS84 7.069063439464898 : SURFACE LATITUDE
SLON .WGS84 2.933435631362002 : SURFACE LONGITUDE
DATUM.F               1180.98 : DEPTH DATUM ELEV
~Curve Information -----------------------------------------
DEPT   .F     : 
GRR    .GAPI  : GAMMA RAY FROM RESISTIVITY LOG
SPR    .MV    : SPONTANEOUS POTENTIAL FROM RESISTIVITY LOG
ILM    .OHMM  : INDUCTION MEDIUM RESISTIVITY
CIDP   .MMHO  : INCUCTION DEEP PHASOR CONDUCTIVITY
IDPH   .OHMM  : INDUCTION DEEP PHASOR RESISTIVITY
SFLU   .OHMM  : SHALLOW FOCUSED RESISTIVITY (UNAVERAGED)
DTCO   .US/F  : DELTA-T COMPRESSIONAL
DTSM   .US/F  : DELTA-T SHEAR
CALD   .IN    : CALIPER FROM DENSITY LOG
DRHO   .G/C3  : BULK DENSITY CORRECTION
DPHI_LS.DEC   : DENSITY POROSITY LIMESTONE
NPHI_LS.DEC   : NEUTRON POROSITY LIMESTONE
PEF    .B/E   : PHOTOELECTRIC FACTOR
RHOB   .G/C3  : BULK DENSITY
~Params ----------------------------------------------------
~Other -----------------------------------------------------
~ASCII -----------------------------------------------------
# ...
 1860.50000   59.48790  -40.69500   -9999.25  187.56160    3.62410    4.49210   77.01890  144.55630   -9999.25   -9999.25   -9999.25   -9999.25   -9999.25   -9999.25
 1861.00000   64.38250  -40.55920   -9999.25  192.59860    3.35920    4.18700   79.14930  146.91580   -9999.25   -9999.25   -9999.25   -9999.25   -9999.25   -9999.25
 1861.50000   67.77110  -40.06580   -9999.25  204.41800    3.13140    3.89790   81.10140  149.38310   -9999.25   -9999.25   -9999.25   -9999.25   -9999.25   -9999.25
 1862.00000   70.78310  -39.49730   -9999.25  226.94220    2.88500    3.53970   82.05930  153.52000   -9999.25   -9999.25   -9999.25   -9999.25   -9999.25   -9999.25
 1862.50000   72.41820  -38.65840   -9999.25  252.54020    2.69830    3.26620   82.71760  157.06170   -9999.25   -9999.25   -9999.25   -9999.25   -9999.25   -9999.25
 1863.00000   73.34340  -38.29670   -9999.25  271.85980    2.57530    3.04290   82.98810  159.82210   -9999.25   -9999.25   -9999.25   -9999.25   -9999.25   -9999.25
 1863.50000   73.71990  -38.09180   -9999.25  284.40910    2.44710    2.79450   83.43150  160.90850   -9999.25   -9999.25   -9999.25   -9999.25   -9999.25   -9999.25
 1864.00000   74.09640  -37.69880   -9999.25  296.06550    2.15670    2.60440   84.61690  161.66930   -9999.25   -9999.25   -9999.25   -9999.25   -9999.25   -9999.25
 1864.50000   75.22590  -37.70110   -9999.25  309.75520    2.05570    2.41670   87.87950  164.62340   -9999.25   -9999.25   -9999.25   -9999.25   -9999.25   -9999.25
 1865.00000   77.25910  -37.21390   -9999.25  326.97020    1.85870    2.05450   90.69710  168.64410   -9999.25   -9999.25   -9999.25   -9999.25   -9999.25   -9999.25
 1865.50000   79.96990  -36.72040   -9999.25  351.98030    1.65910    1.90840   92.03090  175.87800   -9999.25   -9999.25   -9999.25   -9999.25   -9999.25   -9999.25
 1866.00000   80.72290  -36.50300   -9999.25  386.12870    1.53620    1.80570   93.95820  183.85620   -9999.25   -9999.25   -9999.25   -9999.25   -9999.25   -9999.25
 1866.50000   78.61450  -36.33590   -9999.25  419.36150    1.40550    1.68130   94.45200  188.17240   -9999.25   -9999.25   -9999.25   -9999.25   -9999.25   -9999.25
 1867.00000   79.96990  -35.90480   -9999.25  438.83800    1.40590    1.60620   92.32320  188.03900   -9999.25   -9999.25   -9999.25   -9999.25   -9999.25   -9999.25
 1867.50000   90.88860  -35.90760   -9999.25  448.28650    1.40630    1.65100   88.01910  184.71940   -9999.25   -9999.25   -9999.25   -9999.25   -9999.25   -9999.25
 1868.00000   96.38560  -35.90960   -9999.25  451.65630    1.52910    1.90660   84.75350  176.43540   -9999.25   -9999.25   -9999.25   -9999.25   -9999.25   -9999.25
 1868.50000   96.91260  -35.91190   -9999.25  455.36500    1.74220    2.02620   82.08140  168.35840   -9999.25   -9999.25   -9999.25   -9999.25   -9999.25   -9999.25
 1869.00000   93.52410  -35.91420   -9999.25  460.24830    1.86600    2.05650   80.29950  164.30890   -9999.25   -9999.25   -9999.25   -9999.25   -9999.25   -9999.25
 1869.50000   86.52110  -35.91640   -9999.25  466.43200    2.01020    2.05610   80.13420  162.61720   -9999.25   -9999.25   -9999.25   -9999.25   -9999.25   -9999.25
 1870.00000   74.09640  -35.91870   -9999.25  472.61560    1.90760    2.01560   82.37370  162.65080   -9999.25   -9999.25   -9999.25   -9999.25   -9999.25   -9999.25
 1870.50000   71.83730  -35.92130   -9999.25  479.89020    1.86030    1.90470   85.33960  164.45680   -9999.25   -9999.25   -9999.25   -9999.25   -9999.25   -9999.25
 1871.00000   76.54900  -35.92320   -9999.25  484.98180    1.86070    1.90430   86.82180  166.81710   -9999.25   -9999.25   -9999.25   -9999.25   -9999.25   -9999.25
 1871.50000   82.98190  -36.23300   -9999.25  490.41500    1.86110    1.90400   87.56210  168.55590   -9999.25   -9999.25   -9999.25   -9999.25   -9999.25   -9999.25
 1872.00000   89.08130  -36.73090   -9999.25  495.36150    1.86150    1.81930   88.15410  169.13940   -9999.25   -9999.25   -9999.25   -9999.25   -9999.25   -9999.25
 1872.50000   93.97590  -37.22900   -9999.25  500.09470    1.86180    1.75260   89.63630  170.31640   -9999.25   -9999.25   -9999.25   -9999.25   -9999.25   -9999.25
 1873.00000   98.11750  -37.73950   -9999.25  503.96820    1.95230    1.75230   90.52510  171.47780   -9999.25   -9999.25   -9999.25   -9999.25   -9999.25   -9999.25
 1873.50000   98.34340  -38.22490   -9999.25  506.32880    2.01320    1.75190   90.37520  171.47180   -9999.25   -9999.25   -9999.25   -9999.25   -9999.25   -9999.25
 1874.00000   95.33130  -38.34640   -9999.25  507.88640    2.08480    1.75140   89.92860  171.46590   -9999.25   -9999.25   -9999.25   -9999.25   -9999.25   -9999.25
 1874.50000   92.01810  -38.34860   -9999.25  498.79890    2.32350    1.85300   88.44350  171.45990   -9999.25   -9999.25   -9999.25   -9999.25   -9999.25   -9999.25
 1875.00000   90.81330  -38.35090   -9999.25  480.98480    2.46620    1.97670   87.55180  171.45400   -9999.25   -9999.25   -9999.25   -9999.25   -9999.25   -9999.25
 1875.50000   92.62050  -38.35320   -9999.25  464.14070    2.46650    2.14900   86.80850  170.85460   -9999.25   -9999.25   -9999.25   -9999.25   -9999.25   -9999.25
 1876.00000   91.49100  -38.35560   -9999.25  436.17420    2.46690    2.37450   86.06520  170.25520   -9999.25   -9999.25   -9999.25   -9999.25   -9999.25   -9999.25
 1876.50000   89.45780  -38.35770   -9999.25  418.94390    2.46720    2.50260   85.02510  169.65570   -9999.25   -9999.25   -9999.25   -9999.25   -9999.25   -9999.25
 1877.00000   86.29520  -38.35990   -9999.25  403.98860    2.46760    2.62170   84.43020  169.05630   -9999.25   -9999.25   -9999.25   -9999.25   -9999.25   -9999.25
 1877.50000   81.77710  -38.36220   -9999.25  390.53030    2.46800    2.74530   84.72540  168.45690   -9999.25   -9999.25   -9999.25   -9999.25   -9999.25   -9999.25
 1878.00000   80.64760  -38.36450   -9999.25  377.57570    2.58730    2.80270   85.46580  170.23130   -9999.25   -9999.25   -9999.25   -9999.25   -9999.25   -9999.25
 1878.50000   79.51810  -38.36670   -9999.25  371.39690    2.71110    2.80230   86.50290  173.19270   -9999.25   -9999.25   -9999.25   -9999.25   -9999.25   -9999.25
 1879.00000   78.67900  -38.36940   -9999.25  375.11290    2.96390    2.81500   87.83670  173.78040   -9999.25   -9999.25   -9999.25   -9999.25   -9999.25   -9999.25
 1879.50000   79.44280  -38.37120   -9999.25  379.79370    3.29710    2.95210   88.42870  171.99390   -9999.25   -9999.25   -9999.25   -9999.25   -9999.25   -9999.25
 1880.00000   85.84340  -38.37350   -9999.25  383.33380    3.54420    3.06230   88.27890  169.02060   -9999.25   -9999.25   -9999.25   -9999.25   -9999.25   -9999.25
 1880.50000   92.24400  -38.57030   -9999.25  382.33030    3.82570    3.35350   84.56820  166.04730   -9999.25   -9999.25   -9999.25   -9999.25   -9999.25   -9999.25
 1881.00000   94.42770  -39.06830   -9999.25  374.24030    4.25080    3.78230   81.00590  160.70010   -9999.25   -9999.25   -9999.25   -9999.25   -9999.25   -9999.25
 1881.50000   94.42770  -39.58520   -9999.25  360.83180    4.74460    4.27790   78.63050  152.38550   -9999.25   -9999.25   -9999.25   -9999.25   -9999.25   -9999.25
 1882.00000   92.77110  -40.06420   -9999.25  346.07700    5.23850    4.76560   72.84270  140.51010   -9999.25   -9999.25   -9999.25   -9999.25   -9999.25   -9999.25
 1882.50000   88.17770  -40.56230   -9999.25  328.25260    5.73230    5.05830   68.68690  133.38250   -9999.25   -9999.25   -9999.25   -9999.25   -9999.25   -9999.25
 1883.00000   77.25900  -41.06030   -9999.25  309.09190    6.23720    5.26080   67.94360  130.40920   -9999.25   -9999.25   -9999.25   -9999.25   -9999.25   -9999.25
 1883.50000   63.32830  -41.71510   -9999.25  287.32100    6.47880    5.50840   67.94210  130.40320   -9999.25   -9999.25   -9999.25   -9999.25   -9999.25   -9999.25
 1884.00000   56.02410  -42.65870   -9999.25  258.22810    6.72590    5.90060   68.68840  130.99070   -9999.25   -9999.25   -9999.25   -9999.25   -9999.25   -9999.25
 1884.50000   49.92470  -43.21340   -9999.25  181.59200    6.64230    6.47700   69.42990  130.98480   -9999.25   -9999.25   -9999.25   -9999.25   -9999.25   -9999.25
