~Version ---------------------------------------------------
VERS.   2.0 : CWLS log ASCII Standard -VERSION 2.0
WRAP.    NO : One line per depth step
DLM . SPACE : Column Data Section Delimiter
~Well ------------------------------------------------------
STRT .F                 317.0 : START DEPTH
STOP .F                5799.0 : STOP DEPTH
STEP .F                   0.5 : STEP
NULL .               -9999.25 : NULL VALUE
COMP .                        : COMPANY
WELL .                        : WELL
FLD  .                        : FIELD
LOC  .                        : LOCATION
PROV .                        : PROVINCE
CNTY .                        : COUNTY
STAT .                        : STATE
CTRY .                        : COUNTRY
SRVC .                        : SERVICE COMPANY
DATE .                        : DATE
UWI  .                        : UNIQUE WELL ID
API  .                        : API NUMBER
SLAT .WGS84 7.069063439464898 : SURFACE LATITUDE
SLON .WGS84 2.933435631362002 : SURFACE LONGITUDE
DATUM.F               1180.98 : DEPTH DATUM ELEV
~Curve Information -----------------------------------------
DEPT   .F     : 
GRR    .GAPI  : GAMMA RAY FROM RESISTIVITY LOG
SPR    .MV    : SPONTANEOUS POTENTIAL FROM RESISTIVITY LOG
ILM    .OHMM  : INDUCTION MEDIUM RESISTIVITY
CIDP   .MMHO  : INCUCTION DEEP PHASOR CONDUCTIVITY
IDPH   .OHMM  : INDUCTION DEEP PHASOR RESISTIVITY
SFLU   .OHMM  : SHALLOW FOCUSED RESISTIVITY (UNAVERAGED)
DTCO   .US/F  : DELTA-T COMPRESSIONAL
DTSM   .US/F  : DELTA-T SHEAR
CALD   .IN    : CALIPER FROM DENSITY LOG
DRHO   .G/C3  : BULK DENSITY CORRECTION
DPHI_LS.DEC   : DENSITY POROSITY LIMESTONE
NPHI_LS.DEC   : NEUTRON POROSITY LIMESTONE
PEF    .B/E   : PHOTOELECTRIC FACTOR
RHOB   .G/C3  : BULK DENSITY
~Params ----------------------------------------------------
~Other -----------------------------------------------------
~ASCII -----------------------------------------------------
# ...
 4359.50000  118.29570  -19.51100    4.34610   -9999.25    4.43180    5.03930   84.98740  169.39170    8.60360   -0.00450    0.07190    0.28370    3.54500    2.58770
 4360.00000  122.78460  -19.52250    4.22590   -9999.25    4.43030    5.03770   84.98520  169.19920    8.59630    0.00150    0.06650    0.28900    3.54250    2.59520
 4360.50000  119.93770  -19.53400    4.16210   -9999.25    4.42870    5.03640   84.98290  167.22220    8.58660    0.01210    0.06190    0.29360    3.41700    2.60310
 4361.00000  116.79190  -19.54550    4.10780   -9999.25    4.41020    5.03490   85.01330  166.37980    8.58050    0.02410    0.06020    0.28880    3.37040    2.60460
 4361.50000  113.57100  -19.55710    4.03740   -9999.25    4.33590    5.03350   85.27550  166.54730    8.59000    0.02930    0.06070    0.28240    3.43570    2.60500
 4362.00000  112.44600  -19.56890    3.97650   -9999.25    4.24330    4.92870   85.45720  168.68430    8.60720    0.04190    0.06340    0.28290    3.38720    2.59770
 4362.50000  116.26130  -19.58080    3.89950   -9999.25    4.18350    4.78140   85.93830  171.26850    8.64630    0.06060    0.08120    0.28390    3.25910    2.57150
 4363.00000  114.23820  -19.59280    3.85740   -9999.25    4.15700    4.64930   86.34560  171.66410    8.68850    0.09470    0.09390    0.27820    3.14460    2.54900
 4363.50000  112.43940  -19.00440    3.79910   -9999.25    4.09600    4.49980   86.64180  172.24270    8.84950    0.12690    0.08700    0.27040    3.11340    2.55910
 4364.00000  113.63490  -19.01800    3.66940   -9999.25    4.06390    4.43660   86.93750  173.00830    9.18740    0.15340    0.08760    0.26760    3.02560    2.55900
 4364.50000  114.68030  -19.02990    3.61780   -9999.25    4.00430    4.37430   87.08530  174.96800    9.27850    0.17300    0.09390    0.27810    3.04580    2.55200
 4365.00000  115.12720  -18.44310    3.56700   -9999.25    3.95050    4.37310   87.23300  176.92860    9.27010    0.18800    0.07370    0.28930    3.20970    2.57900
 4365.50000  115.57410  -18.45740    3.46830   -9999.25    3.94920    4.31170   87.38050  179.69200    9.27130    0.19240    0.04480    0.29470    3.35620    2.63090
 4366.00000  115.57200  -18.46890    3.46740   -9999.25    3.89330    4.31040   87.62940  180.47720    9.37910    0.16730    0.04830    0.29770    3.30640    2.62390
 4366.50000  111.97700  -18.48050    3.41860   -9999.25    3.86950    4.28940   87.67580  179.66900    9.51130    0.12720    0.07130    0.30090    3.20010    2.58800
 4367.00000  104.19000  -18.49200    3.41770   -9999.25    3.83700    4.21940   87.82350  178.86090    9.62700    0.10430    0.09260    0.30180    3.19790    2.55070
 4367.50000  105.53520  -19.10230    3.46460   -9999.25    3.83560    4.13130   87.91950  177.26310    9.68190    0.10300    0.09940    0.30200    3.31540    2.53930
 4368.00000  127.01490  -19.11380    3.48310   -9999.25    3.88770    4.10170   87.91690  176.05930    9.63230    0.10870    0.10100    0.30800    3.36040    2.53570
 4368.50000  127.01280  -19.16460    3.62380   -9999.25    3.94090    4.22570   87.91470  175.05940    9.53420    0.11410    0.11480    0.31870    3.09930    2.51230
 4369.00000  124.54050  -19.73650    3.74710   -9999.25    3.93940    4.44530   87.76410  175.45320    9.36390    0.11840    0.12900    0.32690    2.99980    2.48900
 4369.50000  124.08910  -20.11410    3.86750   -9999.25    4.04910    4.63290   87.49770  178.41040    9.28210    0.11470    0.11240    0.32510    3.02110    2.51710
 4370.00000  123.33840  -20.35930    4.00320   -9999.25    4.16180    4.80560   87.10670  179.76520    9.21990    0.10040    0.10320    0.31740    3.13660    2.53750
 4370.50000  121.83890  -20.37130    4.08620   -9999.25    4.22120    4.93940   86.71880  177.16400    8.97160    0.08220    0.10070    0.30770    3.30990    2.53550
 4371.00000  119.59120  -19.78440    4.19990   -9999.25    4.28350    5.07700   86.56830  176.76560    8.80060    0.05930    0.09780    0.30090    3.79550    2.54160
 4371.50000  115.54720  -19.79640    4.31710   -9999.25    4.39520    5.07570   86.71440  176.96220    8.62830    0.04910    0.08950    0.29750    3.60900    2.55480
 4372.00000  118.68870  -19.21180    4.31590   -9999.25    4.39350    5.07430   86.71220  178.35010    8.59150    0.05410    0.07860    0.29410    3.45760    2.57390
 4372.50000  120.48300  -19.22330    4.02530   -9999.25    4.39200    4.93490   86.70990  179.90320    8.58890    0.05600    0.06520    0.29290    3.45270    2.59610
 4373.00000  118.98340  -19.23490    3.70240   -9999.25    4.36400    4.56010   86.63950  182.26420    8.60900    0.04230    0.06290    0.29040    3.39770    2.60320
 4373.50000  118.53220  -18.64670    3.45050   -9999.25    4.20840    4.23380   86.19970  180.78410    8.64870    0.02920    0.07430    0.28880    3.41470    2.58790
 4374.00000  117.78130  -18.28840    3.25220   -9999.25    4.03620    4.03180   84.78060  178.01790    8.82880    0.05950    0.08600    0.28980    3.49420    2.56560
 4374.50000  117.77920  -17.47300    3.03090   -9999.25    3.87020    3.95870   86.82610  176.66450    9.18470    0.11630    0.09950    0.29950    3.48070    2.54570
 4375.00000  116.20520  -17.43530    2.92040   -9999.25    3.71100    3.91030   90.55820  177.83660    9.66060    0.16740    0.12840    0.31750    3.25150    2.50250
 4375.50000  108.49330  -16.89730    3.10040   -9999.25    3.60810    3.85530   92.33980  178.04260   10.58480    0.20900    0.17160    0.33600    3.05070    2.43740
 4376.00000  100.70670  -16.91020    3.17260   -9999.25    3.50800    3.83630   93.42360  178.62290   11.71350    0.22140    0.18740    0.34430    2.89330    2.39840
 4376.50000   96.21310  -16.92220    3.17150   -9999.25    3.45850    3.83530   90.81040  179.79690   12.44240    0.22190    0.18690    0.34870    2.72950    2.38890
 4377.00000   93.51640  -16.93410    3.17070   -9999.25    3.45730    3.83420   89.33720  180.37720   12.82110    0.19250    0.21170    0.36240    2.64830    2.35500
 4377.50000   92.16690  -16.94610    3.21400   -9999.25    3.46300    3.88680   88.68320  181.78050   13.42700    0.16800    0.24820    0.37610    2.75810    2.28970
 4378.00000   90.81740  -16.95810    3.34980   -9999.25    3.50340    3.99500   88.61420  184.73680   13.99620    0.16740    0.23210    0.37980    2.92320    2.31550
 4378.50000  100.24640  -17.57100    3.64010   -9999.25    3.53150    4.20250   88.76040  186.86540   14.27620    0.19010    0.20500    0.37260    3.00210    2.35750
 4379.00000  106.08220  -18.18130    3.90080   -9999.25    3.72040    4.44110   88.58620  186.38320   14.05770    0.18060    0.23930    0.36940    2.86880    2.27620
 4379.50000  110.27170  -18.79160    4.29810   -9999.25    3.98670    4.74740   88.37160  185.17970   13.59830    0.15790    0.29140    0.37460    2.64110    2.18090
 4380.00000  113.93700  -19.40200    4.80200   -9999.25    4.31330    4.87970   87.26960  182.78980   13.08830    0.15550    0.28820    0.37780    2.72780    2.26060
 4380.50000  114.83310  -19.41350    5.30210   -9999.25    4.68150    5.15760   86.82230  180.99260   12.11860    0.16550    0.22470    0.37320    2.77000    2.35010
 4381.00000  110.11530  -19.42510    5.59180   -9999.25    4.94730    5.48810   87.56190  179.54870   11.48300    0.19590    0.19910    0.36600    2.37560    2.36280
 4381.50000  101.58010  -19.43710    3.13610   -9999.25    4.87740    4.80240   88.74660  178.58550   11.13880    0.18630    0.24230    0.36110    2.40340    2.28090
 4382.00000   98.73360  -18.74310    2.31960   -9999.25    4.42400    4.11870   90.22810  177.13850   10.91830    0.17690    0.25650    0.34590    2.55780    2.26940
 4382.50000   98.88080  -17.50920    2.62800   -9999.25    4.12580    3.82250   92.30300  175.93430   10.52190    0.08670    0.24810    0.31360    2.54280    2.27650
 4383.00000  104.26780  -17.07590    3.21490   -9999.25    3.95560    3.71690   96.90020  174.62910    9.96490    0.01520    0.29940    0.30130    2.13110    2.04060
 4383.50000  106.51120  -17.08980    4.04890   -9999.25    3.73670    3.61430  101.20070  174.86160   10.69600   -0.00440    0.29940    0.31880    2.05520    2.00000
