~Version ---------------------------------------------------
VERS.   2.0 : CWLS log ASCII Standard -VERSION 2.0
WRAP.    NO : One line per depth step
DLM . SPACE : Column Data Section Delimiter
~Well ------------------------------------------------------
STRT .F                 317.0 : START DEPTH
STOP .F                5799.0 : STOP DEPTH
STEP .F                   0.5 : STEP
NULL .               -9999.25 : NULL VALUE
COMP .                        : COMPANY
WELL .                        : WELL
FLD  .                        : FIELD
LOC  .                        : LOCATION
PROV .                        : PROVINCE
CNTY .                        : COUNTY
STAT .                        : STATE
CTRY .                        : COUNTRY
SRVC .                        : SERVICE COMPANY
DATE .                        : DATE
UWI  .                        : UNIQUE WELL ID
API  .                        : API NUMBER
SLAT .WGS84 7.069063439464898 : SURFACE LATITUDE
SLON .WGS84 2.933435631362002 : SURFACE LONGITUDE
DATUM.F               1180.98 : DEPTH DATUM ELEV
~Curve Information -----------------------------------------
DEPT   .F     : 
GRR    .GAPI  : GAMMA RAY FROM RESISTIVITY LOG
SPR    .MV    : SPONTANEOUS POTENTIAL FROM RESISTIVITY LOG
ILM    .OHMM  : INDUCTION MEDIUM RESISTIVITY
CIDP   .MMHO  : INCUCTION DEEP PHASOR CONDUCTIVITY
IDPH   .OHMM  : INDUCTION DEEP PHASOR RESISTIVITY
SFLU   .OHMM  : SHALLOW FOCUSED RESISTIVITY (UNAVERAGED)
DTCO   .US/F  : DELTA-T COMPRESSIONAL
DTSM   .US/F  : DELTA-T SHEAR
CALD   .IN    : CALIPER FROM DENSITY LOG
DRHO   .G/C3  : BULK DENSITY CORRECTION
DPHI_LS.DEC   : DENSITY POROSITY LIMESTONE
NPHI_LS.DEC   : NEUTRON POROSITY LIMESTONE
PEF    .B/E   : PHOTOELECTRIC FACTOR
RHOB   .G/C3  : BULK DENSITY
~Params ----------------------------------------------------
~Other -----------------------------------------------------
~ASCII -----------------------------------------------------
# ...
 3281.50000  106.52580  -36.66760   -9999.25  224.67620    4.51810    4.70230   81.35580  161.24330   -9999.25   -9999.25   -9999.25   -9999.25   -9999.25   -9999.25
 3282.00000  111.41610  -36.91560   -9999.25  224.66870    4.51810    4.70330   81.94630  160.62910   -9999.25   -9999.25   -9999.25   -9999.25   -9999.25   -9999.25
 3282.50000  114.80180  -37.21890   -9999.25  224.66110    4.51810    4.62350   82.09200  160.60830   -9999.25   -9999.25   -9999.25   -9999.25   -9999.25   -9999.25
 3283.00000  114.84180  -37.71080   -9999.25  224.65340    4.51810    4.55500   82.23710  160.36000   -9999.25   -9999.25   -9999.25   -9999.25   -9999.25   -9999.25
 3283.50000  112.46090  -37.71080   -9999.25  224.64610    4.61820    4.55610   82.38280  159.97330   -9999.25   -9999.25   -9999.25   -9999.25   -9999.25   -9999.25
 3284.00000  108.31660  -37.71080   -9999.25  225.59240    4.66870    4.55720   82.37960  159.95250   -9999.25   -9999.25   -9999.25   -9999.25   -9999.25   -9999.25
 3284.50000  103.04300  -37.99800   -9999.25  226.13710    4.62030    4.55860   82.37660  159.93180   -9999.25   -9999.25   -9999.25   -9999.25   -9999.25   -9999.25
 3285.00000   99.57500  -38.31330   -9999.25  226.56870    4.51810    4.55950   82.37370  159.91100   -9999.25   -9999.25   -9999.25   -9999.25   -9999.25   -9999.25
 3285.50000   97.23700  -38.31330   -9999.25  227.62910    4.51810    4.56060   82.22230  159.89020   -9999.25   -9999.25   -9999.25   -9999.25   -9999.25   -9999.25
 3286.00000   98.06230  -38.31330   -9999.25  227.62000    4.51810    4.61150   82.07100  159.86940   -9999.25   -9999.25   -9999.25   -9999.25   -9999.25   -9999.25
 3286.50000  102.04960  -38.31330   -9999.25  227.61290    4.51810    4.71350   82.06810  159.84870   -9999.25   -9999.25   -9999.25   -9999.25   -9999.25   -9999.25
 3287.00000  102.42260  -38.31330   -9999.25  227.60540    4.51810    4.71460   81.91670  159.82790   -9999.25   -9999.25   -9999.25   -9999.25   -9999.25   -9999.25
 3287.50000  102.41910  -38.31330   -9999.25  226.93910    4.47420    4.96040   81.91380  159.80710   -9999.25   -9999.25   -9999.25   -9999.25   -9999.25   -9999.25
 3288.00000  104.22280  -38.31330   -9999.25  225.68300    4.34940    5.01810   82.05930  159.78640   -9999.25   -9999.25   -9999.25   -9999.25   -9999.25   -9999.25
 3288.50000  108.05990  -38.31330   -9999.25  224.42620    4.21690    5.08960   82.20470  159.48340   -9999.25   -9999.25   -9999.25   -9999.25   -9999.25   -9999.25
 3289.00000  112.80080  -38.31330   -9999.25  223.05650    4.21690    5.17090   82.05330  159.15130   -9999.25   -9999.25   -9999.25   -9999.25   -9999.25   -9999.25
 3289.50000  116.41150  -38.31330   -9999.25  220.77790    4.21690    5.19050   81.90190  158.83880   -9999.25   -9999.25   -9999.25   -9999.25   -9999.25   -9999.25
 3290.00000  116.40810  -38.31330   -9999.25  219.15150    4.28220    5.32390   81.45390  158.21930   -9999.25   -9999.25   -9999.25   -9999.25   -9999.25   -9999.25
 3290.50000  110.38150  -38.31330   -9999.25  217.89520    4.36750    5.44200   81.15420  157.00720   -9999.25   -9999.25   -9999.25   -9999.25   -9999.25   -9999.25
 3291.00000  104.35340  -38.31330   -9999.25  216.63890    4.38100    5.56780   80.85450  156.08110   -9999.25   -9999.25   -9999.25   -9999.25   -9999.25   -9999.25
 3291.50000  103.52130  -38.31130   -9999.25  215.27620    4.51810    5.62840   80.55480  155.17480   -9999.25   -9999.25   -9999.25   -9999.25   -9999.25   -9999.25
 3292.00000  104.64740  -37.81520   -9999.25  212.46900    4.51810    5.62950   80.40340  154.87240   -9999.25   -9999.25   -9999.25   -9999.25   -9999.25   -9999.25
 3292.50000  103.06210  -37.51500   -9999.25  211.36420    4.51810    5.63060   80.25210  154.85160   -9999.25   -9999.25   -9999.25   -9999.25   -9999.25   -9999.25
 3293.00000   99.67070  -37.26700   -9999.25  210.94880    4.57880    5.63190   80.24920  154.83090   -9999.25   -9999.25   -9999.25   -9999.25   -9999.25   -9999.25
 3293.50000   96.27930  -37.10840   -9999.25  210.35780    4.70360    5.63290   80.24620  154.81010   -9999.25   -9999.25   -9999.25   -9999.25   -9999.25   -9999.25
 3294.00000   93.18820  -37.07230   -9999.25  209.10140    4.82830    5.54820   80.24320  154.78930   -9999.25   -9999.25   -9999.25   -9999.25   -9999.25   -9999.25
 3294.50000   91.59270  -36.82430   -9999.25  207.84480    4.96990    5.48460   80.24030  154.17510   -9999.25   -9999.25   -9999.25   -9999.25   -9999.25   -9999.25
 3295.00000   91.67620  -36.57640   -9999.25  206.39950    5.07780    5.45190   80.08890  153.80770   -9999.25   -9999.25   -9999.25   -9999.25   -9999.25   -9999.25
 3295.50000   94.68440  -36.50600   -9999.25  205.33280    5.12050    5.33610   79.93760  152.94660   -9999.25   -9999.25   -9999.25   -9999.25   -9999.25   -9999.25
 3296.00000   97.31600  -36.50600   -9999.25  204.87950    5.12050    5.33750   79.78630  152.32820   -9999.25   -9999.25   -9999.25   -9999.25   -9999.25   -9999.25
 3296.50000   99.04490  -36.43480   -9999.25  204.32590    5.09010    5.33850   79.63500  152.30750   -9999.25   -9999.25   -9999.25   -9999.25   -9999.25   -9999.25
 3297.00000   97.61090  -36.18680   -9999.25  203.06990    4.96990    5.25900   79.63200  152.28680   -9999.25   -9999.25   -9999.25   -9999.25   -9999.25   -9999.25
 3297.50000   94.67050  -35.90360   -9999.25  201.81320    4.96990    5.19010   79.62900  151.67270   -9999.25   -9999.25   -9999.25   -9999.25   -9999.25   -9999.25
 3298.00000   92.33250  -35.47780   -9999.25  200.33000    4.86650    5.19130   79.62610  151.65200   -9999.25   -9999.25   -9999.25   -9999.25   -9999.25   -9999.25
 3298.50000   89.69400  -35.22140   -9999.25  199.30110    4.74170    5.19240   79.62310  151.42220   -9999.25   -9999.25   -9999.25   -9999.25   -9999.25   -9999.25
 3299.00000   87.80840  -35.09740   -9999.25  197.27920    4.61690    5.19370   79.76850  151.61420   -9999.25   -9999.25   -9999.25   -9999.25   -9999.25   -9999.25
 3299.50000   88.03050  -34.97340   -9999.25  195.28220    4.51810    5.19470   79.91390  151.58990   -9999.25   -9999.25   -9999.25   -9999.25   -9999.25   -9999.25
 3300.00000   89.68370  -34.84940   -9999.25  194.27710    4.51810    5.19580   79.91100  150.38580   -9999.25   -9999.25   -9999.25   -9999.25   -9999.25   -9999.25
 3300.50000   91.63820  -34.72540   -9999.25  194.26950    4.51810    5.19690   80.06010  150.37080   -9999.25   -9999.25   -9999.25   -9999.25   -9999.25   -9999.25
 3301.00000   93.06560  -34.30920   -9999.25  193.01960    4.51810    5.19800   80.41100  150.94940   -9999.25   -9999.25   -9999.25   -9999.25   -9999.25   -9999.25
 3301.50000   94.19160  -34.09640   -9999.25  192.74850    4.51810    5.19920   80.71050  152.12140   -9999.25   -9999.25   -9999.25   -9999.25   -9999.25   -9999.25
 3302.00000   94.56460  -34.09640   -9999.25  193.46900    4.51810    5.20030   81.00980  153.29340   -9999.25   -9999.25   -9999.25   -9999.25   -9999.25   -9999.25
 3302.50000   93.43180  -34.09640   -9999.25  194.71020    4.51810    5.20140   81.25000  155.65230   -9999.25   -9999.25   -9999.25   -9999.25   -9999.25   -9999.25
 3303.00000   92.37410  -34.09640   -9999.25  195.95120    4.51810    5.34260   81.18950  156.23150   -9999.25   -9999.25   -9999.25   -9999.25   -9999.25   -9999.25
 3303.50000   91.76820  -34.09640   -9999.25  197.23620    4.51810    5.54900   80.82810  155.62250   -9999.25   -9999.25   -9999.25   -9999.25   -9999.25   -9999.25
 3304.00000   91.46360  -34.09640   -9999.25  198.43370    4.51810    5.67470   80.65880  155.60750   -9999.25   -9999.25   -9999.25   -9999.25   -9999.25   -9999.25
 3304.50000   91.46020  -34.09640   -9999.25  198.72740    4.51810    5.80840   80.59220  156.77950   -9999.25   -9999.25   -9999.25   -9999.25   -9999.25   -9999.25
 3305.00000   93.71540  -34.23700   -9999.25  198.02930    4.56070    5.80950   80.22510  156.76460   -9999.25   -9999.25   -9999.25   -9999.25   -9999.25   -9999.25
 3305.50000   94.68080  -34.69880   -9999.25  197.20630    4.66870    5.81060   79.91910  156.15620   -9999.25   -9999.25   -9999.25   -9999.25   -9999.25   -9999.25
