~Version ---------------------------------------------------
VERS.   2.0 : CWLS log ASCII Standard -VERSION 2.0
WRAP.    NO : One line per depth step
DLM . SPACE : Column Data Section Delimiter
~Well ------------------------------------------------------
STRT .F                 317.0 : START DEPTH
STOP .F                5799.0 : STOP DEPTH
STEP .F                   0.5 : STEP
NULL .               -9999.25 : NULL VALUE
COMP .                        : COMPANY
WELL .                        : WELL
FLD  .                        : FIELD
LOC  .                        : LOCATION
PROV .                        : PROVINCE
CNTY .                        : COUNTY
STAT .                        : STATE
CTRY .                        : COUNTRY
SRVC .                        : SERVICE COMPANY
DATE .                        : DATE
UWI  .                        : UNIQUE WELL ID
API  .                        : API NUMBER
SLAT .WGS84 7.069063439464898 : SURFACE LATITUDE
SLON .WGS84 2.933435631362002 : SURFACE LONGITUDE
DATUM.F               1180.98 : DEPTH DATUM ELEV
~Curve Information -----------------------------------------
DEPT   .F     : 
GRR    .GAPI  : GAMMA RAY FROM RESISTIVITY LOG
SPR    .MV    : SPONTANEOUS POTENTIAL FROM RESISTIVITY LOG
ILM    .OHMM  : INDUCTION MEDIUM RESISTIVITY
CIDP   .MMHO  : INCUCTION DEEP PHASOR CONDUCTIVITY
IDPH   .OHMM  : INDUCTION DEEP PHASOR RESISTIVITY
SFLU   .OHMM  : SHALLOW FOCUSED RESISTIVITY (UNAVERAGED)
DTCO   .US/F  : DELTA-T COMPRESSIONAL
DTSM   .US/F  : DELTA-T SHEAR
CALD   .IN    : CALIPER FROM DENSITY LOG
DRHO   .G/C3  : BULK DENSITY CORRECTION
DPHI_LS.DEC   : DENSITY POROSITY LIMESTONE
NPHI_LS.DEC   : NEUTRON POROSITY LIMESTONE
PEF    .B/E   : PHOTOELECTRIC FACTOR
RHOB   .G/C3  : BULK DENSITY
~Params ----------------------------------------------------
~Other -----------------------------------------------------
~ASCII -----------------------------------------------------
# ...
 2938.50000   28.88050  -51.01050   -9999.25  116.10370    9.43180    8.28310   58.13840  121.22840   -9999.25   -9999.25   -9999.25   -9999.25   -9999.25   -9999.25
 2939.00000   26.24190  -51.00480   -9999.25  109.65870    9.55600    8.63780   57.74780  119.31400   -9999.25   -9999.25   -9999.25   -9999.25   -9999.25   -9999.25
 2939.50000   23.90390  -50.41800   -9999.25  101.95420    9.68410    8.73490   57.65950  116.92660   -9999.25   -9999.25   -9999.25   -9999.25   -9999.25   -9999.25
 2940.00000   22.54490  -50.02000   -9999.25   99.54870    9.92460    8.73490   57.65580  115.25230   -9999.25   -9999.25   -9999.25   -9999.25   -9999.25   -9999.25
 2940.50000   21.70260  -49.52760   -9999.25  105.55520    9.70150    8.61860   57.72420  114.05140   -9999.25   -9999.25   -9999.25   -9999.25   -9999.25   -9999.25
 2941.00000   20.73150  -49.03510   -9999.25  114.27340    9.19110    8.25850   57.64840  112.85080   -9999.25   -9999.25   -9999.25   -9999.25   -9999.25   -9999.25
 2941.50000   19.97520  -48.62720   -9999.25  123.41370    8.61040    7.98190   57.56720  111.64980   -9999.25   -9999.25   -9999.25   -9999.25   -9999.25   -9999.25
 2942.00000   18.91750  -48.63270   -9999.25  133.38180    8.11180    7.65210   57.49260  111.15730   -9999.25   -9999.25   -9999.25   -9999.25   -9999.25   -9999.25
 2942.50000   24.10980  -48.63700   -9999.25  144.14560    7.57340    7.27980   57.80300  111.14240   -9999.25   -9999.25   -9999.25   -9999.25   -9999.25   -9999.25
 2943.00000   32.16400  -48.64160   -9999.25  145.29340    7.22970    7.07830   58.80330  111.94610   -9999.25   -9999.25   -9999.25   -9999.25   -9999.25   -9999.25
 2943.50000   40.82300  -48.64610   -9999.25  145.65890    6.94420    7.26140   60.73780  113.59850   -9999.25   -9999.25   -9999.25   -9999.25   -9999.25   -9999.25
 2944.00000   60.01820  -48.65060   -9999.25  145.04030    6.75700    8.01390   63.85690  115.47330   -9999.25   -9999.25   -9999.25   -9999.25   -9999.25   -9999.25
 2944.50000   69.42580  -48.65510   -9999.25  144.88290    6.70440    9.18670   66.07870  119.23830   -9999.25   -9999.25   -9999.25   -9999.25   -9999.25   -9999.25
 2945.00000   77.02890  -48.66010   -9999.25  147.47870    6.82860   10.61020   67.11360  124.88670   -9999.25   -9999.25   -9999.25   -9999.25   -9999.25   -9999.25
 2945.50000   78.30610  -48.66420   -9999.25  151.69850    6.96870   12.19730   66.81320  133.22740   -9999.25   -9999.25   -9999.25   -9999.25   -9999.25   -9999.25
 2946.00000   67.83430  -49.01000   -9999.25  148.44900    7.07680   13.24840   63.84220  134.18530   -9999.25   -9999.25   -9999.25   -9999.25   -9999.25   -9999.25
 2946.50000   47.72500  -49.27560   -9999.25  141.42490    7.20090   13.59860   62.05810  130.18440   -9999.25   -9999.25   -9999.25   -9999.25   -9999.25   -9999.25
 2947.00000   36.05180  -49.28010   -9999.25  131.59030    7.38120   13.85540   59.97720  125.42650   -9999.25   -9999.25   -9999.25   -9999.25   -9999.25   -9999.25
 2947.50000   29.27240  -49.30960   -9999.25  121.89520    7.59970   14.09510   57.89640  120.77070   -9999.25   -9999.25   -9999.25   -9999.25   -9999.25   -9999.25
 2948.00000   25.50300  -49.89230   -9999.25  117.07820    7.72790   14.34340   57.89270  117.19980   -9999.25   -9999.25   -9999.25   -9999.25   -9999.25   -9999.25
 2948.50000   21.35780  -49.89610   -9999.25  118.58880    8.02060   14.59160   58.03780  114.32130   -9999.25   -9999.25   -9999.25   -9999.25   -9999.25   -9999.25
 2949.00000   17.66450  -49.90060   -9999.25  118.59190    8.12270   14.75900   58.03380  112.52840   -9999.25   -9999.25   -9999.25   -9999.25   -9999.25   -9999.25
 2949.50000   16.80120  -49.69940   -9999.25  118.59560    8.24690   14.74520   57.88170  110.83470   -9999.25   -9999.25   -9999.25   -9999.25   -9999.25   -9999.25
 2950.00000   20.02450  -49.30720   -9999.25  118.09730    8.32080   14.60840   57.58130  109.73290   -9999.25   -9999.25   -9999.25   -9999.25   -9999.25   -9999.25
 2950.50000   26.69070  -49.31180   -9999.25  116.61550    8.32040   14.16210   57.28090  109.12460   -9999.25   -9999.25   -9999.25   -9999.25   -9999.25   -9999.25
 2951.00000   31.95890  -49.31630   -9999.25  114.08890    8.32000   13.32530   56.98050  108.41950   -9999.25   -9999.25   -9999.25   -9999.25   -9999.25   -9999.25
 2951.50000   33.31070  -49.32080   -9999.25  111.64240    8.44220   12.27370   56.68010  107.81210   -9999.25   -9999.25   -9999.25   -9999.25   -9999.25   -9999.25
 2952.00000   31.04800  -49.04410   -9999.25  109.15660    8.56630   11.12460   56.67640  106.70620   -9999.25   -9999.25   -9999.25   -9999.25   -9999.25   -9999.25
 2952.50000   28.78590  -48.72740   -9999.25  105.26470    8.69040    9.91160   56.67270  106.09790   -9999.25   -9999.25   -9999.25   -9999.25   -9999.25   -9999.25
 2953.00000   26.52390  -48.66160   -9999.25   97.19540    8.81450    9.18670   56.66900  105.99030   -9999.25   -9999.25   -9999.25   -9999.25   -9999.25   -9999.25
 2953.50000   24.56230  -48.13440   -9999.25   82.78480    8.99280    8.56700   56.51700  105.47480   -9999.25   -9999.25   -9999.25   -9999.25   -9999.25   -9999.25
 2954.00000   22.67630  -47.21490   -9999.25   62.90690    9.52260    7.89920   56.51330  105.45990   -9999.25   -9999.25   -9999.25   -9999.25   -9999.25   -9999.25
 2954.50000   20.94080  -46.58190   -9999.25   51.26160    9.98820    7.32890   56.50960  106.03970   -9999.25   -9999.25   -9999.25   -9999.25   -9999.25   -9999.25
 2955.00000   19.58190  -46.08940   -9999.25   40.62380   22.68660    6.83220   56.65430  106.11290   -9999.25   -9999.25   -9999.25   -9999.25   -9999.25   -9999.25
 2955.50000   18.82560  -45.45130   -9999.25   35.80950   32.79230    6.32530   56.80410  106.60350   -9999.25   -9999.25   -9999.25   -9999.25   -9999.25   -9999.25
 2956.00000   24.84530  -44.50210   -9999.25   68.21840   35.35220    5.83930   57.24830  106.58750   -9999.25   -9999.25   -9999.25   -9999.25   -9999.25   -9999.25
 2956.50000   36.58900  -43.94490   -9999.25  173.81340   36.02680    5.34280   57.53350  106.57270   -9999.25   -9999.25   -9999.25   -9999.25   -9999.25   -9999.25
 2957.00000   50.89370  -43.51720   -9999.25  288.83330   20.66490    4.84640   57.52970  106.55790   -9999.25   -9999.25   -9999.25   -9999.25   -9999.25   -9999.25
 2957.50000   63.69200  -42.69850   -9999.25  305.40860   13.59380    4.35000   57.69040  105.94960   -9999.25   -9999.25   -9999.25   -9999.25   -9999.25   -9999.25
 2958.00000   72.57470  -41.92980   -9999.25  315.64880    8.91650    3.91570   58.17180  105.93470   -9999.25   -9999.25   -9999.25   -9999.25   -9999.25   -9999.25
 2958.50000   79.34720  -41.43730   -9999.25  318.38240    6.56150    3.91570   59.83210  106.51440   -9999.25   -9999.25   -9999.25   -9999.25   -9999.25   -9999.25
 2959.00000   87.41230  -40.93430   -9999.25  313.93100    5.29200    3.91570   64.94020  107.84760   -9999.25   -9999.25   -9999.25   -9999.25   -9999.25   -9999.25
 2959.50000   88.60310  -39.75540   -9999.25  300.89970    4.68110    4.17590   81.47710  111.03750   -9999.25   -9999.25   -9999.25   -9999.25   -9999.25   -9999.25
 2960.00000   80.24020  -39.35730   -9999.25  300.90420    4.24690    4.84940   88.84300  121.30850   -9999.25   -9999.25   -9999.25   -9999.25   -9999.25   -9999.25
 2960.50000   65.25090  -39.16110   -9999.25  310.30810    4.14220    5.87610   91.48750  158.53420   -9999.25   -9999.25   -9999.25   -9999.25   -9999.25   -9999.25
 2961.00000   53.57780  -39.16570   -9999.25  321.51580    4.09560    6.99320   91.09830  187.15230   -9999.25   -9999.25   -9999.25   -9999.25   -9999.25   -9999.25
 2961.50000   48.30410  -39.08480   -9999.25  313.92920    4.19970    8.28310   84.70240  180.44300   -9999.25   -9999.25   -9999.25   -9999.25   -9999.25   -9999.25
 2962.00000   43.93260  -38.57250   -9999.25  248.77220    4.52650    9.22730   76.85950  163.81780   -9999.25   -9999.25   -9999.25   -9999.25   -9999.25   -9999.25
 2962.50000   40.91690  -38.57680   -9999.25   64.47670    5.14870   10.10910   68.33690  153.65180   -9999.25   -9999.25   -9999.25   -9999.25   -9999.25   -9999.25
