~Version ---------------------------------------------------
VERS.   2.0 : CWLS log ASCII Standard -VERSION 2.0
WRAP.    NO : One line per depth step
DLM . SPACE : Column Data Section Delimiter
~Well ------------------------------------------------------
STRT .F                 317.0 : START DEPTH
STOP .F                5799.0 : STOP DEPTH
STEP .F                   0.5 : STEP
NULL .               -9999.25 : NULL VALUE
COMP .                        : COMPANY
WELL .                        : WELL
FLD  .                        : FIELD
LOC  .                        : LOCATION
PROV .                        : PROVINCE
CNTY .                        : COUNTY
STAT .                        : STATE
CTRY .                        : COUNTRY
SRVC .                        : SERVICE COMPANY
DATE .                        : DATE
UWI  .                        : UNIQUE WELL ID
API  .                        : API NUMBER
SLAT .WGS84 7.069063439464898 : SURFACE LATITUDE
SLON .WGS84 2.933435631362002 : SURFACE LONGITUDE
DATUM.F               1180.98 : DEPTH DATUM ELEV
~Curve Information -----------------------------------------
DEPT   .F     : 
GRR    .GAPI  : GAMMA RAY FROM RESISTIVITY LOG
SPR    .MV    : SPONTANEOUS POTENTIAL FROM RESISTIVITY LOG
ILM    .OHMM  : INDUCTION MEDIUM RESISTIVITY
CIDP   .MMHO  : INCUCTION DEEP PHASOR CONDUCTIVITY
IDPH   .OHMM  : INDUCTION DEEP PHASOR RESISTIVITY
SFLU   .OHMM  : SHALLOW FOCUSED RESISTIVITY (UNAVERAGED)
DTCO   .US/F  : DELTA-T COMPRESSIONAL
DTSM   .US/F  : DELTA-T SHEAR
CALD   .IN    : CALIPER FROM DENSITY LOG
DRHO   .G/C3  : BULK DENSITY CORRECTION
DPHI_LS.DEC   : DENSITY POROSITY LIMESTONE
NPHI_LS.DEC   : NEUTRON POROSITY LIMESTONE
PEF    .B/E   : PHOTOELECTRIC FACTOR
RHOB   .G/C3  : BULK DENSITY
~Params ----------------------------------------------------
~Other -----------------------------------------------------
~ASCII -----------------------------------------------------
# ...
 3649.00000  114.55850  -30.46980   -9999.25  202.16630    4.63480    5.51080   81.10110  158.14440   -9999.25   -9999.25   -9999.25   -9999.25   -9999.25   -9999.25
 3649.50000  113.03560  -30.97780   -9999.25  200.92000    4.63290    5.46050   81.05040  158.12070   -9999.25   -9999.25   -9999.25   -9999.25   -9999.25   -9999.25
 3650.00000  111.51230  -31.38550   -9999.25  199.54900    4.63100    5.45930   80.90020  157.50340   -9999.25   -9999.25   -9999.25   -9999.25   -9999.25   -9999.25
 3650.50000  111.58470  -31.39460   -9999.25  198.42730    4.66650    5.45820   80.74980  156.88620   -9999.25   -9999.25   -9999.25   -9999.25   -9999.25   -9999.25
 3651.00000  111.35320  -31.40360   -9999.25  197.18150    4.78960    5.45710   80.59940  156.86250   -9999.25   -9999.25   -9999.25   -9999.25   -9999.25   -9999.25
 3651.50000  109.75440  -31.41270   -9999.25  195.31190    4.92640    5.58000   80.50000  156.83880   -9999.25   -9999.25   -9999.25   -9999.25   -9999.25   -9999.25
 3652.00000  110.89060  -31.42170   -9999.25  193.18260    4.92470    5.60540   80.49850  156.81500   -9999.25   -9999.25   -9999.25   -9999.25   -9999.25   -9999.25
 3652.50000  116.20550  -31.43070   -9999.25  192.05500    4.92280    5.60430   80.49700  156.79130   -9999.25   -9999.25   -9999.25   -9999.25   -9999.25   -9999.25
 3653.00000  121.52170  -31.43980   -9999.25  192.06410    4.92090    5.60320   80.49560  156.76750   -9999.25   -9999.25   -9999.25   -9999.25   -9999.25   -9999.25
 3653.50000  120.91070  -31.44920   -9999.25  192.07080    4.91910    5.58050   80.49410  155.55690   -9999.25   -9999.25   -9999.25   -9999.25   -9999.25   -9999.25
 3654.00000  116.65170  -31.45780   -9999.25  193.81500    4.91720    5.45030   80.49260  154.93970   -9999.25   -9999.25   -9999.25   -9999.25   -9999.25   -9999.25
 3654.50000  113.45690  -31.46690   -9999.25  196.33020    4.91500    5.44920   80.49110  154.32240   -9999.25   -9999.25   -9999.25   -9999.25   -9999.25   -9999.25
 3655.00000  112.69380  -31.47590   -9999.25  199.21000    4.91340    5.44800   80.48960  154.10460   -9999.25   -9999.25   -9999.25   -9999.25   -9999.25   -9999.25
 3655.50000  118.76840  -31.48490   -9999.25  203.08860    4.91150    5.37710   80.48810  155.46190   -9999.25   -9999.25   -9999.25   -9999.25   -9999.25   -9999.25
 3656.00000  121.19750  -31.49400   -9999.25  208.67560    4.85140    5.29520   80.74580  156.62510   -9999.25   -9999.25   -9999.25   -9999.25   -9999.25   -9999.25
 3656.50000  119.06650  -31.50370   -9999.25  210.90870    4.72440    5.29410   81.39470  157.78830   -9999.25   -9999.25   -9999.25   -9999.25   -9999.25   -9999.25
 3657.00000  117.08750  -31.97170   -9999.25  213.42350    4.59740    5.29290   82.48980  159.54500   -9999.25   -9999.25   -9999.25   -9999.25   -9999.25   -9999.25
 3657.50000  119.82050  -32.12350   -9999.25  215.33000    4.45190    5.17380   83.26650  160.11870   -9999.25   -9999.25   -9999.25   -9999.25   -9999.25   -9999.25
 3658.00000  125.89510  -32.13250   -9999.25  216.23490    4.45030    5.23240   83.65380  161.28190   -9999.25   -9999.25   -9999.25   -9999.25   -9999.25   -9999.25
 3658.50000  131.58980  -32.14160   -9999.25  216.13840    4.44840    5.28950   83.74360  161.85160   -9999.25   -9999.25   -9999.25   -9999.25   -9999.25   -9999.25
 3659.00000  136.37430  -32.15060   -9999.25  214.74490    4.44650    5.32960   83.74180  162.42140   -9999.25   -9999.25   -9999.25   -9999.25   -9999.25   -9999.25
 3659.50000  138.65080  -32.16070   -9999.25  214.75150    4.47510    5.43800   83.74040  162.98710   -9999.25   -9999.25   -9999.25   -9999.25   -9999.25   -9999.25
 3660.00000  136.97530  -31.72690   -9999.25  213.05240    4.59340    5.43670   83.73890  163.56080   -9999.25   -9999.25   -9999.25   -9999.25   -9999.25   -9999.25
 3660.50000  131.57620  -31.57530   -9999.25  210.55220    4.59120    5.55060   83.73740  163.53310   -9999.25   -9999.25   -9999.25   -9999.25   -9999.25   -9999.25
 3661.00000  125.87460  -31.58430   -9999.25  208.40100    4.69430    5.67440   83.67560  163.50940   -9999.25   -9999.25   -9999.25   -9999.25   -9999.25   -9999.25
 3661.50000  123.21200  -31.59340   -9999.25  207.05800    4.73830    5.73460   83.37690  163.48570   -9999.25   -9999.25   -9999.25   -9999.25   -9999.25   -9999.25
 3662.00000  121.76450  -31.60240   -9999.25  204.24790    4.79020    5.77160   83.07810  162.27500   -9999.25   -9999.25   -9999.25   -9999.25   -9999.25   -9999.25
 3662.50000  120.84920  -31.61140   -9999.25  203.15640    4.88520    5.88300   82.77950  161.65780   -9999.25   -9999.25   -9999.25   -9999.25   -9999.25   -9999.25
 3663.00000  120.23780  -31.62050   -9999.25  201.06450    4.88330    5.88170   82.41850  160.44710   -9999.25   -9999.25   -9999.25   -9999.25   -9999.25   -9999.25
 3663.50000  119.77840  -31.62950   -9999.25  199.15800    4.88110    5.88060   81.82240  159.82990   -9999.25   -9999.25   -9999.25   -9999.25   -9999.25   -9999.25
 3664.00000  119.01520  -31.63860   -9999.25  197.91150    4.87950    5.79320   81.07820  159.21270   -9999.25   -9999.25   -9999.25   -9999.25   -9999.25   -9999.25
 3664.50000  118.63190  -31.64760   -9999.25  196.66530    4.95460    5.72780   80.82200  158.59550   -9999.25   -9999.25   -9999.25   -9999.25   -9999.25   -9999.25
 3665.00000  119.46420  -31.65660   -9999.25  195.25700    5.02640    5.69150   81.05340  158.57170   -9999.25   -9999.25   -9999.25   -9999.25   -9999.25   -9999.25
 3665.50000  121.74050  -31.66740   -9999.25  194.17270    5.05050    5.56540   81.11670  159.14540   -9999.25   -9999.25   -9999.25   -9999.25   -9999.25   -9999.25
 3666.00000  123.86480  -31.47190   -9999.25  194.60340    5.17320    5.42300   81.19880  158.52420   -9999.25   -9999.25   -9999.25   -9999.25   -9999.25   -9999.25
 3666.50000  124.01290  -31.23140   -9999.25  195.86450    5.17090    5.42210   81.13160  157.90700   -9999.25   -9999.25   -9999.25   -9999.25   -9999.25   -9999.25
 3667.00000  121.73020  -31.09040   -9999.25  197.12590    5.16940    5.42090   80.89910  157.28980   -9999.25   -9999.25   -9999.25   -9999.25   -9999.25   -9999.25
 3667.50000  125.90540  -31.09940   -9999.25  198.38720    5.09290    5.36200   80.89760  156.67260   -9999.25   -9999.25   -9999.25   -9999.25   -9999.25   -9999.25
 3668.00000  126.73860  -31.10860   -9999.25  199.82030    4.96580    5.20370   80.96330  156.05540   -9999.25   -9999.25   -9999.25   -9999.25   -9999.25   -9999.25
 3668.50000  125.59540  -30.62650   -9999.25  200.90980    4.86260    4.95920   81.25920  156.03160   -9999.25   -9999.25   -9999.25   -9999.25   -9999.25   -9999.25
 3669.00000  123.54010  -30.52410   -9999.25  202.17110    4.86070    4.81380   81.55490  156.60140   -9999.25   -9999.25   -9999.25   -9999.25   -9999.25   -9999.25
 3669.50000  121.63710  -30.53310   -9999.25  202.85390    4.61210    4.70700   82.06780  157.17110   -9999.25   -9999.25   -9999.25   -9999.25   -9999.25   -9999.25
 3670.00000  121.25380  -30.54220   -9999.25  202.86150    4.45780    4.58080   82.66090  158.33430   -9999.25   -9999.25   -9999.25   -9999.25   -9999.25   -9999.25
 3670.50000  124.28940  -30.55120   -9999.25  202.94300    4.33080    4.40000   82.88720  159.49750   -9999.25   -9999.25   -9999.25   -9999.25   -9999.25   -9999.25
 3671.00000  127.32580  -30.56070   -9999.25  204.38360    4.15680    4.20710   83.18310  160.07120   -9999.25   -9999.25   -9999.25   -9999.25   -9999.25   -9999.25
 3671.50000  127.62650  -30.56930   -9999.25  207.61720    3.92620    4.19890   83.76850  161.23050   -9999.25   -9999.25   -9999.25   -9999.25   -9999.25   -9999.25
 3672.00000  125.19120  -30.57830   -9999.25  210.56260    3.79510    3.90340   84.36800  162.39370   -9999.25   -9999.25   -9999.25   -9999.25   -9999.25   -9999.25
 3672.50000  121.54010  -30.58740   -9999.25  214.79040    3.67220    3.79960   84.73550  162.96340   -9999.25   -9999.25   -9999.25   -9999.25   -9999.25   -9999.25
 3673.00000  118.49770  -30.59640   -9999.25  220.74710    3.54520    3.67340   85.10770  163.53710   -9999.25   -9999.25   -9999.25   -9999.25   -9999.25   -9999.25
