~Version ---------------------------------------------------
VERS.   2.0 : CWLS log ASCII Standard -VERSION 2.0
WRAP.    NO : One line per depth step
DLM . SPACE : Column Data Section Delimiter
~Well ------------------------------------------------------
STRT .F                 317.0 : START DEPTH
STOP .F                5799.0 : STOP DEPTH
STEP .F                   0.5 : STEP
NULL .               -9999.25 : NULL VALUE
COMP .                        : COMPANY
WELL .                        : WELL
FLD  .                        : FIELD
LOC  .                        : LOCATION
PROV .                        : PROVINCE
CNTY .                        : COUNTY
STAT .                        : STATE
CTRY .                        : COUNTRY
SRVC .                        : SERVICE COMPANY
DATE .                        : DATE
UWI  .                        : UNIQUE WELL ID
API  .                        : API NUMBER
SLAT .WGS84 7.069063439464898 : SURFACE LATITUDE
SLON .WGS84 2.933435631362002 : SURFACE LONGITUDE
DATUM.F               1180.98 : DEPTH DATUM ELEV
~Curve Information -----------------------------------------
DEPT   .F     : 
GRR    .GAPI  : GAMMA RAY FROM RESISTIVITY LOG
SPR    .MV    : SPONTANEOUS POTENTIAL FROM RESISTIVITY LOG
ILM    .OHMM  : INDUCTION MEDIUM RESISTIVITY
CIDP   .MMHO  : INCUCTION DEEP PHASOR CONDUCTIVITY
IDPH   .OHMM  : INDUCTION DEEP PHASOR RESISTIVITY
SFLU   .OHMM  : SHALLOW FOCUSED RESISTIVITY (UNAVERAGED)
DTCO   .US/F  : DELTA-T COMPRESSIONAL
DTSM   .US/F  : DELTA-T SHEAR
CALD   .IN    : CALIPER FROM DENSITY LOG
DRHO   .G/C3  : BULK DENSITY CORRECTION
DPHI_LS.DEC   : DENSITY POROSITY LIMESTONE
NPHI_LS.DEC   : NEUTRON POROSITY LIMESTONE
PEF    .B/E   : PHOTOELECTRIC FACTOR
RHOB   .G/C3  : BULK DENSITY
~Params ----------------------------------------------------
~Other -----------------------------------------------------
~ASCII -----------------------------------------------------
# ...
 5413.00000   10.06820  -54.16770    2.63930   -9999.25    2.39990    4.94510   63.02920  121.07360    7.75010    0.00130    0.14960    0.13500    3.48460    2.45760
 5413.50000   10.95820  -54.17370    2.56430   -9999.25    2.39970    5.01290   63.17360  121.06470    7.74440    0.00180    0.14740    0.13670    3.57340    2.45670
 5414.00000   10.79530  -54.08790    2.52640   -9999.25    2.39950    4.87500   63.31710  121.05580    7.74310    0.00380    0.14150    0.13520    3.59750    2.46720
 5414.50000    9.88350  -53.58620    2.53140   -9999.25    2.39930    4.67560   63.46100  121.04680    7.74210    0.00510    0.13810    0.13340    3.64890    2.47180
 5415.00000   10.47240  -53.50770    2.54110   -9999.25    2.36610    4.54700   63.60490  121.03790    7.74110    0.00740    0.14330    0.13470    3.76520    2.46430
 5415.50000   11.81280  -52.99900    2.56610   -9999.25    2.33330    4.54610   63.60050  121.02900    7.74010    0.01270    0.14850    0.13900    3.86710    2.45310
 5416.00000   12.92800  -52.40720    2.51590   -9999.25    2.30090    4.73800   63.59610  121.02010    7.71710    0.01970    0.15080    0.14140    3.74960    2.45140
 5416.50000   13.81800  -52.22240    2.49500   -9999.25    2.20690    4.80310   63.44320  121.01110    7.67810    0.03470    0.14850    0.14370    3.60530    2.45670
 5417.00000   13.73120  -51.40420    2.44190   -9999.25    2.17490    4.71420   63.43880  121.59570    7.65580    0.04120    0.14420    0.14400    3.56420    2.46500
 5417.50000   12.81940  -51.22750    2.38250   -9999.25    2.11310    4.58440   63.58310  122.77370    7.64190    0.03670    0.13670    0.14010    3.60450    2.47630
 5418.00000   11.30520  -50.63470    2.32660   -9999.25    2.05830    4.35680   64.17180  123.35910    7.65140    0.03330    0.13410    0.13990    3.57190    2.48020
 5418.50000   10.39340  -50.29380    2.26250   -9999.25    2.05820    4.12120   64.46410  123.94360    7.67900    0.01630    0.14280    0.14140    3.57780    2.46620
 5419.00000   10.38250  -50.04790    2.26220   -9999.25    2.05810    4.00740   65.05310  123.93390    7.69630    0.00330    0.14890    0.14280    3.73750    2.45320
 5419.50000   10.82210  -50.05430    2.23070   -9999.25    2.05790    3.95150   65.34540  123.92490    7.68780    0.00300    0.15030    0.14310    3.60470    2.45230
 5420.00000   10.81120  -50.65890    2.26160   -9999.25    2.10020    3.95060   65.34100  123.91600    7.70240    0.00730    0.14930    0.14210    3.42990    2.44960
 5420.50000   10.80030  -51.26350    2.26130   -9999.25    2.14760    3.94980   65.33650  123.90710    7.71870    0.01110    0.14620    0.13880    3.45070    2.45940
 5421.00000   10.33890  -51.90680    2.35940   -9999.25    2.23630    4.05990   65.03530  123.89820    7.72610    0.01390    0.14330    0.14000    3.53670    2.46520
 5421.50000    9.27520  -52.47310    2.46610   -9999.25    2.36390    4.17300   64.73420  123.88920    7.73290    0.01560    0.15000    0.14180    3.63840    2.45240
 5422.00000    8.81380  -53.07780    2.64800   -9999.25    2.56920    4.34920   64.13620  124.47380    7.73990    0.01530    0.15540    0.14160    3.69410    2.44370
 5422.50000    8.50170  -53.46050    2.81430   -9999.25    2.83140    4.47050   63.53830  124.46490    7.74870    0.01490    0.14650    0.13850    3.52840    2.45650
 5423.00000    8.71610  -53.68860    3.02440   -9999.25    3.00390    4.53190   62.79210  123.86250    7.73850    0.01290    0.13570    0.13130    3.38360    2.47290
 5423.50000   10.28180  -53.92760    3.29610   -9999.25    3.20810    4.85590   62.19410  123.26010    7.67540    0.01090    0.12640    0.12390    3.43550    2.48940
 5424.00000   12.07270  -54.00920    3.59180   -9999.25    3.39490    5.42380   61.74460  121.47070    7.67730    0.00860    0.12350    0.11970    3.43090    2.49790
 5424.50000   13.56240  -53.70660    3.94290   -9999.25    3.59450    5.95020   60.70160  118.49450    7.70340    0.00630    0.12040    0.11570    3.25540    2.50170
 5425.00000   14.30220  -53.71260    4.20610   -9999.25    3.79820    6.99090   59.95530  115.51820    7.72140    0.00390    0.11470    0.11090    3.22200    2.50970
 5425.50000   15.19040  -53.58940    4.46040   -9999.25    3.92170    7.50550   59.35740  111.94840    7.72600    0.00180    0.10740    0.10520    3.44800    2.52500
 5426.00000   14.72910  -53.12660    4.58560   -9999.25    4.02240    7.71480   59.79810  110.15910    7.72450    0.00530    0.10510    0.10400    3.60490    2.52580
 5426.50000   13.36690  -53.13240    4.52160   -9999.25    3.96370    7.87500   60.83220  110.15020    7.70270    0.01000    0.11280    0.10900    3.50370    2.51210
 5427.00000   11.55420  -52.53940    3.98970   -9999.25    3.71920    7.50240   61.56960  111.32820    7.67080    0.01490    0.11490    0.11940    3.38810    2.50240
 5427.50000   10.19190  -52.54490    3.37660   -9999.25    3.43560    6.63920   62.15860  112.50620    7.63270    0.02310    0.11450    0.11960    3.34300    2.51140
 5428.00000    8.82970  -52.55090    3.02100   -9999.25    3.07520    5.94170   62.59930  112.49730    7.59450    0.02870    0.11530    0.12020    3.36270    2.51210
 5428.50000    8.66680  -52.55680    2.77610   -9999.25    2.82910    5.12170   62.89170  111.89490    7.56930    0.02510    0.12340    0.12610    3.50060    2.49810
 5429.00000    8.50580  -51.93300    2.62850   -9999.25    2.63910    4.58360   63.33220  111.29250    7.57680    0.01930    0.13100    0.13210    3.61010    2.48910
 5429.50000    9.09550  -51.32060    2.55010   -9999.25    2.49620    4.39610   63.47630  111.28360    7.57560    0.02060    0.13900    0.13830    3.44690    2.47340
 5430.00000   11.03570  -50.77780    2.48570   -9999.25    2.39420    4.27520   63.62020  112.46160    7.57400    0.02640    0.15350    0.14450    3.26720    2.44780
 5430.50000   12.37620  -50.78440    2.48540   -9999.25    2.29630    4.15750   63.61570  114.23310    7.57670    0.03330    0.14640    0.14470    3.11610    2.45620
 5431.00000   12.14000  -50.38240    2.45070   -9999.25    2.26420    4.15670   63.75960  116.00450    7.57940    0.04370    0.12910    0.14130    3.19400    2.48900
 5431.50000   10.70180  -50.19760    2.41660   -9999.25    2.19990    4.27260   63.75520  115.99560    7.58170    0.03870    0.11780    0.13930    3.40150    2.50730
 5432.00000    9.33960  -50.20360    2.41620   -9999.25    2.17170    4.41200   63.75070  115.98670    7.57680    0.02790    0.12330    0.14090    3.39290    2.49880
 5432.50000    8.42780  -50.20960    2.41590   -9999.25    2.16510    4.37050   63.89460  115.97780    7.57110    0.01790    0.13940    0.14200    3.15130    2.47240
 5433.00000    9.16580  -50.21670    2.41550   -9999.25    2.13300    4.26980   64.03860  115.96890    7.53510    0.01520    0.14510    0.13800    3.07270    2.46080
 5433.50000   10.95670  -50.22250    2.41520   -9999.25    2.10140    4.35870   64.62790  115.95990    7.49900    0.01290    0.13950    0.13590    3.15640    2.46880
 5434.00000   12.29720  -50.22750    2.41490   -9999.25    2.08250    4.51130   64.77150  115.95100    7.45060    0.01270    0.14000    0.13860    3.24600    2.46940
 5434.50000   12.73670  -50.56690    2.48260   -9999.25    2.12620    4.44870   64.61350  115.34860    7.43160    0.01240    0.14800    0.14430    3.35230    2.45770
 5435.00000   11.82500  -50.83830    2.55220   -9999.25    2.20540    4.18860   63.56870  114.74620    7.47090    0.01150    0.15710    0.15010    3.40780    2.43960
 5435.50000   10.91320  -50.84450    2.69760   -9999.25    2.42580    4.09180   62.66820  113.55030    7.48020    0.01000    0.15510    0.15200    3.25880    2.44370
 5436.00000   11.05060  -50.85030    2.89300   -9999.25    2.82610    4.57020   61.48150  111.76100    7.47170    0.00790    0.14430    0.14720    3.12340    2.46610
 5436.50000   11.94060  -50.85630    3.15630   -9999.25    3.33860    5.17590   60.87780  109.97170    7.46220    0.00590    0.12290    0.13700    3.16030    2.49570
 5437.00000   12.22920  -50.86230    3.55470   -9999.25    3.83590    5.54590   60.13430  108.18230    7.47740    0.00460    0.11190    0.12910    3.21590    2.51630
