~Version ---------------------------------------------------
VERS.   2.0 : CWLS log ASCII Standard -VERSION 2.0
WRAP.    NO : One line per depth step
DLM . SPACE : Column Data Section Delimiter
~Well ------------------------------------------------------
STRT .F                 317.0 : START DEPTH
STOP .F                5799.0 : STOP DEPTH
STEP .F                   0.5 : STEP
NULL .               -9999.25 : NULL VALUE
COMP .                        : COMPANY
WELL .                        : WELL
FLD  .                        : FIELD
LOC  .                        : LOCATION
PROV .                        : PROVINCE
CNTY .                        : COUNTY
STAT .                        : STATE
CTRY .                        : COUNTRY
SRVC .                        : SERVICE COMPANY
DATE .                        : DATE
UWI  .                        : UNIQUE WELL ID
API  .                        : API NUMBER
SLAT .WGS84 7.069063439464898 : SURFACE LATITUDE
SLON .WGS84 2.933435631362002 : SURFACE LONGITUDE
DATUM.F               1180.98 : DEPTH DATUM ELEV
~Curve Information -----------------------------------------
DEPT   .F     : 
GRR    .GAPI  : GAMMA RAY FROM RESISTIVITY LOG
SPR    .MV    : SPONTANEOUS POTENTIAL FROM RESISTIVITY LOG
ILM    .OHMM  : INDUCTION MEDIUM RESISTIVITY
CIDP   .MMHO  : INCUCTION DEEP PHASOR CONDUCTIVITY
IDPH   .OHMM  : INDUCTION DEEP PHASOR RESISTIVITY
SFLU   .OHMM  : SHALLOW FOCUSED RESISTIVITY (UNAVERAGED)
DTCO   .US/F  : DELTA-T COMPRESSIONAL
DTSM   .US/F  : DELTA-T SHEAR
CALD   .IN    : CALIPER FROM DENSITY LOG
DRHO   .G/C3  : BULK DENSITY CORRECTION
DPHI_LS.DEC   : DENSITY POROSITY LIMESTONE
NPHI_LS.DEC   : NEUTRON POROSITY LIMESTONE
PEF    .B/E   : PHOTOELECTRIC FACTOR
RHOB   .G/C3  : BULK DENSITY
~Params ----------------------------------------------------
~Other -----------------------------------------------------
~ASCII -----------------------------------------------------
# ...
 1125.50000   19.98570  -78.37950    2.71400   -9999.25  647.59360 1828.14200  106.47490  159.27360   -9999.25   -9999.25   -9999.25   -9999.25   -9999.25   -9999.25
 1126.00000   19.52840  -78.38550    2.60230   -9999.25  379.49630 1854.45800  112.47470  157.85170   -9999.25   -9999.25   -9999.25   -9999.25   -9999.25   -9999.25
 1126.50000   28.55640  -78.39160    1.89570   -9999.25   81.63900 1855.20080  119.59490  159.84360   -9999.25   -9999.25   -9999.25   -9999.25   -9999.25   -9999.25
 1127.00000   39.16740  -78.39760    1.47520   -9999.25    7.96140  561.96730  128.05040  162.79920   -9999.25   -9999.25   -9999.25   -9999.25   -9999.25   -9999.25
 1127.50000   45.86210  -78.40420    1.30700   -9999.25    6.29780    4.79190  130.86790  174.06340   -9999.25   -9999.25   -9999.25   -9999.25   -9999.25   -9999.25
 1128.00000   48.56650  -79.01240    1.23310   -9999.25    6.32240  203.65120  118.84860  194.22970   -9999.25   -9999.25   -9999.25   -9999.25   -9999.25   -9999.25
 1128.50000   50.66730  -79.62070    1.19330   -9999.25    5.89580  273.21670  111.57710  210.24160   -9999.25   -9999.25   -9999.25   -9999.25   -9999.25   -9999.25
 1129.00000   52.01620  -80.83130    1.26120   -9999.25    5.05860   25.30250  104.15720  214.97760   -9999.25   -9999.25   -9999.25   -9999.25   -9999.25   -9999.25
 1129.50000   53.81690  -80.85120    1.34690   -9999.25    4.28050   11.38530   97.18250  218.52670   -9999.25   -9999.25   -9999.25   -9999.25   -9999.25   -9999.25
 1130.00000   56.97300  -81.16970    1.40820   -9999.25    3.93680   13.17260  100.74180  222.66930   -9999.25   -9999.25   -9999.25   -9999.25   -9999.25   -9999.25
 1130.50000   62.38820  -81.45180    1.44740   -9999.25    3.88120   13.31980  107.17040  226.21830   -9999.25   -9999.25   -9999.25   -9999.25   -9999.25   -9999.25
 1131.00000   67.80330  -81.45780    1.63960   -9999.25    5.15070    8.84590  113.58690  224.42610   -9999.25   -9999.25   -9999.25   -9999.25   -9999.25   -9999.25
 1131.50000   71.71140  -80.86130    2.01880   -9999.25    6.28620    5.44850  117.60610  215.51230   -9999.25   -9999.25   -9999.25   -9999.25   -9999.25   -9999.25
 1132.00000   73.21200  -80.86750    2.28690   -9999.25    6.48280    4.74380  118.24340  205.41150   -9999.25   -9999.25   -9999.25   -9999.25   -9999.25   -9999.25
 1132.50000   55.13150  -80.40910    1.21940   -9999.25    6.04580    5.15820  117.50010  192.93690   -9999.25   -9999.25   -9999.25   -9999.25   -9999.25   -9999.25
 1133.00000   38.18230  -79.67470    1.17320   -9999.25    8.74980   10.05220  116.72690  185.21000   -9999.25   -9999.25   -9999.25   -9999.25   -9999.25   -9999.25
 1133.50000   33.20580  -79.00130    1.51930   -9999.25   10.43730   11.08330  104.78010  180.45040   -9999.25   -9999.25   -9999.25   -9999.25   -9999.25   -9999.25
 1134.00000   33.87650  -78.48190    1.91730   -9999.25   11.60130  188.63020   91.63910  177.47130   -9999.25   -9999.25   -9999.25   -9999.25   -9999.25   -9999.25
 1134.50000   42.30370  -78.48840    2.25160   -9999.25   10.37760   15.37200   86.75960  178.05300   -9999.25   -9999.25   -9999.25   -9999.25   -9999.25   -9999.25
 1135.00000   50.57920  -77.33940    1.86950   -9999.25    8.90400   12.22990   86.63220  180.41510   -9999.25   -9999.25   -9999.25   -9999.25   -9999.25   -9999.25
 1135.50000   51.02450  -76.69280    1.59360   -9999.25   15.30150   57.49010   87.64420  185.15120   -9999.25   -9999.25   -9999.25   -9999.25   -9999.25   -9999.25
 1136.00000   39.27100  -76.09640    1.82590   -9999.25   33.30030   39.03420   97.31230  186.32640   -9999.25   -9999.25   -9999.25   -9999.25   -9999.25   -9999.25
 1136.50000   26.61390  -75.49960    2.15650   -9999.25   44.15850   41.62620  100.72270  186.31460   -9999.25   -9999.25   -9999.25   -9999.25   -9999.25   -9999.25
 1137.00000   26.60740  -75.50600    2.22170   -9999.25   49.93460 1106.36930   99.87530  188.73120   -9999.25   -9999.25   -9999.25   -9999.25   -9999.25   -9999.25
 1137.50000   28.85990  -75.68770    2.27820   -9999.25   61.46550  230.80480   99.82960  195.41700   -9999.25   -9999.25   -9999.25   -9999.25   -9999.25   -9999.25
 1138.00000   24.03300  -76.12050    2.47540   -9999.25  118.27180 1458.70370  101.44040  205.48410   -9999.25   -9999.25   -9999.25   -9999.25   -9999.25   -9999.25
 1138.50000   19.96020  -76.39260    2.85680   -9999.25 1848.76970 1218.17470  104.67580  214.39270   -9999.25   -9999.25   -9999.25   -9999.25   -9999.25   -9999.25
 1139.00000   21.15800  -77.04600    2.96330   -9999.25 1973.96700  133.84660  107.42120  215.33590   -9999.25   -9999.25   -9999.25   -9999.25   -9999.25   -9999.25
 1139.50000   22.05670  -78.54940    2.57810   -9999.25 2000.00000   43.46040  109.65030  212.15190   -9999.25   -9999.25   -9999.25   -9999.25   -9999.25   -9999.25
 1140.00000   19.33770  -78.55520    3.12030   -9999.25 1999.88890   32.93090  117.77420  209.97030   -9999.25   -9999.25   -9999.25   -9999.25   -9999.25   -9999.25
 1140.50000   16.16800  -79.16340    3.68130   -9999.25 1999.22230   53.09830  119.71670  209.27490   -9999.25   -9999.25   -9999.25   -9999.25   -9999.25   -9999.25
 1141.00000   14.20360  -79.77160    3.77360   -9999.25 1998.55590   82.17980  120.44240  205.78050   -9999.25   -9999.25   -9999.25   -9999.25   -9999.25   -9999.25
 1141.50000   12.99120  -79.77740    3.30590   -9999.25 1997.88960   80.29120  114.73930  199.65730   -9999.25   -9999.25   -9999.25   -9999.25   -9999.25   -9999.25
 1142.00000   16.59910  -80.38560    2.57340   -9999.25 1997.22360   70.34680  108.62860  186.59820   -9999.25   -9999.25   -9999.25   -9999.25   -9999.25   -9999.25
 1142.50000   17.94800  -80.99400    2.23890   -9999.25 1996.53030  125.14430  103.69710  164.24100   -9999.25   -9999.25   -9999.25   -9999.25   -9999.25   -9999.25
 1143.00000   17.48970  -81.03510    1.81710   -9999.25 1995.83700  864.88440   99.37810  137.87920   -9999.25   -9999.25   -9999.25   -9999.25   -9999.25   -9999.25
 1143.50000   15.67590  -81.60840    1.53760   -9999.25 1556.13710 1743.64070   89.65580  122.77460   -9999.25   -9999.25   -9999.25   -9999.25   -9999.25   -9999.25
 1144.00000   13.71050  -81.61450    1.45400   -9999.25   73.13370 1882.51340   83.66760  126.26680   -9999.25   -9999.25   -9999.25   -9999.25   -9999.25   -9999.25
 1144.50000   13.40280  -81.62050    1.41210   -9999.25   10.87440 1909.61210   81.94250  129.50580   -9999.25   -9999.25   -9999.25   -9999.25   -9999.25   -9999.25
 1145.00000   14.52520  -81.62650    1.37450   -9999.25    8.30860 1910.37700   80.37090  132.48280   -9999.25   -9999.25   -9999.25   -9999.25   -9999.25   -9999.25
 1145.50000   17.90720  -81.03010    1.37400   -9999.25    7.18940 1447.53580   76.62100  135.46010   -9999.25   -9999.25   -9999.25   -9999.25   -9999.25   -9999.25
 1146.00000   21.96700  -80.74370    1.37350   -9999.25    7.04980  258.63570   73.13710  139.24020   -9999.25   -9999.25   -9999.25   -9999.25   -9999.25   -9999.25
 1146.50000   25.57490  -79.72600    1.47680   -9999.25   31.27010  193.27050   71.44950  143.04230   -9999.25   -9999.25   -9999.25   -9999.25   -9999.25   -9999.25
 1147.00000   27.82690  -79.24100    2.28090   -9999.25  201.10890 1369.25320   71.01780  146.17240   -9999.25   -9999.25   -9999.25   -9999.25   -9999.25   -9999.25
 1147.50000   24.35650  -78.64520    3.98120   -9999.25 1856.07520 1798.42970   70.78140  148.07120   -9999.25   -9999.25   -9999.25   -9999.25   -9999.25   -9999.25
 1148.00000   22.84290  -78.04860    9.59070   -9999.25 2000.00000  800.79710   70.42110  147.55280   -9999.25   -9999.25   -9999.25   -9999.25   -9999.25   -9999.25
 1148.50000   27.80630  -77.45200   16.71220   -9999.25 2000.00000   40.92010   71.01310  142.90250   -9999.25   -9999.25   -9999.25   -9999.25   -9999.25   -9999.25
 1149.00000   32.31780  -76.85540   19.73720   -9999.25 2000.00000   31.83190   73.08870  135.38500   -9999.25   -9999.25   -9999.25   -9999.25   -9999.25   -9999.25
 1149.50000   35.47390  -76.86150    3.88380   -9999.25 2000.00000  118.88700   75.16440  131.73560   -9999.25   -9999.25   -9999.25   -9999.25   -9999.25   -9999.25
