~Version ---------------------------------------------------
VERS.   2.0 : CWLS log ASCII Standard -VERSION 2.0
WRAP.    NO : One line per depth step
DLM . SPACE : Column Data Section Delimiter
~Well ------------------------------------------------------
STRT .F                 317.0 : START DEPTH
STOP .F                5799.0 : STOP DEPTH
STEP .F                   0.5 : STEP
NULL .               -9999.25 : NULL VALUE
COMP .                        : COMPANY
WELL .                        : WELL
FLD  .                        : FIELD
LOC  .                        : LOCATION
PROV .                        : PROVINCE
CNTY .                        : COUNTY
STAT .                        : STATE
CTRY .                        : COUNTRY
SRVC .                        : SERVICE COMPANY
DATE .                        : DATE
UWI  .                        : UNIQUE WELL ID
API  .                        : API NUMBER
SLAT .WGS84 7.069063439464898 : SURFACE LATITUDE
SLON .WGS84 2.933435631362002 : SURFACE LONGITUDE
DATUM.F               1180.98 : DEPTH DATUM ELEV
~Curve Information -----------------------------------------
DEPT   .F     : 
GRR    .GAPI  : GAMMA RAY FROM RESISTIVITY LOG
SPR    .MV    : SPONTANEOUS POTENTIAL FROM RESISTIVITY LOG
ILM    .OHMM  : INDUCTION MEDIUM RESISTIVITY
CIDP   .MMHO  : INCUCTION DEEP PHASOR CONDUCTIVITY
IDPH   .OHMM  : INDUCTION DEEP PHASOR RESISTIVITY
SFLU   .OHMM  : SHALLOW FOCUSED RESISTIVITY (UNAVERAGED)
DTCO   .US/F  : DELTA-T COMPRESSIONAL
DTSM   .US/F  : DELTA-T SHEAR
CALD   .IN    : CALIPER FROM DENSITY LOG
DRHO   .G/C3  : BULK DENSITY CORRECTION
DPHI_LS.DEC   : DENSITY POROSITY LIMESTONE
NPHI_LS.DEC   : NEUTRON POROSITY LIMESTONE
PEF    .B/E   : PHOTOELECTRIC FACTOR
RHOB   .G/C3  : BULK DENSITY
~Params ----------------------------------------------------
~Other -----------------------------------------------------
~ASCII -----------------------------------------------------
# ...
 4702.50000   31.05840  -36.70850   62.84900   -9999.25   38.10370  130.53430   51.25100  101.69050    7.89660   -0.01160    0.01790    0.02620    4.78120    2.67850
 4703.00000   29.25230  -34.92370   51.89700   -9999.25   28.42850  119.12790   51.91680  101.68460    7.88870   -0.01390    0.01110    0.02110    4.71990    2.69080
 4703.50000   27.89650  -33.73770   30.22770   -9999.25   25.22230   48.50950   53.16260  102.86560    7.87510   -0.01610    0.01660    0.02190    4.78490    2.68120
 4704.00000   34.19850  -31.95290   16.37660   -9999.25   21.58340   22.92440   54.73590  105.82700    7.87500   -0.01500    0.02000    0.02710    5.04690    2.67810
 4704.50000   47.70760  -31.36570   13.89950   -9999.25   18.82340   16.42870   56.19280  110.56890    7.87530   -0.01200    0.01750    0.03230    4.95530    2.67950
 4705.00000   61.36620  -29.58080   12.73360   -9999.25   16.09140   14.49670   57.91280  114.71730    7.87570   -0.00580    0.02180    0.05450    4.56600    2.67530
 4705.50000   62.56290  -28.95300   13.27550   -9999.25   15.00860   13.33550   60.72380  120.64610    7.89730    0.00060    0.03380    0.09430    4.02280    2.65210
 4706.00000   57.00310  -27.72860   16.12560   -9999.25   14.59440   14.69130   64.05720  122.42060    7.89960    0.00340    0.04430    0.13270    3.93720    2.63240
 4706.50000   48.36460  -27.10190   19.31730   -9999.25   14.79560   22.89370   62.17460  121.82120    7.89900    0.00440    0.03790    0.14620    4.46230    2.64230
 4707.00000   42.36610  -25.87610   22.19620   -9999.25   17.72050   36.92720   59.55630  119.44140    7.88470    0.00120    0.02720    0.13190    5.06500    2.66420
 4707.50000   39.05410  -24.84840   24.12560   -9999.25   20.64200   46.03980   58.04740  117.65500    7.87050   -0.00540    0.02530    0.09990    4.85200    2.66570
 4708.00000   36.56720  -24.23380   26.22780   -9999.25   22.12230   53.57620   57.06820  115.86870    7.85820   -0.00470    0.03090    0.07740    4.85180    2.66020
 4708.50000   37.68460  -23.31720   27.39780   -9999.25   22.75620   58.73540   56.38780  114.08240    7.85340    0.00010    0.02530    0.06200    4.85800    2.66790
 4709.00000   49.16230  -22.63060   28.61380   -9999.25   23.44970   46.49190   56.37040  114.07640    7.85950   -0.00200    0.01260    0.05030    4.64790    2.68800
 4709.50000   52.53200  -22.32360   30.21630   -9999.25   24.42470   36.13670   56.81270  113.47700    7.86590   -0.00610    0.00890    0.04460    4.53300    2.69400
 4710.00000   50.87090  -21.71680   30.97960   -9999.25   25.48100   36.62360   57.55190  113.47110    7.87230   -0.00780    0.00940    0.04580    4.70730    2.69310
 4710.50000   50.71200  -21.32930   31.55760   -9999.25   26.69300   39.97160   57.84350  113.46520    7.87200   -0.00980    0.01060    0.05110    4.89130    2.69010
 4711.00000   52.50360  -21.34250   35.80770   -9999.25   28.01320   41.84920   57.68470  112.86580    7.86650   -0.01210    0.01560    0.05580    5.01580    2.68220
 4711.50000   55.19760  -20.75450   45.54450   -9999.25   29.92170   46.31470   57.15450  112.26640    7.86100   -0.01430    0.01890    0.05760    4.85390    2.67700
 4712.00000   57.89160  -21.36570   62.37320   -9999.25   32.79290   57.80800   56.48270  112.26050    7.86280   -0.01630    0.02230    0.05690    4.59350    2.66970
 4712.50000   59.23420  -21.37720   78.09430   -9999.25   36.22710   81.74730   55.49170  111.06760    7.86990   -0.01490    0.02260    0.05200    4.45720    2.67260
 4713.00000   56.07240  -22.02780   90.28810   -9999.25   40.11760  118.85220   54.14610  109.87480    7.87630   -0.01030    0.01520    0.04610    4.46900    2.68850
 4713.50000   50.20780  -22.59880   98.13620   -9999.25   43.59600  148.34610   53.02960  107.49500    7.87310   -0.00580    0.00730    0.03880    4.78590    2.69930
 4714.00000   48.84770  -22.61080  102.31260   -9999.25   45.44210  170.37280   52.46590  103.92820    7.87210   -0.00070    0.00130    0.03460    5.11180    2.70600
 4714.50000   47.93670  -22.62280  103.74380   -9999.25   37.40300  175.93730   52.46070  101.54840    7.87410    0.00010    0.00010    0.02750    5.18860    2.70840
 4715.00000   44.77480  -22.63470   85.40780   -9999.25   32.09620  160.50710   53.09850  101.54250    7.87300    0.00020    0.00850    0.02400    5.01990    2.69660
 4715.50000   40.71130  -22.64670   44.45680   -9999.25   27.16230  124.62070   54.46040  101.53660    7.87010   -0.00530    0.01770    0.02070    5.00200    2.67690
 4716.00000   37.54940  -22.51910   22.73040   -9999.25   22.04860   56.69810   56.30160  102.71760    7.86950   -0.01150    0.01350    0.02050    4.96750    2.68490
 4716.50000   36.18940  -21.96560   17.18010   -9999.25   17.84570   20.82640   58.37360  105.08560    7.87060   -0.01560    0.00590    0.02070    4.70170    2.69680
 4717.00000   44.96430  -21.48740   14.85920   -9999.25   15.49170   13.25190   60.14890  108.64050    7.88540   -0.00800    0.00810    0.02320    4.33630    2.69780
 4717.50000   66.20120  -20.90010   12.82880   -9999.25   14.00560   13.62500   61.92410  111.60190    7.90220   -0.00170    0.01530    0.03090    4.04750    2.68530
 4718.00000   74.75100  -20.31290   10.99690   -9999.25   12.52540   16.09390   61.97440  113.96990    7.91910   -0.00030    0.02660    0.05290    3.81840    2.66880
 4718.50000   65.88200  -19.60500   12.23300   -9999.25   11.49160   22.49580   61.91380  115.15090    7.93770    0.00100    0.03750    0.09090    3.56030    2.64770
 4719.00000   43.80120  -18.87850   13.80530   -9999.25   10.35090   26.11690   61.61190  116.33190    7.95690    0.00090    0.04210    0.12740    3.78590    2.63730
 4719.50000   37.48620  -17.95250   12.10280   -9999.25    9.35650   16.52000   61.45830  117.51290    7.96720   -0.00070    0.03150    0.11840    4.43350    2.65380
 4720.00000   39.72970  -17.66430    9.55560   -9999.25    8.39550    9.88560   61.60150  118.69400    7.99320   -0.00010    0.02180    0.09230    4.40250    2.67000
 4720.50000   52.33360  -16.73860    7.83050   -9999.25    7.33520    8.84490   63.08000  121.06190    8.05110    0.00170    0.02130    0.07760    3.98330    2.67410
 4721.00000   58.18080  -15.59200    7.10490   -9999.25    6.12920    8.13640   65.74550  125.80380    8.10940    0.00520    0.02750    0.10170    3.70160    2.66470
 4721.50000   61.32520  -15.60480    6.18340   -9999.25    5.25960    7.17960   68.53930  131.73260    8.16870    0.00790    0.03060    0.12960    3.59480    2.65820
 4722.00000   85.63930  -15.61680    5.02030   -9999.25    4.77130    6.07700   77.58750  139.44180    8.20720    0.00990    0.03000    0.14880    3.43300    2.65840
 4722.50000   97.64260  -15.62870    3.80250   -9999.25    4.51250    5.56430   81.44280  146.55750    8.24770    0.01140    0.04450    0.16110    3.26370    2.64530
 4723.00000  100.93650  -16.23950    3.17420   -9999.25    4.44930    5.28780   83.81450  151.89290    8.36210    0.02360    0.06860    0.18960    3.24300    2.60720
 4723.50000  100.92780  -17.13040    3.00260   -9999.25    4.38700    4.93170   82.62540  156.04130    8.47380    0.03920    0.10300    0.21730    3.42260    2.57220
 4724.00000  105.42360  -18.05990    3.23390   -9999.25    4.38620    4.79500   77.43030  161.97000    8.58540    0.03400    0.20850    0.25260    3.20990    2.44360
 4724.50000  111.49600  -18.07420    4.12520   -9999.25    4.57470    4.82720   76.09270  164.33800    8.66270    0.02170    0.26100    0.28600    3.00180    2.28220
 4725.00000  112.61260  -18.68460    5.05560   -9999.25    5.06760    5.17340   75.49700  166.11250    8.67600    0.01370    0.26290    0.31150    3.16780    2.21820
 4725.50000  112.45370  -19.38640    5.30710   -9999.25    5.75490    5.96010   75.49480  166.10660    8.64140    0.01740    0.19290    0.30720    3.41650    2.33570
 4726.00000  113.49460  -20.14380    5.91610   -9999.25    6.45260    7.36860   77.89480  164.32030    8.61850    0.04260    0.09160    0.29770    3.52760    2.48900
 4726.50000  105.37780  -20.51570    7.30070   -9999.25    7.07990    8.66310   83.59560  161.34700    8.59600    0.06050    0.06310    0.27220    3.63970    2.59760
