~Version ---------------------------------------------------
VERS.   2.0 : CWLS log ASCII Standard -VERSION 2.0
WRAP.    NO : One line per depth step
DLM . SPACE : Column Data Section Delimiter
~Well ------------------------------------------------------
STRT .F                 317.0 : START DEPTH
STOP .F                5799.0 : STOP DEPTH
STEP .F                   0.5 : STEP
NULL .               -9999.25 : NULL VALUE
COMP .                        : COMPANY
WELL .                        : WELL
FLD  .                        : FIELD
LOC  .                        : LOCATION
PROV .                        : PROVINCE
CNTY .                        : COUNTY
STAT .                        : STATE
CTRY .                        : COUNTRY
SRVC .                        : SERVICE COMPANY
DATE .                        : DATE
UWI  .                        : UNIQUE WELL ID
API  .                        : API NUMBER
SLAT .WGS84 7.069063439464898 : SURFACE LATITUDE
SLON .WGS84 2.933435631362002 : SURFACE LONGITUDE
DATUM.F               1180.98 : DEPTH DATUM ELEV
~Curve Information -----------------------------------------
DEPT   .F     : 
GRR    .GAPI  : GAMMA RAY FROM RESISTIVITY LOG
SPR    .MV    : SPONTANEOUS POTENTIAL FROM RESISTIVITY LOG
ILM    .OHMM  : INDUCTION MEDIUM RESISTIVITY
CIDP   .MMHO  : INCUCTION DEEP PHASOR CONDUCTIVITY
IDPH   .OHMM  : INDUCTION DEEP PHASOR RESISTIVITY
SFLU   .OHMM  : SHALLOW FOCUSED RESISTIVITY (UNAVERAGED)
DTCO   .US/F  : DELTA-T COMPRESSIONAL
DTSM   .US/F  : DELTA-T SHEAR
CALD   .IN    : CALIPER FROM DENSITY LOG
DRHO   .G/C3  : BULK DENSITY CORRECTION
DPHI_LS.DEC   : DENSITY POROSITY LIMESTONE
NPHI_LS.DEC   : NEUTRON POROSITY LIMESTONE
PEF    .B/E   : PHOTOELECTRIC FACTOR
RHOB   .G/C3  : BULK DENSITY
~Params ----------------------------------------------------
~Other -----------------------------------------------------
~ASCII -----------------------------------------------------
# ...
 1517.50000   26.01830  -64.03240   -9999.25   76.18610   50.04740  138.43910   99.39220  153.04110   -9999.25   -9999.25   -9999.25   -9999.25   -9999.25   -9999.25
 1518.00000   30.98940  -64.27810   -9999.25   70.21520   13.20040   80.97460   97.62100  142.94320   -9999.25   -9999.25   -9999.25   -9999.25   -9999.25   -9999.25
 1518.50000   34.07790  -64.46230   -9999.25   72.34820   12.58920   27.26890   91.77260  126.31710   -9999.25   -9999.25   -9999.25   -9999.25   -9999.25   -9999.25
 1519.00000   35.96160  -64.46080   -9999.25   78.57640   13.19200   29.95130   83.29180  114.43880   -9999.25   -9999.25   -9999.25   -9999.25   -9999.25   -9999.25
 1519.50000   34.45670  -64.45910   -9999.25   80.74030   23.07000   45.66200   71.02260  106.12130   -9999.25   -9999.25   -9999.25   -9999.25   -9999.25   -9999.25
 1520.00000   18.49400  -64.45780   -9999.25   69.98520   48.43380   49.87950   53.50110   98.39730   -9999.25   -9999.25   -9999.25   -9999.25   -9999.25   -9999.25
 1520.50000    9.98610  -64.16260   -9999.25   46.08860  109.58880  158.68770   50.09140   94.82760   -9999.25   -9999.25   -9999.25   -9999.25   -9999.25   -9999.25
 1521.00000    9.00830  -63.85240   -9999.25   21.73150  336.75490  415.97920   50.90070   94.78730   -9999.25   -9999.25   -9999.25   -9999.25   -9999.25   -9999.25
 1521.50000    8.40680  -63.85090   -9999.25    6.74300  432.74110  474.71000   51.36430   96.59030   -9999.25   -9999.25   -9999.25   -9999.25   -9999.25   -9999.25
 1522.00000    8.40820  -63.84930   -9999.25    1.59920  484.02090  493.50390   52.65950   98.36180   -9999.25   -9999.25   -9999.25   -9999.25   -9999.25   -9999.25
 1522.50000    7.65640  -63.84790   -9999.25    0.00000  497.49590  495.82080   56.98700   98.35300   -9999.25   -9999.25   -9999.25   -9999.25   -9999.25   -9999.25
 1523.00000    7.20570  -63.49000   -9999.25    0.00000  499.42010  496.21730   59.98030   98.93760   -9999.25   -9999.25   -9999.25   -9999.25   -9999.25   -9999.25
 1523.50000    6.86250  -62.99400   -9999.25    0.00000  499.42510  497.34190   62.00110   99.52220   -9999.25   -9999.25   -9999.25   -9999.25   -9999.25   -9999.25
 1524.00000    6.60510  -62.49800   -9999.25    0.00000  500.00000  497.35030   63.93480  102.48070   -9999.25   -9999.25   -9999.25   -9999.25   -9999.25   -9999.25
 1524.50000    6.60650  -62.00190   -9999.25    0.00000  500.00000  497.35700   66.78610  106.03260   -9999.25   -9999.25   -9999.25   -9999.25   -9999.25   -9999.25
 1525.00000    6.23110  -61.43050   -9999.25    0.00000  490.02380  495.73290   69.89640  108.99110   -9999.25   -9999.25   -9999.25   -9999.25   -9999.25   -9999.25
 1525.50000    6.15690  -61.42920   -9999.25    0.00000  453.61820  106.80570   59.72940  114.34370   -9999.25   -9999.25   -9999.25   -9999.25   -9999.25   -9999.25
 1526.00000    7.06170  -61.42770   -9999.25    0.00000  354.88740   92.51710   50.37930  122.10040   -9999.25   -9999.25   -9999.25   -9999.25   -9999.25   -9999.25
 1526.50000    9.02070  -61.42620   -9999.25    0.00000   97.80130   78.22850   49.36680  132.79860   -9999.25   -9999.25   -9999.25   -9999.25   -9999.25   -9999.25
 1527.00000   11.58210  -61.42470   -9999.25    0.00000   69.62310   63.93990   65.84100  142.39420   -9999.25   -9999.25   -9999.25   -9999.25   -9999.25   -9999.25
 1527.50000   13.84230  -61.42320   -9999.25    0.00000   45.44980   49.28840  103.04110  160.59820   -9999.25   -9999.25   -9999.25   -9999.25   -9999.25   -9999.25
 1528.00000   16.85550  -61.42170   -9999.25    0.00000   31.81970   45.07210   93.69090  187.32360   -9999.25   -9999.25   -9999.25   -9999.25   -9999.25   -9999.25
 1528.50000   20.47110  -61.42020   -9999.25    0.00000    8.83180   32.23830   85.23100  193.98870   -9999.25   -9999.25   -9999.25   -9999.25   -9999.25   -9999.25
 1529.00000   26.49630  -61.41870   -9999.25   22.36810    7.09550   19.52320   88.34380  197.34740   -9999.25   -9999.25   -9999.25   -9999.25   -9999.25   -9999.25
 1529.50000   33.72640  -61.41720   -9999.25   83.65540    5.59810   11.00280   92.49520  180.08230   -9999.25   -9999.25   -9999.25   -9999.25   -9999.25   -9999.25
 1530.00000   40.44010  -61.41570   -9999.25  152.38330    4.67880    6.63410   97.09160  159.98040   -9999.25   -9999.25   -9999.25   -9999.25   -9999.25   -9999.25
 1530.50000   46.89540  -61.41400   -9999.25  227.07360    4.10320    6.22070   83.31970  145.33990   -9999.25   -9999.25   -9999.25   -9999.25   -9999.25   -9999.25
 1531.00000   62.04280  -61.41260   -9999.25  320.62000    3.71310    6.54900   76.17760  137.08650   -9999.25   -9999.25   -9999.25   -9999.25   -9999.25   -9999.25
 1531.50000   52.93250  -61.41110   -9999.25  365.44850    3.36370    8.23600   66.08100  131.37580   -9999.25   -9999.25   -9999.25   -9999.25   -9999.25   -9999.25
 1532.00000   34.63550  -61.40960   -9999.25  365.45180    3.26200   13.45790   65.62610  131.64030   -9999.25   -9999.25   -9999.25   -9999.25   -9999.25   -9999.25
 1532.50000   29.74200  -61.40810   -9999.25  348.05960    3.51090   21.89650   65.31890  135.80110   -9999.25   -9999.25   -9999.25   -9999.25   -9999.25   -9999.25
 1533.00000   27.86070  -61.40660   -9999.25  277.51150   11.01710   29.15060   63.86930  139.83590   -9999.25   -9999.25   -9999.25   -9999.25   -9999.25   -9999.25
 1533.50000   26.73230  -61.40510   -9999.25  161.73330   34.79260   32.61290   61.07420  143.13800   -9999.25   -9999.25   -9999.25   -9999.25   -9999.25   -9999.25
 1534.00000   35.84490  -61.40360   -9999.25  104.92480   35.79370   34.01970   58.71800  148.59400   -9999.25   -9999.25   -9999.25   -9999.25   -9999.25   -9999.25
 1534.50000   44.35500  -61.40210   -9999.25   76.07200   35.06760   34.67300   55.96680  143.90370   -9999.25   -9999.25   -9999.25   -9999.25   -9999.25   -9999.25
 1535.00000   47.59420  -61.40060   -9999.25   43.70710   30.45430   34.94850   54.62850  134.53030   -9999.25   -9999.25   -9999.25   -9999.25   -9999.25   -9999.25
 1535.50000   45.48690  -61.33120   -9999.25   33.37110   24.77840   33.41990   53.58700  133.73060   -9999.25   -9999.25   -9999.25   -9999.25   -9999.25   -9999.25
 1536.00000   40.97000  -60.79510   -9999.25   68.03450   20.07070   22.19280   53.53320  146.89490   -9999.25   -9999.25   -9999.25   -9999.25   -9999.25   -9999.25
 1536.50000   37.95910  -60.33940   -9999.25  155.09120   10.94620   14.01650   55.95500  164.06640   -9999.25   -9999.25   -9999.25   -9999.25   -9999.25   -9999.25
 1537.00000   36.06680  -59.84340   -9999.25  219.40560    7.28210    9.79210   60.40310  181.27600   -9999.25   -9999.25   -9999.25   -9999.25   -9999.25   -9999.25
 1537.50000   38.26230  -59.58580   -9999.25  255.68210    5.27760    8.04450   64.40610  176.22710   -9999.25   -9999.25   -9999.25   -9999.25   -9999.25   -9999.25
 1538.00000   46.09480  -59.45380   -9999.25  303.92600    4.30320    6.93970   79.24000  159.85300   -9999.25   -9999.25   -9999.25   -9999.25   -9999.25   -9999.25
 1538.50000   53.62610  -58.98040   -9999.25  340.10640    3.72320    6.20450   83.98480  147.18560   -9999.25   -9999.25   -9999.25   -9999.25   -9999.25   -9999.25
 1539.00000   58.14530  -58.97870   -9999.25  351.94960    3.26730    5.48060   86.05900  131.33330   -9999.25   -9999.25   -9999.25   -9999.25   -9999.25   -9999.25
 1539.50000   62.66450  -58.97740   -9999.25  291.71320    3.26780    5.07200   87.98480  130.09880   -9999.25   -9999.25   -9999.25   -9999.25   -9999.25   -9999.25
 1540.00000   66.95780  -58.97590   -9999.25  209.78920    3.79520    4.72890   90.94930  146.46820   -9999.25   -9999.25   -9999.25   -9999.25   -9999.25   -9999.25
 1540.50000   69.44390  -59.16770   -9999.25  140.88750    6.75800    4.82060   95.39740  156.47300   -9999.25   -9999.25   -9999.25   -9999.25   -9999.25   -9999.25
 1541.00000   67.63780  -59.57560   -9999.25   92.58810   11.28030    5.52490  100.43890  175.35800   -9999.25   -9999.25   -9999.25   -9999.25   -9999.25   -9999.25
 1541.50000   58.60280  -59.57370   -9999.25   61.15610   19.89010    6.68900  102.95820  195.52370   -9999.25   -9999.25   -9999.25   -9999.25   -9999.25   -9999.25
