~Version ---------------------------------------------------
VERS.   2.0 : CWLS log ASCII Standard -VERSION 2.0
WRAP.    NO : One line per depth step
DLM . SPACE : Column Data Section Delimiter
~Well ------------------------------------------------------
STRT .F                 317.0 : START DEPTH
STOP .F                5799.0 : STOP DEPTH
STEP .F                   0.5 : STEP
NULL .               -9999.25 : NULL VALUE
COMP .                        : COMPANY
WELL .                        : WELL
FLD  .                        : FIELD
LOC  .                        : LOCATION
PROV .                        : PROVINCE
CNTY .                        : COUNTY
STAT .                        : STATE
CTRY .                        : COUNTRY
SRVC .                        : SERVICE COMPANY
DATE .                        : DATE
UWI  .                        : UNIQUE WELL ID
API  .                        : API NUMBER
SLAT .WGS84 7.069063439464898 : SURFACE LATITUDE
SLON .WGS84 2.933435631362002 : SURFACE LONGITUDE
DATUM.F               1180.98 : DEPTH DATUM ELEV
~Curve Information -----------------------------------------
DEPT   .F     : 
GRR    .GAPI  : GAMMA RAY FROM RESISTIVITY LOG
SPR    .MV    : SPONTANEOUS POTENTIAL FROM RESISTIVITY LOG
ILM    .OHMM  : INDUCTION MEDIUM RESISTIVITY
CIDP   .MMHO  : INCUCTION DEEP PHASOR CONDUCTIVITY
IDPH   .OHMM  : INDUCTION DEEP PHASOR RESISTIVITY
SFLU   .OHMM  : SHALLOW FOCUSED RESISTIVITY (UNAVERAGED)
DTCO   .US/F  : DELTA-T COMPRESSIONAL
DTSM   .US/F  : DELTA-T SHEAR
CALD   .IN    : CALIPER FROM DENSITY LOG
DRHO   .G/C3  : BULK DENSITY CORRECTION
DPHI_LS.DEC   : DENSITY POROSITY LIMESTONE
NPHI_LS.DEC   : NEUTRON POROSITY LIMESTONE
PEF    .B/E   : PHOTOELECTRIC FACTOR
RHOB   .G/C3  : BULK DENSITY
~Params ----------------------------------------------------
~Other -----------------------------------------------------
~ASCII -----------------------------------------------------
# ...
  782.50000   77.50860  -69.03610   -9999.25  827.80430    1.39500    1.06740   86.96870  117.61630   -9999.25   -9999.25   -9999.25   -9999.25   -9999.25   -9999.25
  783.00000   74.87020  -69.03610   -9999.25  819.76890    1.39380    1.11920   90.96800  122.43320   -9999.25   -9999.25   -9999.25   -9999.25   -9999.25   -9999.25
  783.50000   83.90350  -69.03610   -9999.25  810.35450    1.39270    1.21730   92.21240  123.34520   -9999.25   -9999.25   -9999.25   -9999.25   -9999.25   -9999.25
  784.00000   91.12950  -69.03610   -9999.25  799.23720    1.45780    1.21690   87.39400  172.82300   -9999.25   -9999.25   -9999.25   -9999.25   -9999.25   -9999.25
  784.50000   94.06340  -69.03610   -9999.25  785.79560    1.57860    1.33500   78.48540  198.00020   -9999.25   -9999.25   -9999.25   -9999.25   -9999.25   -9999.25
  785.00000   93.08150  -69.03610   -9999.25  741.03690    1.69060    1.36670   72.98920  209.83200   -9999.25   -9999.25   -9999.25   -9999.25   -9999.25   -9999.25
  785.50000   90.14190  -69.03610   -9999.25  699.93320    1.68920    1.36630   71.94400  216.52820   -9999.25   -9999.25   -9999.25   -9999.25   -9999.25   -9999.25
  786.00000   87.50350  -68.82930   -9999.25  664.42130    1.79020    1.36600   72.23420  191.95390   -9999.25   -9999.25   -9999.25   -9999.25   -9999.25   -9999.25
  786.50000   85.88740  -68.34190   -9999.25  632.84010    1.83770    1.36560   73.41450  144.60550   -9999.25   -9999.25   -9999.25   -9999.25   -9999.25   -9999.25
  787.00000   83.20610  -67.83130   -9999.25  611.15260    1.83660    1.36510   74.89160  110.50830   -9999.25   -9999.25   -9999.25   -9999.25   -9999.25   -9999.25
  787.50000   79.96530  -67.83130   -9999.25  593.74990    1.83550    1.36480   76.96220  110.17800   -9999.25   -9999.25   -9999.25   -9999.25   -9999.25   -9999.25
  788.00000   77.55340  -67.48190   -9999.25  570.24010    1.83420    1.36450   80.09110  125.67310   -9999.25   -9999.25   -9999.25   -9999.25   -9999.25   -9999.25
  788.50000   87.03790  -66.99440   -9999.25  552.27970    1.72440    1.31990   82.53370  156.67690   -9999.25   -9999.25   -9999.25   -9999.25   -9999.25   -9999.25
  789.00000   90.42360  -66.62650   -9999.25  544.33470    1.68150    1.21310   85.45830  189.54360   -9999.25   -9999.25   -9999.25   -9999.25   -9999.25   -9999.25
  789.50000   88.68880  -66.62650   -9999.25  541.93130    1.62900    1.21270   84.52410  201.33150   -9999.25   -9999.25   -9999.25   -9999.25   -9999.25   -9999.25
  790.00000   85.89970  -66.62650   -9999.25  605.89630    1.52860    1.21230   82.97230  209.61420   -9999.25   -9999.25   -9999.25   -9999.25   -9999.25   -9999.25
  790.50000   83.41190  -66.62650   -9999.25  641.00260    1.52740    1.21200   83.20110  213.99990   -9999.25   -9999.25   -9999.25   -9999.25   -9999.25   -9999.25
  791.00000   81.15000  -66.62650   -9999.25  675.03120    1.41060    1.21160   83.44420  215.98810   -9999.25   -9999.25   -9999.25   -9999.25   -9999.25   -9999.25
  791.50000   78.88810  -66.77360   -9999.25  708.27030    1.37460    1.21120   82.60020  211.23420   -9999.25   -9999.25   -9999.25   -9999.25   -9999.25   -9999.25
  792.00000   77.27200  -67.26110   -9999.25  725.10150    1.37350    1.21080   81.57860  197.45980   -9999.25   -9999.25   -9999.25   -9999.25   -9999.25   -9999.25
  792.50000   75.94620  -67.83130   -9999.25  740.79640    1.37240    1.33100   81.34730  189.66380   -9999.25   -9999.25   -9999.25   -9999.25   -9999.25   -9999.25
  793.00000   75.71740  -68.23590   -9999.25  750.92070    1.37120    1.36070   82.83150  185.90300   -9999.25   -9999.25   -9999.25   -9999.25   -9999.25   -9999.25
  793.50000   77.52180  -68.72340   -9999.25  759.49790    1.37010    1.36030   87.03030  186.22550   -9999.25   -9999.25   -9999.25   -9999.25   -9999.25   -9999.25
  794.00000   82.03700  -69.38560   -9999.25  762.10830    1.36900    1.39610   94.32710  181.99010   -9999.25   -9999.25   -9999.25   -9999.25   -9999.25   -9999.25
  794.50000   89.18770  -70.24100   -9999.25  757.11900    1.43300    1.51020   98.82520  174.34030   -9999.25   -9999.25   -9999.25   -9999.25   -9999.25   -9999.25
  795.00000   95.43480  -70.24100   -9999.25  740.85220    1.51730    1.50970  100.03710  168.36440   -9999.25   -9999.25   -9999.25   -9999.25   -9999.25   -9999.25
  795.50000   99.87470  -70.67320   -9999.25  722.49310    1.52380    1.50940  100.72270  177.84220   -9999.25   -9999.25   -9999.25   -9999.25   -9999.25   -9999.25
  796.00000  102.80860  -70.84340   -9999.25  700.99520    1.66550    1.50900   98.56600  213.43280   -9999.25   -9999.25   -9999.25   -9999.25   -9999.25   -9999.25
  796.50000  104.61350  -70.84340   -9999.25  676.54180    1.66450    1.46250   96.88340  225.28450   -9999.25   -9999.25   -9999.25   -9999.25   -9999.25   -9999.25
  797.00000  104.61010  -70.84340   -9999.25  649.61580    1.66340    1.35770   94.70470  226.45700   -9999.25   -9999.25   -9999.25   -9999.25   -9999.25   -9999.25
  797.50000   98.79870  -70.84340   -9999.25  626.45020    1.66230    1.35730   92.06090  225.24900   -9999.25   -9999.25   -9999.25   -9999.25   -9999.25   -9999.25
  798.00000   91.95430  -70.84340   -9999.25  606.91620    1.66110    1.35690   88.80150  219.89000   -9999.25   -9999.25   -9999.25   -9999.25   -9999.25   -9999.25
  798.50000   83.81890  -70.49850   -9999.25  593.97220    1.65990    1.27220   87.48890  210.97020   -9999.25   -9999.25   -9999.25   -9999.25   -9999.25   -9999.25
  799.00000   75.68350  -70.24100   -9999.25  585.38450    1.65890    1.20560   87.33680  203.23730   -9999.25   -9999.25   -9999.25   -9999.25   -9999.25   -9999.25
  799.50000   71.16250  -70.12600   -9999.25  578.08380    1.57880    1.20520   87.57790  198.47180   -9999.25   -9999.25   -9999.25   -9999.25   -9999.25   -9999.25
  800.00000   69.65360  -69.63860   -9999.25  570.78310    1.48440    1.20480   88.46690  201.42140   -9999.25   -9999.25   -9999.25   -9999.25   -9999.25   -9999.25
  800.50000   76.87970  -70.23380   -9999.25  572.64870    1.43090    1.20520   89.35590  200.81020   -9999.25   -9999.25   -9999.25   -9999.25   -9999.25   -9999.25
  801.00000   84.93400  -70.84340   -9999.25  574.51430    1.37740    1.20560   89.09500  199.60550   -9999.25   -9999.25   -9999.25   -9999.25   -9999.25   -9999.25
  801.50000   93.13890  -70.35940   -9999.25  576.02790    1.35430    1.20590   88.03780  199.40450   -9999.25   -9999.25   -9999.25   -9999.25   -9999.25   -9999.25
  802.00000  101.94630  -70.24100   -9999.25  580.33150    1.35390    1.20630   86.86940  203.13080   -9999.25   -9999.25   -9999.25   -9999.25   -9999.25   -9999.25
  802.50000  106.83800  -70.51210   -9999.25  596.01020    1.35350    1.20670   89.11000  210.23470   -9999.25   -9999.25   -9999.25   -9999.25   -9999.25   -9999.25
  803.00000  105.86740  -70.84340   -9999.25  652.15420    1.35310    1.20710   94.81280  215.55820   -9999.25   -9999.25   -9999.25   -9999.25   -9999.25   -9999.25
  803.50000  100.73340  -70.84340   -9999.25  659.00630    1.35280    1.20750  102.18610  217.32340   -9999.25   -9999.25   -9999.25   -9999.25   -9999.25   -9999.25
  804.00000   88.90830  -70.84340   -9999.25  660.33130    1.35240    1.29320  103.17580  216.70970   -9999.25   -9999.25   -9999.25   -9999.25   -9999.25   -9999.25
  804.50000   73.99580  -71.29110   -9999.25  657.88760    1.35200    1.35880  103.91950  214.91150   -9999.25   -9999.25   -9999.25   -9999.25   -9999.25   -9999.25
  805.00000   70.22780  -71.78710   -9999.25  653.50120    1.35170    1.35920  106.16000  214.30030   -9999.25   -9999.25   -9999.25   -9999.25   -9999.25   -9999.25
  805.50000   69.09550  -72.51810   -9999.25  647.38680    1.34140    1.35960  108.92440  212.50210   -9999.25   -9999.25   -9999.25   -9999.25   -9999.25   -9999.25
  806.00000   67.96310  -73.25300   -9999.25  641.65780    1.20030    1.36000  111.17680  208.92360   -9999.25   -9999.25   -9999.25   -9999.25   -9999.25   -9999.25
  806.50000   67.05650  -73.27510   -9999.25  639.57850    1.19990    1.36030  112.05860  208.31230   -9999.25   -9999.25   -9999.25   -9999.25   -9999.25   -9999.25
