~Version ---------------------------------------------------
VERS.   2.0 : CWLS log ASCII Standard -VERSION 2.0
WRAP.    NO : One line per depth step
DLM . SPACE : Column Data Section Delimiter
~Well ------------------------------------------------------
STRT .F                 317.0 : START DEPTH
STOP .F                5799.0 : STOP DEPTH
STEP .F                   0.5 : STEP
NULL .               -9999.25 : NULL VALUE
COMP .                        : COMPANY
WELL .                        : WELL
FLD  .                        : FIELD
LOC  .                        : LOCATION
PROV .                        : PROVINCE
CNTY .                        : COUNTY
STAT .                        : STATE
CTRY .                        : COUNTRY
SRVC .                        : SERVICE COMPANY
DATE .                        : DATE
UWI  .                        : UNIQUE WELL ID
API  .                        : API NUMBER
SLAT .WGS84 7.069063439464898 : SURFACE LATITUDE
SLON .WGS84 2.933435631362002 : SURFACE LONGITUDE
DATUM.F               1180.98 : DEPTH DATUM ELEV
~Curve Information -----------------------------------------
DEPT   .F     : 
GRR    .GAPI  : GAMMA RAY FROM RESISTIVITY LOG
SPR    .MV    : SPONTANEOUS POTENTIAL FROM RESISTIVITY LOG
ILM    .OHMM  : INDUCTION MEDIUM RESISTIVITY
CIDP   .MMHO  : INCUCTION DEEP PHASOR CONDUCTIVITY
IDPH   .OHMM  : INDUCTION DEEP PHASOR RESISTIVITY
SFLU   .OHMM  : SHALLOW FOCUSED RESISTIVITY (UNAVERAGED)
DTCO   .US/F  : DELTA-T COMPRESSIONAL
DTSM   .US/F  : DELTA-T SHEAR
CALD   .IN    : CALIPER FROM DENSITY LOG
DRHO   .G/C3  : BULK DENSITY CORRECTION
DPHI_LS.DEC   : DENSITY POROSITY LIMESTONE
NPHI_LS.DEC   : NEUTRON POROSITY LIMESTONE
PEF    .B/E   : PHOTOELECTRIC FACTOR
RHOB   .G/C3  : BULK DENSITY
~Params ----------------------------------------------------
~Other -----------------------------------------------------
~ASCII -----------------------------------------------------
# ...
  415.00000   78.96790  -74.92480   -9999.25  140.05850    8.57310    1.34410   57.67030  223.79780   -9999.25   -9999.25   -9999.25   -9999.25   -9999.25   -9999.25
  415.50000   77.45010  -76.01060   -9999.25  120.48190    8.12080    1.34380   57.51750  219.04410   -9999.25   -9999.25   -9999.25   -9999.25   -9999.25   -9999.25
  416.00000   76.31940  -76.61840   -9999.25  157.21070    7.17260    1.35340   57.36470  214.29050   -9999.25   -9999.25   -9999.25   -9999.25   -9999.25   -9999.25
  416.50000   74.81220  -77.62000   -9999.25  183.79490    6.08400    1.49350   56.76680  214.87800   -9999.25   -9999.25   -9999.25   -9999.25   -9999.25   -9999.25
  417.00000   71.79900  -78.12350   -9999.25  197.59020    5.42700    1.49320   55.87220  213.09170   -9999.25   -9999.25   -9999.25   -9999.25   -9999.25   -9999.25
  417.50000   72.92740  -79.02370   -9999.25  203.41390    5.33820    1.41130   55.27430  205.96410   -9999.25   -9999.25   -9999.25   -9999.25   -9999.25   -9999.25
  418.00000   77.06780  -80.02610   -9999.25  207.83130    5.61500    1.34190   55.12150  193.49530   -9999.25   -9999.25   -9999.25   -9999.25   -9999.25   -9999.25
  418.50000   80.38020  -81.02850   -9999.25  182.22890    6.16070    1.31260   54.96870  181.61990   -9999.25   -9999.25   -9999.25   -9999.25   -9999.25   -9999.25
  419.00000   79.92700  -82.03110   -9999.25  152.99090    6.49780    1.18800   54.96420  171.52500   -9999.25   -9999.25   -9999.25   -9999.25   -9999.25   -9999.25
  419.50000   74.65480  -83.06790   -9999.25  139.61860    6.61180    1.03950   54.95980  166.77130   -9999.25   -9999.25   -9999.25   -9999.25   -9999.25   -9999.25
  420.00000   68.78010  -82.59030   -9999.25  154.51660    6.18980    1.03920   54.80700  165.57840   -9999.25   -9999.25   -9999.25   -9999.25   -9999.25   -9999.25
  420.50000   65.01390  -81.33870   -9999.25  198.81680    5.28370    1.03880   54.95090  167.35290   -9999.25   -9999.25   -9999.25   -9999.25   -9999.25   -9999.25
  421.00000   66.66940  -79.57120   -9999.25  264.00010    4.29540    0.99070   54.94650  168.53410   -9999.25   -9999.25   -9999.25   -9999.25   -9999.25   -9999.25
  421.50000   72.99360  -77.75160   -9999.25  325.30120    3.29700    0.88740   54.94200  169.12150   -9999.25   -9999.25   -9999.25   -9999.25   -9999.25   -9999.25
  422.00000   74.49850  -76.39560   -9999.25  371.06510    2.76450    0.88700   54.93760  169.11560   -9999.25   -9999.25   -9999.25   -9999.25   -9999.25   -9999.25
  422.50000   71.10870  -75.86630   -9999.25  423.79380    2.22200    0.76750   54.93320  170.89010   -9999.25   -9999.25   -9999.25   -9999.25   -9999.25   -9999.25
  423.00000   69.52630  -75.87050   -9999.25  468.49200    1.88630    0.64280   54.92870  176.22540   -9999.25   -9999.25   -9999.25   -9999.25   -9999.25   -9999.25
  423.50000   71.33240  -76.23540   -9999.25  504.47820    1.73330    0.58470   54.92430  180.96730   -9999.25   -9999.25   -9999.25   -9999.25   -9999.25   -9999.25
  424.00000   74.49390  -77.25290   -9999.25  544.58220    1.48800    0.54420   54.91990  186.89610   -9999.25   -9999.25   -9999.25   -9999.25   -9999.25   -9999.25
  424.50000   76.55820  -78.44730   -9999.25  611.44580    1.48750    0.43340   54.61870  194.01190   -9999.25   -9999.25   -9999.25   -9999.25   -9999.25   -9999.25
  425.00000   77.84810  -79.00100   -9999.25  636.54620    1.38680    0.43290   54.46590  178.57570   -9999.25   -9999.25   -9999.25   -9999.25   -9999.25   -9999.25
  425.50000   79.00880  -80.11040   -9999.25  655.78270    1.33620    0.43260   53.71670  141.64490   -9999.25   -9999.25   -9999.25   -9999.25   -9999.25   -9999.25
  426.00000   76.97450  -80.56030   -9999.25  664.57790    1.33580    0.43220   52.81900  106.15240   -9999.25   -9999.25   -9999.25   -9999.25   -9999.25   -9999.25
  426.50000   72.22940  -80.72140   -9999.25  668.67470    1.35760    0.43190   51.92130  106.17810   -9999.25   -9999.25   -9999.25   -9999.25   -9999.25   -9999.25
  427.00000   67.71040  -80.48700   -9999.25  668.67470    1.48570    0.49670   51.32440  109.16360   -9999.25   -9999.25   -9999.25   -9999.25   -9999.25   -9999.25
  427.50000   71.77530  -79.99250   -9999.25  648.19360    1.48530    0.74490   50.87780  114.54990   -9999.25   -9999.25   -9999.25   -9999.25   -9999.25   -9999.25
  428.00000   73.65660  -79.49800   -9999.25  622.30970    1.48490    1.03310   50.43320  120.45130   -9999.25   -9999.25   -9999.25   -9999.25   -9999.25   -9999.25
  428.50000   70.71880  -78.93290   -9999.25  590.14210    1.55280    1.13690   50.58410  127.68900   -9999.25   -9999.25   -9999.25   -9999.25   -9999.25   -9999.25
  429.00000   66.35020  -78.50900   -9999.25  562.89250    1.63480    1.33860   50.87740  135.45810   -9999.25   -9999.25   -9999.25   -9999.25   -9999.25   -9999.25
  429.50000   62.58390  -78.33890   -9999.25  552.93190    1.63440    1.48380   51.17070  144.16420   -9999.25   -9999.25   -9999.25   -9999.25   -9999.25   -9999.25
  430.00000   60.09790  -78.12250   -9999.25  542.16870    1.63400    1.45830   51.45420  188.24890   -9999.25   -9999.25   -9999.25   -9999.25   -9999.25   -9999.25
  430.50000   58.21420  -77.74550   -9999.25  537.58980    1.51920    1.33250   51.59810  213.74310   -9999.25   -9999.25   -9999.25   -9999.25   -9999.25   -9999.25
  431.00000   52.56540  -77.75000   -9999.25  544.09700    1.48270    1.20910   51.75370  218.50410   -9999.25   -9999.25   -9999.25   -9999.25   -9999.25   -9999.25
  431.50000   56.85650  -77.75530   -9999.25  567.12960    1.42010    1.08450   51.88590  222.41570   -9999.25   -9999.25   -9999.25   -9999.25   -9999.25   -9999.25
  432.00000   60.69570  -77.75900   -9999.25  607.41220    1.33130    0.95980   51.88130  220.12970   -9999.25   -9999.25   -9999.25   -9999.25   -9999.25   -9999.25
  432.50000   61.67350  -78.06970   -9999.25  659.83780    1.32090    0.83520   51.87690  201.63280   -9999.25   -9999.25   -9999.25   -9999.25   -9999.25   -9999.25
  433.00000   61.22060  -78.37050   -9999.25  704.81930    1.17990    0.71060   52.02100  168.37500   -9999.25   -9999.25   -9999.25   -9999.25   -9999.25   -9999.25
  433.50000   60.46640  -78.47440   -9999.25  737.35270    1.07110    0.57720   52.01630  143.62790   -9999.25   -9999.25   -9999.25   -9999.25   -9999.25   -9999.25
  434.00000   60.46520  -78.98200   -9999.25  758.23350    1.02860    0.46130   52.01190  125.05670   -9999.25   -9999.25   -9999.25   -9999.25   -9999.25   -9999.25
  434.50000   61.06650  -79.48150   -9999.25  765.62250    0.97200    0.42580   52.00740  137.37140   -9999.25   -9999.25   -9999.25   -9999.25   -9999.25   -9999.25
  435.00000   61.56030  -79.98490   -9999.25  765.96370    0.87730    0.42550   52.00300  141.81990   -9999.25   -9999.25   -9999.25   -9999.25   -9999.25   -9999.25
  435.50000   61.96810  -80.20030   -9999.25  762.79250    0.88090    0.42510   51.99850  145.12180   -9999.25   -9999.25   -9999.25   -9999.25   -9999.25   -9999.25
  436.00000   62.72000  -79.65060   -9999.25  734.93980    1.02700    0.43470   51.99410  152.76820   -9999.25   -9999.25   -9999.25   -9999.25   -9999.25   -9999.25
  436.50000   61.96580  -78.40140   -9999.25  657.11450    1.12910    0.57490   51.98960  158.62500   -9999.25   -9999.25   -9999.25   -9999.25   -9999.25   -9999.25
  437.00000   61.21170  -78.40680   -9999.25  538.08090    1.25330    0.68250   51.98520  163.38310   -9999.25   -9999.25   -9999.25   -9999.25   -9999.25   -9999.25
  437.50000   60.45750  -78.41110   -9999.25  392.57030    1.52800    0.80630   51.98070  165.96490   -9999.25   -9999.25   -9999.25   -9999.25   -9999.25   -9999.25
  438.00000   59.85390  -78.41570   -9999.25  258.43340    2.12200    0.93020   51.97630  160.56960   -9999.25   -9999.25   -9999.25   -9999.25   -9999.25   -9999.25
  438.50000   59.55180  -78.96030   -9999.25  198.32230    3.13370    1.05410   51.97180  136.68000   -9999.25   -9999.25   -9999.25   -9999.25   -9999.25   -9999.25
  439.00000   60.90590  -79.79620   -9999.25   80.96450   27.36190    1.17800   51.96740  118.28710   -9999.25   -9999.25   -9999.25   -9999.25   -9999.25   -9999.25
