~Version ---------------------------------------------------
VERS.   2.0 : CWLS log ASCII Standard -VERSION 2.0
WRAP.    NO : One line per depth step
DLM . SPACE : Column Data Section Delimiter
~Well ------------------------------------------------------
STRT .F                 317.0 : START DEPTH
STOP .F                5799.0 : STOP DEPTH
STEP .F                   0.5 : STEP
NULL .               -9999.25 : NULL VALUE
COMP .                        : COMPANY
WELL .                        : WELL
FLD  .                        : FIELD
LOC  .                        : LOCATION
PROV .                        : PROVINCE
CNTY .                        : COUNTY
STAT .                        : STATE
CTRY .                        : COUNTRY
SRVC .                        : SERVICE COMPANY
DATE .                        : DATE
UWI  .                        : UNIQUE WELL ID
API  .                        : API NUMBER
SLAT .WGS84 7.069063439464898 : SURFACE LATITUDE
SLON .WGS84 2.933435631362002 : SURFACE LONGITUDE
DATUM.F               1180.98 : DEPTH DATUM ELEV
~Curve Information -----------------------------------------
DEPT   .F     : 
GRR    .GAPI  : GAMMA RAY FROM RESISTIVITY LOG
SPR    .MV    : SPONTANEOUS POTENTIAL FROM RESISTIVITY LOG
ILM    .OHMM  : INDUCTION MEDIUM RESISTIVITY
CIDP   .MMHO  : INCUCTION DEEP PHASOR CONDUCTIVITY
IDPH   .OHMM  : INDUCTION DEEP PHASOR RESISTIVITY
SFLU   .OHMM  : SHALLOW FOCUSED RESISTIVITY (UNAVERAGED)
DTCO   .US/F  : DELTA-T COMPRESSIONAL
DTSM   .US/F  : DELTA-T SHEAR
CALD   .IN    : CALIPER FROM DENSITY LOG
DRHO   .G/C3  : BULK DENSITY CORRECTION
DPHI_LS.DEC   : DENSITY POROSITY LIMESTONE
NPHI_LS.DEC   : NEUTRON POROSITY LIMESTONE
PEF    .B/E   : PHOTOELECTRIC FACTOR
RHOB   .G/C3  : BULK DENSITY
~Params ----------------------------------------------------
~Other -----------------------------------------------------
~ASCII -----------------------------------------------------
# ...
 5780.50000    5.59240  -37.36220 1983.12340   -9999.25  363.22680  626.64730   -9999.25   -9999.25    7.57430    0.00360    0.00390    0.01900    4.80680    2.70130
 5781.00000    6.04960  -37.95810 1982.84790   -9999.25  390.45390  576.79140   -9999.25   -9999.25    7.52300    0.00260    0.00610    0.01950    4.80080    2.69780
 5781.50000    6.05640  -38.55400 1982.57250   -9999.25  424.37700  533.05260   -9999.25   -9999.25    7.52830    0.00220    0.00670    0.01970    4.98730    2.69700
 5782.00000    6.06320  -38.55090 1982.29700   -9999.25  454.04030  485.92830   -9999.25   -9999.25    7.53350    0.00220    0.00810    0.01980    5.26020    2.69650
 5782.50000    6.07050  -38.57410 1982.02190   -9999.25  473.80110  417.16430   -9999.25   -9999.25    7.52970    0.00350    0.01270    0.01990    5.36180    2.68960
 5783.00000    6.07660  -38.87970 1990.07650   -9999.25  429.98970  368.20550   -9999.25   -9999.25    7.50440    0.00820    0.02180    0.01990    5.29400    2.67090
 5783.50000    6.08360  -39.14120 2000.00000   -9999.25  139.24280  232.96730   -9999.25   -9999.25    7.49530    0.01860    0.02370    0.01990    5.23530    2.66850
 5784.00000    6.09020  -39.35340  686.02850   -9999.25   58.66430   63.24560   -9999.25   -9999.25    7.49790    0.03050    0.01420    0.02000    4.94530    2.68300
 5784.50000    6.09640  -39.73370  142.86200   -9999.25   34.14350   40.57500   -9999.25   -9999.25    7.50930    0.02890    0.00550    0.02000    4.45610    2.69850
 5785.00000    6.10380  -39.73050   56.05080   -9999.25   26.22270   29.90400   -9999.25   -9999.25    7.52080    0.02420    0.00570    0.02010    4.27550    2.69950
 5785.50000    5.84050  -39.72750   28.67280   -9999.25   20.99650   23.95210   -9999.25   -9999.25    7.53220    0.01970    0.01070    0.02010    4.19200    2.69360
 5786.00000    5.66610  -39.90650   20.78690   -9999.25   18.02110   18.83970   -9999.25   -9999.25    7.51040    0.01730    0.01980    0.02010    4.02730    2.67720
 5786.50000    5.67340  -40.32040   16.87460   -9999.25   15.90310   17.65280   -9999.25   -9999.25    7.47940    0.01380    0.03070    0.02010    3.92250    2.65660
 5787.00000    5.68060  -40.31700   14.48140   -9999.25   13.84050   17.98270   -9999.25   -9999.25    7.45000    0.01170    0.03860    0.02010    3.98770    2.64350
 5787.50000    5.68690  -40.31440   13.32150   -9999.25   12.73360   19.18850   -9999.25   -9999.25    7.41750    0.01070    0.03270    0.02010    4.01570    2.65350
 5788.00000    5.69350  -40.31120   12.59970   -9999.25   11.85750   19.86610   -9999.25   -9999.25    7.43790    0.01040    0.02480    0.02010    3.97670    2.66990
 5788.50000    5.70080  -40.30830   11.91710   -9999.25   11.55370   18.66170   -9999.25   -9999.25    7.46870    0.00990    0.01840    0.02010    4.00440    2.67800
 5789.00000    6.06780  -40.30540   11.75110   -9999.25   11.61920   18.14940   -9999.25   -9999.25    7.50130    0.00870    0.02210    0.02000    4.10090    2.67070
 5789.50000    6.16410  -40.30240   11.58740   -9999.25   12.52530   18.92230   -9999.25   -9999.25    7.54690    0.00150    0.02930    0.02000    4.21270    2.65920
 5790.00000    6.17140  -40.29940   11.91220   -9999.25   13.71770   20.47470   -9999.25   -9999.25    7.53860    0.00100    0.03860    0.02000    4.28080    2.64320
 5790.50000    6.17840  -40.29640   14.12170   -9999.25   15.47640   22.66360   -9999.25   -9999.25    7.50950    0.00800    0.04960    0.02000    4.23670    2.62460
 5791.00000    6.18460  -40.36030   16.61030   -9999.25   17.74550   25.80490   -9999.25   -9999.25    7.47220    0.02150    0.04560    0.02000    4.39410    2.63040
 5791.50000    6.19150  -40.88960   20.69060   -9999.25   20.18320   30.05850   -9999.25   -9999.25    7.45690    0.03040    0.02710    0.02000    4.80290    2.65990
 5792.00000    6.19880  -40.88620   23.45780   -9999.25   22.50670   33.41350   -9999.25   -9999.25    7.48620    0.01970    0.01950    0.02000    4.74580    2.67770
 5792.50000    6.20540  -40.88320   25.55780   -9999.25   24.12560   34.83320   -9999.25   -9999.25    7.53320    0.01020    0.02240    0.02000    4.43260    2.67150
 5793.00000    6.21170  -40.88020   25.55380   -9999.25   24.80530   33.93300   -9999.25   -9999.25    7.57340    0.00490    0.02390    0.02000    4.13840    2.66780
 5793.50000   -9999.25   -9999.25   -9999.25   -9999.25   -9999.25   -9999.25   -9999.25   -9999.25    7.60830    0.00440    0.01810    0.02000    3.96460    2.67880
 5794.00000   -9999.25   -9999.25   -9999.25   -9999.25   -9999.25   -9999.25   -9999.25   -9999.25    7.62020    0.00760    0.01280    0.02000    4.01150    2.68840
 5794.50000   -9999.25   -9999.25   -9999.25   -9999.25   -9999.25   -9999.25   -9999.25   -9999.25    7.61940    0.00890    0.01480    0.02000    4.10580    2.68520
 5795.00000   -9999.25   -9999.25   -9999.25   -9999.25   -9999.25   -9999.25   -9999.25   -9999.25    7.61140    0.00760    0.02210    0.02000    4.09920    2.67000
 5795.50000   -9999.25   -9999.25   -9999.25   -9999.25   -9999.25   -9999.25   -9999.25   -9999.25    7.60350    0.00600    0.03090    0.02000    4.14700    2.65610
 5796.00000   -9999.25   -9999.25   -9999.25   -9999.25   -9999.25   -9999.25   -9999.25   -9999.25    7.59550    0.00490    0.03520    0.02010    4.19520    2.65010
 5796.50000   -9999.25   -9999.25   -9999.25   -9999.25   -9999.25   -9999.25   -9999.25   -9999.25    7.60080    0.00370    0.03320    0.02020    4.20030    2.65190
 5797.00000   -9999.25   -9999.25   -9999.25   -9999.25   -9999.25   -9999.25   -9999.25   -9999.25    7.59030    0.00220    0.03270    0.02030    4.25710    2.65210
 5797.50000   -9999.25   -9999.25   -9999.25   -9999.25   -9999.25   -9999.25   -9999.25   -9999.25    7.57770    0.00070    0.03420    0.02040    4.34750    2.65020
 5798.00000   -9999.25   -9999.25   -9999.25   -9999.25   -9999.25   -9999.25   -9999.25   -9999.25    7.56510   -0.00090    0.03220    0.02050    4.45910    2.65050
 5798.50000   -9999.25   -9999.25   -9999.25   -9999.25   -9999.25   -9999.25   -9999.25   -9999.25    7.54380   -0.00170    0.03330    0.02060    4.57090    2.65150
 5799.00000   -9999.25   -9999.25   -9999.25   -9999.25   -9999.25   -9999.25   -9999.25   -9999.25    7.52850   -0.00080    0.03500    0.02070    4.47990    2.64880
