~Version ---------------------------------------------------
VERS.   2.0 : CWLS log ASCII Standard -VERSION 2.0
WRAP.    NO : One line per depth step
DLM . SPACE : Column Data Section Delimiter
~Well ------------------------------------------------------
STRT .F                 317.0 : START DEPTH
STOP .F                5799.0 : STOP DEPTH
STEP .F                   0.5 : STEP
NULL .               -9999.25 : NULL VALUE
COMP .                        : COMPANY
WELL .                        : WELL
FLD  .                        : FIELD
LOC  .                        : LOCATION
PROV .                        : PROVINCE
CNTY .                        : COUNTY
STAT .                        : STATE
CTRY .                        : COUNTRY
SRVC .                        : SERVICE COMPANY
DATE .                        : DATE
UWI  .                        : UNIQUE WELL ID
API  .                        : API NUMBER
SLAT .WGS84 7.069063439464898 : SURFACE LATITUDE
SLON .WGS84 2.933435631362002 : SURFACE LONGITUDE
DATUM.F               1180.98 : DEPTH DATUM ELEV
~Curve Information -----------------------------------------
DEPT   .F     : 
GRR    .GAPI  : GAMMA RAY FROM RESISTIVITY LOG
SPR    .MV    : SPONTANEOUS POTENTIAL FROM RESISTIVITY LOG
ILM    .OHMM  : INDUCTION MEDIUM RESISTIVITY
CIDP   .MMHO  : INCUCTION DEEP PHASOR CONDUCTIVITY
IDPH   .OHMM  : INDUCTION DEEP PHASOR RESISTIVITY
SFLU   .OHMM  : SHALLOW FOCUSED RESISTIVITY (UNAVERAGED)
DTCO   .US/F  : DELTA-T COMPRESSIONAL
DTSM   .US/F  : DELTA-T SHEAR
CALD   .IN    : CALIPER FROM DENSITY LOG
DRHO   .G/C3  : BULK DENSITY CORRECTION
DPHI_LS.DEC   : DENSITY POROSITY LIMESTONE
NPHI_LS.DEC   : NEUTRON POROSITY LIMESTONE
PEF    .B/E   : PHOTOELECTRIC FACTOR
RHOB   .G/C3  : BULK DENSITY
~Params ----------------------------------------------------
~Other -----------------------------------------------------
~ASCII -----------------------------------------------------
# ...
 5070.00000   94.95470  -20.45900    2.76250   -9999.25    3.14790    3.56640   86.30540  189.01940   11.11830    0.08630   -9999.25    0.35760    2.60790    2.12720
 5070.50000   93.61210  -19.94770    2.37100   -9999.25    3.01980    3.10470   82.73940  205.61580   11.49910    0.08280   -9999.25    0.35120    2.27470    1.99950
 5071.00000   92.26950  -19.84430    2.33830   -9999.25    2.93740    2.85700   82.28910  216.87090   12.78140    0.07900   -9999.25    0.37870    2.01370   -9999.25
 5071.50000   91.67910  -19.36830    2.51760   -9999.25    2.89730    2.66570   82.72900  225.15880   14.02980    0.07400   -9999.25    0.42250    1.79330   -9999.25
 5072.00000   97.24340  -19.37720    2.73670   -9999.25    2.81830    2.55730   83.46560  228.69880   14.74070    0.06930   -9999.25    0.46800    1.78420   -9999.25
 5072.50000  104.45930  -18.92210    2.88880   -9999.25    2.77980    2.44200   84.49900  224.52370   14.75880    0.05830   -9999.25    0.48760    1.90950   -9999.25
 5073.00000  107.84720  -18.19930    2.96120   -9999.25    2.78020    2.40850   86.42260  215.00730   14.42280    0.04720   -9999.25    0.47340    2.16740   -9999.25
 5073.50000  110.10820  -18.10730    2.84110   -9999.25    2.78060    2.38640   89.23640  203.71050   13.78660    0.04110   -9999.25    0.44580    2.30200   -9999.25
 5074.00000  105.61240  -17.80830    2.65830   -9999.25    2.77280    2.40330   91.75350  190.03990   13.30640    0.04630   -9999.25    0.41950    2.32380   -9999.25
 5074.50000   98.18870  -17.39310    2.56140   -9999.25    2.70510    2.66910   94.56730  181.71050   13.04150    0.06230   -9999.25    0.39550    2.49240   -9999.25
 5075.00000   94.74470  -17.03590    2.47190   -9999.25    2.73100    3.63580  100.79350  178.12880   12.56090    0.07140   -9999.25    0.37890    2.61010   -9999.25
 5075.50000   95.05380  -17.04490    3.01620   -9999.25    3.56450    5.07230  101.53020  172.76680   11.45580    0.08830   -9999.25    0.36860    2.35810   -9999.25
 5076.00000   99.26680  -17.05410    6.18340   -9999.25    5.54860    7.36800  101.82200  163.84390   10.99850    0.09870   -9999.25    0.37450    1.73770   -9999.25
 5076.50000  103.18090  -17.06290   14.83600   -9999.25    7.49350   10.27470  101.51980  158.48190   11.30690    0.05930   -9999.25    0.39380    1.73510   -9999.25
 5077.00000  101.83820  -17.67070   24.80530   -9999.25    9.67640   12.22480  100.17930  158.35630   11.68680    0.05770   -9999.25    0.38200    2.00390   -9999.25
 5077.50000   95.99110  -17.74950   28.90080   -9999.25   11.97060   15.84380   98.98720  168.52930   11.06590    0.05420    0.30020    0.34500    2.40490    2.18690
 5078.00000   87.89180  -18.39210   30.13070   -9999.25   11.80700   20.21770   96.60810  173.25620   10.37240    0.04840    0.18040    0.26740    2.84360    2.49900
 5078.50000   78.44110  -19.26380   24.80530   -9999.25    8.82070   23.88080   95.86110  176.79620    9.50780    0.03290    0.05310    0.21140    3.13480    2.64080
 5079.00000   73.94530  -19.50300   11.39430   -9999.25    6.06270   26.31770   97.19120  180.33630    9.20390    0.01280    0.02030    0.18000    3.35520    2.67850
 5079.50000   81.91350  -19.51200    6.50970   -9999.25    5.50160   18.86680  102.97240  186.25020    9.17580   -0.00240    0.03960    0.17090    2.75570    2.62580
 5080.00000   91.38170  -19.80050    2.50620   -9999.25    5.27780    6.66680  111.72090  190.97710    9.41460   -0.01380    0.21640    0.20420    2.38250    2.32560
 5080.50000   95.29430  -20.12870    1.85990   -9999.25    5.13380    2.63230  113.34780  195.70410    9.82610   -0.01940    0.29940    0.28020    2.41690    2.06380
 5081.00000   97.63110  -20.13770    1.79590   -9999.25    4.83930    2.56050  116.16160  201.61800   11.02600   -0.00220    0.29940    0.33490    2.55960    2.01220
 5081.50000   91.10840  -20.14670    2.13050   -9999.25    4.03530    2.56060  115.11780  203.37760   11.88180    0.03940   -9999.25    0.42430    2.55570    2.02520
 5082.00000   85.03600  -20.15730    3.85570   -9999.25    2.79970    2.84120  109.91970  204.54380   12.14590    0.06580   -9999.25    0.46560    2.49430   -9999.25
 5082.50000   81.66640  -20.16610    3.41620   -9999.25    2.46290    3.72730  103.38630  206.30340   12.31780    0.06840   -9999.25    0.45170    2.40670   -9999.25
 5083.00000   80.02420  -20.17480    2.58960   -9999.25    2.24540    3.83280   97.59480  208.06300   12.28810    0.05950   -9999.25    0.40920    2.17480   -9999.25
 5083.50000   81.98490  -20.54120    1.94760   -9999.25    2.11190    3.17950   91.60620  211.60300   11.57500    0.04390   -9999.25    0.38730    1.83150   -9999.25
 5084.00000   89.95160  -20.79040    1.74580   -9999.25    2.69530    2.78490   93.43010  217.51690   11.19460    0.03130   -9999.25    0.39850    1.70000   -9999.25
 5084.50000   94.76660  -20.79980    1.71250   -9999.25    3.24510    2.63400   99.21130  221.65040   11.76240    0.02150   -9999.25    0.42150    1.81220   -9999.25
 5085.00000   91.62220  -21.10270    2.18140   -9999.25    3.71450    2.51510  104.39900  217.47530   11.96450    0.01180   -9999.25    0.43690    1.93650   -9999.25
 5085.50000   87.57690  -21.41620    3.13040   -9999.25    3.94840    2.51520  104.69070  209.73940   12.02820    0.00940   -9999.25    0.44400    1.78450   -9999.25
 5086.00000   91.63970  -21.42510    3.25620   -9999.25    3.29650    2.65970  105.42720  199.03610   11.82850    0.01190   -9999.25    0.42590    1.89340   -9999.25
 5086.50000   98.40520  -21.26390    1.77110   -9999.25    2.82970    2.98480  108.83450  187.14580   12.07330    0.02040   -9999.25    0.38470    2.02140   -9999.25
 5087.00000  103.36890  -20.96490    1.39850   -9999.25    2.60380    2.67150  118.02810  181.78380   12.25000    0.02820   -9999.25    0.36570    1.84540   -9999.25
 5087.50000  106.08030  -20.47870    1.35860   -9999.25    2.67750    2.29360  120.39680  184.73030   12.25180    0.02800   -9999.25    0.37630    1.61080   -9999.25
 5088.00000   99.03350  -20.26210    1.87230   -9999.25    3.20790    2.17000  118.01770  195.98550   12.82500    0.02950   -9999.25    0.42550    1.78280   -9999.25
 5088.50000   92.13540  -20.27250    2.34130   -9999.25    3.34490    2.17010  111.63270  215.54930   15.07800    0.04400   -9999.25    0.46460    2.03850   -9999.25
 5089.00000   87.63960  -20.28140    2.47190   -9999.25    2.95100    2.32610  106.13790  224.43050   15.54180    0.05640   -9999.25    0.48310    2.10110   -9999.25
 5089.50000   86.74820  -20.00430    2.39950   -9999.25    2.83200    2.52820  101.68170  223.22280   15.32950    0.06670   -9999.25    0.49000    2.08880   -9999.25
 5090.00000   90.58570  -19.70060    2.37100   -9999.25    3.05920    2.86450   99.45100  203.02390   14.68340    0.07140   -9999.25    0.49490    2.08910   -9999.25
 5090.50000   93.74770  -19.71140    2.42160   -9999.25    3.49880    3.14250   98.70390  194.10100   14.39490    0.08490   -9999.25    0.50310    2.15430   -9999.25
 5091.00000   93.53120  -19.72010    2.57550   -9999.25    4.26180    3.30660   99.44060  187.55200   14.28020    0.10250   -9999.25    0.51210    2.21240    2.01170
 5091.50000   87.98510  -19.72750    2.87600   -9999.25    5.36320    3.35300  100.47400  183.37700   13.95680    0.11300   -9999.25    0.50920    2.16430    2.12420
 5092.00000   83.48930  -19.73650    3.18740   -9999.25    5.98000    3.38430  102.10080  180.38880   13.64240    0.10660    0.29960    0.47460    2.18700    2.19150
 5092.50000   82.74800  -19.74550    3.37830   -9999.25    5.94240    3.38450  105.80480  178.58750   13.42840    0.09010    0.29470    0.44170    2.31410    2.20520
 5093.00000   88.61270  -19.75500    3.37720   -9999.25    4.72570    3.48020  102.09040  177.37980   13.39920    0.09730    0.29430    0.41680    2.35670    2.20650
 5093.50000   90.87360  -19.76380    2.92030   -9999.25    3.67540    3.57810   98.07930  171.42430   13.37260    0.11250    0.30020    0.40920    2.39190    2.17860
 5094.00000   87.50400  -19.77250    2.37100   -9999.25    3.12530    3.22070   97.31320  160.72100   13.34600    0.12850   -9999.25    0.40740    2.64190    2.14850
