~Version ---------------------------------------------------
VERS.   2.0 : CWLS log ASCII Standard -VERSION 2.0
WRAP.    NO : One line per depth step
DLM . SPACE : Column Data Section Delimiter
~Well ------------------------------------------------------
STRT .F                 317.0 : START DEPTH
STOP .F                5799.0 : STOP DEPTH
STEP .F                   0.5 : STEP
NULL .               -9999.25 : NULL VALUE
COMP .                        : COMPANY
WELL .                        : WELL
FLD  .                        : FIELD
LOC  .                        : LOCATION
PROV .                        : PROVINCE
CNTY .                        : COUNTY
STAT .                        : STATE
CTRY .                        : COUNTRY
SRVC .                        : SERVICE COMPANY
DATE .                        : DATE
UWI  .                        : UNIQUE WELL ID
API  .                        : API NUMBER
SLAT .WGS84 7.069063439464898 : SURFACE LATITUDE
SLON .WGS84 2.933435631362002 : SURFACE LONGITUDE
DATUM.F               1180.98 : DEPTH DATUM ELEV
~Curve Information -----------------------------------------
DEPT   .F     : 
GRR    .GAPI  : GAMMA RAY FROM RESISTIVITY LOG
SPR    .MV    : SPONTANEOUS POTENTIAL FROM RESISTIVITY LOG
ILM    .OHMM  : INDUCTION MEDIUM RESISTIVITY
CIDP   .MMHO  : INCUCTION DEEP PHASOR CONDUCTIVITY
IDPH   .OHMM  : INDUCTION DEEP PHASOR RESISTIVITY
SFLU   .OHMM  : SHALLOW FOCUSED RESISTIVITY (UNAVERAGED)
DTCO   .US/F  : DELTA-T COMPRESSIONAL
DTSM   .US/F  : DELTA-T SHEAR
CALD   .IN    : CALIPER FROM DENSITY LOG
DRHO   .G/C3  : BULK DENSITY CORRECTION
DPHI_LS.DEC   : DENSITY POROSITY LIMESTONE
NPHI_LS.DEC   : NEUTRON POROSITY LIMESTONE
PEF    .B/E   : PHOTOELECTRIC FACTOR
RHOB   .G/C3  : BULK DENSITY
~Params ----------------------------------------------------
~Other -----------------------------------------------------
~ASCII -----------------------------------------------------
# ...
 2228.00000   49.80920  -50.09640   -9999.25   90.99570   10.34540   10.99380   60.73590  112.92530   -9999.25   -9999.25   -9999.25   -9999.25   -9999.25   -9999.25
 2228.50000   65.77090  -50.17510   -9999.25   95.17750   10.22260   10.28400   60.68690  114.10030   -9999.25   -9999.25   -9999.25   -9999.25   -9999.25   -9999.25
 2229.00000   76.61130  -50.71130   -9999.25  100.89330    9.90510    9.85770   60.38870  116.46230   -9999.25   -9999.25   -9999.25   -9999.25   -9999.25   -9999.25
 2229.50000   82.70740  -50.71690   -9999.25  108.06960    9.46960    9.20140   60.23910  121.79170   -9999.25   -9999.25   -9999.25   -9999.25   -9999.25   -9999.25
 2230.00000   86.09190  -50.72290   -9999.25  116.94360    8.98090    8.45630   61.00870  125.93410   -9999.25   -9999.25   -9999.25   -9999.25   -9999.25   -9999.25
 2230.50000   84.95920  -50.72890   -9999.25  127.19550    8.48060    7.76330   63.43160  130.67000   -9999.25   -9999.25   -9999.25   -9999.25   -9999.25   -9999.25
 2231.00000   81.71780  -50.73490   -9999.25  135.51710    7.78450    7.26280   66.60680  132.43860   -9999.25   -9999.25   -9999.25   -9999.25   -9999.25   -9999.25
 2231.50000   85.17800  -50.74100   -9999.25  145.99490    7.15450    6.76830   67.53310  133.02020   -9999.25   -9999.25   -9999.25   -9999.25   -9999.25   -9999.25
 2232.00000   93.75950  -50.74800   -9999.25  156.46540    6.57430    6.36750   68.27900  134.19520   -9999.25   -9999.25   -9999.25   -9999.25   -9999.25   -9999.25
 2232.50000  102.19020  -50.33890   -9999.25  165.97500    6.13320    6.06370   69.72160  138.93110   -9999.25   -9999.25   -9999.25   -9999.25   -9999.25   -9999.25
 2233.00000  108.20990  -50.15660   -9999.25  174.62540    5.76660    5.81400   71.38330  144.85390   -9999.25   -9999.25   -9999.25   -9999.25   -9999.25   -9999.25
 2233.50000  105.19490  -49.96450   -9999.25  184.49330    5.37120    5.58060   73.08920  147.21600   -9999.25   -9999.25   -9999.25   -9999.25   -9999.25   -9999.25
 2234.00000   79.59060  -49.38570   -9999.25  187.68140    5.03310    5.44410   74.45690  149.57800   -9999.25   -9999.25   -9999.25   -9999.25   -9999.25   -9999.25
 2234.50000   65.53610  -48.36770   -9999.25  185.88420    4.83410    5.44240   75.63750  151.34650   -9999.25   -9999.25   -9999.25   -9999.25   -9999.25   -9999.25
 2235.00000   63.46790  -47.89670   -9999.25  179.93300    4.71130    5.35390   75.80610  151.40480   -9999.25   -9999.25   -9999.25   -9999.25   -9999.25   -9999.25
 2235.50000   63.46450  -47.40820   -9999.25  173.02640    4.66840    5.82670   73.28490  150.72930   -9999.25   -9999.25   -9999.25   -9999.25   -9999.25   -9999.25
 2236.00000   63.08460  -46.65870   -9999.25  167.98220    4.91570    6.90670   71.34110  147.15660   -9999.25   -9999.25   -9999.25   -9999.25   -9999.25   -9999.25
 2236.50000   59.39170  -45.82880   -9999.25  164.38260    5.27470    7.84460   69.31830  142.39690   -9999.25   -9999.25   -9999.25   -9999.25   -9999.25   -9999.25
 2237.00000   51.70730  -45.34020   -9999.25  165.34810    5.45730    7.84230   66.49110  138.23070   -9999.25   -9999.25   -9999.25   -9999.25   -9999.25   -9999.25
 2237.50000   41.01020  -44.78990   -9999.25  171.77850    5.51580    7.32310   65.47600  134.06450   -9999.25   -9999.25   -9999.25   -9999.25   -9999.25   -9999.25
 2238.00000   30.84150  -44.36350   -9999.25  185.52620    5.44680    6.70180   65.10980  130.49180   -9999.25   -9999.25   -9999.25   -9999.25   -9999.25   -9999.25
 2238.50000   28.20290  -43.87500   -9999.25  208.19250    5.19650    6.03050   66.76490  131.66690   -9999.25   -9999.25   -9999.25   -9999.25   -9999.25   -9999.25
 2239.00000   38.73990  -43.38650   -9999.25  238.83430    4.76040    5.33210   71.62400  135.80930   -9999.25   -9999.25   -9999.25   -9999.25   -9999.25   -9999.25
 2239.50000   56.80920  -42.89810   -9999.25  259.27630    4.46310    4.82110   75.58730  141.13870   -9999.25   -9999.25   -9999.25   -9999.25   -9999.25   -9999.25
 2240.00000   69.98480  -42.40960   -9999.25  285.93850    4.09630    4.45780   79.79200  147.65500   -9999.25   -9999.25   -9999.25   -9999.25   -9999.25   -9999.25
 2240.50000   75.32780  -41.92120   -9999.25  315.38750    3.72960    4.17810   81.27420  155.35820   -9999.25   -9999.25   -9999.25   -9999.25   -9999.25   -9999.25
 2241.00000   73.81680  -41.81930   -9999.25  343.91550    3.37600    3.92850   81.56950  164.84190   -9999.25   -9999.25   -9999.25   -9999.25   -9999.25   -9999.25
 2241.50000   64.77870  -41.54670   -9999.25  363.88940    3.10010    3.71910   82.60660  170.76480   -9999.25   -9999.25   -9999.25   -9999.25   -9999.25   -9999.25
 2242.00000   59.88150  -41.22890   -9999.25  378.53850    2.78020    3.57970   83.49530  175.50070   -9999.25   -9999.25   -9999.25   -9999.25   -9999.25   -9999.25
 2242.50000   59.93130  -41.23490   -9999.25  391.46010    2.56900    3.30360   85.71930  180.83000   -9999.25   -9999.25   -9999.25   -9999.25   -9999.25   -9999.25
 2243.00000   62.66100  -41.24150   -9999.25  400.43110    2.39700    3.08060   88.68520  186.15940   -9999.25   -9999.25   -9999.25   -9999.25   -9999.25   -9999.25
 2243.50000   67.25120  -41.24700   -9999.25  405.80500    2.17290    2.99890   90.01910  189.70830   -9999.25   -9999.25   -9999.25   -9999.25   -9999.25   -9999.25
 2244.00000   70.63570  -41.25300   -9999.25  409.25720    2.04210    2.93980   91.50130  190.88430   -9999.25   -9999.25   -9999.25   -9999.25   -9999.25   -9999.25
 2244.50000   73.64390  -41.49250   -9999.25  410.64510    2.04140    2.84450   90.16450  189.68460   -9999.25   -9999.25   -9999.25   -9999.25   -9999.25   -9999.25
 2245.00000   77.85750  -41.99310   -9999.25  409.56360    1.95540    2.84260   86.60220  185.51840   -9999.25   -9999.25   -9999.25   -9999.25   -9999.25   -9999.25
 2245.50000   81.01700  -42.47590   -9999.25  401.78450    1.94600    2.84040   84.52350  180.16530   -9999.25   -9999.25   -9999.25   -9999.25   -9999.25   -9999.25
 2246.00000   79.95900  -42.48300   -9999.25  388.50250    2.09540    2.93970   82.89000  174.21870   -9999.25   -9999.25   -9999.25   -9999.25   -9999.25   -9999.25
 2246.50000   73.10180  -42.89220   -9999.25  369.18190    2.33960    3.13590   80.66300  169.45900   -9999.25   -9999.25   -9999.25   -9999.25   -9999.25   -9999.25
 2247.00000   62.93440  -43.09640   -9999.25  338.26320    2.70330    3.52420   79.02950  162.32550   -9999.25   -9999.25   -9999.25   -9999.25   -9999.25   -9999.25
 2247.50000   58.41370  -43.29070   -9999.25  276.61280    3.25410    4.14150   77.54430  157.56580   -9999.25   -9999.25   -9999.25   -9999.25   -9999.25   -9999.25
 2248.00000   60.81890  -43.71080   -9999.25  221.68590    4.05610    4.78910   75.16900  154.58660   -9999.25   -9999.25   -9999.25   -9999.25   -9999.25   -9999.25
 2248.50000   62.02050  -43.71720   -9999.25  170.72170    4.99590    5.73020   72.94200  150.42040   -9999.25   -9999.25   -9999.25   -9999.25   -9999.25   -9999.25
 2249.00000   54.03380  -44.18970   -9999.25  133.12400    5.85590    6.71910   69.97320  144.47380   -9999.25   -9999.25   -9999.25   -9999.25   -9999.25   -9999.25
 2249.50000   37.67970  -44.33130   -9999.25  119.21180    7.00360    7.57950   66.70760  139.71420   -9999.25   -9999.25   -9999.25   -9999.25   -9999.25   -9999.25
 2250.00000   31.22430  -44.58820   -9999.25  111.07040    7.50500    8.28330   64.48060  137.33060   -9999.25   -9999.25   -9999.25   -9999.25   -9999.25   -9999.25
 2250.50000   30.53150  -44.94580   -9999.25  105.53820    8.04230    8.90070   64.03400  131.87050   -9999.25   -9999.25   -9999.25   -9999.25   -9999.25   -9999.25
 2251.00000   42.57630  -44.95180   -9999.25  100.21820    8.44320    9.59690   64.32930  130.76560   -9999.25   -9999.25   -9999.25   -9999.25   -9999.25   -9999.25
 2251.50000   59.89310  -44.95870   -9999.25   98.11250    8.67200    9.59530   65.06960  131.44330   -9999.25   -9999.25   -9999.25   -9999.25   -9999.25   -9999.25
 2252.00000   72.99280  -44.96390   -9999.25  101.69010    8.80710    9.18660   65.81000  132.12340   -9999.25   -9999.25   -9999.25   -9999.25   -9999.25   -9999.25
