~Version ---------------------------------------------------
VERS.   2.0 : CWLS log ASCII Standard -VERSION 2.0
WRAP.    NO : One line per depth step
DLM . SPACE : Column Data Section Delimiter
~Well ------------------------------------------------------
STRT .F                 862.0 : START DEPTH
STOP .F                7698.0 : STOP DEPTH
STEP .F                   0.5 : STEP
NULL .               -9999.25 : NULL VALUE
COMP .                        : COMPANY
WELL .                        : WELL
FLD  .                        : FIELD
LOC  .                        : LOCATION
PROV .                        : PROVINCE
CNTY .                        : COUNTY
STAT .                        : STATE
CTRY .                        : COUNTRY
SRVC .                        : SERVICE COMPANY
DATE .                        : DATE
UWI  .                        : UNIQUE WELL ID
API  .                        : API NUMBER
SLAT .WGS84 6.723628290663207 : SURFACE LATITUDE
SLON .WGS84 3.207555967667105 : SURFACE LONGITUDE
DATUM.F                1492.0 : DEPTH DATUM ELEV
~Curve Information -----------------------------------------
DEPT   .F     : 1 MEASURED DEPTH
GRR    .GAPI  : GAMMA RAY FROM RESISTIVITY LOG
ILD    .OHMM  : INDUCTION DEEP RESISTIVITY
ILM    .OHMM  : INDUCTION MEDIUM RESISTIVITY
SFLU   .OHMM  : SHALLOW FOCUSED RESISTIVITY (UNAVERAGED)
SPR    .MV    : SPONTANEOUS POTENTIAL FROM RESISTIVITY LOG
DPHI_LS.DEC   : DENSITY POROSITY LIMESTONE
NPHI_LS.DEC   : NEUTRON POROSITY LIMESTONE
DRHO   .G/C3  : BULK DENSITY CORRECTION
CALD   .IN    : CALIPER FROM DENSITY LOG
PEF    .B/E   : PHOTOELECTRIC FACTOR
RHOB   .G/C3  : BULK DENSITY
DTCO   .US/F  : DELTA-T COMPRESSIONAL
DTSM   .US/F  : DELTA-T SHEAR
~Params ----------------------------------------------------
~Other -----------------------------------------------------
~ASCII -----------------------------------------------------
# ...
 6062.00000  117.15620    5.73580    5.96600    7.00540   -0.09730   -9999.25   -9999.25   -9999.25   -9999.25   -9999.25   -9999.25   -9999.25   -9999.25
 6062.50000  114.20510    5.72350    5.95320    7.07370   -0.04450   -9999.25   -9999.25   -9999.25   -9999.25   -9999.25   -9999.25   -9999.25   -9999.25
 6063.00000  114.49010    5.71120    5.94040    7.15780    0.00820   -9999.25   -9999.25   -9999.25   -9999.25   -9999.25   -9999.25   -9999.25   -9999.25
 6063.50000  121.60300    5.69900    5.92770    7.14870    0.06090   -9999.25   -9999.25   -9999.25   -9999.25   -9999.25   -9999.25   -9999.25   -9999.25
 6064.00000  127.98300    5.68680    5.91500    7.13050    0.11370    0.04650    0.26650   -0.00280    8.37160    3.68080    2.63520   -9999.25   -9999.25
 6064.50000  132.17780    5.65240    5.88200    7.15800    0.18220    0.04850    0.26150    0.00030    8.34910    3.59260    2.63010   -9999.25   -9999.25
 6065.00000  130.39380    5.60790    5.83490    7.27460    0.36040    0.05260    0.25630    0.00340    8.36520    3.50110    2.62270   -9999.25   -9999.25
 6065.50000  127.23690    5.56370    5.77690    7.49380    0.36180    0.05840    0.25210    0.00710    8.38140    3.43470    2.61040   -9999.25   -9999.25
 6066.00000  124.77730    5.51990    5.71940    7.52460   -0.22250    0.06770    0.25160    0.01540    8.40160    3.41130    2.59800   -9999.25   -9999.25
 6066.50000  122.63940    5.45760    5.66430    7.49570   -0.90760    0.06850    0.25290    0.02810    8.45100    3.39770    2.59780   -9999.25   -9999.25
 6067.00000  121.19950    5.38910    5.63310    7.32090   -1.59260    0.06430    0.25400    0.05060    8.50540    3.32380    2.60600   -9999.25   -9999.25
 6067.50000  121.10110    5.32580    5.60210    7.08110   -2.27770    0.06090    0.25930    0.08090    8.56270    3.21190    2.61020   -9999.25   -9999.25
 6068.00000  124.22760    5.30630    5.61940    6.88000   -2.79790    0.06850    0.27230    0.10810    8.62470    3.08910    2.58990   -9999.25   -9999.25
 6068.50000  124.47010    5.52580    5.94730    6.70490   -3.16090    0.08800    0.28500    0.12550    8.67250    3.04170    2.55970   -9999.25   -9999.25
 6069.00000  113.34560    6.15240    6.73140    6.95620   -3.52390    0.10260    0.26670    0.12710    8.62060    3.28940    2.53910   -9999.25   -9999.25
 6069.50000   97.11040    6.64100    7.58220    7.97440   -3.75290    0.09100    0.22550    0.11810    8.52200    3.80140    2.56770   -9999.25   -9999.25
 6070.00000   80.87520    6.88800    9.05100   10.65150   -3.80480    0.05440    0.16540    0.10730    8.42200    4.17980    2.63370   -9999.25   -9999.25
 6070.50000   66.12900    7.11970    9.49480   15.17040   -3.85660    0.01900    0.12500    0.09120    8.43690    3.97310    2.68150   -9999.25   -9999.25
 6071.00000   69.28550    7.18820    8.74480   16.89290   -3.33680    0.02510    0.11670    0.07250    8.53860    3.58670    2.66310   -9999.25   -9999.25
 6071.50000   81.35310    7.06630    7.74080   13.58960   -2.51470    0.04560    0.16020    0.06350    8.66720    3.23650    2.62930   -9999.25   -9999.25
 6072.00000   93.26950    6.71370    7.01640   10.17540   -1.13030    0.06220    0.19660    0.08360    8.84780    3.04280    2.60170   -9999.25   -9999.25
 6072.50000  101.62380    6.29890    6.59490    7.81230   -0.31540    0.07600    0.22250    0.10570    9.04040    2.92820    2.57880   -9999.25   -9999.25
 6073.00000  102.12640    5.61830    6.03470    6.59610   -0.31940    0.08560    0.23790    0.11860    9.19040    2.99210    2.56590   -9999.25   -9999.25
 6073.50000  102.89970    5.01130    5.44130    6.16000   -0.77910    0.09170    0.24270    0.13070    9.27270    3.08820    2.55390   -9999.25   -9999.25
 6074.00000  106.02910    4.43380    4.71830    5.68710   -1.61790    0.11890    0.25320    0.14420    9.28220    3.14970    2.49830   -9999.25   -9999.25
 6074.50000  109.35720    3.91720    4.14860    5.22150   -2.34320    0.16310    0.28540    0.15160    9.48840    3.08320    2.43410   -9999.25   -9999.25
 6075.00000  111.09230    3.81230    4.05660    4.76100   -2.63610    0.18890    0.30380    0.15390    9.83970    2.99770    2.39500   -9999.25   -9999.25
 6075.50000  114.07800    3.93410    4.11060    4.63350   -2.51380    0.15520    0.30430    0.17270    9.99240    2.98060    2.44030   -9999.25   -9999.25
 6076.00000  121.57180    3.97030    4.30270    4.74700   -2.31610    0.11110    0.28060    0.18970   10.02490    2.99590    2.52760   -9999.25   -9999.25
 6076.50000  126.24140    3.93590    4.36950    5.07890   -2.29370    0.08250    0.26290    0.17340   10.00730    3.00510    2.57830   -9999.25   -9999.25
 6077.00000  125.81880    3.88450    4.24090    5.36670   -2.42070    0.07980    0.26020    0.15010    9.99020    3.00820    2.57390   -9999.25   -9999.25
 6077.50000  119.43420    3.84860    4.09200    5.40120   -2.54770    0.09080    0.27120    0.12970   10.01600    2.95960    2.55120   -9999.25   -9999.25
 6078.00000  112.95700    3.83670    3.97180    5.17410   -2.67470    0.10600    0.28280    0.11150   10.26570    2.89860    2.52500   -9999.25   -9999.25
 6078.50000  109.76260    3.82480    3.92450    4.87690   -2.78250    0.12110    0.29120    0.10290   10.52140    2.84830    2.50570   -9999.25   -9999.25
 6079.00000  118.08010    3.81300    3.90460    4.61950   -2.79320    0.12010    0.29390    0.10270   10.58370    2.80560    2.50850   -9999.25   -9999.25
 6079.50000  128.41160    3.80130    3.88470    4.53390   -2.80380    0.11780    0.29270    0.10250   10.61810    2.79570    2.51020   -9999.25   -9999.25
 6080.00000  131.78200    3.78950    3.87560    4.54450   -2.81440    0.12080    0.29140    0.09750   10.60820    2.82370    2.50260   -9999.25   -9999.25
 6080.50000  128.91040    3.78050    3.87630    4.57660   -2.82500    0.12420    0.30260    0.09100   10.55130    2.91560    2.50120   -9999.25   -9999.25
 6081.00000  126.10030    3.77210    3.90250    4.63380   -2.42700    0.12080    0.31370    0.09110   10.47210    3.05870    2.50770   -9999.25   -9999.25
 6081.50000  124.34270    3.82970    3.94650    4.76900   -1.96960    0.11760    0.32850    0.09140   10.36610    3.20080    2.51350   -9999.25   -9999.25
 6082.00000  121.45550    3.89520    4.01740    5.01790   -1.52460    0.12150    0.34170    0.08710   10.32340    3.20580    2.50720   -9999.25   -9999.25
 6082.50000  119.78990    3.96180    4.08960    5.18360   -1.07960    0.12950    0.33620    0.08420   10.29140    3.12230    2.49110   -9999.25   -9999.25
 6083.00000  121.01810    4.02960    4.15650    5.28740   -0.63460    0.13630    0.32280    0.08830   10.28880    3.01080    2.48160   89.20080  187.57430
 6083.50000  122.12300    4.10700    4.20420    5.27420   -0.32440    0.13420    0.29170    0.09130   10.32350    2.93890    2.48630   90.32000  187.67030
 6084.00000  122.35780    4.19200    4.24820    5.19020   -0.24660    0.12070    0.28170    0.09420   10.29200    2.89700    2.50150   91.27440  187.67490
 6084.50000  125.61530    4.22440    4.28530    5.16360   -0.16890    0.10790    0.28770    0.09730   10.20470    2.96600    2.52570   91.22920  187.65920
 6085.00000  134.94130    4.20130    4.27970    5.21070   -0.68230    0.10760    0.29640    0.10030   10.11060    2.97850    2.51810   89.93150  186.79560
 6085.50000  141.65240    4.12590    4.24350    5.31030   -1.43090    0.12370    0.30240    0.10600   10.04270    2.86660    2.48760   89.07960  183.18350
 6086.00000  141.38070    4.06820    4.20420    5.45390   -1.60590    0.14430    0.30970    0.11780   10.12420    2.77510    2.46810   90.04220  178.18870
 6086.50000  138.52720    4.02680    4.16470    5.49680   -1.47400    0.14000    0.31270    0.12860   10.28830    2.81720    2.48220   90.99280  171.92600
 6087.00000  135.53590    4.05890    4.12550    5.49350   -1.34210    0.12240    0.31050    0.13680   10.32030    2.89240    2.51030   91.19600  165.57040
 6087.50000  132.02240    4.07100    4.12960    5.44550   -0.87290    0.10890    0.30760    0.14510   10.25220    2.94850    2.53110   91.19600  159.58770
