~Version ---------------------------------------------------
VERS.   2.0 : CWLS log ASCII Standard -VERSION 2.0
WRAP.    NO : One line per depth step
DLM . SPACE : Column Data Section Delimiter
~Well ------------------------------------------------------
STRT .F                 862.0 : START DEPTH
STOP .F                7698.0 : STOP DEPTH
STEP .F                   0.5 : STEP
NULL .               -9999.25 : NULL VALUE
COMP .                        : COMPANY
WELL .                        : WELL
FLD  .                        : FIELD
LOC  .                        : LOCATION
PROV .                        : PROVINCE
CNTY .                        : COUNTY
STAT .                        : STATE
CTRY .                        : COUNTRY
SRVC .                        : SERVICE COMPANY
DATE .                        : DATE
UWI  .                        : UNIQUE WELL ID
API  .                        : API NUMBER
SLAT .WGS84 6.723628290663207 : SURFACE LATITUDE
SLON .WGS84 3.207555967667105 : SURFACE LONGITUDE
DATUM.F                1492.0 : DEPTH DATUM ELEV
~Curve Information -----------------------------------------
DEPT   .F     : 1 MEASURED DEPTH
GRR    .GAPI  : GAMMA RAY FROM RESISTIVITY LOG
ILD    .OHMM  : INDUCTION DEEP RESISTIVITY
ILM    .OHMM  : INDUCTION MEDIUM RESISTIVITY
SFLU   .OHMM  : SHALLOW FOCUSED RESISTIVITY (UNAVERAGED)
SPR    .MV    : SPONTANEOUS POTENTIAL FROM RESISTIVITY LOG
DPHI_LS.DEC   : DENSITY POROSITY LIMESTONE
NPHI_LS.DEC   : NEUTRON POROSITY LIMESTONE
DRHO   .G/C3  : BULK DENSITY CORRECTION
CALD   .IN    : CALIPER FROM DENSITY LOG
PEF    .B/E   : PHOTOELECTRIC FACTOR
RHOB   .G/C3  : BULK DENSITY
DTCO   .US/F  : DELTA-T COMPRESSIONAL
DTSM   .US/F  : DELTA-T SHEAR
~Params ----------------------------------------------------
~Other -----------------------------------------------------
~ASCII -----------------------------------------------------
# ...
 6712.00000   46.74350   33.49670   34.87610   47.91320   -5.08040    0.02230    0.03580    0.01420    8.11470    3.39090    2.67880   58.81270  100.81820
 6712.50000   46.54360   28.82230   30.77900   41.34090   -4.94170    0.02980    0.03600    0.01130    8.14590    3.29490    2.66630   59.79910  100.95700
 6713.00000   46.37540   27.51400   28.30060   38.37050   -4.53550    0.03540    0.03510    0.00950    8.16610    3.31950    2.65450   58.74690  101.84370
 6713.50000   44.87050   26.82110   27.43950   35.86260   -3.93410    0.03330    0.03320    0.01060    8.17560    3.51100    2.65650   57.92100  102.53900
 6714.00000   40.36080   27.91280   29.99660   36.21090   -3.73850    0.02570    0.02650    0.01020    8.18510    3.85680    2.66760   58.40270  102.22860
 6714.50000   34.17390   31.19590   35.95450   50.82250   -3.25030    0.01740    0.01990    0.00990    8.19450    4.23000    2.68310   55.99880  101.80350
 6715.00000   29.32230   35.41340   42.83600   86.91570   -2.58570    0.00900    0.01600    0.00950    8.22190    4.59990    2.69740   53.67450  101.37840
 6715.50000   25.67290   37.23530   50.49890  122.77760   -1.40210    0.00310    0.01730    0.00890    8.26680    4.79450    2.70620   52.40510  101.23150
 6716.00000   25.25620   34.45500   57.92110  144.50770   -1.18440    0.00250    0.02010    0.00880    8.31170    4.90200    2.70910   51.42250  101.53690
 6716.50000   27.26920   28.12380   55.68950  120.75810   -0.70390    0.00430    0.02300    0.00870    8.35660    4.98330    2.70740   50.65000  102.43120
 6717.00000   29.24100   22.41370   38.83860  104.10940   -0.13170    0.00840    0.03620    0.00890    8.37550    4.95470    2.70000   50.91050  104.02170
 6717.50000   32.31320   17.57750   25.97610   90.21560    0.14040    0.03260    0.08230    0.00900    8.39380    4.51920    2.67310   54.78080  114.69910
 6718.00000   42.79660   14.50660   12.44010   68.96060    0.29340    0.07670    0.16140    0.00780    8.41680    3.84280    2.53080   59.35750  125.46870
 6718.50000   53.95650   14.64200    8.10530   21.57860    0.55660    0.20360    0.23200   -0.00220    8.61440    3.20970    2.30670   61.26830  132.24430
 6719.00000   53.82160   15.61490   15.11150   12.03560    0.86590    0.27740    0.18900   -0.01800    8.85250    2.87190    2.14470   58.43130  126.69280
 6719.50000   42.39210   15.89210   33.62340   13.59640    1.17520    0.30000    0.11540   -0.02190    8.67250    3.50020    2.16010   55.44490  116.03050
 6720.00000   28.95960   15.02880   44.56070   62.34300    1.48440    0.29410    0.04150   -0.00770    8.64630    4.58970    2.36520   53.68860  110.14160
 6720.50000   20.75440   14.71030   35.76110  310.43850    2.03880    0.12660    0.01220   -0.00090    8.67430    5.31960    2.57220   52.66390  107.76260
 6721.00000   18.99810   15.21620   28.06670  610.52430    2.62210    0.03520    0.01260   -0.00010    8.72200    5.38450    2.68820   51.96940  106.06540
 6721.50000   22.50370   17.12340   23.26860  421.60810    3.02540    0.01480    0.02760    0.00710    8.77720    5.26150    2.68300   52.52430  105.57320
 6722.00000   32.10640   16.36460   18.25420  180.02220    3.19230    0.02990    0.05400    0.02990    8.83230    4.93380    2.64240   54.11270  108.32120
 6722.50000   41.60620   13.24190   14.44490   40.14620    3.08500    0.06290    0.09420    0.05430    8.88750    4.34020    2.56890   55.95430  114.95460
 6723.00000   46.78820   10.16430   10.27510   18.88230    3.10700    0.09790    0.13480    0.07000    8.96280    3.69980    2.46440   58.15900  123.56080
 6723.50000   49.84680    7.81170    7.16130   12.03600    3.48390    0.15690    0.18470    0.08760    9.26390    2.94830    2.32620   62.25190  134.59010
 6724.00000   56.07870    6.00360    4.99120    7.39380    3.80590    0.25120    0.23470    0.10350   10.04860    2.62500    2.16440   66.61990  145.61940
 6724.50000   63.32460    4.61400    3.94650    4.28720    4.06760    0.29960    0.28470    0.11930   11.11740    2.44090    2.07740   71.52390  162.88780
 6725.00000   70.44210    3.87940    3.61580    3.47670    4.49920    0.29960    0.33510    0.13880   11.71410    2.50930    2.11260   79.16490  175.37780
 6725.50000   73.29580    3.46860    3.45240    3.54940    5.10820    0.28890    0.33430    0.16820   11.70550    2.63430    2.22330   87.87360  183.49460
 6726.00000   73.64480    3.12720    3.29640    3.74840    5.74390    0.23580    0.32530    0.20140   11.62700    2.77460    2.32130   90.49640  186.94730
 6726.50000   72.82580    2.95700    3.16040    3.95690    6.17320    0.18770    0.31620    0.21040   11.56000    2.91480    2.40000   89.69780  187.05520
 6727.00000   70.60600    2.92330    3.15430    4.12030    6.53890    0.14420    0.30430    0.21030   11.56260    3.05500    2.47760   88.85740  186.41000
 6727.50000   70.42090    2.93840    3.15700    4.21010    6.80130    0.11200    0.29330    0.20470   11.60990    3.16730    2.52080   88.01700  185.76480
 6728.00000   73.56680    3.02030    3.15970    4.23750    7.01800    0.09780    0.28630    0.18840   11.73400    3.27200    2.54730   87.10520  185.54480
 6728.50000   76.87650    3.08330    3.17400    4.15480    7.21620    0.09600    0.28710    0.16970   11.86550    3.27720    2.54860   86.06770  185.93090
 6729.00000   73.45750    3.14080    3.19460    4.04640    7.13630    0.10260    0.29050    0.16080   11.92630    3.21460    2.53630   85.41920  185.41680
 6729.50000   66.44670    3.15550    3.21530    3.87540    7.21570    0.10960    0.29230    0.15360   11.95010    3.14830    2.52460   85.15860  183.97110
 6730.00000   67.00900    3.14510    3.22780    3.80510    7.17700    0.10810    0.29040    0.15820   11.95640    3.07330    2.52890   84.85450  183.44450
 6730.50000   70.69300    3.13470    3.23060    3.73740    7.15920    0.10080    0.28990    0.17510   12.03320    2.96230    2.53890   84.76860  184.59140
 6731.00000   74.37440    3.12430    3.23350    3.68880    7.14160    0.10240    0.29700    0.18920   12.08290    2.85100    2.53330   85.64250  186.82370
 6731.50000   73.56800    3.12500    3.23630    3.64100    7.17040    0.11760    0.30400    0.18430   12.10470    2.88760    2.50530   86.23050  186.89210
 6732.00000   73.21490    3.12460    3.23910    3.60200    7.19920    0.13100    0.31130    0.17980   12.09370    3.01620    2.48730   86.00120  185.33270
 6732.50000   75.18980    3.13380    3.24200    3.59100    7.22450    0.12370    0.31330    0.17850   12.05980    3.14470    2.49870   85.59580  183.78540
 6733.00000   77.24470    3.14300    3.24480    3.62160    7.18850    0.10900    0.31460    0.17680   12.02590    3.17900    2.52110   86.15160  183.70410
 6733.50000   79.22890    3.15360    3.24770    3.65150    6.57510    0.11100    0.31580    0.17340   12.01020    3.16760    2.52120   86.53480  183.58300
 6734.00000   81.80140    3.14640    3.25050    3.65550    6.03080    0.12060    0.31730    0.16900   12.02770    3.11520    2.50650   86.89070  183.26890
 6734.50000   84.85310    3.12170    3.23610    3.63640    5.84450    0.12870    0.31680    0.16420   12.05530    3.06310    2.49370   87.22600  182.40450
 6735.00000   82.70260    3.07710    3.21950    3.63880    5.60660    0.12840    0.30690    0.16070   12.10270    3.04940    2.49410   86.75080  179.98700
 6735.50000   74.14390    3.03020    3.11630    3.66330    5.67720    0.12350    0.29350    0.15530   12.11550    3.04130    2.50190   85.61280  176.84130
 6736.00000   66.70240    2.95080    3.01400    3.65440    5.70640    0.11940    0.29060    0.15120   12.15810    3.02150    2.51040   85.11870  174.70900
 6736.50000   70.72610    2.86870    2.91500    3.56660    5.65690    0.11750    0.29990    0.15240   12.27120    2.98840    2.50740   85.31290  173.08570
 6737.00000   77.54540    2.80180    2.81930    3.44530    5.69130    0.13100    0.30910    0.16080   12.45060    2.93810    2.48860   86.26280  170.72310
 6737.50000   80.00160    2.75580    2.78700    3.26920    5.73100    0.14610    0.32410    0.16830   12.57920    2.91880    2.46270   87.15190  166.96570
