~Version ---------------------------------------------------
VERS.   2.0 : CWLS log ASCII Standard -VERSION 2.0
WRAP.    NO : One line per depth step
DLM . SPACE : Column Data Section Delimiter
~Well ------------------------------------------------------
STRT .F                 862.0 : START DEPTH
STOP .F                7698.0 : STOP DEPTH
STEP .F                   0.5 : STEP
NULL .               -9999.25 : NULL VALUE
COMP .                        : COMPANY
WELL .                        : WELL
FLD  .                        : FIELD
LOC  .                        : LOCATION
PROV .                        : PROVINCE
CNTY .                        : COUNTY
STAT .                        : STATE
CTRY .                        : COUNTRY
SRVC .                        : SERVICE COMPANY
DATE .                        : DATE
UWI  .                        : UNIQUE WELL ID
API  .                        : API NUMBER
SLAT .WGS84 6.723628290663207 : SURFACE LATITUDE
SLON .WGS84 3.207555967667105 : SURFACE LONGITUDE
DATUM.F                1492.0 : DEPTH DATUM ELEV
~Curve Information -----------------------------------------
DEPT   .F     : 1 MEASURED DEPTH
GRR    .GAPI  : GAMMA RAY FROM RESISTIVITY LOG
ILD    .OHMM  : INDUCTION DEEP RESISTIVITY
ILM    .OHMM  : INDUCTION MEDIUM RESISTIVITY
SFLU   .OHMM  : SHALLOW FOCUSED RESISTIVITY (UNAVERAGED)
SPR    .MV    : SPONTANEOUS POTENTIAL FROM RESISTIVITY LOG
DPHI_LS.DEC   : DENSITY POROSITY LIMESTONE
NPHI_LS.DEC   : NEUTRON POROSITY LIMESTONE
DRHO   .G/C3  : BULK DENSITY CORRECTION
CALD   .IN    : CALIPER FROM DENSITY LOG
PEF    .B/E   : PHOTOELECTRIC FACTOR
RHOB   .G/C3  : BULK DENSITY
DTCO   .US/F  : DELTA-T COMPRESSIONAL
DTSM   .US/F  : DELTA-T SHEAR
~Params ----------------------------------------------------
~Other -----------------------------------------------------
~ASCII -----------------------------------------------------
# ...
 7362.00000   21.19650  166.30530  314.78170  163.42600  -38.91640    0.04750    0.02290    0.00750    7.79730    4.46970    2.63250   52.05050   98.24920
 7362.50000   17.02790  167.46590  275.53810  162.76630  -39.09760    0.05200    0.02520    0.01780    7.79420    4.17850    2.62560   52.46170   98.19380
 7363.00000   16.48170  164.17060  235.75460  162.02100  -39.41250    0.04650    0.02680    0.02950    7.79720    4.03010    2.63190   52.92060   98.08720
 7363.50000   18.66150  161.27170  213.23420  158.22710  -39.33850    0.03890    0.02670    0.03790    7.81080    4.16340    2.64550   53.28880   97.99540
 7364.00000   19.57300  162.39040  198.09640  158.81460  -39.26450    0.03770    0.02470    0.03500    7.84860    4.40400    2.64760   53.32050   97.66510
 7364.50000   18.07440  166.07850  195.80850  169.06400  -39.13380    0.04070    0.02280    0.02550    7.90690    4.58970    2.64470   53.31140   97.23080
 7365.00000   16.03540  174.38490  226.66620  201.79640  -38.62840    0.04040    0.02110    0.01770    7.96740    4.58490    2.64350   53.11130   96.45530
 7365.50000   15.83820  184.21850  303.51510  214.71410  -38.27580    0.03770    0.02020    0.01440    8.01000    4.58330    2.64950   52.62440   95.53880
 7366.00000   17.43940  198.47340  634.07650  218.61510  -38.04450    0.03480    0.01970    0.01250    7.99790    4.66810    2.65510   53.09780   95.21550
 7366.50000   18.91070  216.19580 1329.18800  214.82850  -38.31310    0.03400    0.01930    0.01110    7.98280    4.73040    2.65530   52.82210   95.03130
 7367.00000   19.29540  235.50080 1886.84030  210.85450  -38.56220    0.03770    0.01880    0.00920    7.94890    4.61400    2.64870   52.65550   94.91420
 7367.50000   19.76960  248.38610 1958.09660  213.94930  -38.95440    0.04240    0.01850    0.00700    7.91500    4.37200    2.63980   53.09050   95.00340
 7368.00000   21.98820  261.90600 1635.79600  236.89950  -39.50760    0.04590    0.01870    0.00800    7.88110    4.02480    2.63600   52.38040   95.10450
 7368.50000   23.75640  272.57250 1079.46800  263.95940  -39.66450    0.04320    0.01990    0.00940    7.85850    3.80710    2.64130   51.97010   94.21320
 7369.00000   22.61470  283.68350  701.87900  277.32980  -39.31430    0.03980    0.02170    0.01040    7.86470    3.87100    2.64690   51.83910   92.29530
 7369.50000   19.01480  298.08410  591.75700  287.24130  -38.83540    0.03890    0.02250    0.00970    7.86630    4.27290    2.64710   52.45230   90.59710
 7370.00000   17.72850  313.86630  898.46760  292.28930  -38.35650    0.04200    0.02320    0.00760    7.85220    4.64100    2.64200   52.49100   90.65180
 7370.50000   17.46320  330.80900 1367.37430  296.88500  -38.20280    0.04520    0.02310    0.00280    7.83960    4.90650    2.63770   52.35860   91.21650
 7371.00000   17.33970  363.33940 1833.29850  305.27190  -38.04680    0.04730    0.02230    0.00030    7.82690    4.77610    2.63310   52.32050   92.14550
 7371.50000   15.86430  409.70640 1946.50440  317.96330  -37.75230    0.04770    0.02110    0.00010    7.81110    4.41730    2.63170   52.27430   93.07440
 7372.00000   15.22700  453.35940 1971.71720  321.69060  -37.65880    0.04890    0.01980    0.00150    7.80390    4.10970    2.63060   52.34630   93.57350
 7372.50000   15.90440  430.94450 1976.52910  323.89740  -37.56520    0.05020    0.01850    0.00610    7.79910    3.86760    2.62780   52.43070   93.92550
 7373.00000   18.00390  402.39860 1974.50960  349.58830  -37.65600    0.04990    0.01810    0.01360    7.80310    3.75660    2.62810   52.63290   93.96810
 7373.50000   19.95040  376.86820 1960.28100  396.55340  -38.00680    0.04720    0.01800    0.02080    7.83000    3.66430    2.63220   53.01390   91.97210
 7374.00000   19.46510  356.69000 1625.71730  432.40380  -37.91620    0.04190    0.01800    0.03120    7.88730    3.63690    2.64020   52.59720   90.39530
 7374.50000   17.36710  377.61400  667.38150  433.00600  -37.82550    0.03430    0.01810    0.04750    7.95180    3.79660    2.65350   52.47680   90.16440
 7375.00000   16.85050  449.51730  536.54210  415.11080  -37.73480    0.02690    0.02010    0.06490    7.98470    3.81290    2.66690   52.26210   91.12170
 7375.50000   17.15080  535.11190  904.58230  396.35230  -37.64410    0.02380    0.02310    0.07410    7.97510    3.70640    2.67400   51.92200   92.52430
 7376.00000   17.38300  564.06070 1611.12500  378.87500  -37.55350    0.02080    0.02430    0.07380    7.92550    3.55490    2.67220   51.92880   94.07320
 7376.50000   17.26800  525.35200 1986.98850  379.62290  -37.25420    0.01780    0.01980    0.06880    7.85660    3.72620    2.67960   52.26210   95.58520
 7377.00000   17.57630  468.19230 1996.70080  400.57250  -37.08680    0.01680    0.01530    0.05240    7.80610    4.06880    2.68860   51.78570   96.90500
 7377.50000   19.33660  468.48950 1988.44970  360.46420  -37.22990    0.02050    0.01490    0.03270    7.80210    4.18740    2.67990   52.16420   96.82150
 7378.00000   21.48170  499.19050 1953.33920  419.59480  -37.64500    0.02750    0.01640    0.01770    7.80480    4.00170    2.66880   53.15940   95.36240
 7378.50000   22.76610  536.77250 1818.99770  428.39070  -37.94510    0.03410    0.01760    0.00750    7.80910    3.76830    2.65530   53.89390   94.32360
 7379.00000   23.05590  614.26100 1618.64990  351.61740  -38.06520    0.03910    0.01800    0.00140    7.81050    3.86430    2.64570   53.69170   93.54530
 7379.50000   23.52270  712.25290 1686.73820  317.40260  -37.89880    0.04190    0.01820    0.00020    7.81100    4.05010    2.64450   53.44200   92.76700
 7380.00000   23.27820  696.78780 1744.42480  312.87410  -37.74410    0.03880    0.01910    0.00090    7.81140    4.18400    2.64670   53.22620   91.10350
 7380.50000   22.73500  496.38390 1561.28060  294.09430  -37.58930    0.03710    0.02010    0.00490    7.80930    4.13620    2.64770   53.00180   90.04630
 7381.00000   22.28740  342.77540  977.38160  262.37350  -37.43570    0.03970    0.02110    0.00950    7.81750    3.94760    2.64380   52.87600   90.63920
 7381.50000   21.76120  278.42720  637.46410  224.92780  -37.42040    0.04370    0.02160    0.01200    7.81830    3.76530    2.63900   53.28580   91.31270
 7382.00000   21.70440  255.33380  499.81570  197.91280  -37.04470    0.04770    0.02150    0.01370    7.81300    3.63960    2.63300   53.31980   91.98620
 7382.50000   21.80410  237.04220  505.32340  186.03020  -36.47620    0.05160    0.02170    0.01440    7.83610    3.65640    2.62830   53.29940   92.15570
 7383.00000   22.43990  223.74190  482.07310  186.00160  -36.10110    0.05030    0.02200    0.01410    7.87750    3.67890    2.62850   53.19790   91.94810
 7383.50000   22.74070  211.57140  414.34310  212.37440  -35.96690    0.04590    0.02350    0.01400    7.96140    3.62720    2.63340   53.00360   91.57580
 7384.00000   22.75630  200.49780  362.88090  242.07240  -35.73620    0.04340    0.02490    0.01510    7.98650    3.56590    2.63940   53.06390   91.17940
 7384.50000   22.57020  190.27150  330.38930  246.92120  -35.40970    0.04050    0.02580    0.01750    8.00250    3.55710    2.64400   53.12140   91.19340
 7385.00000   22.56770  182.82730  339.87880  209.79640  -35.33400    0.03430    0.02620    0.02000    7.98350    3.62550    2.65400   52.78510   91.53740
 7385.50000   22.33110  175.67440  349.46170  179.53400  -35.51190    0.02930    0.02630    0.02270    7.95620    3.77360    2.66110   52.29260   92.15660
 7386.00000   21.03380  168.80140  338.14230  160.43740  -35.52830    0.03100    0.02610    0.02250    7.89420    3.92170    2.65950   51.88870   92.89990
 7386.50000   19.16620  162.19720  300.66190  149.95620  -35.65000    0.03230    0.02560    0.01740    7.83210    4.02710    2.65630   51.84420   93.64330
 7387.00000   17.75170  155.60910  281.82410  147.96660  -35.78210    0.03010    0.02530    0.01760    7.81560    4.02350    2.66220   51.52450   94.42210
 7387.50000   17.11740  148.90660  266.15710  152.59530  -35.91420    0.02730    0.02500    0.01860    7.81400    3.97990    2.66560   50.73630   94.93830
