~Version ---------------------------------------------------
VERS.   2.0 : CWLS log ASCII Standard -VERSION 2.0
WRAP.    NO : One line per depth step
DLM . SPACE : Column Data Section Delimiter
~Well ------------------------------------------------------
STRT .F                 862.0 : START DEPTH
STOP .F                7698.0 : STOP DEPTH
STEP .F                   0.5 : STEP
NULL .               -9999.25 : NULL VALUE
COMP .                        : COMPANY
WELL .                        : WELL
FLD  .                        : FIELD
LOC  .                        : LOCATION
PROV .                        : PROVINCE
CNTY .                        : COUNTY
STAT .                        : STATE
CTRY .                        : COUNTRY
SRVC .                        : SERVICE COMPANY
DATE .                        : DATE
UWI  .                        : UNIQUE WELL ID
API  .                        : API NUMBER
SLAT .WGS84 6.723628290663207 : SURFACE LATITUDE
SLON .WGS84 3.207555967667105 : SURFACE LONGITUDE
DATUM.F                1492.0 : DEPTH DATUM ELEV
~Curve Information -----------------------------------------
DEPT   .F     : 1 MEASURED DEPTH
GRR    .GAPI  : GAMMA RAY FROM RESISTIVITY LOG
ILD    .OHMM  : INDUCTION DEEP RESISTIVITY
ILM    .OHMM  : INDUCTION MEDIUM RESISTIVITY
SFLU   .OHMM  : SHALLOW FOCUSED RESISTIVITY (UNAVERAGED)
SPR    .MV    : SPONTANEOUS POTENTIAL FROM RESISTIVITY LOG
DPHI_LS.DEC   : DENSITY POROSITY LIMESTONE
NPHI_LS.DEC   : NEUTRON POROSITY LIMESTONE
DRHO   .G/C3  : BULK DENSITY CORRECTION
CALD   .IN    : CALIPER FROM DENSITY LOG
PEF    .B/E   : PHOTOELECTRIC FACTOR
RHOB   .G/C3  : BULK DENSITY
DTCO   .US/F  : DELTA-T COMPRESSIONAL
DTSM   .US/F  : DELTA-T SHEAR
~Params ----------------------------------------------------
~Other -----------------------------------------------------
~ASCII -----------------------------------------------------
# ...
 6920.00000   23.97740  705.57920   -9999.25  929.89540  -26.41810    0.01750    0.00790    0.00490    7.81630    4.18950    2.68460   50.85580   94.65810
 6920.50000   23.93940  682.69890   -9999.25 1051.84550  -26.47780    0.01550    0.00780    0.00900    7.81530    4.24850    2.68760   50.79210   94.98890
 6921.00000   22.00500  675.47440   -9999.25 1129.97010  -26.70250    0.01860    0.00830    0.01030    7.81660    4.33320    2.68090   50.58720   95.14810
 6921.50000   19.69980  693.69170   -9999.25 1130.41060  -26.95920    0.02190    0.00910    0.01110    7.81780    4.48970    2.67620   50.57130   95.08750
 6922.00000   20.62420  697.50730   -9999.25 1153.99550  -27.21040    0.02240    0.01090    0.01110    7.81910    4.70320    2.67530   50.43180   95.51890
 6922.50000   22.09070  636.99430   -9999.25 1205.63040  -27.29000    0.02040    0.01270    0.01020    7.82090    4.91680    2.67840   50.17740   96.18490
 6923.00000   22.53190  577.95240 1999.24220 1266.14510  -27.12990    0.01820    0.01460    0.00780    7.82270    5.09680    2.68240   50.41000   96.38740
 6923.50000   20.56720  505.49350 1767.88660 1059.17720  -27.07510    0.01660    0.01650    0.00580    7.82080    5.19840    2.68440   50.64250   96.78100
 6924.00000   17.74630  441.30090 1449.71000  798.44950  -27.04100    0.01870    0.01850    0.00350    7.82470    5.28150    2.68270   51.19220   97.41800
 6924.50000   14.99310  384.99080 1137.51730  557.68190  -27.00680    0.02690    0.02040    0.00110    7.82450    5.26230    2.66820   52.10150   98.01590
 6925.00000   13.82590  333.33730  762.03590  423.25230  -27.61650    0.03510    0.02220   -0.00090    7.81360    5.14940    2.65320   53.01070   98.50770
 6925.50000   12.65870  296.25850  506.47260  378.15980  -28.29980    0.04120    0.02250   -0.00170    7.81810    5.01560    2.63910   54.25600   99.04490
 6926.00000   11.68780  273.04290  548.58570  358.52500  -28.90330    0.04570    0.02220   -0.00250    7.82280    5.02090    2.63700   54.70150   99.59710
 6926.50000   10.95490  258.02160  700.84970  356.98780  -29.54980    0.04550    0.02060   -0.00160    7.82290    5.15180    2.63640   54.07630  100.40790
 6927.00000   10.65190  255.35360  958.59120  383.70590  -29.69470    0.04490    0.01810   -0.00060    7.81670    5.12910    2.63690   53.45550  100.47140
 6927.50000   11.52990  245.55670 1406.68680  428.41060  -29.83960    0.04220    0.01560    0.00040    7.81090    4.72380    2.64070   52.89630  100.21330
 6928.00000   13.22000  225.49540 1548.80750  494.25180  -29.83660    0.03210    0.01490    0.00160    7.81080    4.23570    2.65520   52.52210   99.34630
 6928.50000   14.80560  206.04790 1003.12360  548.03090  -29.68200    0.02430    0.01490    0.00320    7.81060    3.77590    2.67340   52.77100   98.26950
 6929.00000   16.20320  189.93500  596.37720  415.09030  -29.50400    0.02080    0.01620    0.00490    7.80610    3.45240    2.67780   53.41680   97.19280
 6929.50000   16.43070  177.82080  467.69240  286.17610  -29.27660    0.02720    0.01700    0.00650    7.80150    3.29170    2.66890   54.11290   95.99910
 6930.00000   15.88080  166.98100  362.43800  213.27580  -29.05470    0.03500    0.01710    0.00810    7.80100    3.17650    2.65380   54.61290   94.68240
 6930.50000   15.54060  151.37650  303.74570  202.79470  -28.86360    0.04230    0.01710    0.01030    7.80740    3.00270    2.64080   54.68770   93.50890
 6931.00000   15.93340  143.05620  250.58720  215.94540  -28.77740    0.04570    0.01680    0.01410    7.81130    3.04880    2.63480   54.28710   93.18380
 6931.50000   16.87910  139.25090  228.37700  234.24230  -29.05300    0.04620    0.01580    0.02520    7.81220    3.45460    2.63380   53.89180   93.08670
 6932.00000   17.82480  140.43580  220.07600  264.06610  -29.32030    0.04050    0.01470    0.03210    7.81890    4.28580    2.64230   52.60610   92.98770
 6932.50000   18.80090  155.94450  313.37020  364.24290  -29.58770    0.03100    0.01350    0.03620    7.83900    4.96960    2.65920   50.85740   92.88850
 6933.00000   20.06760  171.14920  514.27110  569.14580  -29.85500    0.01970    0.01220    0.03860    7.85930    5.12160    2.68090   49.99640   92.79920
 6933.50000   21.33670  185.83070  778.13440  869.01170  -30.12240    0.01080    0.01090    0.03240    7.86950    4.86510    2.69670   48.73270   92.92190
 6934.00000   21.00240  197.74700 1079.96840 1230.74280  -30.23520    0.01070    0.00990    0.02630    7.89470    4.58330    2.69640   47.11930   93.04450
 6934.50000   20.14380  203.96250 1362.82300 1495.40040  -30.12570    0.01740    0.00980    0.02060    7.91980    4.61830    2.68280   46.29880   93.20360
 6935.00000   19.51350  207.69360 1599.11730 1213.79090  -30.01620    0.02420    0.01160    0.01890    7.94500    4.70380    2.67040   47.11020   93.38820
 6935.50000   18.50980  204.55950 1400.50850  745.02060  -30.14480    0.02450    0.01330    0.01890    7.97010    4.70860    2.67160   47.91990   93.98510
 6936.00000   15.87840  192.75730 1030.65150  403.31350  -30.47940    0.01980    0.01510    0.01970    7.99370    4.85640    2.68140   48.94430   95.08150
 6936.50000   12.59800  181.77510  699.11900  260.39430  -30.81400    0.01590    0.01650    0.01990    8.01200    5.18020    2.68670   49.49440   96.17790
 6937.00000   11.31320  175.39100  486.69870  216.77460  -31.54250    0.01870    0.01660    0.01780    8.00250    5.52220    2.68070   49.58950   96.61290
 6937.50000   11.07670  175.30250  390.02550  207.47880  -32.46640    0.02440    0.01550    0.01570    7.99110    5.73590    2.67030   50.07320   96.99330
 6938.00000   11.73550  181.86170  397.08880  232.79640  -32.80500    0.02910    0.01400    0.01330    7.98740    5.64410    2.66120   50.43600   97.01790
 6938.50000   14.77770  193.98150  532.14310  305.79390  -33.22930    0.03070    0.01260    0.01130    7.98360    5.19270    2.65940   50.54050   96.62700
 6939.00000   18.00740  211.98790  896.98370  485.51300  -33.55460    0.02410    0.01110    0.01140    7.98510    4.76420    2.67200   50.51190   96.09070
 6939.50000   19.95780  231.35240 1392.51550  831.86250  -33.30910    0.01760    0.00970    0.01190    7.98660    4.32260    2.68480   50.21060   95.55660
 6940.00000   16.98040  260.45270 1929.65230 1311.00180  -32.84890    0.01290    0.00910    0.01240    7.98740    4.25010    2.69370   49.87710   95.09900
 6940.50000   13.17170  303.01240 1995.15920 1510.59220  -32.38880    0.01160    0.00920    0.01330    7.98190    4.23350    2.69450   49.50680   94.64150
 6941.00000   12.93330  339.27020 1996.28320 1282.38420  -31.92860    0.01520    0.01010    0.01440    7.97270    4.19360    2.68510   49.30680   94.18400
 6941.50000   14.12410  349.04750 1992.20840 1004.29620  -31.46840    0.02220    0.01080    0.01480    7.99690    4.19610    2.67340   48.81050   94.09030
 6942.00000   15.24790  356.31150 1973.70890  772.20860  -31.00830    0.02820    0.01120    0.01320    8.04630    4.26030    2.66310   48.52750   94.72200
 6942.50000   14.61250  355.27410 1870.09200  599.56600  -30.66550    0.03360    0.01110    0.01070    8.09680    4.19370    2.65380   48.95960   95.32320
 6943.00000   12.00790  357.08670 1614.12790  470.72670  -30.59330    0.03940    0.01020    0.00780    8.14740    3.86400    2.64510   50.05520   95.19710
 6943.50000   10.27780  372.49420 1163.95410  400.00800  -30.79720    0.04860    0.00900    0.00440    8.19800    3.55980    2.63080   50.39910   95.07100
 6944.00000    9.63960  377.40780  740.53230  425.11800  -31.24360    0.05640    0.00830    0.00180    8.22480    3.70910    2.61890   50.29900   94.89750
 6944.50000   12.72580  358.46530  553.37290  633.77930  -31.39990    0.05210    0.00780    0.00530    8.24080    4.16560    2.62420   50.17130   94.68190
 6945.00000   15.87250  379.05730  448.79020  994.31130  -31.55630    0.04350    0.00730    0.01600    8.32060    4.57170    2.64120   49.87370   94.46630
 6945.50000   18.25700  416.75210  707.61070 1542.85610  -31.68430    0.03620    0.00680    0.02290    8.42090    4.83900    2.65020   49.00060   94.38510
