~Version ---------------------------------------------------
VERS.   2.0 : CWLS log ASCII Standard -VERSION 2.0
WRAP.    NO : One line per depth step
DLM . SPACE : Column Data Section Delimiter
~Well ------------------------------------------------------
STRT .F                 862.0 : START DEPTH
STOP .F                7698.0 : STOP DEPTH
STEP .F                   0.5 : STEP
NULL .               -9999.25 : NULL VALUE
COMP .                        : COMPANY
WELL .                        : WELL
FLD  .                        : FIELD
LOC  .                        : LOCATION
PROV .                        : PROVINCE
CNTY .                        : COUNTY
STAT .                        : STATE
CTRY .                        : COUNTRY
SRVC .                        : SERVICE COMPANY
DATE .                        : DATE
UWI  .                        : UNIQUE WELL ID
API  .                        : API NUMBER
SLAT .WGS84 6.723628290663207 : SURFACE LATITUDE
SLON .WGS84 3.207555967667105 : SURFACE LONGITUDE
DATUM.F                1492.0 : DEPTH DATUM ELEV
~Curve Information -----------------------------------------
DEPT   .F     : 1 MEASURED DEPTH
GRR    .GAPI  : GAMMA RAY FROM RESISTIVITY LOG
ILD    .OHMM  : INDUCTION DEEP RESISTIVITY
ILM    .OHMM  : INDUCTION MEDIUM RESISTIVITY
SFLU   .OHMM  : SHALLOW FOCUSED RESISTIVITY (UNAVERAGED)
SPR    .MV    : SPONTANEOUS POTENTIAL FROM RESISTIVITY LOG
DPHI_LS.DEC   : DENSITY POROSITY LIMESTONE
NPHI_LS.DEC   : NEUTRON POROSITY LIMESTONE
DRHO   .G/C3  : BULK DENSITY CORRECTION
CALD   .IN    : CALIPER FROM DENSITY LOG
PEF    .B/E   : PHOTOELECTRIC FACTOR
RHOB   .G/C3  : BULK DENSITY
DTCO   .US/F  : DELTA-T COMPRESSIONAL
DTSM   .US/F  : DELTA-T SHEAR
~Params ----------------------------------------------------
~Other -----------------------------------------------------
~ASCII -----------------------------------------------------
# ...
 7466.00000   32.19160  151.40770  265.01860  248.47920   -0.93190    0.03560    0.04100   -0.00120    7.65890    3.40680    2.65150   56.18520   93.85560
 7466.50000   36.36270  134.12550  211.43520  230.37890   -0.63660    0.03460    0.04750    0.00040    7.63960    3.25220    2.65480   56.35340   94.40390
 7467.00000   42.02250  123.10380  168.68550  185.86260    0.84080    0.02810    0.05390    0.00540    7.62090    3.15950    2.66390   56.77540   95.60210
 7467.50000   47.67950  115.52960  139.92660  150.85760    1.41460    0.02330    0.05830    0.00850    7.64180    3.17040    2.67340   57.19740   96.69550
 7468.00000   50.42880  108.80680  127.73780  132.82180    1.94160    0.01920    0.05780    0.01030    7.65100    3.24170    2.68050   57.45400   97.46450
 7468.50000   49.31010  102.03840  125.84070  127.81170    2.22700    0.01590    0.05620    0.01270    7.63690    3.28720    2.68530   57.54980   98.07770
 7469.00000   47.40360   95.83670  123.97750  129.90210    1.87930    0.01590    0.05490    0.01430    7.64700    3.44590    2.68640   57.58680   98.08350
 7469.50000   45.64850   90.76220  115.80900  133.13220    1.60860    0.01910    0.05680    0.01530    7.62900    3.59330    2.68040   57.62380   97.98880
 7470.00000   45.84160   85.08810  108.99030  136.03960    1.50150    0.02400    0.06140    0.01480    7.62280    3.67750    2.67300   57.62170   97.88080
 7470.50000   46.03470   84.50970  102.68680  134.96100    1.46860    0.02740    0.06470    0.01310    7.61860    3.58010    2.66690   57.52850   98.09020
 7471.00000   45.75610   86.46410   97.53900  118.01610    1.60330    0.02880    0.06580    0.01010    7.61890    3.46240    2.66380   57.62880   98.16350
 7471.50000   44.90470   90.31760   97.22200  105.04740    2.07530    0.03010    0.05910    0.00690    7.62030    3.35650    2.66190   57.65870   98.20490
 7472.00000   42.24630   95.49060  101.34470  111.49330    2.54740    0.03070    0.05100    0.00350    7.62140    3.28360    2.66080   57.67520   98.20730
 7472.50000   39.48840  100.95970  109.10820  130.43110    2.90250    0.03060    0.04400    0.00120    7.62310    3.31480    2.66070   57.68810   97.44220
 7473.00000   36.84420  106.74220  139.16690  152.58550    3.16530    0.03060    0.03640   -0.00120    7.62850    3.36150    2.66110   57.69560   96.29010
 7473.50000   35.53670  114.88320  186.38320  198.06570    3.43350    0.03170    0.03270   -0.00250    7.63430    3.35440    2.66040   57.63180   94.75750
 7474.00000   34.45270  121.59810  243.71460  270.46820    3.63920    0.03340    0.03500   -0.00210    7.63480    3.34000    2.65560   56.84720   94.42880
 7474.50000   33.32300  127.12040  260.77720  326.11840    3.69130    0.03500    0.03740    0.00140    7.62510    3.49030    2.65230   55.99960   94.34710
 7475.00000   33.39620  128.00070  259.18990  309.70840    3.52320    0.03510    0.04460    0.00570    7.62370    3.67810    2.65170   55.15200   94.32580
 7475.50000   35.52230  122.85840  218.07550  237.59250    3.59210    0.03470    0.05510    0.00990    7.63150    3.72440    2.65420   54.61110   94.43330
 7476.00000   39.97260  110.10900  181.01160  175.84560    3.56240    0.03290    0.06170    0.01320    7.62670    3.56420    2.65880   54.72950   95.60520
 7476.50000   45.61490   99.87920  151.21600  130.53440    3.33980    0.02970    0.06430    0.01530    7.61980    3.43040    2.66380   55.26360   97.46340
 7477.00000   49.93080   91.83870  126.72930  108.19140    3.46720    0.02630    0.06580    0.01370    7.62240    3.44400    2.66870   56.09390   98.10670
 7477.50000   49.70980   85.49610  108.20500   99.60950    3.75280    0.02380    0.06620    0.01260    7.63180    3.49410    2.67250   57.11030   98.33340
 7478.00000   45.21020   81.01950   99.82520   97.49890    4.14310    0.02130    0.06560    0.01220    7.63200    3.54430    2.67690   57.68880   98.33340
 7478.50000   39.38790   78.47980  103.10120   98.57110    4.36940    0.01950    0.06050    0.01110    7.62530    3.57930    2.68030   58.04970   98.33340
 7479.00000   36.14750   78.30490  107.73050  108.56330    4.02560    0.02130    0.05530    0.01000    7.62400    3.56250    2.67760   58.18480   98.33340
 7479.50000   36.99690   78.75090  112.56770  121.36370    3.72450    0.02450    0.05110    0.01000    7.62390    3.50490    2.67290   58.13280   98.33340
 7480.00000   38.86470   81.56430  117.56590  136.79270    2.95830    0.02800    0.05320    0.01040    7.61930    3.42730    2.66840   57.76590   98.32290
 7480.50000   40.34690   84.85240  121.57200  151.33120    1.77190    0.02750    0.05580    0.01120    7.61210    3.37310    2.66680   56.98170   98.31350
 7481.00000   42.81360   89.67330  127.54970  147.39660    1.06650    0.02630    0.05690    0.01200    7.60390    3.33470    2.66970   56.13080   98.31200
 7481.50000   43.87020   99.46580  138.29960  136.22180    0.78400    0.02640    0.05310    0.01230    7.59680    3.27410    2.66880   56.29240   98.24720
 7482.00000   39.69460  112.64110  168.06450  128.59670    0.52560    0.02920    0.04360    0.01270    7.59950    3.14130    2.66200   57.08600   98.03830
 7482.50000   33.70980  122.35610  257.62700  143.51240    0.39940    0.03430    0.03430    0.01300    7.60360    3.00660    2.65310   57.68760   96.29990
 7483.00000   27.54560  131.58490  359.78130  204.58520    0.41330    0.03820    0.02710    0.01300    7.62070    3.10830    2.64770   57.73500   94.44920
 7483.50000   24.76840  137.77040  505.10260  348.68940    0.47830    0.03810    0.02580    0.01230    7.62880    3.23840    2.64880   57.29540   92.65020
 7484.00000   28.19760  141.78780  602.68230  544.16300    0.50510    0.03520    0.02940    0.01170    7.62770    3.35840    2.65410   56.18070   90.85120
 7484.50000   33.66020  149.57330  550.12350  563.13780    0.52650    0.03070    0.03410    0.01190    7.63280    3.36850    2.66250   55.17280   91.22300
 7485.00000   38.70610  156.37630  383.89440  382.92370    0.56770    0.02430    0.03870    0.01300    7.61660    3.33740    2.67410   54.26940   92.88320
 7485.50000   41.74110  157.62230  298.32590  236.01030    0.27260    0.01670    0.04130    0.01380    7.61150    3.43420    2.68470   54.35430   94.29220
 7486.00000   43.65170  151.58870  272.48840  176.53290   -0.14050    0.01330    0.03750    0.01390    7.60860    3.52200    2.69050   55.00890   95.40440
 7486.50000   42.63940  142.90450  264.22040  164.24790   -0.55360    0.01750    0.03360    0.01520    7.59950    3.55980    2.68340   55.58980   95.92590
 7487.00000   40.97170  133.06790  255.53880  178.88830   -0.96670    0.02240    0.03140    0.01500    7.60410    3.42590    2.67460   56.17070   95.84290
 7487.50000   38.83190  118.54810  231.06540  199.40030   -1.34740    0.02630    0.03560    0.01480    7.60210    3.23470    2.66750   56.07240   94.62970
 7488.00000   38.29920  110.60030  197.25830  209.39510   -1.38750    0.02690    0.04130    0.01440    7.60200    3.04720    2.66880   55.03830   93.50040
 7488.50000   40.91610  106.74490  168.39750  183.27870   -1.38600    0.02440    0.04560    0.01700    7.60790    3.05440    2.67290   54.51990   93.93900
 7489.00000   44.06880  106.70320  146.14280  151.54930   -1.15610    0.02300    0.04610    0.02110    7.61390    3.15100    2.67380   55.17360   94.77590
 7489.50000   43.91540  108.31950  145.21570  127.07370   -0.84950    0.02950    0.04140    0.02490    7.62070    3.20850    2.66560   55.92990   95.46810
 7490.00000   39.14740  106.76860  156.27870  130.55650   -0.79690    0.03910    0.03650    0.02600    7.61590    3.18240    2.64810   56.38550   95.97130
 7490.50000   35.83930  103.32320  157.01860  157.20910   -1.01690    0.04570    0.03650    0.02280    7.61010    3.16520    2.63600   56.68330   96.43680
 7491.00000   37.82360  101.01290  149.78490  187.95400   -1.23690    0.04640    0.03810    0.01800    7.59810    3.19770    2.63390   56.68330   96.66820
 7491.50000   40.38090  100.11490  147.40960  183.49350   -1.36230    0.04740    0.03980    0.01320    7.60580    3.21100    2.63230   56.68330   95.81160
