~Version ---------------------------------------------------
VERS.   2.0 : CWLS log ASCII Standard -VERSION 2.0
WRAP.    NO : One line per depth step
DLM . SPACE : Column Data Section Delimiter
~Well ------------------------------------------------------
STRT .F                 862.0 : START DEPTH
STOP .F                7698.0 : STOP DEPTH
STEP .F                   0.5 : STEP
NULL .               -9999.25 : NULL VALUE
COMP .                        : COMPANY
WELL .                        : WELL
FLD  .                        : FIELD
LOC  .                        : LOCATION
PROV .                        : PROVINCE
CNTY .                        : COUNTY
STAT .                        : STATE
CTRY .                        : COUNTRY
SRVC .                        : SERVICE COMPANY
DATE .                        : DATE
UWI  .                        : UNIQUE WELL ID
API  .                        : API NUMBER
SLAT .WGS84 6.723628290663207 : SURFACE LATITUDE
SLON .WGS84 3.207555967667105 : SURFACE LONGITUDE
DATUM.F                1492.0 : DEPTH DATUM ELEV
~Curve Information -----------------------------------------
DEPT   .F     : 1 MEASURED DEPTH
GRR    .GAPI  : GAMMA RAY FROM RESISTIVITY LOG
ILD    .OHMM  : INDUCTION DEEP RESISTIVITY
ILM    .OHMM  : INDUCTION MEDIUM RESISTIVITY
SFLU   .OHMM  : SHALLOW FOCUSED RESISTIVITY (UNAVERAGED)
SPR    .MV    : SPONTANEOUS POTENTIAL FROM RESISTIVITY LOG
DPHI_LS.DEC   : DENSITY POROSITY LIMESTONE
NPHI_LS.DEC   : NEUTRON POROSITY LIMESTONE
DRHO   .G/C3  : BULK DENSITY CORRECTION
CALD   .IN    : CALIPER FROM DENSITY LOG
PEF    .B/E   : PHOTOELECTRIC FACTOR
RHOB   .G/C3  : BULK DENSITY
DTCO   .US/F  : DELTA-T COMPRESSIONAL
DTSM   .US/F  : DELTA-T SHEAR
~Params ----------------------------------------------------
~Other -----------------------------------------------------
~ASCII -----------------------------------------------------
# ...
 7232.00000   32.21670  402.80660   -9999.25  787.43930  -21.55770    0.03970    0.01640    0.02940    7.62580    3.10290    2.64700   54.82080   89.79630
 7232.50000   30.05200  529.74130   -9999.25  888.94510  -22.59300    0.04290    0.01730    0.03290    7.63190    3.28800    2.64020   55.17630   88.07310
 7233.00000   28.82510  769.27140   -9999.25  832.02880  -22.99660    0.04290    0.01800    0.03360    7.63800    3.41390    2.64000   55.40090   86.52720
 7233.50000   27.25910 1123.22380   -9999.25  843.00630  -23.40860    0.04430    0.01810    0.03450    7.64400    3.12870    2.63750   55.56260   85.27540
 7234.00000   26.92460 1683.68430   -9999.25  953.71110  -23.37330    0.05150    0.01830    0.03330    7.63710    2.84890    2.62590   55.56850   85.31370
 7234.50000   27.91810 1631.70620   -9999.25 1071.32690  -23.28730    0.05930    0.01850    0.02650    7.62990    2.75020    2.61170   55.52370   86.43240
 7235.00000   29.63820 1512.71080   -9999.25 1112.67440  -23.27700    0.05900    0.01860    0.02580    7.62260    2.88530    2.61170   55.45490   87.58600
 7235.50000   28.14620 1575.58060   -9999.25 1034.57950  -23.18350    0.05450    0.01860    0.03040    7.62570    3.16530    2.61950   55.38000   88.39140
 7236.00000   25.42780 1686.19750   -9999.25  908.12400  -23.09010    0.05130    0.01880    0.03450    7.62970    3.42510    2.62500   55.30350   89.09920
 7236.50000   24.15090 1692.14340   -9999.25  790.08070  -22.99670    0.05530    0.01920    0.03400    7.64120    3.37310    2.61850   55.22700   89.80710
 7237.00000   24.23380 1722.19400   -9999.25  720.14420  -22.90330    0.06000    0.01870    0.02940    7.65550    3.17230    2.61090   55.02790   90.03850
 7237.50000   25.20760 1752.77820   -9999.25  749.85390  -22.87140    0.06150    0.01630    0.02500    7.68820    2.98680    2.60790   54.63600   89.75360
 7238.00000   26.58410 1780.89090   -9999.25  930.56700  -23.23490    0.05550    0.01360    0.02090    7.76450    2.77930    2.61670   54.27820   89.39160
 7238.50000   28.69830 1831.76140   -9999.25 1159.04690  -23.55280    0.04850    0.01220    0.01780    7.83510    2.65190    2.63090   54.01340   89.14620
 7239.00000   31.47000 1911.76400   -9999.25 1413.09630  -23.79920    0.03980    0.01150    0.01470    7.84950    2.77800    2.64560   53.26960   89.14620
 7239.50000   34.04500 1922.05380   -9999.25 1504.46550  -23.76970    0.03270    0.01200    0.01230    7.84390    3.57260    2.65630   52.33510   89.14620
 7240.00000   36.65220 1834.55800   -9999.25 1373.27880  -23.72330    0.02700    0.01340    0.01040    7.83550    4.33900    2.66790   52.36060   89.58820
 7240.50000   41.36810 1751.60080   -9999.25 1154.52330  -23.67700    0.02180    0.01500    0.00820    7.83060    4.72830    2.67570   52.55880   91.02210
 7241.00000   47.51530 1675.33280   -9999.25  970.61380  -23.63060    0.02330    0.01720    0.00520    7.82870    4.32890    2.67470   53.37870   92.57590
 7241.50000   52.64290 1454.12890   -9999.25  815.08680  -23.58430    0.02630    0.01810    0.00280    7.82560    3.95590    2.66730   53.67820   93.67110
 7242.00000   50.49780 1287.36770   -9999.25  752.03470  -23.59740    0.02640    0.01680    0.00230    7.82530    3.79320    2.66710   52.60510   94.22820
 7242.50000   45.02800 1332.90440   -9999.25  852.51540  -24.01300    0.02400    0.01490    0.00480    7.82610    3.82060    2.67390   52.13890   94.29180
 7243.00000   41.44630 1346.67020   -9999.25 1004.97950  -24.93400    0.01970    0.01330    0.00740    7.82730    3.88860    2.68040   52.74550   93.78150
 7243.50000   38.85110 1288.68850   -9999.25 1177.31020  -25.52900    0.01910    0.01210    0.00920    7.82850    3.93790    2.68100   53.42300   93.15600
 7244.00000   35.69970 1436.09580   -9999.25 1348.76330  -25.51910    0.02180    0.01250    0.00940    7.83400    3.97850    2.67640   53.72160   92.96780
 7244.50000   32.20150 1606.60380   -9999.25 1550.74220  -25.65110    0.02560    0.01310    0.00920    7.83810    4.01300    2.67010   52.42750   92.88200
 7245.00000   30.15840 1713.61280   -9999.25 1667.65230  -25.78300    0.02770    0.01350    0.00760    7.84310    3.99960    2.66910   52.02580   92.90640
 7245.50000   31.22690 1777.11710   -9999.25 1707.63550  -25.87040    0.02360    0.01390    0.00550    7.84800    3.93550    2.67270   51.78270   92.94730
 7246.00000   32.25950 1796.69230   -9999.25 1723.19270  -25.32920    0.01950    0.01480    0.00420    7.85300    3.85640    2.68140   51.53960   92.95700
 7246.50000   31.37010 1797.30680   -9999.25 1723.01870  -24.61680    0.01910    0.01560    0.00270    7.86530    3.78030    2.68190   51.29640   92.96660
 7247.00000   28.95780 1780.89380   -9999.25 1711.11990  -23.95890    0.02480    0.01600    0.00090    7.88380    3.70970    2.67270   51.05330   92.89990
 7247.50000   27.78630 1769.06040   -9999.25 1699.30410  -23.65370    0.03130    0.01620    0.00130    7.90220    3.80160    2.66180   51.17250   92.51670
 7248.00000   26.89680 1766.63500   -9999.25 1687.56900  -23.62250    0.03160    0.01580    0.00310    7.92100    4.20910    2.66190   51.56630   91.85950
 7248.50000   25.31930 1764.21310   -9999.25 1675.91590  -23.59140    0.02920    0.01510    0.00650    7.95230    4.54680    2.66600   52.01610   91.56320
 7249.00000   23.93700 1793.93750   -9999.25 1664.34240  -23.56030    0.02760    0.01460    0.00860    7.98360    4.72370    2.66590   52.02510   91.72140
 7249.50000   23.99190 1858.59330   -9999.25 1655.39400  -23.58120    0.02890    0.01410    0.00780    7.99970    4.82210    2.66530   51.67570   92.36160
 7250.00000   27.02240 1925.58030   -9999.25 1652.64640  -23.51940    0.03000    0.01410    0.00500    8.00110    5.00250    2.66450   51.98850   92.26140
 7250.50000   30.50350 1972.68630   -9999.25 1650.53930  -23.32850    0.02880    0.01450    0.00210    8.00260    5.35750    2.66380   52.31760   91.89680
 7251.00000   35.31550 1979.50110   -9999.25 1660.82750  -22.96980    0.03040    0.01510   -0.00050    8.00420    5.54080    2.66190   52.18110   91.53220
 7251.50000   39.97500 1959.58280   -9999.25 1671.17980  -22.61110    0.03340    0.01610   -0.00260    8.00030    5.25860    2.65640   51.93310   91.50310
 7252.00000   42.76960 1909.40620   -9999.25 1681.59750  -22.25240    0.03450    0.01700   -0.00190    7.98920    4.54010    2.65270   51.65250   91.57090
 7252.50000   40.65460 1855.83630   -9999.25 1693.01320  -21.89370    0.03440    0.01770    0.00240    7.97800    4.04050    2.65520   51.37190   91.74850
 7253.00000   36.73330 1803.76930   -9999.25 1708.80300  -21.51940    0.03360    0.01760    0.00660    7.97480    3.84880    2.65670   51.07440   92.11820
 7253.50000   32.75350 1793.73660   -9999.25 1724.74110  -21.59890    0.03340    0.01690    0.01080    7.97160    4.16190    2.65730   50.80660   92.99940
 7254.00000   32.17410 1837.13000   -9999.25 1737.79700  -22.17630    0.02950    0.01610    0.01310    7.96840    4.66440    2.66190   50.64910   93.80360
 7254.50000   33.66960 1869.33560   -9999.25 1704.03860  -22.65750    0.02470    0.01640    0.01320    7.98480    4.97810    2.67190   50.66740   94.57270
 7255.00000   34.84380 1852.91660   -9999.25 1651.82190  -22.95780    0.02130    0.01740    0.01340    8.01650    4.85570    2.67780   50.77630   95.22270
 7255.50000   32.26510 1806.22680   -9999.25 1580.37020  -22.93930    0.02280    0.01770    0.01240    8.04820    4.67850    2.67540   51.07040   95.95250
 7256.00000   28.65890 1669.42380   -9999.25 1539.44060  -22.75180    0.02350    0.01720    0.01140    8.08000    4.76930    2.67250   51.05360   96.15240
 7256.50000   25.87420 1539.55880   -9999.25 1619.05350  -22.62460    0.02050    0.01730    0.01060    8.11660    5.15230    2.67620   50.91560   96.15220
 7257.00000   25.39890 1419.79600   -9999.25 1668.38020  -22.43630    0.01740    0.01800    0.00970    8.15850    5.38210    2.68220   50.77750   96.15200
 7257.50000   27.34530 1309.35050   -9999.25 1518.75870  -22.01600    0.01550    0.01970    0.00900    8.20050    5.10260    2.68570   50.76170   96.15180
