~Version ---------------------------------------------------
VERS.   2.0 : CWLS log ASCII Standard -VERSION 2.0
WRAP.    NO : One line per depth step
DLM . SPACE : Column Data Section Delimiter
~Well ------------------------------------------------------
STRT .F                 862.0 : START DEPTH
STOP .F                7698.0 : STOP DEPTH
STEP .F                   0.5 : STEP
NULL .               -9999.25 : NULL VALUE
COMP .                        : COMPANY
WELL .                        : WELL
FLD  .                        : FIELD
LOC  .                        : LOCATION
PROV .                        : PROVINCE
CNTY .                        : COUNTY
STAT .                        : STATE
CTRY .                        : COUNTRY
SRVC .                        : SERVICE COMPANY
DATE .                        : DATE
UWI  .                        : UNIQUE WELL ID
API  .                        : API NUMBER
SLAT .WGS84 6.723628290663207 : SURFACE LATITUDE
SLON .WGS84 3.207555967667105 : SURFACE LONGITUDE
DATUM.F                1492.0 : DEPTH DATUM ELEV
~Curve Information -----------------------------------------
DEPT   .F     : 1 MEASURED DEPTH
GRR    .GAPI  : GAMMA RAY FROM RESISTIVITY LOG
ILD    .OHMM  : INDUCTION DEEP RESISTIVITY
ILM    .OHMM  : INDUCTION MEDIUM RESISTIVITY
SFLU   .OHMM  : SHALLOW FOCUSED RESISTIVITY (UNAVERAGED)
SPR    .MV    : SPONTANEOUS POTENTIAL FROM RESISTIVITY LOG
DPHI_LS.DEC   : DENSITY POROSITY LIMESTONE
NPHI_LS.DEC   : NEUTRON POROSITY LIMESTONE
DRHO   .G/C3  : BULK DENSITY CORRECTION
CALD   .IN    : CALIPER FROM DENSITY LOG
PEF    .B/E   : PHOTOELECTRIC FACTOR
RHOB   .G/C3  : BULK DENSITY
DTCO   .US/F  : DELTA-T COMPRESSIONAL
DTSM   .US/F  : DELTA-T SHEAR
~Params ----------------------------------------------------
~Other -----------------------------------------------------
~ASCII -----------------------------------------------------
# ...
 6608.00000   55.82990    6.23260    6.52790    8.41380    8.18800    0.05000    0.15610    0.05610    9.16410    4.22800    2.63200   66.62410  139.03670
 6608.50000   61.76440    6.11750    6.46230    7.18150    6.97830    0.06950    0.16880    0.06810    9.15610    4.30580    2.59540   67.15340  143.74320
 6609.00000   62.92490    6.00450    6.39730    6.66720    6.35640    0.07340    0.16480    0.08440    9.14890    4.25550    2.58970   68.54680  145.92080
 6609.50000   61.11220    5.89100    6.21940    6.91050    6.10850    0.06500    0.17050    0.10690    9.16550    3.92890    2.59520   71.49470  148.63130
 6610.00000   57.95760    5.77940    6.01820    6.78880    5.86060    0.08530    0.19120    0.12640    9.21430    3.55270    2.57910   71.83740  147.44300
 6610.50000   54.63670    5.67000    6.08270    6.72470    5.62330    0.10320    0.18930    0.11440    9.25510    3.41120    2.53980   69.70740  141.37630
 6611.00000   51.56990    5.56270    6.28680    7.04090    5.58090    0.09380    0.17620    0.10900    9.21630    3.64860    2.55070   69.28520  142.05930
 6611.50000   51.51570    5.47680    6.24860    7.83500    5.53560    0.06860    0.16920    0.11870    9.17290    3.83470    2.59500   70.29320  142.49820
 6612.00000   53.85330    5.39520    6.18580    8.09900    5.77410    0.08100    0.18160    0.12440    9.14880    3.56880    2.56960   71.30130  141.74720
 6612.50000   56.02730    5.36690    6.00320    7.18240    6.02740    0.12770    0.19710    0.10850    9.14880    3.19770    2.48900   72.30930  140.60590
 6613.00000   57.62680    5.41130    5.81220    6.52110    6.71030    0.14690    0.19790    0.11180    9.15020    3.11850    2.46140   73.36580  140.36380
 6613.50000   59.14500    5.41540    5.62730    6.22400    7.10070    0.11220    0.19260    0.13050    9.17430    3.34380    2.52060   74.54450  141.02810
 6614.00000   59.75070    5.26880    5.46330    6.37510    7.21620    0.07390    0.18770    0.15390    9.19840    3.63990    2.58720   74.97310  144.10260
 6614.50000   57.66030    5.12620    5.31590    6.58440    7.08400    0.07170    0.18950    0.16520    9.22670    3.61940    2.58810   74.85630  147.45300
 6615.00000   55.29740    5.11520    5.27960    6.43900    6.93640    0.09220    0.20060    0.16760    9.25510    3.49670    2.55230   74.06220  151.14350
 6615.50000   52.23930    5.19620    5.55510    6.28800    6.76490    0.11590    0.21020    0.16810    9.23720    3.37410    2.51760   73.18610  154.38830
 6616.00000   48.86490    5.65820    5.93990    6.20740    6.41480    0.13650    0.20790    0.16550    9.15720    3.33290    2.47950   73.23240  152.20500
 6616.50000   45.18020    6.10520    6.35150    6.60980    5.46090    0.15510    0.19430    0.14500    9.07720    3.36660    2.45020   74.75130  146.85450
 6617.00000   45.21280    6.81170    7.24050    7.98680    4.83420    0.14510    0.17210    0.11360    8.99720    3.50860    2.46020   76.83560  143.13390
 6617.50000   48.16900    7.60200    8.65090   10.16860    4.57300    0.11650    0.13820    0.08480    8.92200    3.74410    2.50870   76.68660  137.07780
 6618.00000   47.56660    8.78750   10.76700   14.34770    4.43810    0.08750    0.10550    0.05670    8.83320    3.97660    2.55420   71.14940  125.66320
 6618.50000   42.88770   10.19410   13.10390   20.28500    4.52680    0.06040    0.07960    0.03630    8.74660    4.15040    2.60110   66.23380  115.73930
 6619.00000   39.91980   11.39880   15.05380   28.48420    4.28610    0.03390    0.06770    0.02870    8.70190    4.15410    2.65610   63.32390  109.66430
 6619.50000   40.43410   12.74580   16.37660   34.64490    3.74260    0.02560    0.06720    0.02110    8.72390    4.11250    2.67300   60.41410  107.79950
 6620.00000   44.47180   14.32660   16.60350   35.72760    2.87650    0.01860    0.07810    0.01340    8.76190    4.07560    2.67790   56.15420  107.35730
 6620.50000   48.41480   16.11640   17.57120   26.68530    2.01880    0.02530    0.09160    0.01130    8.74860    4.01020    2.67030   56.34630  108.28400
 6621.00000   47.58320   18.47890   20.64400   21.70250    1.25450    0.03440    0.08800    0.01230    8.74850    3.90730    2.65350   57.51470  108.85950
 6621.50000   41.59300   20.95970   22.59060   25.85740    0.48390    0.04100    0.06760    0.01460    8.75140    3.89580    2.64290   58.34420  107.88830
 6622.00000   31.54030   21.60890   32.43200   49.78440   -0.28670    0.03290    0.04710    0.01700    8.75440    4.03100    2.65880   57.90410  107.67960
 6622.50000   20.87670   20.69660   42.80450  186.99330   -0.29820    0.01910    0.03280    0.01950    8.74940    4.32090    2.67880   56.98460  108.17380
 6623.00000   16.16990   18.82240   38.98920  496.99040   -0.52150    0.03140    0.03850    0.02030    8.73980    4.60860    2.66710   56.06500  107.66540
 6623.50000   17.33290   17.03650   29.48250  574.08660   -0.74490    0.04930    0.05230    0.01110    8.75500    4.90130    2.62870   55.31960  105.92830
 6624.00000   25.14010   15.54300   19.37220  187.73490   -0.58570    0.05910    0.06640    0.00610    8.77830    4.92910    2.60840   55.82100  104.69060
 6624.50000   34.31130   14.18040   14.75320   53.05870   -0.28970    0.05180    0.09050    0.00440    8.81430    4.46820    2.62220   57.75350  105.52610
 6625.00000   42.52750   13.40550   11.54450   19.50390    0.00630    0.03520    0.11780    0.00740    8.85040    3.87110    2.65230   59.05560  110.37980
 6625.50000   46.81910   12.89110   10.76300   12.99930    0.30230    0.02810    0.13460    0.01010    8.88180    3.61050    2.66420   60.31190  114.15410
 6626.00000   44.52810   12.43450   12.35120   10.41520    0.65500    0.03300    0.11220    0.01140    8.89250    3.74940    2.65060   61.78210  115.65510
 6626.50000   37.29470   12.10660   14.07160   15.29540    1.21280    0.04530    0.08280    0.01260    8.89590    4.30210    2.63740   62.36970  115.72510
 6627.00000   31.30860   11.78740   14.68100   26.45420    1.76950    0.03920    0.05380    0.01490    8.89630    4.78010    2.64390   62.21530  112.76290
 6627.50000   29.44920   11.53850   14.48080   38.50960    2.30000    0.03270    0.06050    0.01690    8.89190    4.96600    2.65680   61.56850  106.98320
 6628.00000   33.98780   11.46580   13.59270   35.48810    2.83060    0.02910    0.07810    0.01680    8.87840    4.71310    2.66430   59.44850  101.97280
 6628.50000   40.80170   11.28290   12.73210   25.88420    3.25540    0.03580    0.09020    0.01410    8.87000    4.26330    2.65440   56.13080   99.60620
 6629.00000   47.05400    9.95480   11.23690   21.12090    3.66470    0.05650    0.10000    0.01960    8.90060    3.74360    2.61710   55.00420  101.95730
 6629.50000   55.52950    8.48210    8.71370   17.24140    3.99880    0.11560    0.12890    0.02730    9.02150    3.10840    2.50110   56.86880  104.20320
 6630.00000   68.51520    6.96970    6.69760   12.58340    4.35690    0.20470    0.16630    0.04690    9.35990    2.99160    2.33280   59.71200  104.34490
 6630.50000   75.40670    6.14100    5.21340    8.90240    4.78450    0.24780    0.20080    0.08310    9.75030    3.06630    2.29980   63.58430  102.86910
 6631.00000   78.87090    5.62330    4.93640    6.94550    4.83950    0.21270    0.22630    0.12510   10.14080    3.06020    2.36150   68.19420  106.31840
 6631.50000   81.28270    5.26190    4.83590    6.18810    4.47380    0.16660    0.25940    0.16870   10.36670    2.78990    2.43090   73.10450  114.88000
 6632.00000   83.22270    5.25830    4.87910    5.66580    3.90870    0.17160    0.28640    0.18060   10.29950    2.51960    2.37600   74.23140  119.91140
 6632.50000   82.87780    5.59630    5.70010    5.89250    3.86120    0.23890    0.27820    0.14660    9.85680    2.45840    2.29060   72.05780  121.95690
 6633.00000   72.11450    6.17890    6.71630    8.01950    3.69620    0.28700    0.21530    0.10260    9.36370    2.97400    2.22740   67.33710  117.58220
 6633.50000   56.72670    6.92790    8.93870   11.72460    3.60950    0.24910    0.12210    0.07550    8.87400    4.00970    2.35240   62.67170  109.37120
