~Version ---------------------------------------------------
VERS.   2.0 : CWLS log ASCII Standard -VERSION 2.0
WRAP.    NO : One line per depth step
DLM . SPACE : Column Data Section Delimiter
~Well ------------------------------------------------------
STRT .F                 862.0 : START DEPTH
STOP .F                7698.0 : STOP DEPTH
STEP .F                   0.5 : STEP
NULL .               -9999.25 : NULL VALUE
COMP .                        : COMPANY
WELL .                        : WELL
FLD  .                        : FIELD
LOC  .                        : LOCATION
PROV .                        : PROVINCE
CNTY .                        : COUNTY
STAT .                        : STATE
CTRY .                        : COUNTRY
SRVC .                        : SERVICE COMPANY
DATE .                        : DATE
UWI  .                        : UNIQUE WELL ID
API  .                        : API NUMBER
SLAT .WGS84 6.723628290663207 : SURFACE LATITUDE
SLON .WGS84 3.207555967667105 : SURFACE LONGITUDE
DATUM.F                1492.0 : DEPTH DATUM ELEV
~Curve Information -----------------------------------------
DEPT   .F     : 1 MEASURED DEPTH
GRR    .GAPI  : GAMMA RAY FROM RESISTIVITY LOG
ILD    .OHMM  : INDUCTION DEEP RESISTIVITY
ILM    .OHMM  : INDUCTION MEDIUM RESISTIVITY
SFLU   .OHMM  : SHALLOW FOCUSED RESISTIVITY (UNAVERAGED)
SPR    .MV    : SPONTANEOUS POTENTIAL FROM RESISTIVITY LOG
DPHI_LS.DEC   : DENSITY POROSITY LIMESTONE
NPHI_LS.DEC   : NEUTRON POROSITY LIMESTONE
DRHO   .G/C3  : BULK DENSITY CORRECTION
CALD   .IN    : CALIPER FROM DENSITY LOG
PEF    .B/E   : PHOTOELECTRIC FACTOR
RHOB   .G/C3  : BULK DENSITY
DTCO   .US/F  : DELTA-T COMPRESSIONAL
DTSM   .US/F  : DELTA-T SHEAR
~Params ----------------------------------------------------
~Other -----------------------------------------------------
~ASCII -----------------------------------------------------
# ...
 7674.00000   -9999.25  123.08700  245.45160  561.18050  -26.10640    0.00010    0.01320    0.01000    7.60340    5.21310    2.71590   49.07210   93.81740
 7674.50000   -9999.25  126.37140  250.33130  609.58820  -25.58290    0.00050    0.01350    0.00950    7.60670    5.02250    2.71340   49.15090   93.95040
 7675.00000   -9999.25  130.77610  304.23550  569.78230  -24.96830   -0.00290    0.01370    0.01280    7.60780    5.00530    2.71870   49.64650   94.08330
 7675.50000   -9999.25  133.98310  405.19590  537.79500  -24.41500   -0.00610    0.01390    0.01690    7.61320    5.20610    2.72480   49.57900   94.21630
 7676.00000   -9999.25  136.18250  483.07050  544.03990  -23.59170   -0.00580    0.01420    0.01750    7.61900    5.04320    2.72210   48.67770   94.34920
 7676.50000   -9999.25  136.41020  478.02830  551.75370  -22.94450   -0.00100    0.01430    0.01690    7.62490    4.70040    2.71840   48.75920   94.68480
 7677.00000   -9999.25  133.55240  439.90020  515.83590  -22.05070   -0.00200    0.01490    0.01570    7.61780    4.44230    2.71830   49.06570   95.02890
 7677.50000   -9999.25  131.45530  464.80690  426.88300  -21.80550   -0.00370    0.01550    0.01410    7.61950    4.55140    2.72050   49.31410   95.37290
 7678.00000   -9999.25  130.92920  519.63400  318.53900  -21.56040   -0.00320    0.01600    0.01160    7.62070    4.85180    2.71860   49.53200   95.71690
 7678.50000   -9999.25  130.78140  537.33110  249.99650  -21.31530    0.00540    0.01600    0.00950    7.62200    5.06780    2.70760   49.54730   96.06090
 7679.00000   -9999.25  130.63380  461.73790  227.68900  -21.58090    0.01230    0.01600    0.00740    7.62330    5.05920    2.69420   49.56250   96.40500
 7679.50000   -9999.25  129.41080  393.53150  234.19690  -21.46460    0.01760   -9999.25    0.00530    7.62450    4.97390    2.68470   49.57780   96.74900
 7680.00000   -9999.25  127.06180  341.24720  249.06130  -20.82290    0.01940   -9999.25    0.00410    7.62580    4.92130    2.68120   49.59300   97.11760
 7680.50000   -9999.25  124.62880  303.03130  260.30970  -20.53460    0.01820   -9999.25    0.00660    7.62710    5.04460    2.67950   49.62230   97.50610
 7681.00000   -9999.25  121.49850  284.01790  242.79000  -20.24630    0.02050   -9999.25    0.00960    7.62830    5.13030    2.67820   49.55550   97.83660
 7681.50000   -9999.25  117.71490  275.40880  211.08260  -20.08890    0.01990   -9999.25    0.01290    7.62960    4.99940    2.68040   49.43040   97.99320
 7682.00000   -9999.25  112.94030  264.51380  190.94330  -20.00240    0.01580   -9999.25    0.01520    7.63080    4.90610    2.68690   49.35900   98.14970
 7682.50000   -9999.25  109.34260  220.26340  174.74170  -19.91590    0.01370   -9999.25    0.01680    7.63210    4.94040    2.69020   49.54440   98.15190
 7683.00000   -9999.25  105.09350  168.02540  164.72380  -19.77600    0.01590   -9999.25    0.01590    7.63340    5.00400    2.68620   49.83760   98.10120
 7683.50000   -9999.25   99.23280  132.36040  156.06380  -19.42940    0.02020   -9999.25    0.01490    7.63450    4.96720    2.67990   50.49950   98.05050
 7684.00000   -9999.25   89.03620  114.79780  155.94660  -19.08280    0.02300   -9999.25    0.01390    7.63570    4.92320    2.67350   51.20770   98.05740
 7684.50000   -9999.25   83.11710  103.68950  158.50330  -18.62060    0.02580   -9999.25    0.01570    7.63680    4.91930    2.66870   50.78940   98.10390
 7685.00000   -9999.25   77.59150   95.89460  160.47090  -17.94780    0.02780   -9999.25    0.02060    7.63800    4.82100    2.66560   50.04740   98.14940
 7685.50000   -9999.25   71.75470   89.42350  155.62390  -17.27510    0.02680   -9999.25    0.02470    7.63920    4.70340    2.66590   -9999.25   -9999.25
 7686.00000   -9999.25   66.00270   79.82910  135.81930  -16.58340    0.02220   -9999.25    0.03680    7.64020    4.61410    2.67630   -9999.25   -9999.25
 7686.50000   -9999.25   61.68120   71.52500  118.61750  -15.51730    0.01640   -9999.25    0.04710    7.64120    4.52480    2.68650   -9999.25   -9999.25
 7687.00000   -9999.25   58.10070   68.39740  106.61980  -14.33240    0.01480   -9999.25    0.05170    7.64220    4.45000    2.68730   -9999.25   -9999.25
 7687.50000   -9999.25   55.42580   71.12760  103.75530  -12.65500    0.01480   -9999.25    0.05550    7.64320    4.38640    2.68830   -9999.25   -9999.25
 7688.00000   -9999.25   52.94650   74.71100  108.07380  -10.97710    0.01340   -9999.25    0.05550    7.64420    4.38290    2.69170   -9999.25   -9999.25
 7688.50000   -9999.25   50.04940   80.88550  118.43100   -9.50590    0.01040   -9999.25    0.05120    7.64520    4.52560    2.69520   -9999.25   -9999.25
 7689.00000   -9999.25   48.33650   87.05610  130.72430   -8.25670    0.01360   -9999.25    0.04520    7.65150    4.68620    2.69090   -9999.25   -9999.25
 7689.50000   -9999.25   48.39040   95.53150  144.02870   -6.88420    0.01990   -9999.25    0.03910    7.65780    4.78090    2.68080   -9999.25   -9999.25
 7690.00000   -9999.25   48.28620  101.45940  146.76600   -5.65110    0.02770   -9999.25    0.03330    7.66420    4.74860    2.66470   -9999.25   -9999.25
 7690.50000   -9999.25   47.51760  106.79030  144.77140   -4.83330    0.03270   -9999.25    0.02880    7.67050    4.76750    2.65920   -9999.25   -9999.25
 7691.00000   -9999.25   40.73120  112.19600  136.79050   -4.01550    0.03130   -9999.25    0.02790    7.67250    4.98760    2.66100   -9999.25   -9999.25
 7691.50000   -9999.25   34.59700  111.44080  132.09610   -3.14480    0.02940   -9999.25    0.02650    7.67220    5.09680    2.66240   -9999.25   -9999.25
 7692.00000   -9999.25   30.85660   72.94880  114.65610   -2.24130    0.03280   -9999.25    0.02320    7.67200    4.96460    2.65490   -9999.25   -9999.25
 7692.50000   -9999.25   -9999.25   43.06290   84.48800   -1.39690    0.03480   -9999.25    0.02220    7.67170    4.81250    2.65170   -9999.25   -9999.25
 7693.00000   -9999.25   -9999.25   24.43560   41.50030   -1.15400    0.02910   -9999.25    0.02450    7.67140    4.74140    2.66560   -9999.25   -9999.25
 7693.50000   -9999.25   -9999.25   13.75230   21.04990   -1.74360    0.01960   -9999.25    0.02410    7.70100    4.52050    2.68420   -9999.25   -9999.25
 7694.00000   -9999.25   -9999.25   10.13320   13.46080   -2.63700    0.00560   -9999.25    0.02080    7.74030    4.06010    2.70800   -9999.25   -9999.25
 7694.50000   -9999.25   -9999.25    8.55590   11.40440   -3.53050   -0.01040   -9999.25    0.01820    7.77960    3.60930    2.73510   -9999.25   -9999.25
 7695.00000   -9999.25   -9999.25    7.98210   10.82450   -4.10400   -0.01920   -9999.25    0.01740    7.81890    3.38480    2.74490   -9999.25   -9999.25
 7695.50000   -9999.25   -9999.25   -9999.25   -9999.25   -9999.25   -0.01290   -9999.25    0.01800    7.84050    3.20450    2.73510   -9999.25   -9999.25
 7696.00000   -9999.25   -9999.25   -9999.25   -9999.25   -9999.25   -0.00360   -9999.25    0.02100    7.81780    3.22940    2.71850   -9999.25   -9999.25
 7696.50000   -9999.25   -9999.25   -9999.25   -9999.25   -9999.25    0.00490   -9999.25    0.02410    7.80830    3.26960    2.70390   -9999.25   -9999.25
 7697.00000   -9999.25   -9999.25   -9999.25   -9999.25   -9999.25    0.01310   -9999.25    0.02820    7.80110    3.22910    2.69110   -9999.25   -9999.25
 7697.50000   -9999.25   -9999.25   -9999.25   -9999.25   -9999.25    0.01920   -9999.25    0.03340    7.79120    3.04060    2.68370   -9999.25   -9999.25
 7698.00000   -9999.25   -9999.25   -9999.25   -9999.25   -9999.25    0.01500   -9999.25    0.04710    7.75670    2.79040    2.68820   -9999.25   -9999.25
