~Version ---------------------------------------------------
VERS.   2.0 : CWLS log ASCII Standard -VERSION 2.0
WRAP.    NO : One line per depth step
DLM . SPACE : Column Data Section Delimiter
~Well ------------------------------------------------------
STRT .F                 862.0 : START DEPTH
STOP .F                7698.0 : STOP DEPTH
STEP .F                   0.5 : STEP
NULL .               -9999.25 : NULL VALUE
COMP .                        : COMPANY
WELL .                        : WELL
FLD  .                        : FIELD
LOC  .                        : LOCATION
PROV .                        : PROVINCE
CNTY .                        : COUNTY
STAT .                        : STATE
CTRY .                        : COUNTRY
SRVC .                        : SERVICE COMPANY
DATE .                        : DATE
UWI  .                        : UNIQUE WELL ID
API  .                        : API NUMBER
SLAT .WGS84 6.723628290663207 : SURFACE LATITUDE
SLON .WGS84 3.207555967667105 : SURFACE LONGITUDE
DATUM.F                1492.0 : DEPTH DATUM ELEV
~Curve Information -----------------------------------------
DEPT   .F     : 1 MEASURED DEPTH
GRR    .GAPI  : GAMMA RAY FROM RESISTIVITY LOG
ILD    .OHMM  : INDUCTION DEEP RESISTIVITY
ILM    .OHMM  : INDUCTION MEDIUM RESISTIVITY
SFLU   .OHMM  : SHALLOW FOCUSED RESISTIVITY (UNAVERAGED)
SPR    .MV    : SPONTANEOUS POTENTIAL FROM RESISTIVITY LOG
DPHI_LS.DEC   : DENSITY POROSITY LIMESTONE
NPHI_LS.DEC   : NEUTRON POROSITY LIMESTONE
DRHO   .G/C3  : BULK DENSITY CORRECTION
CALD   .IN    : CALIPER FROM DENSITY LOG
PEF    .B/E   : PHOTOELECTRIC FACTOR
RHOB   .G/C3  : BULK DENSITY
DTCO   .US/F  : DELTA-T COMPRESSIONAL
DTSM   .US/F  : DELTA-T SHEAR
~Params ----------------------------------------------------
~Other -----------------------------------------------------
~ASCII -----------------------------------------------------
# ...
 6166.00000   24.10950   75.05350  135.30280  310.15250  -25.67710    0.01950    0.01080   -0.00140    8.01040    5.25140    2.68030   50.10440   96.15500
 6166.50000   20.99380   71.32560  130.66370  285.62060  -24.86120    0.01600    0.01080   -0.00260    8.00980    5.24360    2.68610   50.41290   98.00800
 6167.00000   19.09550   67.29180  125.84310  265.55750  -23.07510    0.01250    0.01090   -0.00150    8.01000    5.14730    2.69310   50.72150   99.06190
 6167.50000   18.91360   62.05740  123.37670  251.61590  -21.68910    0.00900    0.01120    0.00090    8.01250    5.17860    2.70010   51.03000   97.69480
 6168.00000   20.21250   57.51050  122.47980  227.14220  -20.03300    0.00590    0.01170    0.00380    8.01270    5.38760    2.70360   50.80730   96.18810
 6168.50000   20.38050   56.36120  121.15010  198.69710  -18.36560    0.00700    0.01230    0.00480    8.01550    5.36160    2.70150   50.03730   98.17790
 6169.00000   19.47640   55.40660  115.97700  191.36810  -16.71230    0.01070    0.01310    0.00060    8.01130    4.96610    2.69550   50.15600   99.03090
 6169.50000   19.83270   53.36290  106.24400  191.60580  -15.08100    0.01340    0.01520    0.00070    7.99720    4.57280    2.69130   51.10950   99.52420
 6170.00000   21.91210   41.44270   84.69170  166.60990  -13.44980    0.01280    0.02030    0.00410    7.99300    4.43840    2.69260   50.85650   99.55700
 6170.50000   25.42540   30.26230   56.07170  120.40420  -12.30560    0.01150    0.02760    0.00620    7.98880    4.58300    2.69460   50.70960   99.87170
 6171.00000   29.45820   19.96260   36.11220   80.57010  -11.42300    0.01180    0.04010    0.01180    8.00500    4.70230    2.69300   50.87380  106.28810
 6171.50000   38.46990   14.24100   20.87040   48.51330   -9.91930    0.02140    0.06880    0.02030    8.05110    4.32700    2.68010   52.66910  114.67410
 6172.00000   56.95470   10.15930   12.93130   28.37980   -8.42330    0.04100    0.09570    0.04120    8.13940    3.74260    2.64720   55.00200  120.64640
 6172.50000   76.55860    7.72990    7.98820   14.62270   -7.71350    0.07770    0.20470    0.06960    8.24710    3.18100    2.57250   63.38280  135.35120
 6173.00000   97.87540    6.69570    4.94330    7.98090   -6.46680    0.13490    0.26160    0.08780    8.40110    2.93280    2.48180   70.94870  150.21630
 6173.50000  106.79690    6.01570    4.85450    5.98620   -5.38170    0.17190    0.25890    0.09570    8.42780    2.91380    2.42150   74.20580  156.79230
 6174.00000   94.75730    5.81200    5.89930    5.14920   -4.29650    0.15100    0.20500    0.10070    8.29220    3.11500    2.45000   73.72190  152.56700
 6174.50000   77.71360    5.76030    7.12210    7.51670   -3.29560    0.09480    0.15600    0.09870    8.02550    3.52320    2.56970   72.66610  147.91690
 6175.00000   62.42150    5.83200    7.62250   12.03450   -2.31480    0.02430    0.11200    0.07780    8.00150    3.76810    2.66400   68.51760  137.14400
 6175.50000   53.56810    6.29530    8.19600   17.64830   -1.33400    0.00380    0.10050    0.05320    8.01480    4.03240    2.70950   61.75190  121.08610
 6176.00000   48.38480    6.86750    8.75260   22.06430   -0.76160   -0.00320    0.09330    0.03460    8.01760    4.28760    2.71840   56.61940  108.42850
 6176.50000   52.97300    7.35870    8.83590   23.96120   -0.44480    0.00070    0.09130    0.02740    8.01750    4.44680    2.71460   55.79150  105.60270
 6177.00000   66.13040    7.05110    8.40620   22.88310   -0.12800    0.01010    0.11740    0.04210    8.03470    4.29400    2.70050   56.57870  103.87070
 6177.50000   83.05740    6.16440    6.96750   16.54200    0.18890    0.03500    0.16060    0.07100    8.14170    3.86960    2.66480   62.03030  109.17810
 6178.00000  118.66290    5.34040    5.77510    9.98140    0.50570    0.07950    0.22890    0.10100    8.28640    3.41710    2.58900   69.05070  115.92760
 6178.50000  152.86270    4.40440    4.78670    6.22030    0.73560    0.13070    0.28470    0.12230    8.43770    3.08810    2.50450   76.44720  122.36490
 6179.00000  176.46770    3.63250    3.95260    4.86100    0.67820    0.16660    0.33890    0.13680    8.35310    2.95100    2.43860   81.47240  128.05710
 6179.50000  190.45450    3.17790    3.25960    4.30820    0.62090    0.22140    0.37850    0.14020    8.23500    2.81180    2.35040   84.92180  131.70330
 6180.00000  173.25070    2.84970    2.68810    3.51280    0.47520    0.27110    0.41540    0.12820    8.40220    2.57990    2.23480   87.17840  132.93020
 6180.50000  139.48450    2.63860    2.36770    2.63420    0.23960    0.29890    0.38420    0.11430    8.65810    2.46100    2.15550   88.37900  133.08770
 6181.00000  108.31620    2.62690    2.50220    2.26250    0.00410    0.27750    0.34260    0.11040    8.55290    2.52720    2.18480   87.94720  131.64570
 6181.50000   87.24130    2.64920    2.83730    2.50640   -0.21620    0.21180    0.26820    0.11110    8.25240    3.04070    2.31910   82.70140  126.65050
 6182.00000   75.08180    2.67160    3.11060    3.50310   -0.34280    0.12550    0.19880    0.11030    8.06980    3.43910    2.46560   76.16660  119.96030
 6182.50000   70.32160    2.69000    3.06870    4.82900   -0.46950    0.10330    0.17160    0.09330    8.44100    3.55240    2.54260   73.88050  116.31250
 6183.00000   68.66540    2.69120    2.94710    5.62730   -0.73220    0.15390    0.19450    0.06810    8.88520    3.32270    2.44410   73.55700  117.08210
 6183.50000   69.32350    2.69170    2.81380    5.26700   -1.00150    0.22410    0.24320    0.04750    9.25460    3.00910    2.33360   72.10370  120.98920
 6184.00000   73.66200    2.66770    2.81860    4.17220   -1.01920    0.26180    0.28230    0.04970    9.65880    2.83170    2.26560   71.32430  123.56910
 6184.50000   77.06400    2.61510    2.94310    3.26670   -1.03700    0.23520    0.29410    0.09170    9.90960    2.82440    2.30160   73.79180  126.06310
 6185.00000   77.11570    2.61410    2.83290    2.91950   -1.07770    0.20850    0.30380    0.12580   10.05600    2.84250    2.36420   76.38110  130.16710
 6185.50000   76.27180    2.65300    2.62710    2.73730   -2.01260    0.19080    0.32480    0.14050   10.19030    2.83410    2.38480   79.66300  134.86580
 6186.00000   75.46060    2.68340    2.43620    2.60350   -2.00630    0.20670    0.34190    0.15150   10.31970    2.75760    2.36070   83.65670  141.37830
 6186.50000   80.85680    2.70600    2.38660    2.59090   -2.22870    0.23240    0.35530    0.15860   10.31090    2.67650    2.31360   87.65030  149.60250
 6187.00000   81.89970    2.73780    2.55620    2.61220   -2.68480    0.25420    0.34340    0.16010   10.12970    2.59760    2.26970   91.19000  147.76130
 6187.50000   77.67010    3.20990    3.00750    2.74440   -3.14100    0.27380    0.31090    0.16050    9.74320    2.57550    2.24440   92.83220  142.55350
 6188.00000   68.31660    4.06550    3.53830    3.14490   -3.59700    0.27700    0.24290    0.15540    8.92800    2.63340    2.23710   92.53490  140.58780
 6188.50000   58.04480    5.15530    4.23660    3.65100   -4.05270    0.23860    0.20110    0.15000    8.44990    2.86320    2.28270   87.79210  143.93820
 6189.00000   53.55100    6.53730    5.46310    4.63090   -4.50850    0.18700    0.17640    0.14510    8.17710    3.29450    2.37900   82.10970  147.25600
 6189.50000   52.35000    8.41580    7.04470    5.70920   -4.96420    0.12620    0.15220    0.13970    8.06260    3.53050    2.50880   76.14690  142.91070
 6190.00000   49.33290   11.04630    9.50290    7.77830   -5.26370    0.07130    0.11920    0.11920    7.92010    3.74260    2.59880   70.62080  134.65460
 6190.50000   41.41210   14.51650   12.84860   11.34540   -5.45730    0.03490    0.07320    0.08940    7.81790    4.06000    2.65920   66.09130  124.70010
 6191.00000   32.98820   20.69140   18.81850   16.59910   -6.03070    0.00770    0.04390    0.06070    7.75760    4.49890    2.69920   62.38440  115.19740
 6191.50000   26.43120   25.49980   30.37810   32.63350   -7.10120   -0.00330    0.02600    0.02980    7.69740    4.89590    2.72030   58.13500  106.63420
