~Version ---------------------------------------------------
VERS.   2.0 : CWLS log ASCII Standard -VERSION 2.0
WRAP.    NO : One line per depth step
DLM . SPACE : Column Data Section Delimiter
~Well ------------------------------------------------------
STRT .F                 862.0 : START DEPTH
STOP .F                7698.0 : STOP DEPTH
STEP .F                   0.5 : STEP
NULL .               -9999.25 : NULL VALUE
COMP .                        : COMPANY
WELL .                        : WELL
FLD  .                        : FIELD
LOC  .                        : LOCATION
PROV .                        : PROVINCE
CNTY .                        : COUNTY
STAT .                        : STATE
CTRY .                        : COUNTRY
SRVC .                        : SERVICE COMPANY
DATE .                        : DATE
UWI  .                        : UNIQUE WELL ID
API  .                        : API NUMBER
SLAT .WGS84 6.723628290663207 : SURFACE LATITUDE
SLON .WGS84 3.207555967667105 : SURFACE LONGITUDE
DATUM.F                1492.0 : DEPTH DATUM ELEV
~Curve Information -----------------------------------------
DEPT   .F     : 1 MEASURED DEPTH
GRR    .GAPI  : GAMMA RAY FROM RESISTIVITY LOG
ILD    .OHMM  : INDUCTION DEEP RESISTIVITY
ILM    .OHMM  : INDUCTION MEDIUM RESISTIVITY
SFLU   .OHMM  : SHALLOW FOCUSED RESISTIVITY (UNAVERAGED)
SPR    .MV    : SPONTANEOUS POTENTIAL FROM RESISTIVITY LOG
DPHI_LS.DEC   : DENSITY POROSITY LIMESTONE
NPHI_LS.DEC   : NEUTRON POROSITY LIMESTONE
DRHO   .G/C3  : BULK DENSITY CORRECTION
CALD   .IN    : CALIPER FROM DENSITY LOG
PEF    .B/E   : PHOTOELECTRIC FACTOR
RHOB   .G/C3  : BULK DENSITY
DTCO   .US/F  : DELTA-T COMPRESSIONAL
DTSM   .US/F  : DELTA-T SHEAR
~Params ----------------------------------------------------
~Other -----------------------------------------------------
~ASCII -----------------------------------------------------
# ...
 7128.00000   20.77230 1716.02840   -9999.25  590.08660  -19.62810    0.03550    0.01140    0.00460    7.75340    3.44780    2.65170   52.65880   92.81180
 7128.50000   24.96000 1779.55970   -9999.25  713.72420  -19.64020    0.03050    0.01110    0.00660    7.74900    3.47450    2.65940   53.15980   91.89200
 7129.00000   26.53020 1809.60330   -9999.25  788.91960  -19.65340    0.02980    0.01160    0.00850    7.74360    3.39410    2.66170   52.52440   90.87140
 7129.50000   26.75590 1805.63680   -9999.25  769.82600  -20.14440    0.03100    0.01210    0.00920    7.75360    3.39310    2.66100   52.57540   89.70330
 7130.00000   26.27000 1777.80600   -9999.25  652.43580  -20.43380    0.02900    0.01220    0.01030    7.76920    3.51450    2.66340   52.25590   88.97420
 7130.50000   25.87900 1704.34910   -9999.25  522.37980  -20.45540    0.02030    0.01200    0.01180    7.78470    3.74490    2.67520   51.77060   88.93960
 7131.00000   25.57470 1488.48930   -9999.25  527.59110  -20.37110    0.01740    0.01170    0.01340    7.80030    3.83960    2.68170   51.23260   89.16430
 7131.50000   25.11340 1272.91190   -9999.25  594.95180  -20.22570    0.01610    0.01140    0.01610    7.81350    3.82650    2.68550   51.62450   89.38890
 7132.00000   24.15620 1093.95410   -9999.25  659.56520  -19.81340    0.01400    0.01110    0.02050    7.82060    3.70380    2.68960   51.83610   89.83860
 7132.50000   23.19900  901.30720   -9999.25  634.18650  -19.24020    0.01120    0.01120    0.02480    7.81580    3.64830    2.69660   51.96060   90.52110
 7133.00000   23.12950  758.41540   -9999.25  617.27030  -18.53850    0.01100    0.01160    0.02880    7.81420    3.64520    2.69760   52.02470   91.20370
 7133.50000   23.73350  644.04690 2070.87110  607.78850  -17.96430    0.01240    0.01290    0.03230    7.81230    3.66790    2.69420   52.06880   91.88150
 7134.00000   26.62590  564.16110 1467.63350  535.94770  -17.39000    0.01510    0.01530    0.03090    7.80840    3.70190    2.68920   51.79270   92.02580
 7134.50000   29.73590  504.59130 1001.94960  472.59850  -16.88750    0.01820    0.01780    0.02470    7.80500    3.67830    2.68200   51.66220   92.12210
 7135.00000   32.31330  522.58600 1002.26490  411.59380  -16.66910    0.02400    0.01910    0.01830    7.80520    3.54300    2.67220   52.10290   91.78440
 7135.50000   32.51320  548.45890 1486.57590  369.60680  -16.47860    0.02750    0.01830    0.01260    7.80550    3.42190    2.66650   52.44010   91.41740
 7136.00000   30.53460  546.12590 1650.45680  386.34740  -16.26450    0.02940    0.01750    0.00930    7.80330    3.43650    2.66200   52.84260   91.03410
 7136.50000   27.99350  528.32230 1683.49490  444.75990  -16.02730    0.02980    0.01680    0.00480    7.80360    3.48930    2.66140   53.59300   90.74730
 7137.00000   25.89710  528.78020 1675.28580  503.97860  -15.85430    0.02950    0.01640    0.00260    7.81010    3.41420    2.66240   54.20040   90.49980
 7137.50000   24.91860  557.81350 1520.05820  548.06640  -15.43120    0.02880    0.01620    0.00260    7.81660    3.33010    2.66340   54.15170   90.25230
 7138.00000   25.92380  592.42850 1394.75400  544.95160  -14.88410    0.02800    0.01620    0.00420    7.82310    3.51960    2.66440   53.61680   90.11400
 7138.50000   28.21520  613.49430 1400.98840  478.56920  -14.49090    0.02730    0.01650    0.00520    7.82600    3.87430    2.66580   53.05360   90.02480
 7139.00000   29.95710  619.31460 1706.45570  434.78610  -14.11020    0.02820    0.01650    0.00510    7.82650    4.04800    2.66570   52.60920   90.02480
 7139.50000   30.57340  605.03530 1943.47080  469.84630  -13.86660    0.03200    0.01660    0.00410    7.82690    3.99030    2.66060   52.39690   90.53360
 7140.00000   32.78560  565.72010 1799.04720  509.89940  -13.73950    0.03390    0.01650    0.00140    7.82560    3.91490    2.65620   52.31660   91.43530
 7140.50000   36.61290  528.95970 1668.09080  467.83020  -13.99170    0.02940    0.01620    0.00150    7.82340    3.90960    2.66260   52.58070   92.39800
 7141.00000   37.28490  511.02090 1770.69850  400.29710  -14.20220    0.02440    0.01590    0.00190    7.82130    3.92030    2.67280   52.91490   92.89060
 7141.50000   35.70480  502.70920 1894.99740  374.09760  -14.55010    0.02070    0.01520    0.00090    7.81910    3.91470    2.67650   53.22920   93.03810
 7142.00000   32.73340  496.59220 1962.57890  463.67890  -14.94760    0.02260    0.01440    0.00030    7.81770    3.95920    2.67340   53.45290   93.10640
 7142.50000   31.02330  490.54980 2013.75370  650.69270  -15.33250    0.02590    0.01410    0.00160    7.82920    4.02130    2.66880   53.20490   93.35150
 7143.00000   32.59460  494.97270 2016.06210  685.80580  -15.57540    0.02890    0.01520    0.00410    7.84110    3.98320    2.66630   53.08590   93.55740
 7143.50000   31.59620  516.78940 2024.51680  662.41410  -15.44150    0.02730    0.01660    0.00740    7.85310    3.81110    2.66800   52.24210   93.25780
 7144.00000   30.73860  522.61270 1836.48060  651.13580  -14.85800    0.02360    0.01780    0.01070    7.86520    3.69740    2.67180   51.93900   93.42470
 7144.50000   30.56230  498.53260 1646.80400  675.59270  -14.31920    0.02160    0.01820    0.01110    7.87720    3.69490    2.67590   52.19300   93.94780
 7145.00000   32.75870  470.50920 1632.38350  672.63290  -13.49110    0.02070    0.01860    0.01090    7.89000    3.76740    2.67880   52.44700   93.88360
 7145.50000   35.81290  448.73520 1778.96390  641.96460  -13.30530    0.02070    0.01900    0.01060    7.91520    3.78020    2.67920   52.69690   93.88740
 7146.00000   37.27950  445.77020 1937.10420  587.80240  -13.42710    0.02230    0.01940    0.00710    7.94040    3.76280    2.67570   53.25470   93.23000
 7146.50000   37.00960  451.74060 1976.30330  536.20460  -13.54890    0.02540    0.01980    0.00230    7.96560    3.77840    2.66900   53.73470   93.08950
 7147.00000   35.34200  463.25420 1979.51970  553.04860  -13.75510    0.02870    0.01960    0.00100    7.99090    3.90440    2.66370   54.38660   93.08420
 7147.50000   33.89990  485.66820 1982.74000  633.36990  -14.09030    0.03230    0.01940    0.00020    8.00080    3.77170    2.65750   54.82180   93.17650
 7148.00000   33.65420  577.95530 1985.96670  803.25740  -14.42550    0.03680    0.01910   -0.00060    7.99660    3.42290    2.65000   54.83480   93.26710
 7148.50000   34.50900  748.25880   -9999.25 1284.18910  -14.80950    0.04110    0.01900   -0.00030    7.99500    3.20160    2.64330   53.97010   93.26010
 7149.00000   34.29760 1067.75110   -9999.25 1489.76620  -15.35120    0.03730    0.01890    0.00070    7.99350    3.46860    2.64940   53.37440   93.28010
 7149.50000   32.34590 1411.75170   -9999.25 1606.85420  -15.89300    0.03100    0.01840    0.00250    7.99190    3.83710    2.65900   52.94250   93.59960
 7150.00000   28.88770 1598.86100   -9999.25 1759.00340  -15.94660    0.02280    0.01780    0.00420    7.99040    3.99670    2.66840   52.83480   94.36200
 7150.50000   25.47480 1790.47810   -9999.25 1913.27390  -15.97380    0.02190    0.01750    0.00590    7.98880    3.92420    2.67420   53.19870   95.10980
 7151.00000   27.89740 1924.18750   -9999.25 1998.99190  -16.10280    0.02570    0.01760    0.00700    7.98850    4.04290    2.67000   53.80510   94.92920
 7151.50000   30.34440 1964.59140   -9999.25 2007.89310  -16.11970    0.02790    0.01720    0.00810    7.99090    4.27830    2.66730   53.37910   94.19460
 7152.00000   30.79960   -9999.25   -9999.25 2009.20410  -17.34930    0.02420    0.01660    0.00840    7.99330    4.38000    2.67130   52.85710   93.94830
 7152.50000   29.05610   -9999.25   -9999.25   -9999.25  -18.06560    0.01810    0.01480    0.00850    7.99570    4.35700    2.68060   52.39680   93.70990
 7153.00000   24.27700   -9999.25   -9999.25   -9999.25  -18.47670    0.01450    0.01320    0.00850    7.99810    4.29240    2.68600   51.87520   93.72340
 7153.50000   21.00130   -9999.25   -9999.25   -9999.25  -18.88780    0.01670    0.01200    0.00730    8.00050    4.11830    2.68500   51.29280   94.24450
