~Version ---------------------------------------------------
VERS.   2.0 : CWLS log ASCII Standard -VERSION 2.0
WRAP.    NO : One line per depth step
DLM . SPACE : Column Data Section Delimiter
~Well ------------------------------------------------------
STRT .F                 862.0 : START DEPTH
STOP .F                7698.0 : STOP DEPTH
STEP .F                   0.5 : STEP
NULL .               -9999.25 : NULL VALUE
COMP .                        : COMPANY
WELL .                        : WELL
FLD  .                        : FIELD
LOC  .                        : LOCATION
PROV .                        : PROVINCE
CNTY .                        : COUNTY
STAT .                        : STATE
CTRY .                        : COUNTRY
SRVC .                        : SERVICE COMPANY
DATE .                        : DATE
UWI  .                        : UNIQUE WELL ID
API  .                        : API NUMBER
SLAT .WGS84 6.723628290663207 : SURFACE LATITUDE
SLON .WGS84 3.207555967667105 : SURFACE LONGITUDE
DATUM.F                1492.0 : DEPTH DATUM ELEV
~Curve Information -----------------------------------------
DEPT   .F     : 1 MEASURED DEPTH
GRR    .GAPI  : GAMMA RAY FROM RESISTIVITY LOG
ILD    .OHMM  : INDUCTION DEEP RESISTIVITY
ILM    .OHMM  : INDUCTION MEDIUM RESISTIVITY
SFLU   .OHMM  : SHALLOW FOCUSED RESISTIVITY (UNAVERAGED)
SPR    .MV    : SPONTANEOUS POTENTIAL FROM RESISTIVITY LOG
DPHI_LS.DEC   : DENSITY POROSITY LIMESTONE
NPHI_LS.DEC   : NEUTRON POROSITY LIMESTONE
DRHO   .G/C3  : BULK DENSITY CORRECTION
CALD   .IN    : CALIPER FROM DENSITY LOG
PEF    .B/E   : PHOTOELECTRIC FACTOR
RHOB   .G/C3  : BULK DENSITY
DTCO   .US/F  : DELTA-T COMPRESSIONAL
DTSM   .US/F  : DELTA-T SHEAR
~Params ----------------------------------------------------
~Other -----------------------------------------------------
~ASCII -----------------------------------------------------
# ...
 6504.00000   45.79880    9.63150    8.05310    9.36570    2.43130    0.17980    0.15960    0.10460    9.52990    3.09770    2.41660   64.91220  115.65620
 6504.50000   42.14480    8.53520   10.07930   10.51890    1.79040    0.19540    0.12910    0.08580    9.35920    3.32900    2.38150   72.80380  121.52640
 6505.00000   37.82100    7.56360   10.43900   13.16130    1.14940    0.16540    0.09460    0.07090    9.05950    3.74840    2.42800   73.78000  120.64620
 6505.50000   34.51690    6.99610    8.52150   15.76020    0.50850    0.13350    0.11140    0.05370    8.70770    4.11300    2.49590   72.55920  119.08690
 6506.00000   33.79340    7.12710    6.47500   14.77340   -0.13240    0.13920    0.14800    0.03670    8.62400    4.00240    2.46100   69.73260  118.78410
 6506.50000   35.00310    8.41640    6.03250   12.24170   -0.24870    0.20940    0.18710    0.01810    8.57440    3.62870    2.35650   72.70460  123.30010
 6507.00000   35.81210    9.93890    7.92060   10.84460   -0.20780    0.27800    0.16140    0.00230    8.50030    3.36040    2.24070   69.51630  124.48700
 6507.50000   34.88250    9.95800   10.50430   11.48940   -0.20000    0.27140    0.12560    0.00230    8.37890    3.36520    2.26580   65.39970  122.49630
 6508.00000   32.08530    8.71600   12.65190   15.18760   -0.13670    0.21080    0.08450    0.01830    8.28430    3.82350    2.35640   61.28510  121.70000
 6508.50000   31.93600    7.68120   10.31990   23.29940    0.08220    0.13110    0.07210    0.03410    8.22620    4.35150    2.50030   59.97200  125.12270
 6509.00000   37.23840    6.85180    7.65550   25.57750    0.77810    0.10350    0.09480    0.04300    8.23930    4.61050    2.54140   60.71250  126.66890
 6509.50000   46.02090    6.71510    5.66800   20.96640    1.45280    0.15870    0.14320    0.05390    8.35400    4.24860    2.42930   61.59610  125.58480
 6510.00000   53.82090    6.67390    4.51580   12.17490    2.01450    0.25160    0.19920    0.06650    8.59230    3.78920    2.23080   62.66370  126.60360
 6510.50000   53.60460    6.59750    4.93610    8.05960    2.41630    0.29930    0.23170    0.06720    8.81440    3.37460    2.15070   68.17960  136.21300
 6511.00000   51.32170    6.19460    5.89630    7.39050    2.11630    0.30030    0.20770    0.08260    8.75200    2.86660    2.13090   71.39620  141.97220
 6511.50000   55.67790    5.89180    5.36930    8.71880    1.81630    0.30030    0.20130    0.10590    8.72390    2.39320    2.12730   72.56050  140.11290
 6512.00000   64.32110    5.91630    4.84570   10.01530    1.51630    0.30040    0.23680    0.09130    9.14910    1.99170    2.04710   74.08860  133.26070
 6512.50000   70.31610    6.93600    7.28990    9.95760    1.28040    0.30050    0.24820    0.05310    9.33190    2.07850    2.00200   76.99980  126.15850
 6513.00000   68.36190    8.17560   12.03100   10.08960    1.26950    0.30050    0.18920    0.02760    8.76470    2.81720    2.00200   76.78040  118.76080
 6513.50000   63.83200    9.60500   19.34510   13.81010    1.25860    0.29670    0.12830    0.03420    8.18540    3.74380    2.15410   72.45200  111.10010
 6514.00000   61.10560   11.87420   19.44590   23.11010    1.24770    0.17980    0.08520    0.05230    8.07410    4.03080    2.44370   66.73440  105.82280
 6514.50000   60.76790   14.61350   19.41120   36.48560    1.34810    0.09510    0.07040    0.05800    8.10010    3.91970    2.57020   61.09190  101.81940
 6515.00000   60.77020   17.48550   19.83860   41.75760    1.34810    0.07940    0.07170    0.04330    8.14700    3.86950    2.58010   58.91050  103.01540
 6515.50000   59.87650   20.92180   21.33770   42.62280    1.31690    0.07240    0.07970    0.04330    8.19120    3.83720    2.58910   59.49710  104.71290
 6516.00000   55.94680   22.95190   20.10940   37.75180    1.21010    0.06500    0.09170    0.04260    8.18580    3.65750    2.60360   60.70190  105.80630
 6516.50000   53.13130   22.94950   18.07070   31.69890    1.10330    0.06040    0.10390    0.03910    8.17660    3.43230    2.60960   61.90320  108.05600
 6517.00000   50.63410   21.24860   17.79060   22.55460    0.99650    0.06680    0.10800    0.03460    8.11430    3.21210    2.59750   63.54520  112.88630
 6517.50000   49.34000   19.53930   18.14690   17.45260    0.88970    0.07640    0.10580    0.02970    8.09110    3.07880    2.58240   66.28770  117.48250
 6518.00000   49.93300   17.96750   18.11760   16.57700    0.78290    0.08260    0.09940    0.02940    8.09270    2.94550    2.57200   68.54450  121.56360
 6518.50000   51.00800   16.52210   17.76480   18.82950    0.69120    0.08350    0.08900    0.02810    8.11680    2.90130    2.57140   68.81140  123.92190
 6519.00000   50.89160   14.98140   17.41900   22.25450    0.94990    0.08170    0.08210    0.02310    8.14980    3.07510    2.57430   68.32240  123.89140
 6519.50000   49.68790   12.48640   16.76440   23.82940    1.48520    0.07290    0.07870    0.02110    8.18830    3.36470    2.59140   67.93530  124.49630
 6520.00000   48.55310   10.14290   13.64120   24.27020    2.02050    0.05420    0.08820    0.03090    8.21090    3.74320    2.61580   69.03740  127.83630
 6520.50000   50.15960    8.51260    8.75150   21.64060    2.97330    0.06020    0.10540    0.04840    8.24940    3.84770    2.62060   71.90770  135.87360
 6521.00000   54.14000    7.14440    6.68370   16.79650    3.66680    0.10110    0.17990    0.06480    8.44730    3.57450    2.51910   75.33790  143.24370
 6521.50000   61.83660    6.75110    5.13330   11.13160    3.95870    0.21910    0.26280    0.06840    8.98370    3.07010    2.31590   76.07280  142.64530
 6522.00000   69.33000    7.03560    4.67500    7.13650    3.83170    0.30000    0.29350    0.04890    9.52290    2.56710    2.10580   71.83360  134.03610
 6522.50000   69.97010    7.53200    6.93960    5.54000    3.70460    0.30030    0.30110    0.03230    9.68520    2.57260    1.99910   66.46040  122.75180
 6523.00000   58.26030    7.83060   12.01090    6.49260    3.56000    0.30060    0.18150    0.01940    8.84170    2.94330    2.00020   60.27940  110.38450
 6523.50000   42.40800    7.94340   15.65540   12.76550    3.04050    0.28440    0.09240    0.01380    8.20830    3.98670    2.19260   53.83270  100.06610
 6524.00000   30.26530    8.33610   17.44500   44.52580    2.52110    0.17880    0.02730    0.01220    7.89320    4.75630    2.47390   50.05540   91.28350
 6524.50000   26.97270   10.30670   17.49100  134.90250    2.00160    0.04440    0.02360    0.01030    7.81090    4.76350    2.65320   51.87930   95.15500
 6525.00000   28.58140   14.50390   18.07530  161.32120    1.59780    0.02560    0.03620    0.00890    7.78020    4.54010    2.66770   55.67420  101.96440
 6525.50000   33.94620   23.85650   21.90700  104.00820    1.43810    0.03190    0.05140    0.01130    7.78040    4.18280    2.66190   56.72820  103.63450
 6526.00000   43.71220   40.12640   26.90630   60.93740    1.33140    0.03850    0.07710    0.01750    7.80250    3.60540    2.64900   55.68200  101.75130
 6526.50000   53.30940   47.95670   29.91740   37.76400    1.15400    0.05250    0.08630    0.02220    7.84610    3.15190    2.62820   58.94420  103.63410
 6527.00000   57.16070   45.42810   33.26550   31.35980    0.74480    0.07380    0.08660    0.01980    7.90280    2.74240    2.59180   64.06140  107.48080
 6527.50000   52.86450   38.55680   36.98820   40.25900    0.31350    0.08710    0.08410    0.01530    7.95600    2.65800    2.56270   65.53940  109.91240
 6528.00000   49.24510   32.87860   37.94000   52.24360   -0.80060    0.09890    0.08630    0.01090    7.96200    2.64940    2.54770   64.65180  107.50140
 6528.50000   50.46130   29.72460   36.96440   56.07850   -1.24350    0.10760    0.09530    0.00920    7.96470    2.72860    2.53440   64.32800  109.12650
 6529.00000   58.98660   24.92390   34.83010   56.22050   -1.79070    0.11510    0.09920    0.00830    7.90310    2.78890    2.51910   64.97530  109.20850
 6529.50000   66.27770   19.57600   32.22180   51.17490   -1.98050    0.12180    0.09770    0.00430    7.87550    2.78810    2.50980   65.75020  108.10960
