~Version ---------------------------------------------------
VERS.   2.0 : CWLS log ASCII Standard -VERSION 2.0
WRAP.    NO : One line per depth step
DLM . SPACE : Column Data Section Delimiter
~Well ------------------------------------------------------
STRT .F                 862.0 : START DEPTH
STOP .F                7698.0 : STOP DEPTH
STEP .F                   0.5 : STEP
NULL .               -9999.25 : NULL VALUE
COMP .                        : COMPANY
WELL .                        : WELL
FLD  .                        : FIELD
LOC  .                        : LOCATION
PROV .                        : PROVINCE
CNTY .                        : COUNTY
STAT .                        : STATE
CTRY .                        : COUNTRY
SRVC .                        : SERVICE COMPANY
DATE .                        : DATE
UWI  .                        : UNIQUE WELL ID
API  .                        : API NUMBER
SLAT .WGS84 6.723628290663207 : SURFACE LATITUDE
SLON .WGS84 3.207555967667105 : SURFACE LONGITUDE
DATUM.F                1492.0 : DEPTH DATUM ELEV
~Curve Information -----------------------------------------
DEPT   .F     : 1 MEASURED DEPTH
GRR    .GAPI  : GAMMA RAY FROM RESISTIVITY LOG
ILD    .OHMM  : INDUCTION DEEP RESISTIVITY
ILM    .OHMM  : INDUCTION MEDIUM RESISTIVITY
SFLU   .OHMM  : SHALLOW FOCUSED RESISTIVITY (UNAVERAGED)
SPR    .MV    : SPONTANEOUS POTENTIAL FROM RESISTIVITY LOG
DPHI_LS.DEC   : DENSITY POROSITY LIMESTONE
NPHI_LS.DEC   : NEUTRON POROSITY LIMESTONE
DRHO   .G/C3  : BULK DENSITY CORRECTION
CALD   .IN    : CALIPER FROM DENSITY LOG
PEF    .B/E   : PHOTOELECTRIC FACTOR
RHOB   .G/C3  : BULK DENSITY
DTCO   .US/F  : DELTA-T COMPRESSIONAL
DTSM   .US/F  : DELTA-T SHEAR
~Params ----------------------------------------------------
~Other -----------------------------------------------------
~ASCII -----------------------------------------------------
# ...
 6270.00000  107.02700    3.28210    3.40210    4.00140    1.61200    0.10600    0.30060    0.14200   10.33220    2.97550    2.53720   84.08520  173.34720
 6270.50000  110.59920    3.20850    3.29960    3.84600    1.49730    0.11150    0.30940    0.13370   10.32410    2.97260    2.52610   87.39890  179.51110
 6271.00000  113.45700    3.21130    3.29280    3.84690    1.38430    0.11840    0.31620    0.13650   10.17440    2.86040    2.51780   91.28120  163.26430
 6271.50000  115.42850    3.34640    3.34690    3.84780    1.27530    0.15140    0.29090    0.14030    9.83660    2.70260    2.48530   95.05410  139.24320
 6272.00000  110.32230    3.53820    3.65330    3.95200    1.16620    0.21000    0.25380    0.12490    9.44570    2.56850    2.39590   95.98530  121.97620
 6272.50000   99.30850    3.76710    4.12550    4.34820    1.05720    0.24130    0.19900    0.08880    8.97280    2.72370    2.29180   91.92120  119.15980
 6273.00000   88.00550    3.89720    4.76970    5.11660    0.94810    0.20100    0.17080    0.05670    8.41950    3.17610    2.32130   85.49230  119.45970
 6273.50000   83.82820    3.96670    4.89610    6.57110    0.63790    0.14380    0.18120    0.06370    8.15380    3.54470    2.44610   80.49090  119.33080
 6274.00000   82.50270    3.98950    4.33810    7.50120    0.17140    0.11340    0.22320    0.07470    8.15050    3.34130    2.52390   78.58300  117.16740
 6274.50000   85.52090    3.96690    4.12860    6.53640   -0.29510    0.13870    0.25320    0.08000    8.72280    3.06280    2.48400   74.86430  112.30400
 6275.00000   90.34510    3.76310    3.97650    5.46900   -0.56150    0.15440    0.26900    0.09500    9.30100    2.91490    2.44930   71.57500  110.15070
 6275.50000   97.12410    3.58770    3.78080    4.60550   -0.58210    0.13820    0.27290    0.11780    9.67660    2.92830    2.47400   72.03110  117.79040
 6276.00000  103.26230    3.43430    3.59120    4.05700   -0.50670    0.12570    0.27050    0.14090    9.94030    2.95440    2.50180   75.25730  128.61520
 6276.50000  105.12850    3.28760    3.41100    3.74720   -0.18390    0.13560    0.26790    0.13900   10.03270    2.91360    2.48400   80.51050  150.13940
 6277.00000  102.79720    3.14710    3.24520    3.51320   -0.05350    0.14720    0.27000    0.13120   10.07730    2.87740    2.46310   83.28140  160.54300
 6277.50000  100.95470    3.00690    3.10700    3.40480    0.09540    0.14200    0.27430    0.12900   10.07900    2.88710    2.46690   85.67660  161.80670
 6278.00000  101.59890    2.85070    2.99780    3.39800    0.21780    0.12970    0.27740    0.13630   10.08820    2.88630    2.48690   87.67680  160.19400
 6278.50000  103.50350    2.81270    3.03260    3.45940    1.58160    0.12170    0.27680    0.13610   10.09740    2.87670    2.50340   89.92440  158.84900
 6279.00000  105.07320    2.97010    3.09380    3.56560    2.30090    0.12050    0.27840    0.12950   10.11020    2.86440    2.50810   91.84320  145.64130
 6279.50000  105.81890    3.08320    3.24060    3.66190    2.08100    0.11460    0.27740    0.12750   10.00560    2.88350    2.51830   91.88990  126.95740
 6280.00000  101.73550    3.19270    3.51070    3.77010    1.86160    0.11300    0.25850    0.12710    9.66660    2.96880    2.52280   94.13660  114.61770
 6280.50000   93.17830    3.24920    3.81420    4.12000    1.57870    0.12630    0.23850    0.11760    9.13580    3.08240    2.49730   95.86530  114.05450
 6281.00000   84.12770    3.17910    3.98440    4.81390    0.99660    0.14020    0.21710    0.10110    8.73360    3.14810    2.47130   98.76930  114.00490
 6281.50000   78.10030    2.99710    3.75310    5.80260    0.37290    0.15040    0.24310    0.10420    8.55590    2.99740    2.45170   94.65940  114.17630
 6282.00000   79.44680    2.82640    3.20240    6.14470   -0.25080    0.18910    0.27520    0.10100    8.87840    2.80960    2.38370   84.19420  113.17880
 6282.50000   85.29270    2.75010    2.71690    5.34350   -0.37000    0.26190    0.32710    0.08250    9.31860    2.65970    2.25880   73.74170  107.01000
 6283.00000   92.51460    2.67590    2.40900    3.70990   -0.04870    0.28950    0.34040    0.08120    9.52670    2.62960    2.21600   66.32720   93.93690
 6283.50000   97.06100    2.60580    2.40500    2.85160    0.29700    0.26150    0.32610    0.10540    9.50590    2.74040    2.26010   59.57670   85.60640
 6284.00000   99.71160    2.50620    2.44710    2.79720    0.54110    0.23520    0.30920    0.12550    9.12700    2.91500    2.31050   54.76140   83.00560
 6284.50000  100.70670    2.34190    2.49330    3.15970    0.94420    0.22380    0.32060    0.14380    8.77070    3.07960    2.32970   52.18870   84.43020
 6285.00000  102.88600    2.31920    2.53330    3.37720    1.02160    0.21300    0.35080    0.16440    8.67430    3.18810    2.35160   51.76350   86.91760
 6285.50000  105.91620    2.53210    2.62810    3.38040    0.48790    0.19290    0.39600    0.18250    8.76440    3.04740    2.37940   52.24230   86.87490
 6286.00000  107.03780    2.92700    3.07090    3.57280   -0.04580    0.20340    0.46220    0.18610    8.76640    2.81790    2.35680   53.70500   86.41500
 6286.50000  100.99110    3.48610    3.95110    4.51840   -0.57950    0.25040    0.50150    0.15180    8.53890    2.70500    2.27200   55.92910   86.30000
 6287.00000   87.43060    4.18470    5.19970    6.44970   -1.14920    0.29600    0.42340    0.11510    8.30310    2.73780    2.21110   58.15310   89.39900
 6287.50000   69.75880    5.22560    7.13910    9.38340   -1.74630    0.26490    0.30780    0.07240    8.05480    3.16490    2.25200   60.37680   90.92710
 6288.00000   53.15660    6.73560   10.12330   14.28390   -2.64650    0.12110    0.19220    0.05990    7.89350    3.87840    2.40810   60.91010   90.21510
 6288.50000   45.56360    9.21310   15.30880   26.32480   -2.94540    0.05190    0.08840    0.04730    7.84950    4.45780    2.59140   58.77860   90.12010
 6289.00000   42.61300   13.55350   21.97760   65.27620   -2.91720    0.02530    0.03360    0.02720    7.82570    4.75940    2.67210   55.75660   91.11120
 6289.50000   41.79950   22.21590   32.88970  177.08820   -2.99180    0.01340    0.01510    0.01370    7.80890    4.99590    2.68920   52.56540   92.15900
 6290.00000   41.07180   34.04600   58.38030  719.13720   -2.90980    0.00880    0.01210    0.01100    7.80850    5.21740    2.69870   52.94670   95.94880
 6290.50000   40.71300   52.37500  120.28040 1310.75930   -2.84970    0.00780    0.01160    0.01100    7.80660    5.41270    2.69990   56.92890  103.03320
 6291.00000   44.83950   87.54360  233.01210 1593.67490   -2.93440    0.00670    0.01180    0.01230    7.80460    5.53980    2.70130   57.32540  103.90230
 6291.50000   54.53130  142.96460  305.71030 1312.79080   -3.49130    0.00270    0.01330    0.01520    7.81070    5.65980    2.70840   55.01670  103.23910
 6292.00000   65.56420  170.61120  375.15490  743.57420   -4.04820   -0.00020    0.01620    0.01680    7.82310    5.57980    2.70960   54.10640  101.48960
 6292.50000   72.59870  109.88630  386.64190  221.44560   -4.99180    0.00310    0.01970    0.01600    7.82480    5.34180    2.70610   53.21650   98.83660
 6293.00000   68.40270   49.39030  265.50250  104.74170   -5.88950    0.00710    0.02380    0.01500    7.82040    5.13880    2.70300   50.28950   96.20450
 6293.50000   60.72690   22.14090   88.33890   81.10180   -5.82430    0.00930    0.03480    0.02330    7.84850    4.80190    2.69840   50.19450   96.70120
 6294.00000   55.49600   10.26950   22.74350   67.24760   -5.43300    0.05070    0.09570    0.04250    7.96440    4.24610    2.63570   51.70020   99.24600
 6294.50000   68.17300    5.26230    7.80360   40.29180   -4.28230    0.12100    0.17830    0.06240    8.22760    3.42590    2.49210   57.79220  105.55150
 6295.00000   90.49120    3.83660    4.05000   10.80410   -2.81240    0.20420    0.25900    0.07440    8.60050    2.97090    2.34950   71.36120  112.82330
 6295.50000  117.65490    3.43850    2.42810    3.92760   -1.28730    0.25790    0.33020    0.09260    9.02090    2.60200    2.25550   90.60720  123.83510
