~Version ---------------------------------------------------
VERS.   2.0 : CWLS log ASCII Standard -VERSION 2.0
WRAP.    NO : One line per depth step
DLM . SPACE : Column Data Section Delimiter
~Well ------------------------------------------------------
STRT .F                 862.0 : START DEPTH
STOP .F                7698.0 : STOP DEPTH
STEP .F                   0.5 : STEP
NULL .               -9999.25 : NULL VALUE
COMP .                        : COMPANY
WELL .                        : WELL
FLD  .                        : FIELD
LOC  .                        : LOCATION
PROV .                        : PROVINCE
CNTY .                        : COUNTY
STAT .                        : STATE
CTRY .                        : COUNTRY
SRVC .                        : SERVICE COMPANY
DATE .                        : DATE
UWI  .                        : UNIQUE WELL ID
API  .                        : API NUMBER
SLAT .WGS84 6.723628290663207 : SURFACE LATITUDE
SLON .WGS84 3.207555967667105 : SURFACE LONGITUDE
DATUM.F                1492.0 : DEPTH DATUM ELEV
~Curve Information -----------------------------------------
DEPT   .F     : 1 MEASURED DEPTH
GRR    .GAPI  : GAMMA RAY FROM RESISTIVITY LOG
ILD    .OHMM  : INDUCTION DEEP RESISTIVITY
ILM    .OHMM  : INDUCTION MEDIUM RESISTIVITY
SFLU   .OHMM  : SHALLOW FOCUSED RESISTIVITY (UNAVERAGED)
SPR    .MV    : SPONTANEOUS POTENTIAL FROM RESISTIVITY LOG
DPHI_LS.DEC   : DENSITY POROSITY LIMESTONE
NPHI_LS.DEC   : NEUTRON POROSITY LIMESTONE
DRHO   .G/C3  : BULK DENSITY CORRECTION
CALD   .IN    : CALIPER FROM DENSITY LOG
PEF    .B/E   : PHOTOELECTRIC FACTOR
RHOB   .G/C3  : BULK DENSITY
DTCO   .US/F  : DELTA-T COMPRESSIONAL
DTSM   .US/F  : DELTA-T SHEAR
~Params ----------------------------------------------------
~Other -----------------------------------------------------
~ASCII -----------------------------------------------------
# ...
 7024.00000   12.10160 1951.07360 1901.90620   -9999.25  -20.84490    0.00010    0.00650    0.00280    8.56600    5.15270    2.71260   48.68270   94.12870
 7024.50000   11.01040 1951.86220 1899.58350   -9999.25  -20.58870    0.00390    0.00690    0.00180    8.55870    5.31720    2.70760   48.70370   94.19630
 7025.00000   11.13230 1968.07820 1927.56130   -9999.25  -20.33260    0.00900    0.00710    0.00070    8.55060    5.10300    2.69940   48.73210   94.26400
 7025.50000   12.06410 1990.51940 1955.50990   -9999.25  -20.07650    0.01160    0.00690    0.00040    8.56440    4.83150    2.69420   48.79940   94.33160
 7026.00000   13.30480 2023.02030 1983.86360   -9999.25  -19.82040    0.00850    0.00620    0.00040    8.55880    4.63550    2.69920   48.86680   94.39930
 7026.50000   14.29220 2029.42860 1984.69260   -9999.25  -19.63790    0.00220    0.00550    0.00110    8.55900    4.67130    2.71110   49.00550   94.46690
 7027.00000   14.34110 2007.65490 1979.26210   -9999.25  -19.65270   -0.00570    0.00530    0.00290    8.55930    4.86140    2.72340   49.38900   94.72980
 7027.50000   13.85480 1985.81410 1897.92410   -9999.25  -19.69300   -0.00610    0.00520    0.00060    8.56410    5.04190    2.72280   49.15480   94.60120
 7028.00000   13.02990 1996.47060 1895.58740   -9999.25  -19.88420    0.00030    0.00550    0.00260    8.55920    5.05530    2.71280   48.69470   94.47060
 7028.50000   12.20490 2014.26890 1951.23970   -9999.25  -20.02630    0.00750    0.00580    0.00290    8.56020    4.98560    2.70270   49.32260   94.33990
 7029.00000   11.38040 2032.22460 2023.48900   -9999.25  -20.19850    0.00580    0.00570    0.00050    8.55910    4.99630    2.70120   49.48900   94.20930
 7029.50000   10.84000 2058.66870 2030.38240   -9999.25  -20.38350    0.00380    0.00480    0.00080    8.55960    5.23400    2.70390   49.48090   94.07870
 7030.00000   10.94940   -9999.25 2018.19930   -9999.25  -20.21700    0.00790    0.00410    0.00140    8.54900    5.45530    2.69880   49.47280   93.99340
 7030.50000   11.44420   -9999.25   -9999.25   -9999.25  -19.81290    0.01300    0.00410    0.00150    8.55080    5.34620    2.69250   49.46470   93.98440
 7031.00000   11.45600   -9999.25   -9999.25   -9999.25  -19.40890    0.01560    0.00430    0.00050    8.55640    5.12420    2.68790   49.45660   93.97640
 7031.50000   11.23890   -9999.25   -9999.25   -9999.25  -19.11830    0.01550    0.00460    0.00040    8.55940    4.97830    2.68810   49.47150   93.96850
 7032.00000   11.02190   -9999.25   -9999.25   -9999.25  -18.86050    0.01380    0.00490    0.00170    8.55360    5.03310    2.69120   49.46350   93.96050
 7032.50000   10.49120   -9999.25   -9999.25   -9999.25  -18.60280    0.01110    0.00520    0.00440    8.52360    5.16590    2.69600   49.45560   93.98760
 7033.00000    9.64750   -9999.25   -9999.25   -9999.25  -18.34500    0.00580    0.00540    0.00710    8.49180    5.13130    2.70480   49.44770   94.07820
 7033.50000    8.71320   -9999.25   -9999.25   -9999.25  -18.31050    0.00110    0.00570    0.01040    8.45990    4.91490    2.71210   49.41380   94.31100
 7034.00000   10.65020   -9999.25   -9999.25   -9999.25  -18.49300   -0.00080    0.00590    0.01100    8.42380    4.75250    2.71280   49.32670   94.02790
 7034.50000   11.20900   -9999.25   -9999.25   -9999.25  -18.88680   -0.00080    0.00620    0.00940    8.39370    4.74410    2.71310   49.26760   93.44230
 7035.00000   10.39550   -9999.25   -9999.25   -9999.25  -19.39120    0.00220    0.00620    0.00840    8.39080    4.72700    2.71080   49.20360   93.17470
 7035.50000    9.96170   -9999.25   -9999.25   -9999.25  -19.89560    0.00590    0.00620    0.00640    8.38240    4.67200    2.70330   49.20300   93.11980
 7036.00000   11.17820   -9999.25   -9999.25   -9999.25  -19.80340    0.00830    0.00620    0.00380    8.37390    4.66840    2.70050   49.41590   93.10360
 7036.50000   13.27140   -9999.25   -9999.25   -9999.25  -19.46040    0.00660    0.00630    0.00360    8.36990    4.75380    2.70290   49.64030   93.11710
 7037.00000   14.09670 2065.30910 2016.37990   -9999.25  -19.11740    0.00430    0.00640    0.00410    8.37100    4.76390    2.70550   50.05410   93.23550
 7037.50000   11.10280 2052.87350 2015.32960   -9999.25  -18.77440    0.00570    0.00640    0.00340    8.36990    4.74410    2.70520   50.39850   93.26600
 7038.00000    8.28670 2040.51180 1981.74540   -9999.25  -18.43140    0.00640    0.00620    0.00210    8.37050    4.86700    2.70400   50.23340   93.36110
 7038.50000    7.31560 2028.12990 1954.21560   -9999.25  -18.91230    0.00570    0.00610    0.00070    8.38690    5.14130    2.70260   49.77670   93.62340
 7039.00000    8.71750 2015.72790 1951.32210   -9999.25  -19.54820    0.00660    0.00610   -0.00070    8.38670    5.36490    2.70050   49.50910   93.95760
 7039.50000   11.31210 2003.40190 1964.52250   -9999.25  -20.16730    0.01030    0.00660   -0.00190    8.34750    5.13790    2.69750   49.78880   94.13240
 7040.00000   14.26780 2022.54050 1981.21890   -9999.25  -20.31430    0.01310    0.00750   -0.00110    8.30880    4.76340    2.69370   50.23150   94.12860
 7040.50000   15.59660 2055.14790 2005.89110   -9999.25  -20.64170    0.01240    0.00820    0.00050    8.27010    4.48310    2.69450   50.56540   94.08160
 7041.00000   15.08000 2062.09250 2012.87050   -9999.25  -20.90200    0.00660    0.00850    0.00260    8.23140    4.58290    2.70340   50.68970   93.72720
 7041.50000   13.13410 2056.03830 2017.05410   -9999.25  -20.93560    0.00080    0.00820    0.00380    8.21030    4.81830    2.71370   50.76170   93.42650
 7042.00000   11.70170 2047.75440 2014.62610   -9999.25  -20.88710   -0.00470    0.00770    0.00410    8.20810    4.85340    2.72150   50.82770   93.31810
 7042.50000   12.86300 2044.29370 2000.02710   -9999.25  -20.33200   -0.00350    0.00730    0.00270    8.20090    4.83190    2.71790   50.84640   93.20400
 7043.00000   14.66000 2042.90040 1984.06410   -9999.25  -19.77680   -0.00050    0.00690    0.00090    8.20090    4.85920    2.71330   50.76340   93.09220
 7043.50000   14.28170 2042.01450 1993.27390   -9999.25  -19.22170    0.00120    0.00670    0.00020    8.20360    4.87870    2.71090   50.22120   93.07300
 7044.00000   12.60060 2041.12920 2000.20280   -9999.25  -19.04490    0.00350    0.00680    0.00060    8.16260    4.84690    2.70660   49.91380   93.36160
 7044.50000   10.92210 2040.70010 1998.51140   -9999.25  -19.07670    0.00700    0.00720    0.00110    8.11210    4.78650    2.70220   50.21350   94.07200
 7045.00000   10.76270 2041.60420 1986.46500   -9999.25  -19.10850    0.00830    0.00770    0.00180    8.04840    4.76720    2.70130   50.22070   94.20680
 7045.50000   11.34680 2042.50900 1921.68140   -9999.25  -19.14030    0.00840    0.00830    0.00370    8.02280    4.72900    2.70110   49.91910   94.22320
 7046.00000   11.93080 2043.41410 1946.58450   -9999.25  -19.17210    0.00740    0.00860    0.00600    8.00020    4.70660    2.70280   49.85480   94.21320
 7046.50000   12.27860 2044.31960 1982.89890   -9999.25  -19.16920    0.00500    0.00890    0.00830    7.99630    4.70860    2.70600   50.03050   94.20330
 7047.00000   12.28010 2045.22660 1990.52920   -9999.25  -19.11910    0.00250    0.00920    0.00950    7.99790    4.65040    2.71110   50.65460   94.15390
 7047.50000   11.31340 2046.13280 1958.98580   -9999.25  -19.06900    0.00100    0.00940    0.01000    7.99400    4.51970    2.71280   51.25760   93.87740
 7048.00000    9.92070 2033.54040 1928.57950   -9999.25  -19.01880    0.00110    0.00950    0.01070    7.95390    4.37770    2.71150   51.32800   93.55450
 7048.50000    9.07430 2015.94480 1930.58150   -9999.25  -18.84570    0.00430    0.00960    0.00890    7.91990    4.42560    2.70450   51.30350   93.23210
 7049.00000   10.41010 1998.50150 1951.35860   -9999.25  -18.71150    0.00900    0.00960    0.00670    7.88600    4.38620    2.69790   51.06160   93.01040
 7049.50000   12.05800 1981.21020 1942.02150   -9999.25  -18.78930    0.01570    0.00970    0.00460    7.85200    4.07910    2.68770   50.81970   92.98760
