~Version ---------------------------------------------------
VERS.   2.0 : CWLS log ASCII Standard -VERSION 2.0
WRAP.    NO : One line per depth step
DLM . SPACE : Column Data Section Delimiter
~Well ------------------------------------------------------
STRT .F                 862.0 : START DEPTH
STOP .F                7698.0 : STOP DEPTH
STEP .F                   0.5 : STEP
NULL .               -9999.25 : NULL VALUE
COMP .                        : COMPANY
WELL .                        : WELL
FLD  .                        : FIELD
LOC  .                        : LOCATION
PROV .                        : PROVINCE
CNTY .                        : COUNTY
STAT .                        : STATE
CTRY .                        : COUNTRY
SRVC .                        : SERVICE COMPANY
DATE .                        : DATE
UWI  .                        : UNIQUE WELL ID
API  .                        : API NUMBER
SLAT .WGS84 6.723628290663207 : SURFACE LATITUDE
SLON .WGS84 3.207555967667105 : SURFACE LONGITUDE
DATUM.F                1492.0 : DEPTH DATUM ELEV
~Curve Information -----------------------------------------
DEPT   .F     : 1 MEASURED DEPTH
GRR    .GAPI  : GAMMA RAY FROM RESISTIVITY LOG
ILD    .OHMM  : INDUCTION DEEP RESISTIVITY
ILM    .OHMM  : INDUCTION MEDIUM RESISTIVITY
SFLU   .OHMM  : SHALLOW FOCUSED RESISTIVITY (UNAVERAGED)
SPR    .MV    : SPONTANEOUS POTENTIAL FROM RESISTIVITY LOG
DPHI_LS.DEC   : DENSITY POROSITY LIMESTONE
NPHI_LS.DEC   : NEUTRON POROSITY LIMESTONE
DRHO   .G/C3  : BULK DENSITY CORRECTION
CALD   .IN    : CALIPER FROM DENSITY LOG
PEF    .B/E   : PHOTOELECTRIC FACTOR
RHOB   .G/C3  : BULK DENSITY
DTCO   .US/F  : DELTA-T COMPRESSIONAL
DTSM   .US/F  : DELTA-T SHEAR
~Params ----------------------------------------------------
~Other -----------------------------------------------------
~ASCII -----------------------------------------------------
# ...
 6816.00000   58.29530    4.93890    5.90570   17.20750    3.70360    0.20500    0.04250    0.03100    8.41320    3.49490    2.32480   63.38460   99.11670
 6816.50000   49.84440    7.07900    8.68840   62.08540    3.64790    0.06370    0.02520    0.03390    8.22710    3.76660    2.60710   61.85610   95.19270
 6817.00000   46.26740   12.67940   15.26910  159.19510    3.08840    0.04230    0.02020    0.01650    8.18760    3.79820    2.64070   59.64540   94.69450
 6817.50000   48.81790   22.20940   28.42900  174.38360    2.03080    0.04890    0.02430    0.00740    8.14640    3.79510    2.63020   57.87750   94.90540
 6818.00000   51.70880   32.81740   53.19110   99.48590    0.97330    0.05310    0.03490    0.00400    8.06280    3.64830    2.62510   58.91240   96.01340
 6818.50000   47.04560   46.69280   80.55510   50.96630   -0.08420    0.05780    0.04130    0.00230    8.00180    3.42420    2.61480   60.69340  102.12940
 6819.00000   39.75530   58.82660   75.32580   37.82250   -1.14170    0.06300    0.04400    0.00160    8.00130    3.23910    2.60460   62.47440  105.63190
 6819.50000   36.05430   48.40010   62.70120   38.93960   -3.33650    0.06630    0.04340    0.00200    7.99900    3.08180    2.59980   63.00260  107.31140
 6820.00000   36.16650   30.71660   52.70750   46.76320   -5.21490    0.07040    0.04660    0.00250    7.99930    2.95350    2.59180   63.74750  108.59690
 6820.50000   39.00220   24.20910   45.17880   50.37240   -6.72410    0.07850    0.05140    0.00310    7.99930    2.83710    2.57600   64.55910  108.97710
 6821.00000   42.69550   23.89550   42.57640   48.21290   -8.23340    0.08870    0.05600    0.00360    7.99920    2.78840    2.56120   65.75160  108.94320
 6821.50000   44.50350   24.56750   43.85550   46.42290   -9.72250    0.09320    0.05770    0.00410    7.99910    2.74610    2.55320   66.53900  108.23970
 6822.00000   46.30170   25.05310   41.65140   46.88690  -10.20610    0.09080    0.05840    0.00470    7.99900    2.70240    2.55980   66.78310  108.28210
 6822.50000   49.60630   24.97600   35.78960   47.68780  -10.75070    0.08800    0.05900    0.00530    7.99900    2.64450    2.56190   66.84810  108.55730
 6823.00000   52.73700   24.61250   31.09570   48.09220  -11.29530    0.08970    0.06020    0.00590    7.99890    2.52130    2.55860   66.35190  108.09480
 6823.50000   50.52460   24.08870   28.21030   47.43330  -11.82800    0.09270    0.06040    0.00650    7.99880    2.44300    2.55290   65.66330  106.95510
 6824.00000   45.75970   24.34730   29.14280   45.51220  -12.27900    0.09500    0.05960    0.00610    7.99870    2.43260    2.55120   65.51540  105.77260
 6824.50000   41.32050   25.34880   30.47190   45.22090  -12.37970    0.09520    0.05530    0.00490    7.99860    2.44380    2.55100   66.57470  105.96700
 6825.00000   41.01330   27.39700   33.34870   48.09850  -12.48040    0.09490    0.04910    0.00400    7.99850    2.48920    2.55350   67.16030  108.47850
 6825.50000   40.97740   29.60150   37.60620   52.39000  -12.44850    0.09110    0.04190    0.00420    7.99840    2.55090    2.55840   65.07920  108.41170
 6826.00000   39.83410   32.53230   42.28070   61.15380  -11.89070    0.07960    0.03300    0.00720    7.99900    2.81200    2.57920   62.97180  106.08830
 6826.50000   38.36940   36.28750   47.02550   73.73640  -11.35310    0.05780    0.02570    0.01070    8.00040    3.23340    2.60900   60.73930  103.85900
 6827.00000   38.60690   38.51050   50.10650   88.53680  -10.82490    0.04070    0.02180    0.01380    8.00170    3.63020    2.64970   59.69840  103.20810
 6827.50000   38.97210   40.35810   52.07380   95.24240  -10.63060    0.02890    0.02020    0.01300    8.00310    3.69340    2.66530   58.99700  100.53940
 6828.00000   38.99660   41.34400   52.40400   93.89600  -10.63620    0.03000    0.01990    0.01000    8.00440    3.66200    2.66240   58.44280   99.45310
 6828.50000   40.98650   42.25640   51.63900   84.42940   -9.91180    0.03760    0.02070    0.00720    8.00580    3.53570    2.65060   58.61570  100.26780
 6829.00000   45.96650   42.71380   49.95620   73.15140   -9.58440    0.04340    0.02210    0.00490    8.00720    3.41100    2.63940   59.32710   99.88210
 6829.50000   53.50590   42.93660   48.81400   65.74550   -9.31940    0.04690    0.02410    0.00270    8.00850    3.34290    2.63090   59.58940   99.66770
 6830.00000   57.67650   42.15940   48.88300   62.77350   -9.17680    0.04650    0.02640    0.00230    8.00990    3.38850    2.63130   59.14630  100.12220
 6830.50000   55.50520   40.92290   49.19980   63.05620   -9.06680    0.04460    0.02920    0.00310    8.01120    3.54800    2.63650   58.75780  100.03020
 6831.00000   50.66390   38.85080   48.74670   70.43600   -9.05790    0.04500    0.03150    0.00130    8.01260    3.62010    2.63620   58.55260   99.53340
 6831.50000   45.11020   34.54350   47.44910   81.73340   -9.08770    0.04730    0.03210    0.00100    8.01400    3.55470    2.63200   57.43800   99.09380
 6832.00000   43.45500   31.00430   39.87550  101.31730   -9.04880    0.04820    0.03860    0.00880    8.01530    3.39720    2.62860   56.94300  100.61610
 6832.50000   49.90860   28.66600   31.22800   83.94360   -8.89620    0.04700    0.05540    0.01130    8.01670    3.30700    2.62900   57.21310  102.47000
 6833.00000   56.83880   27.09090   24.45590   54.90870   -8.17140    0.04080    0.07390    0.02200    8.01800    3.46680    2.63920   58.81970  104.26370
 6833.50000   57.46440   26.46080   24.21250   34.00930   -7.63020    0.03560    0.08200    0.02730    8.00220    3.72540    2.64920   60.92550  105.94100
 6834.00000   54.67990   25.97650   26.17060   31.77560   -7.21070    0.03180    0.07110    0.02860    8.00310    3.86780    2.65850   62.98210  106.82560
 6834.50000   56.40850   25.82990   26.25560   38.39970   -7.69530    0.02830    0.06180    0.02670    8.00410    3.68880    2.66480   62.10120  105.11860
 6835.00000   60.73760   25.94110   26.22770   44.89160   -8.17980    0.02570    0.05860    0.02220    8.00480    3.41730    2.66970   60.13460  102.88370
 6835.50000   61.12160   28.23500   29.54870   47.55650   -8.64490    0.02490    0.05490    0.01600    8.01240    3.25270    2.67120   58.28220  100.55350
 6836.00000   52.57600   31.80410   35.48380   52.28050   -9.03740    0.02560    0.04400    0.00990    8.01840    3.54910    2.67070   57.06270   98.57770
 6836.50000   41.44210   39.73930   43.74220   73.47190   -9.34200    0.02610    0.03280    0.00530    8.01590    3.96160    2.66920   56.11170   97.72340
 6837.00000   35.68380   49.65430   54.70390  114.71490   -9.64660    0.02680    0.02210    0.00290    8.01630    4.21470    2.66800   55.16070   97.09610
 6837.50000   35.57210   62.41120   73.39270  146.04480   -9.98000    0.02760    0.01890    0.00210    8.01670    4.15320    2.66660   54.28770   96.35220
 6838.00000   37.69790   75.84960   98.46620  162.05390  -10.37330    0.02750    0.01750    0.00480    8.01710    4.06730    2.66730   53.44180   94.54890
 6838.50000   35.39510   91.11800  137.76600  193.69010  -10.56920    0.02450    0.01630    0.01180    8.01750    4.21160    2.67210   52.77310   93.56790
 6839.00000   31.78090  107.42280  171.36730  281.30580  -10.90050    0.01900    0.01540    0.01580    8.01790    4.55810    2.67940   52.47870   94.51580
 6839.50000   28.16090  122.51540  206.11710  409.37640  -11.21540    0.01460    0.01460    0.01570    8.01830    4.86340    2.68670   52.79130   95.79590
 6840.00000   27.36210  135.57150  229.93590  489.67000  -11.42740    0.01730    0.01460    0.01260    8.01870    4.90020    2.68220   53.36750   96.89230
 6840.50000   27.01750  146.03120  253.20760  425.05900  -12.05320    0.02180    0.01530    0.01020    8.01910    4.63160    2.67520   53.94370   97.72480
 6841.00000   26.92690  149.60870  255.21940  352.35710  -12.54710    0.02450    0.01580    0.00800    8.01950    4.34740    2.67160   54.43760   98.17570
 6841.50000   27.21250  149.17560  238.05520  334.14310  -12.93840    0.02300    0.01500    0.00640    8.01990    4.24600    2.67290   54.72650   98.21040
