~Version ---------------------------------------------------
VERS.   2.0 : CWLS log ASCII Standard -VERSION 2.0
WRAP.    NO : One line per depth step
DLM . SPACE : Column Data Section Delimiter
~Well ------------------------------------------------------
STRT .F                 862.0 : START DEPTH
STOP .F                7698.0 : STOP DEPTH
STEP .F                   0.5 : STEP
NULL .               -9999.25 : NULL VALUE
COMP .                        : COMPANY
WELL .                        : WELL
FLD  .                        : FIELD
LOC  .                        : LOCATION
PROV .                        : PROVINCE
CNTY .                        : COUNTY
STAT .                        : STATE
CTRY .                        : COUNTRY
SRVC .                        : SERVICE COMPANY
DATE .                        : DATE
UWI  .                        : UNIQUE WELL ID
API  .                        : API NUMBER
SLAT .WGS84 6.723628290663207 : SURFACE LATITUDE
SLON .WGS84 3.207555967667105 : SURFACE LONGITUDE
DATUM.F                1492.0 : DEPTH DATUM ELEV
~Curve Information -----------------------------------------
DEPT   .F     : 1 MEASURED DEPTH
GRR    .GAPI  : GAMMA RAY FROM RESISTIVITY LOG
ILD    .OHMM  : INDUCTION DEEP RESISTIVITY
ILM    .OHMM  : INDUCTION MEDIUM RESISTIVITY
SFLU   .OHMM  : SHALLOW FOCUSED RESISTIVITY (UNAVERAGED)
SPR    .MV    : SPONTANEOUS POTENTIAL FROM RESISTIVITY LOG
DPHI_LS.DEC   : DENSITY POROSITY LIMESTONE
NPHI_LS.DEC   : NEUTRON POROSITY LIMESTONE
DRHO   .G/C3  : BULK DENSITY CORRECTION
CALD   .IN    : CALIPER FROM DENSITY LOG
PEF    .B/E   : PHOTOELECTRIC FACTOR
RHOB   .G/C3  : BULK DENSITY
DTCO   .US/F  : DELTA-T COMPRESSIONAL
DTSM   .US/F  : DELTA-T SHEAR
~Params ----------------------------------------------------
~Other -----------------------------------------------------
~ASCII -----------------------------------------------------
# ...
 6374.00000  132.33440    1.95330    1.89400    1.90470    1.19640    0.29970    0.40270    0.13760   10.93320    2.54230    2.10460   88.11160  188.46470
 6374.50000  122.36290    1.94130    2.06460    2.15440    0.64420    0.29960    0.35680    0.13730   10.34210    2.85910    2.10800   86.37230  188.29670
 6375.00000  114.93920    1.92940    2.21210    2.43700    0.09190    0.29880    0.31710    0.14860   10.12190    2.98090    2.17380   83.03810  180.83790
 6375.50000  115.96260    1.93660    2.11540    2.76780   -0.18290    0.27960    0.32250    0.16630   10.32850    2.81600    2.22610   82.56050  175.12430
 6376.00000  124.54890    2.06510    2.19140    2.96320   -0.28490    0.27780    0.35720    0.16540   10.70160    2.66440    2.23920   87.16870  174.88100
 6376.50000  130.70250    2.28520    2.52800    2.92460   -0.38690    0.28430    0.39630    0.16290   10.90300    2.51730    2.23030   91.74730  183.88640
 6377.00000  127.93110    2.64010    2.87270    2.89030   -0.48890    0.28950    0.43080    0.15650   10.63470    2.40260    2.21950   94.21540  175.89140
 6377.50000  116.41250    3.03640    3.25010    2.87410   -0.63950    0.29960    0.37870    0.13300   10.34760    2.39340    2.19800   96.16770  150.14850
 6378.00000  100.41980    3.44280    4.16630    3.03720   -0.97070    0.28040    0.24280    0.08670   10.07250    2.74770    2.19740   97.72640  136.91000
 6378.50000   86.33860    3.53640    4.88190    5.22590   -1.42490    0.23910    0.17650    0.05760    9.84030    3.09050    2.29880   95.55640  132.34560
 6379.00000   77.15760    3.53800    4.81120    8.80860   -2.11850    0.23680    0.17240    0.05030    9.63350    3.25560    2.35500   82.85490  125.27690
 6379.50000   85.44550    3.57900    3.74860   11.34990   -2.83280    0.27860    0.24600    0.04720    9.82800    3.04460    2.28320   73.60260  115.58150
 6380.00000  110.49020    4.02710    3.38010   10.51490   -3.54700    0.30020    0.28790    0.03800   10.28860    2.69450    2.16940   70.32880  109.40740
 6380.50000  128.17010    4.56330    3.36320    5.71070   -3.73040    0.30010    0.31270    0.05980   10.69540    2.59280    2.11080   71.86590  110.54760
 6381.00000  133.54680    4.97040    3.78720    3.84180   -3.80900    0.28140    0.32390    0.09610   10.87470    2.68320    2.18050   72.82340  111.07490
 6381.50000  127.83650    4.95320    4.29040    3.78880   -3.88750    0.22890    0.33310    0.12020   10.92920    2.79170    2.29200   71.61820  106.71440
 6382.00000  120.50410    4.92120    4.53980    4.27570   -3.96610    0.19970    0.33710    0.12730   10.76560    2.64800    2.35310   66.70140  100.50760
 6382.50000  117.58860    4.88930    4.41260    4.93090   -4.04460    0.20260    0.32890    0.13160   10.42790    2.57250    2.37170   61.38070   92.42780
 6383.00000  121.96960    4.86250    4.37620    5.52040   -4.12310    0.20670    0.32070    0.14010   10.13960    2.76180    2.35800   59.35590   88.93100
 6383.50000  123.04280    4.86630    4.54570    5.61360   -4.05130    0.19850    0.31980    0.15280   10.04210    3.01990    2.36760   57.66180   86.39630
 6384.00000  118.05590    4.86830    4.84790    5.50820   -3.92250    0.17630    0.33640    0.17790   10.24810    3.25020    2.40680   56.37020   84.35520
 6384.50000  110.21110    4.91220    5.12460    5.39890   -3.79380    0.18370    0.34050    0.19640   10.29460    3.10700    2.41470   55.72560   82.71080
 6385.00000  107.74040    4.94380    5.14250    5.38900   -3.46270    0.22870    0.33990    0.20380   10.03680    2.96140    2.34890   55.76020   82.19440
 6385.50000  109.20230    4.90360    5.08360    5.45510   -3.11010    0.26960    0.33790    0.19980    9.64110    2.98260    2.26480   55.90160   82.37100
 6386.00000  113.58370    4.55210    4.78690    5.28660   -2.60830    0.29070    0.34110    0.19360    9.63840    2.99920    2.21910   55.77100   82.32980
 6386.50000  118.27770    3.99730    4.36540    5.03060   -2.03960    0.29920    0.35310    0.18520   10.10150    2.82360    2.18550   55.71800   81.13560
 6387.00000  117.96590    3.51020    3.83360    4.57470   -1.20470    0.29950    0.36860    0.17410   10.57520    2.64810    2.18140   55.49290   79.24860
 6387.50000  116.02500    3.11480    3.36660    3.87480   -0.65130    0.29310    0.38230    0.16000   10.93880    2.61220    2.20410   55.54330   80.37820
 6388.00000  114.13560    2.84630    3.02030    3.19380   -0.27540    0.26800    0.39530    0.15370   11.11560    2.67630    2.24970   56.69030   82.97950
 6388.50000  113.74820    2.60110    2.71840    2.83370    0.10050    0.24500    0.40670    0.15230   10.75790    2.70240    2.28710   58.59570   85.33690
 6389.00000  114.38960    2.37690    2.48100    2.55440    0.27700    0.24390    0.40660    0.15430   10.46150    2.65640    2.29560   60.38870   87.91010
 6389.50000  116.91330    2.23520    2.31590    2.44880    0.09640    0.24400    0.40040    0.15620   10.40150    2.60550    2.29750   62.41020   91.82090
 6390.00000  118.73540    2.16240    2.22100    2.41110   -0.03170    0.23320    0.40530    0.16680   10.50240    2.54650    2.30740   69.44550   99.89660
 6390.50000  117.39430    2.14240    2.19120    2.39420   -0.00400    0.25450    0.42370    0.18320   10.55340    2.44150    2.28690   74.27620  108.27780
 6391.00000  111.18000    2.14150    2.28250    2.55560    0.02370    0.29780    0.44020    0.14650   10.45740    2.36830    2.18480   76.90250  111.46200
 6391.50000  106.66110    2.39570    2.81850    3.18840    0.05140    0.30050    0.40000    0.09890   10.04900    2.34260    2.08500   79.09380  113.97300
 6392.00000  103.79660    3.20240    3.55750    4.39760   -0.02310    0.30040    0.32830    0.06150    9.18420    2.56100    2.10390   80.85970  116.45780
 6392.50000  101.05620    3.94180    5.31980    7.25010   -0.19020    0.21880    0.24620    0.03920    8.34130    3.00350    2.25640   80.58550  118.87060
 6393.00000   95.02170    4.85180    7.69430   12.18320   -0.38180    0.13900    0.18840    0.02840    8.02870    3.27220    2.49550   78.28040  119.68700
 6393.50000   89.33830    6.78400    9.23300   19.59580   -0.61890    0.04970    0.15890    0.02520    7.96960    3.16660    2.61530   74.71540  119.23350
 6394.00000   88.09900    9.71490   12.42340   22.94790   -1.01720    0.03050    0.15730    0.02190    7.89170    3.00270    2.65670   71.15260  118.83150
 6394.50000   89.34940   14.12420   17.56340   21.54210   -1.41560    0.03640    0.15800    0.01880    7.82920    2.83890    2.65380   68.84290  118.42950
 6395.00000   91.62510   18.75870   20.28270   20.14560   -1.81400    0.04010    0.15970    0.01600    7.81720    2.81840    2.64890   68.21810  118.18050
 6395.50000   94.45990   18.54290   20.45750   19.07910   -2.21230    0.03660    0.16330    0.01520    7.81620    2.87090    2.65120   67.88860  118.57460
 6396.00000   97.56160   16.68120   18.90180   18.07840   -2.61070    0.03310    0.16930    0.01450    7.81540    2.91140    2.65590   67.69450  119.56650
 6396.50000  100.16620   14.98710   16.73390   17.29240   -3.00070    0.03440    0.17070    0.00960    7.81540    2.90130    2.65870   67.50040  120.50790
 6397.00000   98.64940   13.73520   14.81460   16.58790   -3.13000    0.04050    0.16780    0.00540    7.81550    2.89110    2.64950   67.79230  120.79920
 6397.50000   97.17630   12.97570   13.51740   16.19590   -3.25930    0.04900    0.16540    0.00340    7.81550    2.88460    2.63430   68.29670  121.02870
 6398.00000   99.89480   12.43080   12.94950   15.83270   -3.38860    0.05660    0.16870    0.00500    7.81760    2.88270    2.62020   69.08160  122.58880
 6398.50000  108.10780   11.95000   12.40540   15.43890   -3.51790    0.05950    0.18000    0.01050    7.82030    2.91970    2.61160   69.63520  124.15630
 6399.00000  116.76880   11.77500   12.14530   14.87870   -3.64720    0.05470    0.18820    0.02010    7.82140    3.00630    2.61860   70.06880  124.38550
 6399.50000  124.94460   11.65370   12.02010   14.62240   -3.77650    0.04820    0.19300    0.02790    7.81640    3.10100    2.63190   70.79190  124.03030
