~Version ---------------------------------------------------
VERS.   2.0 : CWLS log ASCII Standard -VERSION 2.0
WRAP.    NO : One line per depth step
DLM . SPACE : Column Data Section Delimiter
~Well ------------------------------------------------------
STRT .F                 862.0 : START DEPTH
STOP .F                7698.0 : STOP DEPTH
STEP .F                   0.5 : STEP
NULL .               -9999.25 : NULL VALUE
COMP .                        : COMPANY
WELL .                        : WELL
FLD  .                        : FIELD
LOC  .                        : LOCATION
PROV .                        : PROVINCE
CNTY .                        : COUNTY
STAT .                        : STATE
CTRY .                        : COUNTRY
SRVC .                        : SERVICE COMPANY
DATE .                        : DATE
UWI  .                        : UNIQUE WELL ID
API  .                        : API NUMBER
SLAT .WGS84 6.723628290663207 : SURFACE LATITUDE
SLON .WGS84 3.207555967667105 : SURFACE LONGITUDE
DATUM.F                1492.0 : DEPTH DATUM ELEV
~Curve Information -----------------------------------------
DEPT   .F     : 1 MEASURED DEPTH
GRR    .GAPI  : GAMMA RAY FROM RESISTIVITY LOG
ILD    .OHMM  : INDUCTION DEEP RESISTIVITY
ILM    .OHMM  : INDUCTION MEDIUM RESISTIVITY
SFLU   .OHMM  : SHALLOW FOCUSED RESISTIVITY (UNAVERAGED)
SPR    .MV    : SPONTANEOUS POTENTIAL FROM RESISTIVITY LOG
DPHI_LS.DEC   : DENSITY POROSITY LIMESTONE
NPHI_LS.DEC   : NEUTRON POROSITY LIMESTONE
DRHO   .G/C3  : BULK DENSITY CORRECTION
CALD   .IN    : CALIPER FROM DENSITY LOG
PEF    .B/E   : PHOTOELECTRIC FACTOR
RHOB   .G/C3  : BULK DENSITY
DTCO   .US/F  : DELTA-T COMPRESSIONAL
DTSM   .US/F  : DELTA-T SHEAR
~Params ----------------------------------------------------
~Other -----------------------------------------------------
~ASCII -----------------------------------------------------
# ...
 7570.00000  191.28000   23.21140   24.21840   41.80150   20.50750    0.12630    0.26850    0.00590    7.80090    3.01330    2.49560   88.92530  152.78000
 7570.50000  197.62970   23.45850   24.23400   37.77200   20.26510    0.12860    0.26710    0.00180    7.79920    2.93860    2.49540   88.65600  152.15790
 7571.00000  201.07170   23.70830   25.65300   39.23900   19.28720    0.12400    0.25910   -0.00130    7.79750    2.85040    2.50300   88.23690  151.61110
 7571.50000  199.93430   23.96080   27.54330   42.73350   19.06110    0.11710    0.25030   -0.00150    7.79590    2.77000    2.51570   88.53200  150.51340
 7572.00000  201.05000   24.23030   28.13950   47.39920   18.86430    0.10860    0.24920    0.00510    7.79420    2.68950    2.52870   88.64500  149.41580
 7572.50000  222.07730   24.76160   28.74240   48.82170   18.66750    0.10520    0.25760    0.01140    7.79420    2.63870    2.53280   86.88510  148.48200
 7573.00000  262.74740   25.33340   29.28970   48.60520   18.58200    0.10570    0.27060    0.01590    7.79490    2.66180    2.53290   86.64850  149.67140
 7573.50000  287.87970   25.74810   29.79800   48.37040   18.90520    0.10600    0.26820    0.02030    7.79550    2.77810    2.53320   87.00540  152.86090
 7574.00000  333.05690   25.68360   30.08330   48.13250   19.36190    0.10430    0.25590    0.02460    7.79610    2.95750    2.53570   89.85050  157.74100
 7574.50000  360.08540   25.02540   29.63480   47.64760   19.64200    0.09810    0.24370    0.02530    7.79680    3.11060    2.54580   92.73030  162.19890
 7575.00000  388.91870   24.03820   28.75550   44.12400   19.92210    0.09020    0.24430    0.02610    7.79740    3.06770    2.55790   95.61880  164.00680
 7575.50000  399.86740   23.07830   26.20010   40.57810   20.21630    0.09790    0.26600    0.02640    7.79800    2.87420    2.54720   96.46270  165.81470
 7576.00000  390.11180   22.15290   24.00650   36.50730   20.51270    0.12040    0.28700    0.02230    7.79870    2.67500    2.49640   97.17210  166.48710
 7576.50000  361.31790   21.26470   23.15950   33.35790   20.80910    0.15660    0.30570    0.01300    7.79930    2.65070    2.44990   96.91470  162.54190
 7577.00000  325.72190   20.62460   23.00830   31.92050   20.73420    0.17070    0.31030    0.00660    7.79750    2.72200    2.42220   94.95130  157.50030
 7577.50000  299.11910   19.82540   23.03050   31.48600   20.50410    0.17510    0.30570    0.00400    7.78830    2.80370    2.41380   92.98800  153.02530
 7578.00000  283.08310   19.51070   22.86860   33.47310   20.27400    0.17260    0.29070    0.00180    7.78290    2.83910    2.41460   91.02460  148.85690
 7578.50000  269.78500   19.50210   22.27500   36.95870   20.14480    0.16730    0.27770    0.00060    7.77350    2.79050    2.42740   89.36170  145.42720
 7579.00000  269.84690   19.61270   21.69590   38.98180   20.16660    0.16170    0.26380    0.00040    7.75730    2.73020    2.43950   87.97430  144.59410
 7579.50000  287.99770   19.84080   21.72470   38.08750   20.44540    0.15540    0.25420    0.00170    7.66520    2.71320    2.44970   86.76800  144.37300
 7580.00000  306.48050   20.91870   22.93020   35.44690   20.78690    0.14770    0.25110    0.00390    7.63640    2.73090    2.46100   86.40900  144.16710
 7580.50000  312.56610   22.10550   23.76360   33.75020   20.97340    0.13980    0.24940    0.00670    7.62470    2.71640    2.47490   86.24390  143.80310
 7581.00000  318.04460   23.35970   26.70990   34.32500   20.58530    0.13310    0.24840    0.00950    7.61780    2.60430    2.48800   86.07000  143.10530
 7581.50000  326.47540   24.68510   30.20520   40.07130   19.82900    0.12780    0.24720    0.01190    7.60730    2.50770    2.49720   85.82720  140.80330
 7582.00000  338.07350   26.26300   34.51290   49.86330   18.99160    0.12310    0.24460    0.01140    7.60250    2.49440    2.50430   85.12270  138.09470
 7582.50000  355.32050   28.66850   39.94570   67.20680   18.10260    0.12080    0.24150    0.01090    7.60450    2.51380    2.50620   84.34530  135.43410
 7583.00000  366.47970   33.40460   45.96200   84.22700   17.59180    0.12700    0.24020    0.01030    7.60640    2.54400    2.49350   84.07000  135.05760
 7583.50000  375.80440   39.17760   52.88440   95.56890   17.30990    0.13640    0.24220    0.00950    7.60840    2.58310    2.47820   83.93660  134.21570
 7584.00000  377.70770   46.30510   62.02070  101.86080   17.02800    0.14680    0.24300    0.00870    7.61670    2.62840    2.45970   83.41000  133.69220
 7584.50000  358.72280   53.69480   70.55660  107.95460   16.66550    0.15660    0.23780    0.00870    7.63100    2.66390    2.44310   83.25910  133.16870
 7585.00000  346.10400   58.27360   79.97480  116.15700   16.80540    0.16250    0.23330    0.00980    7.63590    2.66070    2.43340   83.68050  133.33010
 7585.50000  334.08760   56.74930   86.68400  129.03890   17.39840    0.16540    0.23340    0.01040    7.63590    2.57650    2.43020   84.11920  133.86260
 7586.00000  323.00350   54.90680   87.30780  140.33850   17.52950    0.16610    0.23710    0.00970    7.63660    2.48630    2.42970   84.13360  134.69170
 7586.50000  325.42130   54.92820   88.62520  141.19530   17.64140    0.16640    0.24200    0.00670    7.63810    2.45010    2.42910   84.09470  135.75710
 7587.00000  339.87530   58.74170   92.37070  138.92460   17.61860    0.17080    0.24490    0.00340    7.63950    2.42770    2.42250   84.19400  137.13170
 7587.50000  366.13100   62.64110  101.77010  135.18460   17.50140    0.17690    0.24400    0.00150    7.62580    2.40460    2.41260   85.14920  139.78390
 7588.00000  404.65530   60.15440  118.97940  135.11930   17.15600    0.18170    0.23810    0.00190    7.60520    2.38030    2.40510   86.47470  143.65310
 7588.50000  465.65050   45.15260  119.84250  137.77770   16.81060    0.18010    0.23780    0.00420    7.61360    2.37040    2.40510   87.77130  146.12130
 7589.00000  502.13020   32.73480   90.72730  141.29400   16.77320    0.17530    0.24750    0.00680    7.62770    2.44630    2.41420   88.68570  148.27000
 7589.50000  543.71280   19.22260   49.01080  142.16660   17.30950    0.16940    0.26710    0.00920    7.64180    2.56290    2.42310   89.47460  149.32720
 7590.00000  608.74840   13.67670   22.47650  108.18720   18.00330    0.16470    0.28640    0.01160    7.65580    2.71110    2.42960   89.94050  149.97090
 7590.50000  623.16170    8.97260   11.04570   48.48420   18.69710    0.16840    0.30060    0.01190    7.66390    2.93620    2.42330   91.26210  150.63440
 7591.00000  615.84450    5.88640    6.75120   20.37950   19.39090    0.17130    0.31220    0.00760    7.65800    3.18620    2.42110   91.78260  151.64700
 7591.50000  602.86800    4.46760    5.45560    8.87020   19.97210    0.16200    0.31590    0.00410    7.65220    3.62450    2.43780   90.80730  151.82810
 7592.00000  589.89170    3.62630    4.61280    5.60150   20.41890    0.13730    0.31950    0.00050    7.64640    4.52310    2.50070   89.48020  149.16090
 7592.50000  505.16770    3.74690    4.37940    4.49330   20.81770    0.08220    0.32190   -0.00190    7.64050    5.63100    2.59320   88.07480  146.44510
 7593.00000  444.09050    4.29150    4.71700    5.96640   20.98890    0.00550    0.31860   -0.00120    7.62120    6.73880    2.70320   86.50650  143.72930
 7593.50000  365.72040    4.93170    5.32190   11.06460   20.91750   -0.05140    0.30320    0.00260    7.61120    7.63730    2.81160   84.92190  141.01340
 7594.00000  301.93480    5.74500    7.28790   35.14480   20.66060   -0.09330    0.28440    0.00810    7.61620    7.16580    2.86970   83.33730  138.76590
 7594.50000  278.66660    7.52840    9.17010   64.11280   20.40360   -0.07800    0.26550    0.01330    7.62120    6.22060    2.84530   81.84060  137.56480
 7595.00000  261.17230   10.38590   13.34720   84.20870   20.16410   -0.04690    0.24570    0.01450    7.62620    5.26700    2.77220   81.55790  137.02580
 7595.50000  257.31150   17.81450   21.67650   81.72000   21.21470    0.01280    0.23200    0.01470    7.63120    4.45730    2.67810   81.89060  137.34880
