~Version ---------------------------------------------------
VERS.   2.0 : CWLS log ASCII Standard -VERSION 2.0
WRAP.    NO : One line per depth step
DLM . SPACE : Column Data Section Delimiter
~Well ------------------------------------------------------
STRT .F                4404.0 : START DEPTH
STOP .F                6848.0 : STOP DEPTH
STEP .F                   0.5 : STEP
NULL .               -9999.25 : NULL VALUE
COMP .                        : COMPANY
WELL .                        : WELL
FLD  .                        : FIELD
LOC  .                        : LOCATION
PROV .                        : PROVINCE
CNTY .                        : COUNTY
STAT .                        : STATE
CTRY .                        : COUNTRY
SRVC .                        : SERVICE COMPANY
DATE .                        : DATE
UWI  .                        : UNIQUE WELL ID
API  .                        : API NUMBER
SLAT .WGS84 6.788468231959101 : SURFACE LATITUDE
SLON .WGS84   3.4018628420352 : SURFACE LONGITUDE
DATUM.F                   nan : DEPTH DATUM ELEV
~Curve Information -----------------------------------------
DEPT   .F     : 1 MEASURED DEPTH
NPHI_LS.DEC   : NEUTRON POROSITY LIMESTONE
DT     .US/F  : DELTA-T (INTERVAL TRANSIT TIME)
DTSM   .US/F  : DELTA-T SHEAR
GRS    .GAPI  : GAMMA RAY FROM SONIC LOG
DT1    .US/F  : DELTA-T SHEAR - LOWER DIPOLE
DTCO   .US/F  : DELTA-T COMPRESSIONAL
~Params ----------------------------------------------------
~Other -----------------------------------------------------
~ASCII -----------------------------------------------------
# ...
 5846.00000    0.15130   55.80400  227.47580   84.20920   86.95260  103.97850
 5846.50000    0.15600   55.89700  231.28180   86.70200   88.04040  104.49940
 5847.00000    0.16410   55.77830  234.08350   88.84970   88.38870  104.06070
 5847.50000    0.16750   55.31280  233.68520   88.78650   88.42920  102.01850
 5848.00000    0.16020   54.84990  224.31670   88.44170   86.42210   99.73100
 5848.50000    0.15290   54.48030  206.27640   88.63740   81.33810   97.97980
 5849.00000    0.15050   54.49020  192.09680   90.37220   77.43190   98.82410
 5849.50000    0.17290   55.14860  191.07010   93.33140   80.97220  102.56250
 5850.00000    0.21140   56.79970  230.31370   95.98160   86.80380  108.81310
 5850.50000    0.24990   58.48490  265.29160   98.51880   94.65470  115.24550
 5851.00000    0.28790   60.17020  272.45820   96.16800   98.06420  119.97490
 5851.50000    0.29340   60.29850  275.98910   90.81850   98.42540  123.27040
 5852.00000    0.22570   58.06540  257.74440   81.23600   95.85180  111.73060
 5852.50000    0.16090   52.60770  207.15640   69.00160   83.01180   88.83160
 5853.00000    0.10130   47.25250  173.93480   59.71940   73.79070   69.96980
 5853.50000    0.05790   46.26710  166.60060   50.83580   71.56560   65.84150
 5854.00000    0.03420   46.08320  165.89600   43.51900   71.03870   64.74370
 5854.50000    0.01240   45.74830  164.68700   36.17370   70.55200   63.71480
 5855.00000    0.00760   45.63670  163.22540   31.97280   69.95540   63.12940
 5855.50000    0.00270   45.52510  156.71570   31.13950   68.29400   62.66380
 5856.00000   -0.00000   45.16220  149.71880   32.49030   66.17220   61.21190
 5856.50000   -0.00020   44.93600  146.47530   34.30420   64.26940   60.15790
 5857.00000    0.00550   46.21530  147.18730   35.15150   66.84060   67.16730
 5857.50000    0.01450   55.91560  187.66620   37.52430   76.09670   96.71250
 5858.00000    0.03050   62.69440  224.57620   42.12460   87.11910  123.76050
 5858.50000    0.08600   64.23120  256.91460   50.92450   94.27590  137.20910
 5859.00000    0.15360   64.10080  267.84560   62.40090   97.57510  136.70560
 5859.50000    0.22310   65.02710  281.79990   72.50590  101.47360  138.86540
 5860.00000    0.35970   64.90770  291.89560   78.95500  103.41290  141.52930
 5860.50000    0.39060   66.40700  301.60480   83.62310  106.47500  146.26330
 5861.00000    0.42150   68.53000  318.70040   82.70780  111.31700  154.28550
 5861.50000    0.47370   68.83860  340.39780   78.77780  115.25650  156.94760
 5862.00000    0.48840   59.82680  302.35110   71.77040  110.94210  125.58650
 5862.50000    0.35180   53.27530  245.82240   64.87840   89.73740   94.67480
 5863.00000    0.21530   50.05770  202.13690   56.84050   79.73830   80.33150
 5863.50000    0.09710   47.84580  182.14990   49.14110   74.68270   72.59500
 5864.00000    0.04700   46.67680  174.06580   41.53280   73.62720   67.44920
 5864.50000    0.01650   46.21710  170.83540   34.63330   72.89030   65.32360
 5865.00000    0.01100   45.94350  168.62090   31.93640   72.56790   64.62500
 5865.50000    0.01120   46.26680  169.75900   33.12640   72.74720   66.05320
 5866.00000    0.01370   46.52470  171.80000   34.75620   73.04890   67.40280
 5866.50000    0.01630   46.84940  173.31460   36.18230   73.34060   67.80980
 5867.00000    0.01980   47.19720  175.32460   38.15570   73.67930   69.19040
 5867.50000    0.02340   48.10700  177.35810   42.21960   74.04270   72.39640
 5868.00000    0.02700   48.94040  179.80490   46.98960   74.41460   76.46590
 5868.50000    0.03060   49.48980  180.34170   49.47050   74.80170   77.98020
 5869.00000    0.03200   49.12090  181.16580   46.91360   75.18880   77.51260
 5869.50000    0.02820   48.63840  182.46070   44.65250   75.57050   75.39250
 5870.00000    0.03140   48.50880  183.88210   47.33270   75.87960   73.80770
 5870.50000    0.04020   48.88590  185.45390   51.46230   76.18870   76.51150
 5871.00000    0.04900   49.72850  187.02580   56.28690   76.49780   80.28670
 5871.50000    0.05560   50.19050  188.59770   58.47890   76.76710   81.53500
 5872.00000    0.05490   50.46130  191.54310   57.65650   77.65320   82.40850
 5872.50000    0.05660   50.55530  194.83640   55.00280   78.80360   83.21240
 5873.00000    0.06020   50.54280  195.58990   53.32780   79.16170   83.86540
 5873.50000    0.05910   50.39400  195.67290   52.55270   78.19230   82.44760
 5874.00000    0.05670   50.33450  191.20800   52.74230   77.01380   79.61210
 5874.50000    0.05480   50.22960  188.54800   53.61270   76.74790   82.23490
 5875.00000    0.05790   51.07230  190.28430   55.62220   77.75990   86.02700
 5875.50000    0.06430   51.97600  194.73120   57.91780   78.87920   89.21420
 5876.00000    0.06970   52.24540  199.17810   59.59420   79.62850   90.32970
 5876.50000    0.06830   52.28260  199.40860   58.99680   79.66430   90.42620
 5877.00000    0.06580   52.25180  196.57540   57.74050   79.10750   89.98030
 5877.50000    0.06530   52.10230  195.84620   56.87520   79.03470   89.69430
 5878.00000    0.07240   52.23160  198.83040   59.36060   79.75720   90.11810
 5878.50000    0.08130   52.72710  202.95230   62.18940   80.64830   91.67340
 5879.00000    0.09400   53.51770  207.07430   64.96510   81.45410   95.41810
 5879.50000    0.10350   54.16450  209.65410   67.18820   82.20470   97.56970
 5880.00000    0.10660   54.15710  211.29560   66.96040   82.72990   97.40230
 5880.50000    0.10160   53.84670  212.82410   63.83920   83.20500   96.48160
 5881.00000    0.09120   53.38870  214.70990   61.40160   83.78800   94.69400
 5881.50000    0.08440   53.10150  217.90840   59.35620   84.61820   93.82700
 5882.00000    0.08530   53.51270  221.10700   57.84650   85.28990   94.91180
 5882.50000    0.08950   53.91230  224.78960   57.64660   85.62980   96.64110
 5883.00000    0.09380   54.45140  229.69710   61.60000   87.03350   98.99490
 5883.50000    0.10990   56.17880  241.20270   68.72100   90.25210  103.97360
 5884.00000    0.13410   58.89140  255.34440   82.09000   93.63950  115.80220
 5884.50000    0.15830   62.03230  264.74640  105.95380   95.63680  129.83310
 5885.00000    0.18610   62.38110  266.83740  142.32820   96.32500  129.58680
 5885.50000    0.21370   62.24010  278.80210  180.92780   99.68760  129.20040
 5886.00000    0.22940   63.32030  303.39160  174.42170  105.13380  134.09820
 5886.50000    0.26160   64.99130  321.43550  145.13320  109.72040  141.24000
 5887.00000    0.29820   66.57930  336.27750  110.06020  113.56450  147.37280
 5887.50000    0.35270   67.29570  342.27720   95.37830  115.28810  150.91410
 5888.00000    0.36760   67.57820  344.10940   89.22090  115.87330  151.53560
 5888.50000    0.36070   67.42190  347.20680   84.10580  116.61890  151.45740
 5889.00000    0.35490   67.06860  352.91440   77.48870  117.90770  149.35230
 5889.50000    0.36210   66.71530  361.96630   73.36400  119.97450  147.29550
 5890.00000    0.36990   66.27800  355.71250   74.63250  120.07720  145.31930
 5890.50000    0.37700   65.80450  354.99410   76.82930  119.55060  143.55390
 5891.00000    0.36670   65.01560  380.12700   76.07480  124.88250  141.93660
 5891.50000    0.33080   62.74370  383.41420   72.18250  127.53380  134.00540
 5892.00000    0.24900   59.96950  314.76270   68.04080  112.32900  119.65410
 5892.50000    0.19140   56.33740  251.89350   65.50060   92.19500  105.81670
 5893.00000    0.16820   58.14720  253.34880   64.30740   95.18490  112.46600
 5893.50000    0.18170   61.11060  303.85190   64.59310  105.68360  124.78090
 5894.00000    0.20280   63.56900  333.44140   67.46600  112.09850  133.67650
 5894.50000    0.22390   64.47630  350.47310   70.56230  117.19800  138.62750
 5895.00000    0.28090   64.30640  340.39130   71.90740  114.95850  137.28000
 5895.50000    0.28020   62.86040  314.38890   68.26480  108.24340  132.92240
 5896.00000    0.22300   61.17820  284.78490   63.49490  101.06660  127.55990
 5896.50000    0.13100   58.12870  253.91610   55.32610   93.99350  115.18640
 5897.00000    0.09010   52.71010  216.44760   49.80440   83.53580   93.69570
