~Version ---------------------------------------------------
VERS.   2.0 : CWLS log ASCII Standard -VERSION 2.0
WRAP.    NO : One line per depth step
DLM . SPACE : Column Data Section Delimiter
~Well ------------------------------------------------------
STRT .F                4404.0 : START DEPTH
STOP .F                6848.0 : STOP DEPTH
STEP .F                   0.5 : STEP
NULL .               -9999.25 : NULL VALUE
COMP .                        : COMPANY
WELL .                        : WELL
FLD  .                        : FIELD
LOC  .                        : LOCATION
PROV .                        : PROVINCE
CNTY .                        : COUNTY
STAT .                        : STATE
CTRY .                        : COUNTRY
SRVC .                        : SERVICE COMPANY
DATE .                        : DATE
UWI  .                        : UNIQUE WELL ID
API  .                        : API NUMBER
SLAT .WGS84 6.788468231959101 : SURFACE LATITUDE
SLON .WGS84   3.4018628420352 : SURFACE LONGITUDE
DATUM.F                   nan : DEPTH DATUM ELEV
~Curve Information -----------------------------------------
DEPT   .F     : 1 MEASURED DEPTH
NPHI_LS.DEC   : NEUTRON POROSITY LIMESTONE
DT     .US/F  : DELTA-T (INTERVAL TRANSIT TIME)
DTSM   .US/F  : DELTA-T SHEAR
GRS    .GAPI  : GAMMA RAY FROM SONIC LOG
DT1    .US/F  : DELTA-T SHEAR - LOWER DIPOLE
DTCO   .US/F  : DELTA-T COMPRESSIONAL
~Params ----------------------------------------------------
~Other -----------------------------------------------------
~ASCII -----------------------------------------------------
# ...
 4558.50000    0.22810   55.74890  326.89830   91.86680  106.99970  100.62730
 4559.00000    0.23190   51.54390  271.39360   91.54080   97.30390   87.45240
 4559.50000    0.23860   53.12740  278.60870   90.06250   94.97430   91.45030
 4560.00000    0.24610   57.84140  310.11190   88.37400   98.92820  108.92850
 4560.50000    0.25240   62.66350  309.34280   86.84670  103.93160  127.88820
 4561.00000    0.25260   63.09110  296.99110   85.31940  105.59690  136.48740
 4561.50000    0.24660   56.06960  263.96190   83.57550   93.65310  108.29490
 4562.00000    0.24070   52.15090  213.56760   82.24300   82.59420   84.55170
 4562.50000    0.23960   50.80560  206.72240   82.20100   81.45840   84.03240
 4563.00000    0.24750   50.81690  207.47170   83.35460   82.02210   84.46680
 4563.50000    0.25670   50.91690  208.53120   83.20660   82.78320   84.81200
 4564.00000    0.25800   52.01270  206.89530   80.89530   82.20560   85.87030
 4564.50000    0.25060   58.13840  198.83390   80.45640   81.25570  114.84530
 4565.00000    0.24330   65.66590  205.64250   83.81530   81.24090  141.74300
 4565.50000    0.24070   70.03260  250.67500   87.67570   94.76650  163.04980
 4566.00000    0.26320   70.39350  291.90720   89.80110  102.10370  161.68740
 4566.50000    0.28450   69.30380  292.07710   89.15810  102.49510  159.31650
 4567.00000    0.30260   69.38200  290.31100   88.76680  102.36340  157.37640
 4567.50000    0.29920   69.52670  288.54480   92.61840  102.04790  157.89610
 4568.00000    0.27860   69.65140  286.77870   96.74970  101.62550  159.03870
 4568.50000    0.25430   69.69190  285.01250   97.97770  101.14980  159.37190
 4569.00000    0.24420   69.69160  284.41580   95.66930  100.77130  159.70130
 4569.50000    0.23760   69.92560  285.00860   91.80700  100.39270  159.70130
 4570.00000    0.24200   70.51890  289.61480   88.53820  101.56330  162.33870
 4570.50000    0.25040   71.26410  296.14780   86.37250  104.04650  165.71870
 4571.00000    0.25210   72.04750  302.59950   87.22960  105.38030  168.45220
 4571.50000    0.23670   70.40090  294.30390   88.67200  104.38320  161.05380
 4572.00000    0.21810   70.95240  288.99570   89.74320  101.24800  163.76670
 4572.50000    0.23240   71.79160  295.82500   90.08930  102.74460  167.38140
 4573.00000    0.25360   71.52100  291.71540   90.08930  102.59970  167.47670
 4573.50000    0.27690   70.78710  282.72490   89.67920   98.28890  163.04980
 4574.00000    0.26710   65.88060  255.97650   88.97840   90.94340  146.61500
 4574.50000    0.24260   58.23470  215.24090   88.15530   83.59790  111.59620
 4575.00000    0.24960   54.19920  196.91570   87.96340   79.32830   95.94010
 4575.50000    0.25840   53.43440  201.05040   88.94400   80.29320   94.50760
 4576.00000    0.26630   56.87660  231.33920   90.27770   92.21540  115.29170
 4576.50000    0.26750   62.59650  281.21510   91.11130  103.74720  132.24350
 4577.00000    0.25140   63.04210  307.56940   89.84930  105.53550  134.65630
 4577.50000    0.23530   59.41860  282.23740   88.48340   98.46090  116.84510
 4578.00000    0.23090   59.45090  270.20340   88.85940   97.43850  119.52700
 4578.50000    0.23010   60.38790  275.74520   90.65810   98.34410  123.58440
 4579.00000    0.22930   59.32550  265.67360   90.96780   96.60930  118.61770
 4579.50000    0.22730   57.81730  255.60200   88.67680   93.23600  111.56090
 4580.00000    0.22390   57.73870  253.49570   85.87010   92.98150  113.40650
 4580.50000    0.21460   62.58960  255.50430   84.62360   93.27920  131.47850
 4581.00000    0.20760   69.76100  274.19250   85.89070   99.66220  163.10350
 4581.50000    0.20580   74.65030  305.91500   86.81700  106.67190  176.26930
 4582.00000    0.21710   75.65250  346.22730   86.00760  115.55770  183.15960
 4582.50000    0.21760   76.10970  344.32470   85.58590  115.67130  185.87450
 4583.00000    0.21650   76.52720  340.06610   88.20990  114.78680  187.46010
 4583.50000    0.21920   76.62510  335.80760   91.75280  113.72870  187.97540
 4584.00000    0.22830   76.32630  332.71340   94.10290  112.69800  185.87790
 4584.50000    0.23210   75.86400  332.71340   93.57450  112.63520  183.75240
 4585.00000    0.21910   75.41940  334.85180   92.42710  113.83500  181.62680
 4585.50000    0.20880   75.34660  338.09070   91.84070  114.79780  181.77980
 4586.00000    0.20450   75.27970  341.32830   92.42120  115.41000  182.21480
 4586.50000    0.21450   75.19090  341.96880   93.00740  115.17730  180.79030
 4587.00000    0.23040   75.17660  340.66720   92.72230  114.79310  181.24320
 4587.50000    0.24540   75.16230  338.61120   91.50660  114.59230  182.80150
 4588.00000    0.25750   75.34180  336.52170   91.11240  114.02330  183.79490
 4588.50000    0.25840   75.55780  334.27000   91.36630  113.32970  183.39510
 4589.00000    0.24080   76.34650  330.78080   91.81090  112.34620  185.99960
 4589.50000    0.22320   76.79610  327.24250   91.89690  111.28220  188.85500
 4590.00000    0.21590   75.52840  313.86640   91.92790  108.67420  183.96820
 4590.50000    0.21300   73.97480  305.04030   91.82110  106.16060  174.79710
 4591.00000    0.20990   73.04180  299.86370   90.99570  103.89660  173.46680
 4591.50000    0.20800   73.18050  294.68700   90.11210  103.83840  173.58540
 4592.00000    0.21580   76.36440  297.28330   90.10560  108.25720  193.88000
 4592.50000    0.23380   82.86410  346.06510   89.94180  117.59060  212.58980
 4593.00000    0.24280   77.95060  322.56990   88.36050  108.24970  192.89370
 4593.50000    0.25000   69.18900  282.61220   85.56750   99.72120  161.91680
 4594.00000    0.25170   60.67860  254.25830   86.45000   91.19280  132.29250
 4594.50000    0.25370   58.39290  224.71760   88.76620   86.50790  113.82600
 4595.00000    0.25570   61.47820  230.99970   90.98500   87.77940  127.07860
 4595.50000    0.25670   64.67880  273.01560   91.78470   97.09030  143.57260
 4596.00000    0.24540   63.99880  272.66770   92.06390   96.52530  137.36730
 4596.50000    0.22800   66.18890  264.72360   92.59640   96.56730  141.19980
 4597.00000    0.22410   70.62120  302.49700   93.24960  104.54670  157.37350
 4597.50000    0.25680   67.81470  275.72150   93.04230   96.86120  148.59130
 4598.00000    0.28620   59.06450  208.21350   91.96460   86.81930  107.20840
 4598.50000    0.31550   56.35870  211.26750   90.02250   79.69820  107.05640
 4599.00000    0.34200   59.44180  240.02530   88.76430   89.39550  122.55550
 4599.50000    0.35110   64.10460  247.90880   87.53160   93.21280  137.00850
 4600.00000    0.35460   67.89920  248.64120   87.42940   94.90860  150.63900
 4600.50000    0.34890   67.90670  247.31780   90.32690   93.98480  140.94300
 4601.00000    0.28630   62.50890  245.42200   93.13180   92.19050  128.98020
 4601.50000    0.26810   60.34700  239.54170   95.93720   88.32120  123.58890
 4602.00000    0.28720   56.45430  212.23330   95.20550   82.78610  103.32040
 4602.50000    0.30710   57.22210  222.90210   93.13170   86.45650  110.78610
 4603.00000    0.32430   60.85890  258.74440   92.14350   94.53100  124.89350
 4603.50000    0.33970   63.63940  275.50050   92.05780   98.87390  136.44250
 4604.00000    0.35940   66.25110  287.01650   90.90030  100.86500  146.51970
 4604.50000    0.37940   68.56120  289.88470   87.21540  102.29270  154.42010
 4605.00000    0.39760   70.49430  294.08560   83.56980  103.93520  161.65400
 4605.50000    0.39420   77.42610  305.54200   81.04050  105.62160  187.39020
 4606.00000    0.37190   82.30220  307.17270   82.66260  107.06440  210.50020
 4606.50000    0.33000   81.03290  307.75020   86.34500  107.55620  204.81990
 4607.00000    0.30740   79.87710  312.56780   89.59960  107.67970  198.37860
 4607.50000    0.29020   79.47150  313.94050   91.69700  107.50500  197.76890
 4608.00000    0.27080   79.85690  314.83700   91.35710  108.49000  203.58900
 4608.50000    0.26020   85.11630  335.19940   88.47870  115.55760  220.61300
 4609.00000    0.25010   93.41750  382.42370   86.26800  124.85010  253.85110
 4609.50000    0.24360   98.24300  414.56760   87.50640  134.42450  272.31880
