~Version ---------------------------------------------------
VERS.   2.0 : CWLS log ASCII Standard -VERSION 2.0
WRAP.    NO : One line per depth step
DLM . SPACE : Column Data Section Delimiter
~Well ------------------------------------------------------
STRT .F                4404.0 : START DEPTH
STOP .F                6848.0 : STOP DEPTH
STEP .F                   0.5 : STEP
NULL .               -9999.25 : NULL VALUE
COMP .                        : COMPANY
WELL .                        : WELL
FLD  .                        : FIELD
LOC  .                        : LOCATION
PROV .                        : PROVINCE
CNTY .                        : COUNTY
STAT .                        : STATE
CTRY .                        : COUNTRY
SRVC .                        : SERVICE COMPANY
DATE .                        : DATE
UWI  .                        : UNIQUE WELL ID
API  .                        : API NUMBER
SLAT .WGS84 6.788468231959101 : SURFACE LATITUDE
SLON .WGS84   3.4018628420352 : SURFACE LONGITUDE
DATUM.F                   nan : DEPTH DATUM ELEV
~Curve Information -----------------------------------------
DEPT   .F     : 1 MEASURED DEPTH
NPHI_LS.DEC   : NEUTRON POROSITY LIMESTONE
DT     .US/F  : DELTA-T (INTERVAL TRANSIT TIME)
DTSM   .US/F  : DELTA-T SHEAR
GRS    .GAPI  : GAMMA RAY FROM SONIC LOG
DT1    .US/F  : DELTA-T SHEAR - LOWER DIPOLE
DTCO   .US/F  : DELTA-T COMPRESSIONAL
~Params ----------------------------------------------------
~Other -----------------------------------------------------
~ASCII -----------------------------------------------------
 4404.00000    0.26270   47.11530  153.19670   96.80990   -9999.25   -9999.25
 4404.50000    0.25010   47.19710  153.16120   98.01920   -9999.25   -9999.25
 4405.00000    0.23480   47.27880  153.24800   97.97140   -9999.25   -9999.25
 4405.50000    0.22020   47.36060  153.53110   96.90130   -9999.25   -9999.25
 4406.00000    0.22180   47.37780  154.37890   95.21980   -9999.25   -9999.25
 4406.50000    0.22200   47.38210  155.60680   92.96320   -9999.25   -9999.25
 4407.00000    0.21580   47.38640  156.74310   90.83220   -9999.25   -9999.25
 4407.50000    0.20450   47.39060  155.78970   91.23750   -9999.25   -9999.25
 4408.00000    0.20620   47.39490  153.97350   98.89970   -9999.25   -9999.25
 4408.50000    0.21220   47.39920  153.09820  101.93710   -9999.25   -9999.25
 4409.00000    0.21640   47.40350  154.17070  101.80180   -9999.25   -9999.25
 4409.50000    0.21060   47.40780  154.13240   97.61340   -9999.25   -9999.25
 4410.00000    0.20340   47.41200  148.05380   91.50130   -9999.25   -9999.25
 4410.50000    0.20700   47.41310  138.75650   88.46260   -9999.25   -9999.25
 4411.00000    0.21760   47.41090  130.34940   89.09770   -9999.25   -9999.25
 4411.50000    0.23550   47.40890  124.60140   92.88070   -9999.25   -9999.25
 4412.00000    0.24620   47.40760  121.91890   98.94890   -9999.25   -9999.25
 4412.50000    0.24440   47.40640  121.17920  101.49830   -9999.25   -9999.25
 4413.00000    0.22980   47.40520  122.69900   99.60460   -9999.25   -9999.25
 4413.50000    0.21780   47.40390  124.60820   94.32150   -9999.25   -9999.25
 4414.00000    0.20720   47.40270  125.25170   87.29030   -9999.25   -9999.25
 4414.50000    0.21220   47.40150  125.33480   87.22290   -9999.25   -9999.25
 4415.00000    0.22600   47.40020  125.43100   89.81500   -9999.25   -9999.25
 4415.50000    0.24300   47.38030  125.45270   92.89990   -9999.25   -9999.25
 4416.00000    0.25670   47.38480  125.51800   95.98490   -9999.25   -9999.25
 4416.50000    0.25960   47.40010  125.50150   97.48980   -9999.25   -9999.25
 4417.00000    0.25120   47.41540  125.39550   97.07260   -9999.25   -9999.25
 4417.50000    0.24030   47.43070  125.48140   95.58850   -9999.25   -9999.25
 4418.00000    0.22840   47.44590  125.48490   96.07730   -9999.25   -9999.25
 4418.50000    0.23060   47.45400  125.48840   98.23240   -9999.25   -9999.25
 4419.00000    0.23590   47.46030  125.49180  100.38750   -9999.25   -9999.25
 4419.50000    0.23770   47.46650  125.49530  101.45530   -9999.25   -9999.25
 4420.00000    0.23150   47.47280  125.49880   99.23040   -9999.25   -9999.25
 4420.50000    0.22610   47.47900  125.50230   96.34390   -9999.25   -9999.25
 4421.00000    0.23600   47.46900  125.50570   94.11820   -9999.25   -9999.25
 4421.50000    0.25290   47.42920  125.52270   95.44260   -9999.25   -9999.25
 4422.00000    0.24870   47.42160  125.52760   95.66080   -9999.25   -9999.25
 4422.50000    0.23480   47.41400  125.53080   94.80890   -9999.25   -9999.25
 4423.00000    0.21830   47.40640  125.56730   93.91380   -9999.25   -9999.25
 4423.50000    0.20170   47.39860  125.57660   92.98330   -9999.25   -9999.25
 4424.00000    0.20230   47.45520  125.53110   92.32380   -9999.25   -9999.25
 4424.50000    0.24490   47.47550  125.58200   92.57770   -9999.25   -9999.25
 4425.00000    0.27340   47.46610  125.57620   93.20030   -9999.25   -9999.25
 4425.50000    0.27520   47.45670  125.56230   94.35310   -9999.25   -9999.25
 4426.00000    0.27100   47.44720  125.54840   95.73070   -9999.25   -9999.25
 4426.50000    0.26290   47.43780  125.53450   96.90090   -9999.25   -9999.25
 4427.00000    0.24490   47.42840  125.52060   95.98220   -9999.25   -9999.25
 4427.50000    0.22290   47.41480  125.51900   95.00320   -9999.25   -9999.25
 4428.00000    0.20890   47.44940  125.60730   94.54980   -9999.25   -9999.25
 4428.50000    0.20090   47.43860  125.61020   94.60210   -9999.25   -9999.25
 4429.00000    0.19950   47.42560  125.54840   94.84860   -9999.25   -9999.25
 4429.50000    0.20280   47.41270  125.52800   96.02230   -9999.25   -9999.25
 4430.00000    0.21190   47.39970  125.50760   98.61110   -9999.25   -9999.25
 4430.50000    0.22270   47.38670  125.48720  100.01130   -9999.25   -9999.25
 4431.00000    0.23590   47.37380  125.44500   99.13950   -9999.25   -9999.25
 4431.50000    0.24920   47.36080  125.39530   96.60590   -9999.25   -9999.25
 4432.00000    0.25240   47.34680  125.56220   94.14640   60.96950   70.49340
 4432.50000    0.24600   47.37120  125.72960   93.51740   61.06210   70.57290
 4433.00000    0.23360   47.39890  125.89650   95.06660   61.06850   70.69840
 4433.50000    0.22230   47.42650  125.65430   97.61490   61.20170   70.84720
 4434.00000    0.22250   47.45420  125.41220  100.16320   61.26700   70.99750
 4434.50000    0.22660   47.47770  125.35540   99.66440   61.29560   71.16430
 4435.00000    0.23060   47.47440  125.40900   95.11530   61.32430   71.33120
 4435.50000    0.23460   47.49550  126.58120   91.90070   61.64170   71.97810
 4436.00000    0.23060   48.16460  131.43130   91.79660   66.95930   81.77190
 4436.50000    0.22340   55.24900  167.59150   92.77170   77.48070  103.00890
 4437.00000    0.23520   62.98030  235.56930   92.31680   88.00200  127.08980
 4437.50000    0.24700   63.67130  235.85350   92.27000   88.06220  135.96720
 4438.00000    0.25880   57.40660  207.81010   94.19350   78.38600  109.49930
 4438.50000    0.27060   50.84160  169.48460   97.84980   68.04430   89.01080
 4439.00000    0.26280   47.28960  131.24120  101.45200   62.49600   71.43580
 4439.50000    0.24710   49.00030  137.64820  107.16660   66.03020   77.31890
 4440.00000    0.23420   51.80190  159.49130  106.88020   71.14610   89.09660
 4440.50000    0.24000   53.74000  180.31870  102.74250   74.67260   97.04640
 4441.00000    0.24870   54.13370  189.13610   98.63620   77.26980   97.91810
 4441.50000    0.24470   54.56390  191.63360   98.25800   77.84310   98.65030
 4442.00000    0.23830   57.97210  200.68280   98.89230   81.88820  117.36080
 4442.50000    0.23840   63.94200  231.42480   96.10940   89.20550  141.50200
 4443.00000    0.24360   71.23870  254.40950   93.32550   92.99980  162.77340
 4443.50000    0.24480   70.48540  249.92620   91.63770   91.82150  163.46320
 4444.00000    0.23730   69.83520  246.61130   94.46590   91.20550  160.35340
 4444.50000    0.22910   70.25260  248.73400   98.33140   92.22740  160.13710
 4445.00000    0.22140   70.68190  253.35890   99.85770   93.24930  162.15230
 4445.50000    0.22150   71.06320  257.98390   98.43790   94.19090  164.22870
 4446.00000    0.23000   70.79600  258.99240   95.52250   91.83800  163.73250
 4446.50000    0.23890   70.06380  221.99870   92.72770   84.12510  161.43090
 4447.00000    0.24240   72.39170  164.82150   92.01990   72.64810  170.69810
 4447.50000    0.23650   74.90200  137.03650   91.48550   63.66480  180.70220
 4448.00000    0.23070   75.17020  140.45060   89.12950   64.43210  182.64050
 4448.50000    0.23330   74.90280  142.71230   86.56110   65.69130  181.76630
 4449.00000    0.23750   74.74610  143.25340   86.56290   65.78440  181.61080
 4449.50000    0.24170   74.77190  143.79440   89.80260   65.83470  181.60290
 4450.00000    0.24330   74.82490  144.72370   94.20730   65.91410  181.82940
 4450.50000    0.24280   74.87790  145.26430   97.53520   66.01900  181.86900
 4451.00000    0.23020   74.89410  145.06510   99.70120   66.16020  181.53460
 4451.50000    0.21840   74.56020  144.69570   99.27780   66.16770  180.23540
 4452.00000    0.21160   73.55600  144.32630   97.10400   66.09700  174.33910
 4452.50000    0.21690   71.78570  144.11510   94.93010   65.85950  167.50000
 4453.00000    0.23340   71.02040  143.92430   94.82550   65.83410  165.10630
 4453.50000    0.25080   71.44940  145.79360   95.48940   66.92450  166.91740
 4454.00000    0.24870   70.94070  164.77410   93.14350   74.33360  164.37390
 4454.50000    0.22610   68.83200  215.76750   87.91310   84.71180  157.91460
 4455.00000    0.20650   68.26080  247.68030   83.91520   91.60370  153.89500
