~Version ---------------------------------------------------
VERS.   2.0 : CWLS log ASCII Standard -VERSION 2.0
WRAP.    NO : One line per depth step
DLM . SPACE : Column Data Section Delimiter
~Well ------------------------------------------------------
STRT .F                4404.0 : START DEPTH
STOP .F                6848.0 : STOP DEPTH
STEP .F                   0.5 : STEP
NULL .               -9999.25 : NULL VALUE
COMP .                        : COMPANY
WELL .                        : WELL
FLD  .                        : FIELD
LOC  .                        : LOCATION
PROV .                        : PROVINCE
CNTY .                        : COUNTY
STAT .                        : STATE
CTRY .                        : COUNTRY
SRVC .                        : SERVICE COMPANY
DATE .                        : DATE
UWI  .                        : UNIQUE WELL ID
API  .                        : API NUMBER
SLAT .WGS84 6.788468231959101 : SURFACE LATITUDE
SLON .WGS84   3.4018628420352 : SURFACE LONGITUDE
DATUM.F                   nan : DEPTH DATUM ELEV
~Curve Information -----------------------------------------
DEPT   .F     : 1 MEASURED DEPTH
NPHI_LS.DEC   : NEUTRON POROSITY LIMESTONE
DT     .US/F  : DELTA-T (INTERVAL TRANSIT TIME)
DTSM   .US/F  : DELTA-T SHEAR
GRS    .GAPI  : GAMMA RAY FROM SONIC LOG
DT1    .US/F  : DELTA-T SHEAR - LOWER DIPOLE
DTCO   .US/F  : DELTA-T COMPRESSIONAL
~Params ----------------------------------------------------
~Other -----------------------------------------------------
~ASCII -----------------------------------------------------
# ...
 5176.50000    0.17470   55.88590  238.83120   66.35290   89.44400  104.51630
 5177.00000    0.18620   56.01160  239.84730   66.26610   89.49140  105.00890
 5177.50000    0.18870   56.16320  240.86340   66.86820   89.53890  105.43190
 5178.00000    0.18170   56.27700  241.82910   68.45700   89.77520  105.72230
 5178.50000    0.17470   56.34220  242.77740   70.42420   90.26930  106.00480
 5179.00000    0.17100   56.40750  243.64910   70.80270   90.46470  106.26730
 5179.50000    0.17340   56.29480  242.49970   69.30880   90.42690  106.30890
 5180.00000    0.17350   56.39980  241.86460   67.34640   90.36900  106.34250
 5180.50000    0.17490   56.49700  242.19920   67.35290   90.67830  106.55160
 5181.00000    0.18500   56.64080  245.71110   69.54580   91.48530  107.35770
 5181.50000    0.19540   56.90340  250.07490   72.14620   92.57260  108.28890
 5182.00000    0.19580   57.04860  254.66740   74.35760   93.65990  109.09010
 5182.50000    0.19070   57.37020  256.36220   73.57450   94.04330  110.13390
 5183.00000    0.18490   57.40190  255.26790   70.95310   93.77250  110.31450
 5183.50000    0.18250   57.30940  252.64370   68.35880   92.91060  110.10960
 5184.00000    0.18190   57.13220  249.13960   67.62560   92.03150  109.50270
 5184.50000    0.17830   56.86280  245.76550   67.76120   91.24470  108.58280
 5185.00000    0.17390   56.78580  245.17300   67.37380   90.80270  108.13000
 5185.50000    0.17040   56.59130  245.10110   66.17180   90.88730  107.23970
 5186.00000    0.17230   56.47950  242.36520   64.90180   90.42370  106.79090
 5186.50000    0.17950   56.45200  236.86460   63.86090   89.73670  106.68440
 5187.00000    0.19170   56.54340  235.38200   63.62750   89.09200  106.60840
 5187.50000    0.20180   56.74310  236.81760   66.17360   89.16400  107.65270
 5188.00000    0.21080   57.11910  240.24910   69.76180   89.93380  109.30720
 5188.50000    0.21890   57.87780  245.45440   73.19110   90.98960  112.15760
 5189.00000    0.22610   58.51530  251.22980   74.83710   92.43890  115.16830
 5189.50000    0.23270   58.74810  255.75500   75.59880   94.00350  116.14800
 5190.00000    0.23910   58.66070  259.56870   76.18950   94.82940  115.47790
 5190.50000    0.23920   58.46500  259.80390   76.59400   94.86210  114.56150
 5191.00000    0.23150   58.28000  257.83000   76.31430   94.41790  113.58860
 5191.50000    0.21350   58.08540  255.52840   74.27690   93.93030  112.52330
 5192.00000    0.20240   57.94460  254.20140   71.52170   93.22760  112.53840
 5192.50000    0.20540   58.00510  253.74360   69.89140   93.35350  112.75850
 5193.00000    0.21140   58.02460  254.13680   70.88490   93.57860  112.94210
 5193.50000    0.21740   58.23740  255.83890   72.71820   93.87320  113.38380
 5194.00000    0.21920   58.46070  257.21040   74.05660   94.07220  114.25310
 5194.50000    0.22190   58.77820  258.14890   75.42330   94.26670  116.00140
 5195.00000    0.22460   59.24880  259.00250   76.73020   94.46110  117.33870
 5195.50000    0.22740   59.39790  259.74830   78.30820   94.63350  118.35980
 5196.00000    0.22760   59.51670  260.66900   78.78770   94.79350  118.79920
 5196.50000    0.21630   59.63270  261.29310   78.54410   94.95340  119.01780
 5197.00000    0.20860   59.74860  260.48500   78.66410   95.11340  119.01780
 5197.50000    0.21400   59.83700  259.35880   79.77930   94.75280  119.01780
 5198.00000    0.23000   59.80180  257.77020   81.17930   94.27180  118.83700
 5198.50000    0.24030   59.73050  256.46790   82.76510   93.86890  118.58380
 5199.00000    0.23790   59.72840  255.17570   82.86990   93.71760  118.49620
 5199.50000    0.23050   59.72700  255.00160   80.71890   93.85630  118.19300
 5200.00000    0.22400   59.55110  257.14660   78.77690   94.35370  117.88530
 5200.50000    0.21760   59.27530  260.80150   77.08190   95.32370  117.59750
 5201.00000    0.21160   59.09320  264.45630   75.78860   96.28520  116.60760
 5201.50000    0.20910   58.48070  265.05160   74.88830   96.06230  114.67410
 5202.00000    0.21980   57.83380  262.09250   74.11510   95.04560  111.35860
 5202.50000    0.22520   57.26890  257.72240   73.41350   94.05210  109.45300
 5203.00000    0.22020   57.27250  253.91180   72.92830   93.10590  109.73460
 5203.50000    0.22480   57.65500  254.23060   73.50470   93.17040  111.53300
 5204.00000    0.23760   58.18870  259.17970   75.32000   94.68520  114.06120
 5204.50000    0.24850   59.05010  267.43270   77.00970   96.92740  116.69100
 5205.00000    0.24170   59.40390  273.38300   77.56170   98.22750  117.84030
 5205.50000    0.22760   59.51160  278.76930   77.62460   99.49280  118.42320
 5206.00000    0.22550   59.36330  280.98370   77.92550   99.75580  118.32210
 5206.50000    0.23080   59.41100  280.03700   78.61280   99.81810  118.08940
 5207.00000    0.23960   59.45870  279.20420   79.30000   99.88040  118.25230
 5207.50000    0.25310   59.50640  279.17710   80.41030  100.16280  118.48830
 5208.00000    0.26840   59.55400  281.09430   81.73740  100.51950  118.83710
 5208.50000    0.27690   59.61330  283.62080   83.09470  100.79860  119.42180
 5209.00000    0.26680   59.67090  284.89930   84.88120  100.96690  120.06240
 5209.50000    0.25550   59.68630  279.09340   86.17180  100.42700  120.34560
 5210.00000    0.25680   59.71770  266.56130   85.59250   96.67400  120.22220
 5210.50000    0.25980   59.74970  252.61130   82.13960   92.75370  120.07700
 5211.00000    0.25810   59.78170  241.32920   79.16450   90.32810  119.93170
 5211.50000    0.24920   59.65560  240.42600   79.54120   90.47780  119.83520
 5212.00000    0.23940   59.63020  246.34410   81.10900   92.18980  119.86690
 5212.50000    0.22910   59.81050  257.17030   82.77280   93.94430  120.30140
 5213.00000    0.21960   59.96240  264.41970   83.96030   95.43360  120.87890
 5213.50000    0.22730   60.09170  268.44450   85.79620   96.80030  121.38310
 5214.00000    0.27240   60.08330  270.62040   88.30790   98.04490  120.48040
 5214.50000    0.30800   59.77200  271.69040   88.46140   98.36790  119.62350
 5215.00000    0.30160   59.97050  272.81560   85.42810   98.35270  120.49850
 5215.50000    0.27900   60.16910  269.85120   81.86330   97.62520  121.64550
 5216.00000    0.26140   60.45380  253.14990   78.80430   93.49150  122.79250
 5216.50000    0.25050   60.52120  238.25270   80.44710   89.57860  123.38590
 5217.00000    0.24540   60.43010  247.81660   84.14750   92.74650  123.29630
 5217.50000    0.24040   60.33910  275.19860   87.78080   97.21110  122.62940
 5218.00000    0.23930   60.24800  275.36570   90.56120   98.63070  121.51590
 5218.50000    0.24720   60.15690  275.56920   89.89530   98.87620  120.69910
 5219.00000    0.25950   60.06590  276.74810   88.94390   99.11490  120.41390
 5219.50000    0.26130   59.97480  277.29520   88.12700   99.33710  120.66030
 5220.00000    0.25120   59.88380  277.32440   88.15980   99.47470  120.90660
 5220.50000    0.23620   59.79270  277.25670   89.63370   99.17470  120.98170
 5221.00000    0.22550   59.70170  276.05720   91.96880   98.70740  120.36900
 5221.50000    0.22760   59.64080  265.55800   93.74780   96.13010  120.32510
 5222.00000    0.23520   59.73980  254.19750   91.96480   92.76520  120.28130
 5222.50000    0.24340   59.83870  247.21320   89.27220   91.36240  120.50370
 5223.00000    0.24860   59.93770  249.13100   88.72130   92.24320  121.00150
 5223.50000    0.25190   59.88410  252.28490   88.35520   93.11480  121.79830
 5224.00000    0.25390   60.00740  253.46790   87.52210   92.98760  122.52750
 5224.50000    0.25120   60.09220  249.53660   86.20340   91.87610  122.01460
 5225.00000    0.24400   60.06090  245.36370   86.03820   90.76450  120.93800
 5225.50000    0.23800   60.06010  242.65380   86.48850   90.42000  121.25030
 5226.00000    0.24670   60.54360  243.91770   86.68580   91.45680  123.69040
 5226.50000    0.25530   61.23270  251.51300   86.85650   92.77470  126.30030
 5227.00000    0.25410   61.55250  258.87650   88.34150   94.08230  127.41610
 5227.50000    0.25220   61.54760  258.00960   90.41340   94.61500  126.99320
