~Version ---------------------------------------------------
VERS.   2.0 : CWLS log ASCII Standard -VERSION 2.0
WRAP.    NO : One line per depth step
DLM . SPACE : Column Data Section Delimiter
~Well ------------------------------------------------------
STRT .F                4404.0 : START DEPTH
STOP .F                6848.0 : STOP DEPTH
STEP .F                   0.5 : STEP
NULL .               -9999.25 : NULL VALUE
COMP .                        : COMPANY
WELL .                        : WELL
FLD  .                        : FIELD
LOC  .                        : LOCATION
PROV .                        : PROVINCE
CNTY .                        : COUNTY
STAT .                        : STATE
CTRY .                        : COUNTRY
SRVC .                        : SERVICE COMPANY
DATE .                        : DATE
UWI  .                        : UNIQUE WELL ID
API  .                        : API NUMBER
SLAT .WGS84 6.788468231959101 : SURFACE LATITUDE
SLON .WGS84   3.4018628420352 : SURFACE LONGITUDE
DATUM.F                   nan : DEPTH DATUM ELEV
~Curve Information -----------------------------------------
DEPT   .F     : 1 MEASURED DEPTH
NPHI_LS.DEC   : NEUTRON POROSITY LIMESTONE
DT     .US/F  : DELTA-T (INTERVAL TRANSIT TIME)
DTSM   .US/F  : DELTA-T SHEAR
GRS    .GAPI  : GAMMA RAY FROM SONIC LOG
DT1    .US/F  : DELTA-T SHEAR - LOWER DIPOLE
DTCO   .US/F  : DELTA-T COMPRESSIONAL
~Params ----------------------------------------------------
~Other -----------------------------------------------------
~ASCII -----------------------------------------------------
# ...
 6464.00000    0.01170   45.95800  162.61240   24.55450   70.38910   63.98040
 6464.50000    0.01150   45.82070  162.61110   24.38150   70.24720   63.56740
 6465.00000    0.01130   45.82000  162.50470   24.34020   70.10530   63.95420
 6465.50000    0.01130   45.86500  161.08680   25.50560   69.99290   64.04420
 6466.00000    0.01190   45.94330  159.66890   26.41770   69.93500   64.52860
 6466.50000    0.01250   46.06180  159.50750   27.26380   69.88160   65.01310
 6467.00000    0.01230   46.16710  159.47740   27.00240   69.95890   65.49760
 6467.50000    0.01240   46.13720  160.03040   27.40950   70.03610   65.51480
 6468.00000    0.01270   46.10240  160.79530   27.93190   70.11330   65.21850
 6468.50000    0.01290   46.06760  161.63340   28.45430   70.26080   64.79250
 6469.00000    0.01340   46.03280  162.53920   28.97660   70.57050   64.17660
 6469.50000    0.01360   45.83370  163.71110   28.55430   71.00270   63.46630
 6470.00000    0.01380   45.45930  164.88290   27.63110   71.43490   62.75470
 6470.50000    0.01340   45.29750  165.72820   26.98110   71.59050   61.81880
 6471.00000    0.01200   45.27850  165.92810   26.40670   71.20370   60.78450
 6471.50000    0.01060   45.13050  166.28210   25.51770   70.88620   60.18410
 6472.00000    0.00950   45.20470  166.80030   24.76780   70.78100   60.99510
 6472.50000    0.00950   45.38660  167.61100   24.48490   71.55100   61.90660
 6473.00000    0.01030   45.64000  168.29670   24.87280   72.40640   62.84250
 6473.50000    0.01090   45.66410  168.88420   25.16000   72.42370   63.11320
 6474.00000    0.01130   45.63580  169.45190   24.72540   72.28330   62.67860
 6474.50000    0.01260   45.67430  170.01150   24.22950   72.22030   63.11420
 6475.00000    0.01450   45.78500  171.91090   24.68670   72.54220   63.84710
 6475.50000    0.01680   45.95430  174.47060   25.51600   73.12290   64.51490
 6476.00000    0.01910   46.22710  180.56140   27.11980   73.70060   64.87680
 6476.50000    0.02560   47.31130  191.77180   31.36850   75.30350   71.99050
 6477.00000    0.04460   49.68950  202.98220   40.05350   79.66840   82.42950
 6477.50000    0.05960   51.13410  204.74580   47.89490   80.94000   85.73930
 6478.00000    0.06560   49.18720  196.60230   47.89640   74.36560   76.37440
 6478.50000    0.05710   45.78300  161.71090   40.80330   69.47640   64.69210
 6479.00000    0.04230   45.18930  147.89370   32.64640   66.67960   60.81040
 6479.50000    0.03420   46.06820  155.09690   27.58850   67.73650   65.13300
 6480.00000    0.03260   46.52610  156.19790   24.92900   68.50840   67.09900
 6480.50000    0.03290   46.42780  155.30410   22.97470   69.05100   66.14350
 6481.00000    0.03290   46.10570  157.41360   21.39690   69.36470   65.59390
 6481.50000    0.03470   46.46100  160.37180   23.24880   69.84010   66.61560
 6482.00000    0.04050   47.50200  161.94890   26.89360   70.39530   70.87830
 6482.50000    0.04720   48.69600  163.87450   34.06840   70.99640   75.60790
 6483.00000    0.05690   50.05560  173.46030   44.14690   72.61810   80.39440
 6483.50000    0.07420   51.67440  194.35190   55.42690   76.66340   88.49270
 6484.00000    0.09710   53.95760  219.36050   64.52160   81.64640   97.63310
 6484.50000    0.12280   56.07240  229.41050   70.93660   86.97860  106.24380
 6485.00000    0.14420   56.36210  227.83130   71.68780   86.86600  106.28310
 6485.50000    0.13550   55.18480  221.75220   69.28330   85.20270  102.68330
 6486.00000    0.12600   54.54790  215.60610   66.20140   83.53940   99.06330
 6486.50000    0.13530   55.11250  214.24650   65.13670   83.32880  100.50950
 6487.00000    0.15140   55.72820  224.46840   65.17650   85.83950  103.99360
 6487.50000    0.16200   56.60450  236.17630   65.33470   89.40720  107.54040
 6488.00000    0.16660   57.46350  251.22430   65.71500   92.87120  110.99720
 6488.50000    0.17240   57.94860  260.82410   66.63490   94.40150  113.23100
 6489.00000    0.18100   57.69720  260.36420   68.07750   94.82630  112.67550
 6489.50000    0.19140   60.12970  267.72010   69.44780   96.91190  120.88950
 6490.00000    0.21530   61.97660  283.11370   67.81500   97.81440  127.19300
 6490.50000    0.23930   58.45830  259.65700   64.22760   93.69300  112.69350
 6491.00000    0.26660   55.15660  230.07630   64.64640   87.85300  101.09970
 6491.50000    0.32260   57.43720  230.81440   68.40390   92.40910  113.01610
 6492.00000    0.37150   58.33730  252.75990   73.36450   93.21710  115.25780
 6492.50000    0.36580   57.65190  247.99620   74.69620   90.97090  112.85380
 6493.00000    0.32440   57.48250  242.72890   70.19440   88.64220  110.64270
 6493.50000    0.25540   57.58140  228.91770   63.68230   86.31350  111.63670
 6494.00000    0.24070   59.04170  223.50520   58.10070   85.98720  116.78630
 6494.50000    0.28630   60.99770  248.58170   64.21480   94.62660  124.38750
 6495.00000    0.33990   62.87120  269.64380   74.95110   97.67780  131.39790
 6495.50000    0.38000   66.46190  289.19370   80.14230  102.92530  144.82320
 6496.00000    0.34480   66.04990  308.74370   76.90970  107.16070  145.27030
 6496.50000    0.26460   63.73110  312.56390   68.61590  107.87080  134.79160
 6497.00000    0.20580   62.55100  302.48970   62.48620  107.30290  132.26080
 6497.50000    0.18410   59.07660  280.76040   58.97720  101.82020  121.02790
 6498.00000    0.21010   55.26690  246.79800   61.09200   87.67340  108.01390
 6498.50000    0.28410   56.32210  219.24170   64.69810   86.43860  102.69090
 6499.00000    0.35900   59.75230  233.99210   68.37510   90.05750  116.97980
 6499.50000    0.40290   61.79920  251.00170   72.90710   92.04360  127.56440
 6500.00000    0.44110   60.20650  246.70830   75.86820   89.92230  121.38560
 6500.50000    0.46020   59.90470  255.88140   77.79000   95.73050  117.80950
 6501.00000    0.48350   65.12660  292.41090   77.72760  104.54050  141.84070
 6501.50000    0.51480   69.17980  326.59960   77.54950  112.41360  157.84090
 6502.00000    0.53120   66.99470  324.34350   77.66250  105.77510  149.88130
 6502.50000    0.50350   64.89900  261.60670   78.02870   94.38560  140.77300
 6503.00000    0.45960   62.23070  231.09430   79.07600   89.54230  132.12120
 6503.50000    0.42480   63.25500  244.03110   80.14260   95.57510  127.42270
 6504.00000    0.42290   65.78700  292.92190   79.02470  105.51300  145.91420
 6504.50000    0.42540   67.72810  326.13700   76.80740  110.06700  152.20210
 6505.00000    0.41920   69.47220  340.47940   74.58070  114.23310  158.01000
 6505.50000    0.39180   71.04480  349.63490   72.09710  116.64520  163.69760
 6506.00000    0.34640   71.10330  346.40890   66.57850  117.34330  166.33590
 6506.50000    0.30200   70.00090  336.98690   61.73720  114.69690  162.72020
 6507.00000    0.32890   68.71940  330.93620   59.27020  112.86300  155.48000
 6507.50000    0.38770   67.43790  341.73390   62.36160  116.64880  150.43500
 6508.00000    0.44620   67.76720  362.98430   65.79840  122.97160  152.78710
 6508.50000    0.44820   68.56030  369.91210   68.68410  123.01450  154.72000
 6509.00000    0.42840   68.65470  372.09740   71.36350  122.98650  154.31870
 6509.50000    0.40870   68.20150  372.04030   73.86860  122.95850  153.11280
 6510.00000    0.38890   68.11830  371.98320   73.15520  122.93060  152.83420
 6510.50000    0.38490   68.67430  371.92600   70.36050  122.90260  154.48310
 6511.00000    0.39650   69.30980  371.86890   67.59150  122.87460  157.26890
 6511.50000    0.40340   69.44880  371.81180   66.38800  122.84660  158.23070
 6512.00000    0.38270   68.66980  371.75470   66.56200  122.81870  156.06090
 6512.50000    0.35260   67.66510  371.69760   67.04110  122.80520  151.89720
 6513.00000    0.32740   67.25580  371.56900   66.62280  122.80980  150.14310
 6513.50000    0.31300   67.46170  371.33050   64.95350  122.81440  149.91660
 6514.00000    0.31710   67.26670  372.03760   64.24680  123.01830  149.82180
 6514.50000    0.32620   66.96430  375.21850   64.76720  124.05330  149.25950
 6515.00000    0.33440   67.25580  373.25500   66.06000  123.18470  149.27790
