~Version ---------------------------------------------------
VERS.   2.0 : CWLS log ASCII Standard -VERSION 2.0
WRAP.    NO : One line per depth step
DLM . SPACE : Column Data Section Delimiter
~Well ------------------------------------------------------
STRT .F                4404.0 : START DEPTH
STOP .F                6848.0 : STOP DEPTH
STEP .F                   0.5 : STEP
NULL .               -9999.25 : NULL VALUE
COMP .                        : COMPANY
WELL .                        : WELL
FLD  .                        : FIELD
LOC  .                        : LOCATION
PROV .                        : PROVINCE
CNTY .                        : COUNTY
STAT .                        : STATE
CTRY .                        : COUNTRY
SRVC .                        : SERVICE COMPANY
DATE .                        : DATE
UWI  .                        : UNIQUE WELL ID
API  .                        : API NUMBER
SLAT .WGS84 6.788468231959101 : SURFACE LATITUDE
SLON .WGS84   3.4018628420352 : SURFACE LONGITUDE
DATUM.F                   nan : DEPTH DATUM ELEV
~Curve Information -----------------------------------------
DEPT   .F     : 1 MEASURED DEPTH
NPHI_LS.DEC   : NEUTRON POROSITY LIMESTONE
DT     .US/F  : DELTA-T (INTERVAL TRANSIT TIME)
DTSM   .US/F  : DELTA-T SHEAR
GRS    .GAPI  : GAMMA RAY FROM SONIC LOG
DT1    .US/F  : DELTA-T SHEAR - LOWER DIPOLE
DTCO   .US/F  : DELTA-T COMPRESSIONAL
~Params ----------------------------------------------------
~Other -----------------------------------------------------
~ASCII -----------------------------------------------------
# ...
 4713.00000    0.12360   68.38870  307.55770   77.79380  106.59090  156.21330
 4713.50000    0.11740   69.00010  306.54970   84.27820  106.54360  156.20720
 4714.00000    0.12940   70.53860  311.40520   82.62960  107.56600  162.51800
 4714.50000    0.14760   72.26690  317.17740   76.67570  109.40260  169.51940
 4715.00000    0.16420   72.63520  322.43400   71.61090  110.99740  171.49470
 4715.50000    0.17600   72.68080  326.22870   67.61140  111.74590  171.71760
 4716.00000    0.18070   72.68080  327.17500   63.56270  111.95000  171.59250
 4716.50000    0.17970   72.70760  328.13850   58.04770  112.21090  170.95680
 4717.00000    0.17640   73.03380  329.10200   53.85090  112.63530  172.10410
 4717.50000    0.17320   73.50110  330.21940   53.34640  112.88590  174.67020
 4718.00000    0.17010   73.80870  330.18600   56.13560  112.61820  175.57680
 4718.50000    0.16930   73.84250  329.68260   60.07890  112.29260  175.71810
 4719.00000    0.17390   73.90650  329.49620   64.44610  112.11010  175.78650
 4719.50000    0.17580   74.07810  329.76030   64.66950  112.29010  177.23230
 4720.00000    0.17610   74.24320  329.61960   62.23770  112.24710  178.71280
 4720.50000    0.18150   73.09410  315.52610   59.71130  109.52570  173.13770
 4721.00000    0.19530   70.70370  295.46840   60.20070  103.61040  163.68200
 4721.50000    0.20640   69.79520  285.68460   62.18980  100.72030  160.71830
 4722.00000    0.20940   71.79980  306.45930   64.27820  106.48140  170.76380
 4722.50000    0.20470   73.72840  325.68870   64.69420  111.70500  175.58490
 4723.00000    0.19860   73.70570  329.53620   64.79630  112.18470  175.73700
 4723.50000    0.19020   73.55650  326.58110   65.46520  112.00470  175.00450
 4724.00000    0.18330   73.16730  323.62610   65.99370  111.37360  173.10750
 4724.50000    0.18420   72.36660  320.67110   66.24610  110.74250  170.19370
 4725.00000    0.18590   71.74560  319.43200   67.37860  110.11810  167.65460
 4725.50000    0.18470   71.52710  319.07710   70.94440  109.81890  166.75670
 4726.00000    0.18270   71.48850  319.40810   75.80580  110.99720  166.25230
 4726.50000    0.18150   71.42840  330.96840   82.12720  112.53600  166.39130
 4727.00000    0.18740   71.36820  337.74120   87.99560  114.07490  165.66630
 4727.50000    0.19720   71.33740  335.98080   91.85260  114.33300  165.48770
 4728.00000    0.20630   71.78150  333.57600   94.49250  113.75570  167.57370
 4728.50000    0.20830   72.57900  333.08940   94.79930  113.20120  170.92140
 4729.00000    0.20480   73.55670  333.09320   94.72420  113.20310  174.26910
 4729.50000    0.19890   74.22860  332.54460   92.75790  112.98610  175.51790
 4730.00000    0.19300   68.44100  308.07090   89.23910  106.12170  153.95370
 4730.50000    0.19530   62.69500  269.90390   84.42840   97.82350  128.86140
 4731.00000    0.19700   58.53040  252.69640   78.84150   93.81550  115.34770
 4731.50000    0.19090   59.28800  233.06480   74.67520   89.80740  117.58870
 4732.00000    0.17960   61.66080  218.87230   75.10930   85.79930  128.68210
 4732.50000    0.16900   64.33140  219.40810   75.28990   83.92830  137.32710
 4733.00000    0.17810   65.90340  224.68700   74.49710   85.34750  144.09750
 4733.50000    0.18830   61.52370  230.17510   73.42300   87.09020  126.52750
 4734.00000    0.19320   56.99420  232.85820   74.05370   87.98340  107.89470
 4734.50000    0.19620   56.85200  234.35590   79.71210   88.49270  108.23280
 4735.00000    0.20100   57.28040  236.11240   85.70360   88.77190  109.50890
 4735.50000    0.20660   57.65880  237.86900   90.38740   89.05100  110.95490
 4736.00000    0.21220   57.72850  239.15570   92.63840   89.30400  111.13530
 4736.50000    0.21270   57.46330  238.02540   89.73370   89.15550  110.23040
 4737.00000    0.20790   57.20070  235.64260   84.89500   88.60110  109.42410
 4737.50000    0.20070   57.02070  231.95330   79.24640   88.04510  108.82520
 4738.00000    0.19440   56.96200  228.72810   75.26870   87.78550  106.94000
 4738.50000    0.19420   59.67420  243.90350   74.77890   93.95630  119.61320
 4739.00000    0.19830   66.51290  286.18960   77.16600  100.61180  145.67180
 4739.50000    0.20200   72.03800  312.65780   80.14530  107.26730  163.88490
 4740.00000    0.20240   72.30170  324.16270   83.08840  110.37240  169.93590
 4740.50000    0.19780   68.99360  307.20320   85.15850  105.91560  157.52040
 4741.00000    0.19920   66.45970  287.27730   85.52190  101.35570  145.33870
 4741.50000    0.20450   69.29260  290.34630   84.62220  100.83750  155.90230
 4742.00000    0.20150   72.48760  317.22490   83.50510  109.80280  169.34000
 4742.50000    0.19440   69.89220  300.97040   83.39070  103.18060  160.51780
 4743.00000    0.19060   63.38460  263.16710   84.78160   93.62990  134.51340
 4743.50000    0.19210   57.93980  226.29210   86.04080   87.48330  117.41980
 4744.00000    0.19400   57.84070  227.59160   86.81750   86.84330  113.60170
 4744.50000    0.19480   57.84880  228.80400   87.53410   86.76090  112.75850
 4745.00000    0.19430   57.51140  226.81610   86.92070   86.64260  111.10290
 4745.50000    0.19320   56.89860  225.51640   84.95810   86.64190  108.60200
 4746.00000    0.19300   56.33710  227.51740   83.25010   86.57700  106.68740
 4746.50000    0.19630   56.23470  229.46870   83.49390   86.86460  106.14400
 4747.00000    0.20120   56.76570  229.24030   85.68250   86.88910  109.17920
 4747.50000    0.20610   56.51660  220.13100   88.06880   84.99750  107.56800
 4748.00000    0.21790   54.28270  195.62170   90.28990   78.10490   98.79920
 4748.50000    0.23220   52.12480  172.69970   92.12260   73.66030   90.13320
 4749.00000    0.24830   52.99860  179.76190   93.68350   74.46610   92.59790
 4749.50000    0.24850   54.33060  190.68540   94.27370   77.26340   97.05280
 4750.00000    0.24330   55.15910  197.49170   93.23630   79.11230  101.52470
 4750.50000    0.24220   53.19930  186.82010   91.55070   76.41630   94.80320
 4751.00000    0.25680   50.20000  165.77430   90.02210   70.84020   80.54680
 4751.50000    0.26490   50.71810  172.61890   88.10690   72.93160   83.67160
 4752.00000    0.27180   52.31070  182.11900   86.22750   75.80210   90.83660
 4752.50000    0.29070   53.35690  187.46590   84.51910   76.66090   94.51870
 4753.00000    0.33570   54.14590  190.24250   84.56150   77.01740   96.77580
 4753.50000    0.33460   54.27280  190.33320   87.09800   76.97440   98.24320
 4754.00000    0.30080   54.11740  189.72000   89.73500   76.76580   97.99330
 4754.50000    0.24910   53.88250  186.41580   91.56620   76.48560   96.83990
 4755.00000    0.21100   53.77720  183.87090   92.77680   75.98920   96.09410
 4755.50000    0.21620   55.00280  195.54770   93.48910   79.13410  100.08310
 4756.00000    0.22990   57.24690  224.85630   92.64420   85.11310  110.19170
 4756.50000    0.24810   58.38240  249.93400   91.62270   90.56560  117.53880
 4757.00000    0.26880   59.36240  247.05420   91.46040   91.78440  117.91540
 4757.50000    0.27490   59.56650  246.80600   91.48250   91.79200  118.29200
 4758.00000    0.26530   59.51500  247.46910   90.81460   91.68480  118.60150
 4758.50000    0.25420   59.40630  247.72040   89.91670   91.55290  118.63620
 4759.00000    0.24240   59.15400  245.90260   88.17250   91.38630  117.47570
 4759.50000    0.23230   58.27280  242.88240   85.76550   90.32040  114.66620
 4760.00000    0.22310   57.39170  238.70450   83.89500   89.25920  111.87990
 4760.50000    0.21400   57.26520  234.55430   83.35830   88.41290  110.21210
 4761.00000    0.20480   57.51060  236.80870   83.37360   89.07440  110.72370
 4761.50000    0.20370   58.12960  240.19730   83.38890   89.92040  112.53230
 4762.00000    0.21470   58.78850  245.07270   84.25410   91.28190  115.00410
 4762.50000    0.22560   59.56840  250.92060   87.05450   92.72060  117.99980
 4763.00000    0.24310   60.00290  256.96980   90.24900   94.20220  121.02190
 4763.50000    0.26540   59.98030  262.78810   92.22370   95.68380  121.15210
 4764.00000    0.26590   59.75320  263.27230   93.09490   95.94640  120.01070
