~Version ---------------------------------------------------
VERS.   2.0 : CWLS log ASCII Standard -VERSION 2.0
WRAP.    NO : One line per depth step
DLM . SPACE : Column Data Section Delimiter
~Well ------------------------------------------------------
STRT .F                4404.0 : START DEPTH
STOP .F                6848.0 : STOP DEPTH
STEP .F                   0.5 : STEP
NULL .               -9999.25 : NULL VALUE
COMP .                        : COMPANY
WELL .                        : WELL
FLD  .                        : FIELD
LOC  .                        : LOCATION
PROV .                        : PROVINCE
CNTY .                        : COUNTY
STAT .                        : STATE
CTRY .                        : COUNTRY
SRVC .                        : SERVICE COMPANY
DATE .                        : DATE
UWI  .                        : UNIQUE WELL ID
API  .                        : API NUMBER
SLAT .WGS84 6.788468231959101 : SURFACE LATITUDE
SLON .WGS84   3.4018628420352 : SURFACE LONGITUDE
DATUM.F                   nan : DEPTH DATUM ELEV
~Curve Information -----------------------------------------
DEPT   .F     : 1 MEASURED DEPTH
NPHI_LS.DEC   : NEUTRON POROSITY LIMESTONE
DT     .US/F  : DELTA-T (INTERVAL TRANSIT TIME)
DTSM   .US/F  : DELTA-T SHEAR
GRS    .GAPI  : GAMMA RAY FROM SONIC LOG
DT1    .US/F  : DELTA-T SHEAR - LOWER DIPOLE
DTCO   .US/F  : DELTA-T COMPRESSIONAL
~Params ----------------------------------------------------
~Other -----------------------------------------------------
~ASCII -----------------------------------------------------
# ...
 5485.50000    0.12500   56.62690  225.42010   69.36240   86.53460  107.36330
 5486.00000    0.17810   57.70490  235.63420   82.73340   89.08570  109.85770
 5486.50000    0.21180   59.74900  252.46630   90.16130   93.43890  119.28230
 5487.00000    0.22780   62.07810  274.57200   93.51250   98.57820  130.25550
 5487.50000    0.24120   61.46850  285.89740   93.02860  101.54660  125.39440
 5488.00000    0.24840   60.42620  287.35990   92.90300  101.00600  121.31290
 5488.50000    0.25250   59.38380  277.25320   95.12550   99.12190  118.90570
 5489.00000    0.24690   58.47060  264.38640   94.50950   95.46340  115.32680
 5489.50000    0.22210   57.92060  252.75330   91.16250   93.26850  112.55450
 5490.00000    0.21620   58.04390  256.97050   88.12890   94.12550  113.45190
 5490.50000    0.22690   58.54000  266.20480   88.70490   96.59200  115.51610
 5491.00000    0.23760   59.63270  275.50480   90.14490   99.73740  119.27190
 5491.50000    0.24830   60.67150  307.16960   91.25400  106.81510  123.87570
 5492.00000    0.25900   61.65430  352.13000   91.90930  117.57940  128.70900
 5492.50000    0.26770   61.65270  326.29490   92.28560  113.40410  125.76240
 5493.00000    0.26120   59.28620  287.59520   90.90590  103.07560  117.85070
 5493.50000    0.24590   57.96240  269.43600   87.36990   97.35030  113.19440
 5494.00000    0.22420   57.61690  260.95130   83.16810   94.97860  111.93380
 5494.50000    0.20430   57.42780  254.47330   82.53380   93.42610  110.93300
 5495.00000    0.19850   57.34900  255.31140   83.56390   93.68690  110.18060
 5495.50000    0.20060   57.72600  262.64220   84.08890   96.17230  111.77310
 5496.00000    0.20560   58.70930  270.83530   84.15830   97.69460  116.08660
 5496.50000    0.21870   59.76210  267.43060   84.19170   96.19760  121.46550
 5497.00000    0.23230   60.13360  260.16300   84.50120   94.02760  123.16810
 5497.50000    0.23060   60.27990  253.74160   83.51560   92.87290  120.45120
 5498.00000    0.22380   60.00700  247.68560   81.56330   91.83420  118.22290
 5498.50000    0.21780   59.40810  240.36390   79.52730   89.75390  116.89450
 5499.00000    0.21190   58.80930  227.40880   77.61540   85.87720  115.43660
 5499.50000    0.20590   58.30510  217.60840   76.44110   83.79140  113.95630
 5500.00000    0.19740   58.75230  223.10830   78.15830   85.87260  115.63450
 5500.50000    0.18840   59.65180  237.07110   82.85040   90.21870  119.25780
 5501.00000    0.19600   60.76860  256.03390   86.86770   94.70360  123.93790
 5501.50000    0.21200   61.19150  271.12150   88.89720   97.00320  127.57350
 5502.00000    0.22140   61.10940  267.28650   90.62030   95.89690  125.30710
 5502.50000    0.21360   60.47560  257.75250   90.47940   94.20590  121.81640
 5503.00000    0.21830   59.78730  250.55940   87.95680   92.26170  119.42080
 5503.50000    0.21940   59.11510  247.80300   84.95500   91.76370  117.29900
 5504.00000    0.20510   58.59670  246.70460   82.10490   91.60750  115.41800
 5504.50000    0.19080   58.14810  246.18570   81.78890   91.50750  114.00310
 5505.00000    0.18350   57.71220  247.45340   83.33190   91.60840  112.13750
 5505.50000    0.18620   57.39020  249.24410   85.05210   92.10640  111.06130
 5506.00000    0.19250   57.77450  253.04560   86.41050   93.27490  113.04800
 5506.50000    0.19860   58.75210  258.13650   86.05030   94.35580  115.95120
 5507.00000    0.19630   59.42130  262.53600   84.53330   95.43160  118.76920
 5507.50000    0.19110   59.71610  266.83160   82.88430   96.51060  119.94340
 5508.00000    0.19930   59.70750  271.12710   81.72120   97.75630  120.13330
 5508.50000    0.21380   59.63010  272.09490   81.50260   98.61380  119.79920
 5509.00000    0.22840   57.87950  255.37040   81.30570   92.87610  113.61830
 5509.50000    0.22600   54.81030  216.51570   80.93360   84.70090  100.44070
 5510.00000    0.20470   55.50650  197.66850   80.54090   79.34230  102.22770
 5510.50000    0.18780   56.81220  200.41720   81.10460   80.21350  107.75660
 5511.00000    0.19400   57.81350  206.38770   86.05380   81.61960  112.38610
 5511.50000    0.20750   58.31540  212.57280   91.17440   82.98290  114.06050
 5512.00000    0.20730   58.33140  221.68390   91.05200   84.73040  114.53410
 5512.50000    0.19840   57.90610  223.66210   87.59350   85.97800  112.79690
 5513.00000    0.19080   57.10010  223.11150   82.80980   86.06530  109.52070
 5513.50000    0.18920   57.03520  224.03250   81.24270   86.81810  109.07880
 5514.00000    0.19810   57.71060  244.05940   83.26400   90.68110  111.78910
 5514.50000    0.21180   58.73760  262.03840   87.51930   95.38010  116.31740
 5515.00000    0.23140   60.61260  280.65190   91.16490  101.19670  123.28030
 5515.50000    0.26350   62.57820  304.47290   95.30700  107.09120  130.63120
 5516.00000    0.30190   64.11200  315.84130   96.15550  109.57730  136.43700
 5516.50000    0.33510   63.85130  319.13510   93.41850  110.13530  136.43700
 5517.00000    0.33500   62.09510  320.35580   94.51730  110.39790  130.54430
 5517.50000    0.31770   60.35030  320.59800   96.25530  110.53350  122.79860
 5518.00000    0.29970   60.37540  320.75290   92.18250  110.52890  121.64240
 5518.50000    0.29370   62.11660  320.88890   89.02280  110.52430  129.26120
 5519.00000    0.29510   63.53030  320.87970   86.19070  110.25290  134.99700
 5519.50000    0.29340   62.62070  319.41720   87.17290  108.42760  131.56320
 5520.00000    0.28080   60.98610  262.50340   90.10300   97.47260  124.67480
 5520.50000    0.26830   59.54520  246.03370   93.76360   91.49060  119.78550
 5521.00000    0.26410   60.01170  235.09290   95.79480   88.80630  121.98290
 5521.50000    0.28080   60.87440  215.49820   95.07260   84.38930  125.44790
 5522.00000    0.29740   61.73710  198.56780   93.12780   80.74050  127.58470
 5522.50000    0.29970   61.76980  190.72190   89.85090   78.06290  127.12350
 5523.00000    0.29340   58.99250  183.25540   88.76310   74.08750  117.19810
 5523.50000    0.28940   55.99960  167.72010   88.35320   70.11470  105.53600
 5524.00000    0.29490   53.65620  157.99710   88.22660   68.80120   97.22230
 5524.50000    0.33920   53.76230  158.30020   88.09430   68.69340   97.46380
 5525.00000    0.35810   54.99780  172.49950   88.24940   73.65700  102.61720
 5525.50000    0.37070   58.73010  211.74750   88.22970   84.67420  111.70900
 5526.00000    0.38440   62.36800  284.55500   88.21010  103.40250  123.39250
 5526.50000    0.39640   64.36570  361.78780   88.31870  124.89130  135.43210
 5527.00000    0.40190   64.14970  391.06670   88.87860  127.83570  145.57750
 5527.50000    0.38900   63.16150  364.65300   88.29270  115.55520  134.19060
 5528.00000    0.36840   60.39530  293.80190   86.17820   96.82330  116.65700
 5528.50000    0.36200   57.99110  216.52470   84.11330   80.40070  112.77710
 5529.00000    0.36820   60.96090  209.99870   82.94700   89.93090  122.27070
 5529.50000    0.36420   65.38120  273.84930   82.32460  105.03040  140.96830
 5530.00000    0.35640   62.91660  318.72770   83.33270  110.99130  150.26190
 5530.50000    0.35490   60.95680  331.34820   85.16720  111.77180  150.74750
 5531.00000    0.35430   66.34850  331.34820   87.93420  112.17700  147.50580
 5531.50000    0.35370   70.45960  331.25600   88.81800  112.31380  148.24060
 5532.00000    0.35310   68.34490  330.98240   87.62000  111.98170  149.54590
 5532.50000    0.35260   64.41900  325.28410   85.38940  109.29170  139.18410
 5533.00000    0.35250   61.40080  302.67960   84.25020  104.17640  126.51220
 5533.50000    0.35960   61.29830  270.63050   84.54760   93.63740  127.17330
 5534.00000    0.37310   59.18820  207.71090   85.19180   81.02220  123.12130
 5534.50000    0.38600   58.00420  162.17810   85.52700   69.67630  112.10500
 5535.00000    0.39060   57.42080  138.85010   84.81190   63.89810  110.31480
 5535.50000    0.37530   58.63480  156.83840   82.96090   72.12890  116.85790
 5536.00000    0.35910   62.20090  200.97130   82.02280   84.20280  127.96230
 5536.50000    0.34760   64.58580  273.31860   83.00260   98.10340  138.50230
