~Version ---------------------------------------------------
VERS.   2.0 : CWLS log ASCII Standard -VERSION 2.0
WRAP.    NO : One line per depth step
DLM . SPACE : Column Data Section Delimiter
~Well ------------------------------------------------------
STRT .F                4404.0 : START DEPTH
STOP .F                6848.0 : STOP DEPTH
STEP .F                   0.5 : STEP
NULL .               -9999.25 : NULL VALUE
COMP .                        : COMPANY
WELL .                        : WELL
FLD  .                        : FIELD
LOC  .                        : LOCATION
PROV .                        : PROVINCE
CNTY .                        : COUNTY
STAT .                        : STATE
CTRY .                        : COUNTRY
SRVC .                        : SERVICE COMPANY
DATE .                        : DATE
UWI  .                        : UNIQUE WELL ID
API  .                        : API NUMBER
SLAT .WGS84 6.788468231959101 : SURFACE LATITUDE
SLON .WGS84   3.4018628420352 : SURFACE LONGITUDE
DATUM.F                   nan : DEPTH DATUM ELEV
~Curve Information -----------------------------------------
DEPT   .F     : 1 MEASURED DEPTH
NPHI_LS.DEC   : NEUTRON POROSITY LIMESTONE
DT     .US/F  : DELTA-T (INTERVAL TRANSIT TIME)
DTSM   .US/F  : DELTA-T SHEAR
GRS    .GAPI  : GAMMA RAY FROM SONIC LOG
DT1    .US/F  : DELTA-T SHEAR - LOWER DIPOLE
DTCO   .US/F  : DELTA-T COMPRESSIONAL
~Params ----------------------------------------------------
~Other -----------------------------------------------------
~ASCII -----------------------------------------------------
# ...
 5331.00000    0.24330   60.14470  272.42350   94.65940   97.53530  122.57820
 5331.50000    0.24140   60.24070  269.81600   93.70480   97.45270  122.54030
 5332.00000    0.24960   60.13730  264.26490   93.90530   96.19840  121.04470
 5332.50000    0.25350   60.03380  259.48800   94.80680   94.81580  119.60110
 5333.00000    0.24210   59.93040  259.41490   95.32470   94.65200  118.97620
 5333.50000    0.21690   59.82700  259.59740   93.66080   94.75020  118.92050
 5334.00000    0.21050   59.56520  259.59740   89.93780   94.52110  118.76210
 5334.50000    0.20980   59.25530  258.05840   85.73900   93.77150  118.09550
 5335.00000    0.20900   58.85350  253.21730   85.57260   92.84300  116.57330
 5335.50000    0.19380   58.13630  248.37610   86.43630   91.65140  113.18910
 5336.00000    0.17870   57.32180  241.27350   85.14860   89.87870  109.79410
 5336.50000    0.16480   56.50680  232.55670   79.29450   87.66440  106.14650
 5337.00000    0.15140   56.11670  223.64820   72.34090   85.56700  105.02810
 5337.50000    0.15570   56.09340  218.86600   68.20650   84.67020  105.13820
 5338.00000    0.16440   56.19360  215.69830   69.65160   84.05970  105.30670
 5338.50000    0.16720   56.29570  215.08820   72.70230   84.01740  105.28620
 5339.00000    0.16390   56.13700  216.94410   73.47570   84.01670  104.92530
 5339.50000    0.16680   55.97840  217.84440   72.44360   84.01590  104.16840
 5340.00000    0.16910   55.79880  216.79860   67.97800   83.94520  103.33890
 5340.50000    0.16910   55.60820  215.84500   62.62340   83.91270  102.45770
 5341.00000    0.15670   55.34100  215.91540   55.05820   83.88020  101.77910
 5341.50000    0.14410   55.32210  215.93590   51.68920   83.84770  102.26960
 5342.00000    0.14400   55.76520  215.95640   52.79930   83.90570  103.45760
 5342.50000    0.16250   56.17860  215.97690   53.13760   84.00620  105.11390
 5343.00000    0.16150   56.45810  215.98100   51.95590   84.07210  106.32420
 5343.50000    0.15380   56.46900  215.90210   49.37550   84.23540  106.71170
 5344.00000    0.13440   56.47990  221.24940   47.38300   85.40770  106.90210
 5344.50000    0.12900   56.47250  229.41550   48.93320   87.30180  106.88220
 5345.00000    0.14240   56.46120  233.96250   52.11240   87.99860  106.74310
 5345.50000    0.14170   56.33730  232.14400   57.10280   87.71190  106.05950
 5346.00000    0.14110   56.05890  229.15640   62.08110   86.98840  104.92110
 5346.50000    0.14490   55.76000  225.87290   66.83720   86.23150  103.61610
 5347.00000    0.14890   55.86240  222.37270   69.92560   85.64700  103.83320
 5347.50000    0.15190   56.07350  223.57400   70.15590   85.33290  104.45650
 5348.00000    0.15120   56.08470  225.23930   69.35140   85.75380  104.69250
 5348.50000    0.13370   56.09480  224.43790   68.40220   85.29560  104.83440
 5349.00000    0.12750   56.10450  216.04830   68.60660   83.60170  104.98040
 5349.50000    0.12920   56.11420  211.57190   68.42630   82.44130  105.14710
 5350.00000    0.13890   56.10080  211.95810   66.96950   82.97120  105.31380
 5350.50000    0.14870   56.08800  213.13830   65.00540   83.11230  105.17240
 5351.00000    0.15230   56.11130  213.13830   63.69940   83.19550  105.40740
 5351.50000    0.15540   56.11650  213.57450   64.25710   83.31700  105.44050
 5352.00000    0.15910   56.10450  214.65080   67.80780   83.37130  105.34320
 5352.50000    0.16470   56.09240  214.41490   71.97840   83.39500  105.24580
 5353.00000    0.17320   56.11220  214.05750   75.84360   83.45680  105.22780
 5353.50000    0.18260   56.30890  214.34390   78.10310   83.51850  105.37770
 5354.00000    0.19120   56.31490  215.31260   81.85270   83.58030  105.97800
 5354.50000    0.19150   56.35390  213.82820   85.78850   83.52240  105.62230
 5355.00000    0.17270   55.95730  211.84800   86.55140   82.93300  104.36380
 5355.50000    0.15860   55.47780  209.87390   81.73500   82.37540  102.61720
 5356.00000    0.14440   55.33100  207.91040   74.37970   82.00370  102.17470
 5356.50000    0.13340   55.46880  207.91040   71.73390   81.63750  102.56730
 5357.00000    0.13670   55.84810  207.49540   74.89170   81.75550  103.96240
 5357.50000    0.14270   55.79770  205.58590   78.22040   80.95820  104.39740
 5358.00000    0.13300   55.22300  204.17650   75.85350   80.26200  101.91620
 5358.50000    0.11640   54.64830  203.37520   67.00250   80.14430   99.00040
 5359.00000    0.10850   54.15610  202.90960   60.31560   81.02780   97.54450
 5359.50000    0.11730   54.38640  207.51240   62.78450   82.44390   98.96480
 5360.00000    0.13380   55.46440  217.43610   68.32350   83.86010  102.22730
 5360.50000    0.14330   56.34520  218.75810   70.83350   85.22620  106.28090
 5361.00000    0.14370   56.74000  219.39080   69.51830   84.98110  107.44070
 5361.50000    0.14700   56.49570  218.73450   70.64590   84.47540  106.93120
 5362.00000    0.15560   56.46830  218.25800   71.93290   84.41990  106.68620
 5362.50000    0.16410   56.38930  217.89060   73.17270   84.65790  106.00890
 5363.00000    0.17170   56.14680  218.13270   72.49050   84.99200  105.56570
 5363.50000    0.17320   56.08760  221.69970   69.82950   85.26850  105.29070
 5364.00000    0.16720   56.00620  222.83900   65.04040   85.41630  104.76850
 5364.50000    0.15660   55.92490  222.88460   58.93180   85.56400  104.37840
 5365.00000    0.14730   55.84350  222.79620   52.69270   85.59690  104.03040
 5365.50000    0.14020   55.76210  222.70780   48.57030   85.56730  103.75500
 5366.00000    0.13710   55.82850  223.20160   47.62200   85.74340  103.83330
 5366.50000    0.13880   55.98180  224.33870   49.17450   85.99720  104.34540
 5367.00000    0.14600   56.11140  225.49180   49.79360   86.41860  104.70710
 5367.50000    0.15280   56.29500  226.64490   47.51470   86.78230  105.89230
 5368.00000    0.15160   56.47860  227.77020   45.99460   86.91010  107.12290
 5368.50000    0.14590   56.66220  228.61160   47.33700   86.94020  107.83570
 5369.00000    0.14570   56.84580  228.49110   49.06300   86.95610  108.25320
 5369.50000    0.14710   57.03920  228.45430   48.85650   87.23920  108.65320
 5370.00000    0.14830   57.10020  229.86590   48.62820   87.83910  109.05320
 5370.50000    0.14750   57.16130  233.39370   50.29990   88.43890  109.45320
 5371.00000    0.14810   57.22230  235.81910   53.96520   88.70500  109.78220
 5371.50000    0.15700   57.27460  231.79680   57.64450   87.56540  109.90540
 5372.00000    0.16830   57.27460  224.99710   57.95940   86.03600  109.97080
 5372.50000    0.17610   57.27460  221.43770   53.27940   85.67810  109.71650
 5373.00000    0.16850   57.18120  219.81550   48.80350   85.26820  109.25340
 5373.50000    0.14130   56.54870  215.32870   44.82700   83.97410  106.67410
 5374.00000    0.11090   55.64660  209.89810   41.59220   82.09450  103.20600
 5374.50000    0.11170   55.31550  204.96610   43.32390   80.44250  101.99280
 5375.00000    0.12750   55.73640  204.30100   51.91460   81.36920  103.57890
 5375.50000    0.14650   56.24980  211.18400   60.50540   82.61350  105.50480
 5376.00000    0.15320   56.14820  211.63830   64.04600   81.88560  105.09330
 5376.50000    0.14810   55.69790  199.71580   64.69470   79.32730  103.39380
 5377.00000    0.13580   55.10520  188.81570   60.46030   76.46180  100.98390
 5377.50000    0.11830   54.01580  187.46350   54.79960   77.32180   97.42240
 5378.00000    0.10180   53.09770  187.20150   47.26470   76.59450   93.64220
 5378.50000    0.09160   53.04770  187.36290   41.81880   77.03410   92.36680
 5379.00000    0.10000   53.81620  192.74350   46.67060   78.50470   96.02890
 5379.50000    0.12210   55.06630  203.49140   56.02590   80.69340  100.95730
 5380.00000    0.14500   56.52940  213.75160   65.76020   83.90480  105.84920
 5380.50000    0.15060   57.03300  223.59320   65.79490   85.78200  109.02320
 5381.00000    0.14780   57.22120  225.06940   62.76550   86.24460  109.36930
 5381.50000    0.14490   57.15680  225.46940   60.26420   86.50140  109.23020
 5382.00000    0.14610   56.92450  227.08930   59.13200   86.77200  108.90440
