~Version ---------------------------------------------------
VERS.   2.0 : CWLS log ASCII Standard -VERSION 2.0
WRAP.    NO : One line per depth step
DLM . SPACE : Column Data Section Delimiter
~Well ------------------------------------------------------
STRT .F                4404.0 : START DEPTH
STOP .F                6848.0 : STOP DEPTH
STEP .F                   0.5 : STEP
NULL .               -9999.25 : NULL VALUE
COMP .                        : COMPANY
WELL .                        : WELL
FLD  .                        : FIELD
LOC  .                        : LOCATION
PROV .                        : PROVINCE
CNTY .                        : COUNTY
STAT .                        : STATE
CTRY .                        : COUNTRY
SRVC .                        : SERVICE COMPANY
DATE .                        : DATE
UWI  .                        : UNIQUE WELL ID
API  .                        : API NUMBER
SLAT .WGS84 6.788468231959101 : SURFACE LATITUDE
SLON .WGS84   3.4018628420352 : SURFACE LONGITUDE
DATUM.F                   nan : DEPTH DATUM ELEV
~Curve Information -----------------------------------------
DEPT   .F     : 1 MEASURED DEPTH
NPHI_LS.DEC   : NEUTRON POROSITY LIMESTONE
DT     .US/F  : DELTA-T (INTERVAL TRANSIT TIME)
DTSM   .US/F  : DELTA-T SHEAR
GRS    .GAPI  : GAMMA RAY FROM SONIC LOG
DT1    .US/F  : DELTA-T SHEAR - LOWER DIPOLE
DTCO   .US/F  : DELTA-T COMPRESSIONAL
~Params ----------------------------------------------------
~Other -----------------------------------------------------
~ASCII -----------------------------------------------------
# ...
 6000.50000    0.06230   47.71270  165.25710   35.55910   71.53250   71.99510
 6001.00000    0.03590   47.27240  166.44430   32.58140   72.17240   70.14960
 6001.50000    0.02830   47.44480  171.63950   31.16920   72.99320   70.38150
 6002.00000    0.03830   48.48110  167.20420   33.17210   70.41070   74.51900
 6002.50000    0.09840   50.66860  149.37140   39.24860   67.81420   83.45750
 6003.00000    0.19970   55.40450  182.77360   47.42220   75.05610  103.91020
 6003.50000    0.28250   58.87340  225.83440   53.78480   85.20060  117.77580
 6004.00000    0.25260   52.43080  198.33300   57.43070   76.52160   83.62570
 6004.50000    0.12040   44.63960  132.10860   59.58980   61.97090   57.11270
 6005.00000    0.05250   44.16760  117.97840   59.10790   59.58100   57.23060
 6005.50000    0.02380   45.47900  121.63270   52.56520   59.64260   61.93410
 6006.00000    0.00080   46.07490  131.66870   43.46560   60.83260   64.94180
 6006.50000   -0.00340   46.64810  145.16730   36.61680   64.61220   67.19210
 6007.00000    0.04690   47.92190  162.94600   39.45520   70.46220   72.56440
 6007.50000    0.09880   52.29210  194.26080   48.05890   80.72620   94.20000
 6008.00000    0.24610   58.57280  239.61560   59.52100   93.13630  124.31340
 6008.50000    0.24320   62.07950  264.02810   67.35460   96.02800  131.65630
 6009.00000    0.17710   58.67420  239.69390   57.88380   90.00450  113.16320
 6009.50000    0.09230   54.38050  225.83490   43.58580   84.14800   95.71860
 6010.00000    0.01580   52.39200  216.20200   28.94830   83.87020   90.15610
 6010.50000    0.00880   52.66230  224.64430   22.45300   86.07360   92.59280
 6011.00000    0.00370   50.69470  202.46380   18.32730   81.37370   82.96320
 6011.50000    0.00460   46.77400  170.56420   16.85170   74.66520   67.68310
 6012.00000    0.00770   43.82630  144.98410   17.87840   67.77980   56.64380
 6012.50000    0.00980   45.05900  153.45990   20.09130   68.65850   58.80380
 6013.00000    0.01020   47.18440  170.17180   22.04370   73.17590   69.46560
 6013.50000    0.00960   49.88510  189.85390   22.95920   77.38020   79.95080
 6014.00000    0.00820   47.52460  167.77010   23.26310   73.89210   69.44310
 6014.50000    0.00680   45.23110  158.90600   23.46230   69.47110   62.34270
 6015.00000    0.00780   45.24400  158.84210   24.55050   69.38040   62.02410
 6015.50000    0.00910   45.65820  161.49460   26.77600   70.13160   63.37340
 6016.00000    0.01050   46.07240  165.99630   28.82260   71.27440   65.05780
 6016.50000    0.01180   46.39010  169.99280   28.05910   72.41720   66.27140
 6017.00000    0.01320   46.52150  172.49370   26.80810   73.11340   66.59320
 6017.50000    0.01480   46.63250  174.02750   26.60920   73.43700   67.26500
 6018.00000    0.01630   46.77890  175.26190   26.65780   73.61270   67.91220
 6018.50000    0.01740   47.09270  176.49620   26.50680   73.78830   69.28650
 6019.00000    0.01850   47.70690  177.39060   27.00570   73.89500   71.93360
 6019.50000    0.02060   48.27010  177.18300   28.77130   73.97320   74.07060
 6020.00000    0.02500   48.44480  177.00970   30.96620   74.14090   74.51090
 6020.50000    0.02940   48.53200  179.41170   32.27540   74.76090   74.96290
 6021.00000    0.03400   48.86640  183.95560   32.23370   75.58530   75.96390
 6021.50000    0.03860   49.06800  189.80430   33.31910   76.93900   77.00820
 6022.00000    0.04490   49.26970  195.76660   36.88430   78.43760   78.06970
 6022.50000    0.05260   49.73320  200.92770   42.85020   79.54430   79.35410
 6023.00000    0.06030   50.28580  205.72880   51.23310   82.20420   82.08970
 6023.50000    0.06840   58.44990  236.80000   55.96600   97.90670  115.96010
 6024.00000    0.07860   67.39480  321.96270   60.12230  113.60920  147.25790
 6024.50000    0.08790   68.94710  333.23400   60.30040  114.24630  155.60190
 6025.00000    0.06960   62.72860  292.51450   55.49680  101.98710  130.30560
 6025.50000    0.04270   55.53460  228.10920   46.98560   85.23590   98.66240
 6026.00000    0.01320   47.21760  187.94150   38.25570   71.57490   66.00590
 6026.50000    0.00430   43.81460  171.99750   34.96560   66.40800   56.49300
 6027.00000    0.00850   49.10590  171.64590   38.84760   77.57390   70.49810
 6027.50000    0.01260   54.25210  237.45280   46.23400   88.60720   98.02460
 6028.00000    0.01640   51.99840  229.28140   52.42970   84.12160   88.97670
 6028.50000    0.01660   50.47330  212.38980   53.50360   82.35890   83.50610
 6029.00000    0.01220   51.04670  210.04230   48.74060   80.09490   84.44560
 6029.50000    0.00510   49.87980  200.79430   41.58550   80.96650   79.91960
 6030.00000   -0.00140   52.20480  201.94430   35.32470   85.19670   88.93100
 6030.50000   -0.00270   55.51210  238.65600   30.97470   87.66240  100.97620
 6031.00000   -0.00240   52.99840  219.14690   28.57340   83.25040   91.59310
 6031.50000   -0.00210   49.80750  196.62520   27.13320   79.08290   79.99910
 6032.00000   -0.00170   52.47290  214.36120   26.43900   83.82840   87.60920
 6032.50000   -0.00090   55.27270  243.94350   26.14100   91.58310  101.79060
 6033.00000    0.00140   55.29910  249.92630   26.65670   92.26700  103.54280
 6033.50000    0.00450   55.23760  251.12130   28.57200   92.32590  103.18520
 6034.00000    0.00770   52.08410  220.58510   30.91820   85.17870   90.95640
 6034.50000    0.01130   47.79380  188.22280   32.56990   78.92570   74.54660
 6035.00000    0.01920   46.73290  180.24820   33.73990   75.65790   67.16400
 6035.50000    0.02790   48.02440  182.99040   35.14440   75.76570   72.14610
 6036.00000    0.04020   48.72970  186.75040   37.31610   76.76080   76.60790
 6036.50000    0.04920   49.17580  190.51040   39.20630   77.62480   77.76790
 6037.00000    0.04630   49.25140  193.07220   39.98720   78.16680   78.05840
 6037.50000    0.04110   49.33840  194.03900   40.00920   78.33200   79.46020
 6038.00000    0.03730   49.42540  194.46420   40.55510   78.47100   80.35570
 6038.50000    0.03890   49.50900  194.60850   42.06790   78.46820   78.65890
 6039.00000    0.04120   49.57610  193.11400   41.64240   77.99350   78.08920
 6039.50000    0.04340   49.67290  192.19130   40.03900   77.85710   79.39410
 6040.00000    0.04740   49.92030  193.26290   38.79200   78.17880   80.36980
 6040.50000    0.05230   50.35320  195.20510   39.38190   78.71440   81.14570
 6041.00000    0.05720   50.82780  196.72360   41.52400   79.13700   84.50840
 6041.50000    0.05840   50.92820  197.71660   43.23980   79.10600   86.27940
 6042.00000    0.05570   50.60890  196.36260   42.47190   78.74260   83.05940
 6042.50000    0.04880   50.15250  190.60400   39.64270   77.06980   79.61120
 6043.00000    0.04240   49.69620  186.07870   37.44980   76.09240   78.50200
 6043.50000    0.03680   49.23980  185.04740   36.98750   76.09470   77.45280
 6044.00000    0.03110   48.71190  185.71660   37.25460   76.09700   75.70330
 6044.50000    0.02540   48.08350  180.96970   36.92970   75.15870   72.83230
 6045.00000    0.01990   47.45510  171.80430   34.76160   73.14160   69.99730
 6045.50000    0.01450   46.84260  165.87850   31.14860   71.16640   68.37370
 6046.00000    0.00900   46.19590  161.31090   27.87120   69.73320   65.09050
 6046.50000    0.00410   45.57180  157.25870   26.03140   69.27810   62.23840
 6047.00000    0.00330   45.12880  156.66290   25.50770   68.99810   60.89150
 6047.50000    0.00380   45.03790  156.06700   25.27140   68.54450   60.90000
 6048.00000    0.00540   45.00840  154.88670   25.50400   67.72510   61.31220
 6048.50000    0.00690   44.97900  152.53640   26.23770   66.90560   60.45880
 6049.00000    0.00930   45.02290  151.33400   26.95100   67.13460   60.41340
 6049.50000    0.01350   46.72220  158.73380   28.93670   70.45560   68.84330
 6050.00000    0.02610   51.79250  178.28530   47.02660   77.99280   91.26010
 6050.50000    0.09780   56.47420  229.50360   81.08820   87.96610  110.64660
 6051.00000    0.19080   59.39000  262.11360  102.57550   94.78890  115.72250
 6051.50000    0.31860   57.35990  250.91280  121.26710   91.39370  109.13760
