~Version ---------------------------------------------------
VERS.   2.0 : CWLS log ASCII Standard -VERSION 2.0
WRAP.    NO : One line per depth step
DLM . SPACE : Column Data Section Delimiter
~Well ------------------------------------------------------
STRT .F                4404.0 : START DEPTH
STOP .F                6848.0 : STOP DEPTH
STEP .F                   0.5 : STEP
NULL .               -9999.25 : NULL VALUE
COMP .                        : COMPANY
WELL .                        : WELL
FLD  .                        : FIELD
LOC  .                        : LOCATION
PROV .                        : PROVINCE
CNTY .                        : COUNTY
STAT .                        : STATE
CTRY .                        : COUNTRY
SRVC .                        : SERVICE COMPANY
DATE .                        : DATE
UWI  .                        : UNIQUE WELL ID
API  .                        : API NUMBER
SLAT .WGS84 6.788468231959101 : SURFACE LATITUDE
SLON .WGS84   3.4018628420352 : SURFACE LONGITUDE
DATUM.F                   nan : DEPTH DATUM ELEV
~Curve Information -----------------------------------------
DEPT   .F     : 1 MEASURED DEPTH
NPHI_LS.DEC   : NEUTRON POROSITY LIMESTONE
DT     .US/F  : DELTA-T (INTERVAL TRANSIT TIME)
DTSM   .US/F  : DELTA-T SHEAR
GRS    .GAPI  : GAMMA RAY FROM SONIC LOG
DT1    .US/F  : DELTA-T SHEAR - LOWER DIPOLE
DTCO   .US/F  : DELTA-T COMPRESSIONAL
~Params ----------------------------------------------------
~Other -----------------------------------------------------
~ASCII -----------------------------------------------------
# ...
 6155.00000    0.38680   69.26940  354.89220   57.81760  117.65880  158.60960
 6155.50000    0.42350   68.70830  347.98830   59.23430  116.91060  157.04110
 6156.00000    0.42240   68.22890  353.51570   60.70180  120.87270  154.20170
 6156.50000    0.38500   68.48860  381.71180   62.31200  124.83480  153.14590
 6157.00000    0.36270   69.21970  373.01050   62.88620  122.69300  156.00400
 6157.50000    0.34680   69.42310  351.30860   62.63450  117.28430  159.38640
 6158.00000    0.33370   65.24560  302.48040   61.82700  107.76720  148.27790
 6158.50000    0.31470   61.19240  270.83070   60.08200   99.62830  129.15450
 6159.00000    0.29400   61.93420  274.86400   57.91160   98.47830  125.00960
 6159.50000    0.27100   63.49560  290.19010   56.59790  102.84480  135.31400
 6160.00000    0.21810   63.37490  289.17810   56.73070  102.80470  134.31460
 6160.50000    0.18010   61.69900  275.39360   57.76500   99.15780  125.77370
 6161.00000    0.18890   60.02320  271.11830   58.22000   97.33190  120.85610
 6161.50000    0.21900   59.83510  270.66570   57.86050   97.37420  121.44130
 6162.00000    0.28710   60.84790  272.36280   57.08980  100.85440  126.12080
 6162.50000    0.31830   64.72420  299.52410   56.47280  106.04490  140.00670
 6163.00000    0.36310   68.60060  363.55460   55.90880  116.87580  157.27070
 6163.50000    0.40580   70.95570  367.67540   55.08230  121.66350  166.22400
 6164.00000    0.41660   68.81400  342.74690   51.73400  118.79090  157.06170
 6164.50000    0.32880   62.56290  318.83790   46.04310  110.44790  140.08020
 6165.00000    0.26830   54.70730  263.07450   37.16420   97.98080  114.61710
 6165.50000    0.07860   46.85170  187.63630   29.39020   77.64790   64.19820
 6166.00000    0.01460   43.27440  133.75300   23.48940   68.01610   52.81700
 6166.50000    0.01310   43.41320  137.22070   22.48110   67.77260   54.19560
 6167.00000    0.01300   44.15410  144.24240   24.82420   68.27960   57.12290
 6167.50000    0.02070   45.69190  154.43890   29.36970   67.76090   62.09740
 6168.00000    0.03410   50.40110  177.59630   35.51570   73.71090   81.70900
 6168.50000    0.04750   56.40180  218.74750   41.88260   85.82770  108.60260
 6169.00000    0.06430   60.04690  254.66800   47.51540   94.20090  120.44800
 6169.50000    0.08960   58.86020  258.12930   49.80920   93.84380  115.61080
 6170.00000    0.13400   60.17470  257.86660   50.84690   93.53550  119.96010
 6170.50000    0.18680   64.51300  306.24920   52.14190  110.00170  137.44210
 6171.00000    0.24970   68.85130  347.19550   55.22400  119.24320  155.38470
 6171.50000    0.33830   70.69280  377.87970   59.20810  124.48540  164.01150
 6172.00000    0.38610   69.48140  366.69240   63.78840  120.75710  159.73710
 6172.50000    0.39840   67.76560  366.03020   68.80010  120.60730  151.56390
 6173.00000    0.34950   67.16700  380.30000   71.65350  124.21410  148.19070
 6173.50000    0.27780   66.81060  382.12480   73.74020  125.48510  147.14490
 6174.00000    0.19230   64.47060  347.20140   74.20980  114.96790  142.93380
 6174.50000    0.11600   62.07930  302.86810   73.31720  105.94620  131.69170
 6175.00000    0.15550   59.68800  278.58720   71.18060   98.29380  119.22130
 6175.50000    0.19510   59.26140  269.20060   67.46940   98.71450  119.48730
 6176.00000    0.19450   61.11100  290.48860   63.72190  101.44060  128.00320
 6176.50000    0.16140   62.99360  289.42590   62.43280  103.50090  132.62030
 6177.00000    0.16600   66.72480  278.55990   65.76640   99.64050  152.47660
 6177.50000    0.19620   73.54050  297.87910   71.80810  112.68500  175.94050
 6178.00000    0.23630   75.85640  352.14170   76.64600  121.00910  185.60830
 6178.50000    0.30830   70.92980  346.69880   80.22450  112.46610  164.95300
 6179.00000    0.35340   64.56570  294.28050   80.56670  103.21600  139.80010
 6179.50000    0.38080   58.04260  251.24070   76.19830   94.45480  120.06760
 6180.00000    0.35320   54.82700  206.77710   68.00490   83.31830  100.79530
 6180.50000    0.30940   52.88040  189.54650   62.15370   77.18520   93.48600
 6181.00000    0.24430   54.57940  207.77930   59.36310   82.51690   97.86680
 6181.50000    0.19770   55.81290  231.32890   56.86500   88.19470  103.95760
 6182.00000    0.21510   57.76510  244.93480   54.25570   91.34480  112.57140
 6182.50000    0.26380   59.93730  254.51720   51.64650   93.07860  121.36880
 6183.00000    0.31790   58.45550  241.47770   52.35990   89.99790  112.35770
 6183.50000    0.37630   55.80580  225.05500   54.47520   86.69520  105.35490
 6184.00000    0.40450   56.74770  211.70540   56.43120   81.89870  109.09560
 6184.50000    0.41300   57.38940  187.75300   58.38640   76.50610  111.73090
 6185.00000    0.41920   57.20370  165.13650   60.63680   71.11360  109.97800
 6185.50000    0.43220   56.31770  162.69870   62.94880   70.58060  106.57130
 6186.00000    0.43660   56.10850  188.76980   65.69900   79.95320  109.33360
 6186.50000    0.40180   60.82080  252.14380   67.28680   91.73620  122.99040
 6187.00000    0.35180   65.12570  313.19180   67.73770  106.07810  142.09480
 6187.50000    0.34330   64.19830  295.29710   68.24960  104.40370  140.08460
 6188.00000    0.34750   62.59600  277.34160   69.79980   98.35170  128.40780
 6188.50000    0.36080   62.64010  295.66710   72.19350  102.26310  132.43750
 6189.00000    0.36670   63.55080  310.97260   74.30730  107.69420  137.31760
 6189.50000    0.37070   64.46150  302.10170   75.43960  105.07040  140.00480
 6190.00000    0.37460   65.43970  296.60280   74.55960  104.14470  143.04590
 6190.50000    0.38090   66.38110  311.82040   73.43970  106.31090  147.58890
 6191.00000    0.38760   66.33620  293.90990   72.65850  106.45770  147.66620
 6191.50000    0.38800   64.97450  264.78190   73.01760   94.13920  140.99190
 6192.00000    0.37550   65.96420  253.26150   73.75310   95.23460  141.91750
 6192.50000    0.36120   67.44770  265.40140   74.44270   97.09530  151.32750
 6193.00000    0.36760   65.78520  283.00940   75.37540  100.72710  144.02370
 6193.50000    0.37990   64.58520  300.61750   78.09860  105.04190  137.63780
 6194.00000    0.39220   63.41780  314.92310   79.98950  108.87220  134.92260
 6194.50000    0.39290   61.90850  274.15970   79.91190   98.14780  128.24470
 6195.00000    0.36950   59.58530  231.98870   76.95900   87.05680  117.66710
 6195.50000    0.34610   57.00820  192.41070   74.78470   76.07630  108.01390
 6196.00000    0.31270   56.18890  175.52430   74.38210   73.31170  105.54660
 6196.50000    0.30340   56.40510  174.79920   74.91250   73.16820  105.72350
 6197.00000    0.29690   56.64680  181.75360   76.39590   74.54670  107.63480
 6197.50000    0.29230   57.03550  188.70800   77.72300   76.60270  109.54610
 6198.00000    0.29650   57.28650  195.66250   78.88780   78.65880  110.53990
 6198.50000    0.30140   57.16040  200.06180   79.44850   79.64970  110.13640
 6199.00000    0.31640   55.17030  190.44560   78.46600   73.69300  102.45780
 6199.50000    0.32720   53.09090  158.33320   75.89120   66.22940   93.37540
 6200.00000    0.33760   54.44050  162.87640   72.53660   68.81000   98.21900
 6200.50000    0.33740   55.46600  165.83680   69.51430   71.02370  102.20830
 6201.00000    0.33370   52.66260  153.71190   67.36580   67.08150   92.53840
 6201.50000    0.33060   52.74430  159.07610   66.93630   65.84340   91.26140
 6202.00000    0.33000   54.22540  168.92190   66.72780   70.40070  102.27730
 6202.50000    0.33170   55.84990  166.85210   64.76310   72.08640  108.24540
 6203.00000    0.33520   57.47440  146.07450   61.95730   67.66870  109.04090
 6203.50000    0.33530   57.77560  134.36680   59.27980   63.64000  112.26490
 6204.00000    0.31530   56.29870  146.00490   59.14410   64.75680  105.44820
 6204.50000    0.29690   54.07500  167.76730   60.16100   75.67090   96.16790
 6205.00000    0.29100   54.83570  216.28500   62.60710   86.58490  102.54320
 6205.50000    0.29830   56.53120  264.64640   65.19990   97.12730  108.09760
 6206.00000    0.33050   56.43670  281.40770   66.16370  102.27450  106.34470
