~Version ---------------------------------------------------
VERS.   2.0 : CWLS log ASCII Standard -VERSION 2.0
WRAP.    NO : One line per depth step
DLM . SPACE : Column Data Section Delimiter
~Well ------------------------------------------------------
STRT .F                4404.0 : START DEPTH
STOP .F                6848.0 : STOP DEPTH
STEP .F                   0.5 : STEP
NULL .               -9999.25 : NULL VALUE
COMP .                        : COMPANY
WELL .                        : WELL
FLD  .                        : FIELD
LOC  .                        : LOCATION
PROV .                        : PROVINCE
CNTY .                        : COUNTY
STAT .                        : STATE
CTRY .                        : COUNTRY
SRVC .                        : SERVICE COMPANY
DATE .                        : DATE
UWI  .                        : UNIQUE WELL ID
API  .                        : API NUMBER
SLAT .WGS84 6.788468231959101 : SURFACE LATITUDE
SLON .WGS84   3.4018628420352 : SURFACE LONGITUDE
DATUM.F                   nan : DEPTH DATUM ELEV
~Curve Information -----------------------------------------
DEPT   .F     : 1 MEASURED DEPTH
NPHI_LS.DEC   : NEUTRON POROSITY LIMESTONE
DT     .US/F  : DELTA-T (INTERVAL TRANSIT TIME)
DTSM   .US/F  : DELTA-T SHEAR
GRS    .GAPI  : GAMMA RAY FROM SONIC LOG
DT1    .US/F  : DELTA-T SHEAR - LOWER DIPOLE
DTCO   .US/F  : DELTA-T COMPRESSIONAL
~Params ----------------------------------------------------
~Other -----------------------------------------------------
~ASCII -----------------------------------------------------
# ...
 5022.00000    0.26330   58.45680  280.19090   71.33860   99.88420  111.19900
 5022.50000    0.28030   59.61620  280.81470   71.38830   99.94950  119.34700
 5023.00000    0.28030   60.71080  280.81470   72.23960  100.01470  124.30670
 5023.50000    0.27040   60.53370  280.56450   73.42380   99.80220  124.18500
 5024.00000    0.26650   58.80200  279.52760   72.24960   99.17120  122.75500
 5024.50000    0.24260   56.26040  248.98300   65.52790   93.26890  110.26290
 5025.00000    0.17800   52.91580  195.31520   54.80610   80.39910   91.59320
 5025.50000    0.10420   49.57130  169.04880   43.81350   71.38350   77.77430
 5026.00000    0.05380   47.38160  159.77280   37.38290   70.25490   70.75020
 5026.50000    0.03580   46.94260  159.96680   35.55010   70.64560   67.18940
 5027.00000    0.03130   46.64090  165.36170   35.58020   71.80300   68.07580
 5027.50000    0.02780   46.90540  168.85050   34.74530   71.86970   68.92550
 5028.00000    0.02470   46.75330  161.80660   33.50620   70.24830   68.02760
 5028.50000    0.02290   46.53570  153.51730   33.70790   68.61890   66.63750
 5029.00000    0.02290   46.29400  153.04940   35.55110   68.58440   65.54960
 5029.50000    0.02290   46.11380  155.31640   36.37840   68.93370   64.70330
 5030.00000    0.02290   45.87460  156.45300   34.31590   68.09520   63.85690
 5030.50000    0.02300   45.81240  149.16280   31.79730   66.59820   63.51300
 5031.00000    0.03410   47.15110  141.34760   33.68890   65.10120   69.61240
 5031.50000    0.06050   48.92090  140.77710   43.09950   64.68610   77.09120
 5032.00000    0.09100   50.95870  147.27870   54.36420   68.79550   84.86310
 5032.50000    0.12410   52.61780  171.86050   61.41310   73.46870   91.65210
 5033.00000    0.10820   54.49780  200.49260   60.48440   79.26200   97.42110
 5033.50000    0.07300   55.02870  229.71990   56.75790   87.88920  101.29660
 5034.00000    0.05670   51.91370  214.39330   51.15630   84.39610   86.94830
 5034.50000    0.05030   47.24720  172.78070   43.30110   73.02130   70.19630
 5035.00000    0.05240   46.81900  172.58130   37.05760   73.20420   68.51460
 5035.50000    0.05820   47.13640  175.04910   33.32310   73.63740   69.49250
 5036.00000    0.06380   47.43050  176.66940   32.40970   73.97170   71.21560
 5036.50000    0.06360   47.57570  176.86690   32.26740   73.90560   71.23530
 5037.00000    0.06120   47.41630  175.87900   32.49450   73.22750   70.57180
 5037.50000    0.05880   47.33170  173.58650   33.07900   73.63230   70.57570
 5038.00000    0.05630   47.48660  175.93000   34.66010   74.11010   71.49000
 5038.50000    0.05390   47.75350  179.35820   35.87330   74.63700   72.30080
 5039.00000    0.05200   47.52230  181.13120   36.83210   74.94150   71.39260
 5039.50000    0.04950   47.09060  176.73950   38.41970   74.33500   69.38040
 5040.00000    0.04690   46.72610  172.34780   41.43440   72.68520   67.35530
 5040.50000    0.04440   46.68520  171.14260   44.77870   72.86270   67.37670
 5041.00000    0.04360   46.94380  174.32420   44.85700   73.57550   68.73050
 5041.50000    0.04490   47.28490  176.07190   42.36190   73.95160   70.35320
 5042.00000    0.04850   47.69870  176.65730   39.05890   74.05650   72.09040
 5042.50000    0.05220   48.06210  176.62520   35.63220   74.03980   73.43540
 5043.00000    0.05530   48.33140  175.85540   33.66480   73.82320   73.81580
 5043.50000    0.05370   48.14370  174.71530   32.67050   73.50490   73.62290
 5044.00000    0.04870   47.99250  173.36060   33.00270   73.07760   72.81480
 5044.50000    0.04930   47.79410  171.59900   34.46460   72.50020   72.05140
 5045.00000    0.05110   47.59560  169.98990   36.01360   72.15510   71.42900
 5045.50000    0.05050   47.37480  169.76250   35.75500   72.23260   70.58960
 5046.00000    0.04480   47.23570  169.75010   34.37170   72.50140   69.56090
 5046.50000    0.03670   47.09150  168.41180   33.07810   72.10240   68.71440
 5047.00000    0.03640   46.94730  165.01970   33.01340   70.87780   68.44220
 5047.50000    0.03740   46.80320  161.13470   33.16940   69.99560   68.08740
 5048.00000    0.03800   46.73750  157.27000   32.51230   69.15520   68.32430
 5048.50000    0.03780   46.79130  153.70050   31.73590   68.34840   68.72360
 5049.00000    0.03640   46.74150  152.73140   31.91060   68.00590   68.72090
 5049.50000    0.03410   46.69180  151.85760   32.71400   67.84960   67.79360
 5050.00000    0.03180   46.62770  147.89480   33.58510   66.17460   67.30700
 5050.50000    0.02950   46.52170  140.76340   33.73190   64.83890   66.97290
 5051.00000    0.02800   46.53660  140.10980   32.61520   65.13860   67.13350
 5051.50000    0.02890   46.55770  144.55720   30.58610   66.62300   67.36820
 5052.00000    0.03020   46.58290  150.86760   28.75490   68.24840   67.52980
 5052.50000    0.03160   46.60800  159.65930   27.95880   69.94520   67.58530
 5053.00000    0.03160   46.63320  165.43630   28.31660   71.24950   67.64070
 5053.50000    0.03160   46.65830  168.16400   29.22490   71.76380   67.69620
 5054.00000    0.03120   46.68000  167.94650   29.84270   71.71410   67.75160
 5054.50000    0.03120   46.68880  167.61710   30.09570   71.73720   67.73260
 5055.00000    0.03160   46.69750  167.97550   30.28380   71.83230   67.98190
 5055.50000    0.03310   46.70720  168.35490   30.76600   71.93830   67.81020
 5056.00000    0.03480   46.74380  168.48520   31.55700   71.98260   67.92580
 5056.50000    0.03500   46.78040  168.39160   32.34600   71.96670   68.62840
 5057.00000    0.03510   46.81700  168.38650   32.65270   71.95080   68.81600
 5057.50000    0.03520   46.85360  168.43460   32.70360   71.93490   68.49050
 5058.00000    0.03510   46.89020  168.61140   32.55210   72.00930   68.48210
 5058.50000    0.03300   46.92680  168.81990   32.00900   71.82560   68.75680
 5059.00000    0.03090   47.15070  167.97060   31.40550   71.55130   69.16700
 5059.50000    0.03270   47.11240  165.99650   31.20190   71.40180   69.58430
 5060.00000    0.03670   47.08800  166.78110   30.98310   71.50760   69.76840
 5060.50000    0.04000   47.06370  167.66290   30.27370   71.70920   69.71350
 5061.00000    0.04000   47.03810  168.80240   30.17940   71.96250   69.34620
 5061.50000    0.03700   47.00160  169.71630   32.56660   72.37460   69.23760
 5062.00000    0.03540   47.20810  170.34720   35.09540   72.62600   69.43220
 5062.50000    0.04060   47.36020  170.97810   35.49860   72.80970   69.75650
 5063.00000    0.04590   46.80290  171.95850   34.13180   72.99330   69.49070
 5063.50000    0.04910   46.72080  173.03190   33.05260   73.17700   68.67380
 5064.00000    0.04730   46.89130  174.11110   33.13940   73.54120   68.61200
 5064.50000    0.04340   47.02250  174.80630   33.48970   73.72880   68.99980
 5065.00000    0.03960   47.10910  175.10060   33.77810   73.62030   69.55320
 5065.50000    0.03580   47.08310  175.10060   33.38540   73.60230   69.77350
 5066.00000    0.03190   46.82250  173.35230   31.99080   73.31800   68.67750
 5066.50000    0.02810   46.69160  168.78140   30.45900   72.68690   67.62640
 5067.00000    0.02480   46.65840  164.21060   28.92930   71.17420   66.82050
 5067.50000    0.02400   46.54170  163.88050   27.39970   69.98930   66.18290
 5068.00000    0.02690   46.87300  167.47320   25.87010   71.29150   68.06100
 5068.50000    0.03780   47.16040  180.90060   24.50910   75.46640   70.85410
 5069.00000    0.04870   47.44780  185.74330   24.07770   75.73230   71.54020
 5069.50000    0.05970   47.73510  184.38030   24.97190   75.85040   72.42280
 5070.00000    0.07060   48.45170  183.59080   27.16940   76.21750   74.44650
 5070.50000    0.08150   49.55570  189.90980   30.09170   77.59300   79.69210
 5071.00000    0.09580   51.75320  203.89890   35.82810   80.94260   89.18220
 5071.50000    0.13240   54.71410  220.12140   47.05650   85.86580   98.87080
 5072.00000    0.15510   56.01150  226.25640   58.29360   84.63870  104.32040
 5072.50000    0.16250   55.13010  203.59640   60.52380   80.28580   99.99170
 5073.00000    0.12760   53.39850  181.17690   53.29680   74.68130   95.36020
