~Version ---------------------------------------------------
VERS.   2.0 : CWLS log ASCII Standard -VERSION 2.0
WRAP.    NO : One line per depth step
DLM . SPACE : Column Data Section Delimiter
~Well ------------------------------------------------------
STRT .F                4404.0 : START DEPTH
STOP .F                6848.0 : STOP DEPTH
STEP .F                   0.5 : STEP
NULL .               -9999.25 : NULL VALUE
COMP .                        : COMPANY
WELL .                        : WELL
FLD  .                        : FIELD
LOC  .                        : LOCATION
PROV .                        : PROVINCE
CNTY .                        : COUNTY
STAT .                        : STATE
CTRY .                        : COUNTRY
SRVC .                        : SERVICE COMPANY
DATE .                        : DATE
UWI  .                        : UNIQUE WELL ID
API  .                        : API NUMBER
SLAT .WGS84 6.788468231959101 : SURFACE LATITUDE
SLON .WGS84   3.4018628420352 : SURFACE LONGITUDE
DATUM.F                   nan : DEPTH DATUM ELEV
~Curve Information -----------------------------------------
DEPT   .F     : 1 MEASURED DEPTH
NPHI_LS.DEC   : NEUTRON POROSITY LIMESTONE
DT     .US/F  : DELTA-T (INTERVAL TRANSIT TIME)
DTSM   .US/F  : DELTA-T SHEAR
GRS    .GAPI  : GAMMA RAY FROM SONIC LOG
DT1    .US/F  : DELTA-T SHEAR - LOWER DIPOLE
DTCO   .US/F  : DELTA-T COMPRESSIONAL
~Params ----------------------------------------------------
~Other -----------------------------------------------------
~ASCII -----------------------------------------------------
# ...
 6618.50000    0.00230   45.98750  143.80260   24.26880   65.71080   64.86900
 6619.00000    0.00320   46.09230  146.69030   24.52170   66.57930   65.10220
 6619.50000    0.00430   46.10940  150.60540   24.07390   67.58930   65.23050
 6620.00000    0.00550   46.11500  154.52050   23.16730   68.66440   64.88640
 6620.50000    0.00700   46.23750  155.78170   22.48400   69.15940   65.44310
 6621.00000    0.00840   46.35990  154.75380   22.17010   68.29040   66.02720
 6621.50000    0.00980   46.40840  154.44060   21.87470   68.25030   66.37600
 6622.00000    0.01030   46.41180  155.04690   21.02460   68.43920   66.72490
 6622.50000    0.00980   46.41510  155.55600   20.44190   68.43920   67.18960
 6623.00000    0.00810   46.41850  153.46620   21.20270   68.28440   67.59970
 6623.50000    0.00710   46.40610  154.08240   22.59300   68.04790   66.44860
 6624.00000    0.00690   46.45180  157.06980   22.59170   69.10180   66.36380
 6624.50000    0.01060   46.71470  160.16280   21.39050   69.71220   67.27240
 6625.00000    0.01440   47.20380  159.94230   21.07820   70.20470   69.71120
 6625.50000    0.01740   47.84700  160.25370   21.82180   70.35640   72.44040
 6626.00000    0.01770   47.83610  162.08310   21.98060   70.50800   72.78090
 6626.50000    0.01580   47.52760  163.83760   21.13590   70.59370   70.89170
 6627.00000    0.01230   46.87660  162.21170   19.75840   70.40010   68.70980
 6627.50000    0.00880   46.47110  160.96930   18.53010   70.12350   66.78870
 6628.00000    0.00540   46.10340  160.17750   18.77520   69.82830   65.80390
 6628.50000    0.00260   46.01010  159.49000   20.24040   69.53300   64.93040
 6629.00000    0.00140   45.91480  158.25130   22.12370   69.15560   64.01750
 6629.50000    0.00020   45.74410  155.78750   23.11560   68.76640   63.35340
 6630.00000   -0.00020   45.78450  153.73640   22.31640   68.42210   63.61660
 6630.50000   -0.00030   45.80880  152.68280   21.17360   68.12410   63.86060
 6631.00000   -0.00020   45.64510  152.92910   20.82860   68.23000   63.08170
 6631.50000    0.00000   45.44650  153.92950   21.37030   68.77070   62.55700
 6632.00000    0.00030   45.62820  156.26300   21.62820   69.21410   63.26430
 6632.50000    0.00050   46.11910  156.55950   21.26090   68.93300   65.05110
 6633.00000    0.00070   46.45530  154.22330   19.48860   68.39010   66.68050
 6633.50000    0.00110   46.52260  153.45450   17.77270   68.23500   66.89700
 6634.00000    0.00160   46.50830  153.42740   16.18520   68.21810   66.58490
 6634.50000    0.00210   46.41690  152.65700   15.53740   68.10120   66.27490
 6635.00000    0.00230   46.20440  150.69530   15.87880   67.27830   65.41470
 6635.50000    0.00220   45.85190  147.77720   17.26800   66.75860   64.34640
 6636.00000    0.00180   45.85540  146.35410   19.24070   66.40400   64.08060
 6636.50000    0.00150   46.08100  145.54480   21.46720   66.31530   64.92640
 6637.00000    0.00120   46.36440  146.06170   22.93340   66.31530   66.00520
 6637.50000    0.00090   46.57790  146.57860   23.75450   66.54930   66.79510
 6638.00000    0.00060   46.63870  148.74150   23.78750   66.88010   67.52410
 6638.50000    0.00050   46.56810  153.11210   23.40700   67.94120   67.12240
 6639.00000    0.00040   46.26430  156.38410   21.95730   69.54700   65.88850
 6639.50000    0.00040   45.96740  159.65610   19.97600   69.63730   64.67010
 6640.00000    0.00040   45.53060  159.73480   18.39700   69.36900   63.06570
 6640.50000    0.00040   45.25840  158.26960   18.12100   69.10890   61.60640
 6641.00000    0.00040   45.40690  156.80430   19.14890   68.84040   62.26530
 6641.50000    0.00040   45.79520  155.33900   20.73880   68.53500   63.61250
 6642.00000    0.00040   46.10610  153.82220   22.56540   68.22960   64.71100
 6642.50000    0.00040   46.19770  152.46090   24.33680   67.92420   65.42710
 6643.00000    0.00040   45.90600  151.09970   24.91170   67.61870   64.17320
 6643.50000    0.00040   45.64620  149.73850   24.58650   67.18530   62.91120
 6644.00000    0.00040   45.67750  148.45970   24.35760   66.73400   62.60460
 6644.50000    0.00060   45.72740  147.22430   24.13570   66.48590   63.02190
 6645.00000    0.00080   45.79720  146.11690   23.89160   66.48590   63.32740
 6645.50000    0.00110   45.83770  145.75810   23.94910   66.55000   63.82750
 6646.00000    0.00150   45.65350  147.13490   24.48310   66.61430   63.65240
 6646.50000    0.00250   45.52790  148.13420   26.24300   66.67880   62.65710
 6647.00000    0.00270   45.40520  148.36280   28.74750   66.74360   61.93380
 6647.50000    0.00190   45.28260  148.20480   30.76570   66.71240   61.76260
 6648.00000    0.00120   45.26860  147.44610   30.74240   66.53660   61.66000
 6648.50000    0.00310   45.26330  146.49050   29.96540   66.34940   61.50240
 6649.00000    0.00480   45.27690  144.62420   30.52350   65.89690   61.32490
 6649.50000    0.00270   45.29050  142.42820   34.30060   65.38700   61.14750
 6650.00000    0.00060   45.21150  141.27700   37.19510   64.88610   61.09280
 6650.50000    0.00050   45.19310  140.78690   37.34550   64.65330   61.34150
 6651.00000    0.00090   45.22100  141.33540   35.58850   64.57340   61.70820
 6651.50000    0.00190   45.23150  141.62990   34.61260   64.57130   61.84150
 6652.00000    0.00290   45.35170  142.22540   36.42990   64.61560   61.97480
 6652.50000    0.00390   45.41040  142.41070   38.44350   64.81780   62.16580
 6653.00000    0.00490   45.39480  142.47480   38.20140   65.08570   62.22110
 6653.50000    0.00580   45.25170  142.59840   36.60740   65.35370   61.61100
 6654.00000    0.00600   45.12860  142.69990   35.68740   65.62170   61.11880
 6654.50000    0.00550   45.01010  145.31740   34.68390   65.84650   60.63060
 6655.00000    0.00430   44.89150  144.66900   33.55100   66.02070   60.25090
 6655.50000    0.00330   44.86490  142.74620   33.59660   65.65820   60.18390
 6656.00000    0.00440   44.92290  142.61650   34.45300   65.34180   60.47030
 6656.50000    0.00530   45.00430  142.61650   34.79580   65.24600   60.75280
 6657.00000    0.00520   45.14250  143.10100   32.37070   65.53320   61.31620
 6657.50000    0.00510   45.20460  143.48050   30.09320   65.78810   61.62140
 6658.00000    0.00480   45.26670  143.68380   31.04580   65.76260   61.68130
 6658.50000    0.00420   45.18840  143.62870   31.69980   65.72510   61.45830
 6659.00000    0.00390   45.02990  143.41780   30.78470   65.64720   60.65170
 6659.50000    0.00370   44.92250  142.95550   28.85660   65.66110   60.21020
 6660.00000    0.00370   44.81040  142.86800   27.85150   65.77450   59.70100
 6660.50000    0.00380   44.67820  143.66860   28.66460   65.88790   59.30530
 6661.00000    0.00510   44.64140  144.09230   29.53500   66.14770   59.30530
 6661.50000    0.00620   44.67470  146.54260   29.36080   66.43860   59.30530
 6662.00000    0.00620   44.78060  148.99290   29.13660   66.72940   59.36900
 6662.50000    0.00580   44.85330  149.32880   28.96000   66.96420   59.77380
 6663.00000    0.00600   44.85900  149.49040   29.11610   67.08490   60.16840
 6663.50000    0.00680   44.99690  150.31930   29.36870   67.87750   60.58550
 6664.00000    0.00750   45.14880  153.70300   29.74450   68.70140   61.10070
 6664.50000    0.00800   45.22410  157.28050   30.60190   68.83720   61.47630
 6665.00000    0.00730   45.20680  157.28050   30.97220   68.97290   61.36230
 6665.50000    0.00670   45.04900  156.50900   30.51680   69.10860   61.12270
 6666.00000    0.00610   45.13710  156.61980   29.97730   69.24440   61.02740
 6666.50000    0.00620   45.20130  157.14510   29.46350   69.45260   61.00850
 6667.00000    0.00620   45.03530  157.27490   28.97690   69.60270   60.97870
 6667.50000    0.00590   44.83890  157.26740   28.53270   69.48270   60.37140
 6668.00000    0.00250   44.69570  157.26120   28.62460   69.36280   59.69450
 6668.50000    0.00130   44.64890  157.26050   29.55900   69.19910   59.27980
 6669.00000    0.00270   44.66420  156.75770   31.15900   68.86950   59.32990
 6669.50000    0.00410   44.90850  156.04360   32.58300   68.54000   60.33100
