~Version ---------------------------------------------------
VERS.   2.0 : CWLS log ASCII Standard -VERSION 2.0
WRAP.    NO : One line per depth step
DLM . SPACE : Column Data Section Delimiter
~Well ------------------------------------------------------
STRT .F                4404.0 : START DEPTH
STOP .F                6848.0 : STOP DEPTH
STEP .F                   0.5 : STEP
NULL .               -9999.25 : NULL VALUE
COMP .                        : COMPANY
WELL .                        : WELL
FLD  .                        : FIELD
LOC  .                        : LOCATION
PROV .                        : PROVINCE
CNTY .                        : COUNTY
STAT .                        : STATE
CTRY .                        : COUNTRY
SRVC .                        : SERVICE COMPANY
DATE .                        : DATE
UWI  .                        : UNIQUE WELL ID
API  .                        : API NUMBER
SLAT .WGS84 6.788468231959101 : SURFACE LATITUDE
SLON .WGS84   3.4018628420352 : SURFACE LONGITUDE
DATUM.F                   nan : DEPTH DATUM ELEV
~Curve Information -----------------------------------------
DEPT   .F     : 1 MEASURED DEPTH
NPHI_LS.DEC   : NEUTRON POROSITY LIMESTONE
DT     .US/F  : DELTA-T (INTERVAL TRANSIT TIME)
DTSM   .US/F  : DELTA-T SHEAR
GRS    .GAPI  : GAMMA RAY FROM SONIC LOG
DT1    .US/F  : DELTA-T SHEAR - LOWER DIPOLE
DTCO   .US/F  : DELTA-T COMPRESSIONAL
~Params ----------------------------------------------------
~Other -----------------------------------------------------
~ASCII -----------------------------------------------------
# ...
 5691.50000    0.19460   57.22490  252.29040   70.87700   93.11090  109.56820
 5692.00000    0.18080   57.09790  245.82640   72.64930   91.89180  108.95020
 5692.50000    0.17430   57.09600  246.50170   73.51010   91.11330  109.06100
 5693.00000    0.18400   57.27470  248.37350   73.19070   91.42530  110.09000
 5693.50000    0.19940   57.57850  255.16030   71.54900   93.59470  111.62560
 5694.00000    0.21470   57.97070  263.96130   71.30900   95.75690  113.29110
 5694.50000    0.21950   58.23330  267.17000   73.03710   97.57090  113.61550
 5695.00000    0.21470   57.91560  265.63730   75.25590   96.23060  112.68030
 5695.50000    0.20840   57.69610  261.65520   75.02170   94.84580  111.64460
 5696.00000    0.20190   57.67710  257.67310   71.76250   94.35790  111.47140
 5696.50000    0.19630   57.66440  257.28940   69.46070   94.49890  111.47270
 5697.00000    0.19090   57.65400  260.91330   68.81800   95.28290  111.48300
 5697.50000    0.19050   57.64360  262.97260   69.29020   95.79890  111.49330
 5698.00000    0.19420   57.60260  262.95220   70.30410   95.72400  111.47940
 5698.50000    0.19400   57.45660  262.90820   72.10350   95.69850  111.20570
 5699.00000    0.18610   57.31070  262.75930   73.70640   95.60810  110.43260
 5699.50000    0.17820   57.16430  262.30550   73.63230   95.51760  109.28020
 5700.00000    0.17280   56.92760  259.37030   74.17350   95.29030  108.17840
 5700.50000    0.17260   56.73070  256.77260   74.65420   94.53530  107.27700
 5701.00000    0.17590   56.73100  255.04630   72.78470   93.86580  107.44970
 5701.50000    0.18050   56.74890  255.66770   70.54390   93.61210  107.47230
 5702.00000    0.18350   56.76290  254.48850   69.45430   93.36450  107.48640
 5702.50000    0.18210   56.75360  252.64090   70.35240   93.02500  107.44930
 5703.00000    0.17800   56.72670  247.80850   71.60140   91.69490  107.18540
 5703.50000    0.17040   56.50440  242.72010   72.61000   90.51800  106.72530
 5704.00000    0.16280   56.32820  237.58690   72.18160   89.45170  106.36210
 5704.50000    0.15490   56.05420  232.66940   70.83290   88.38540  104.97190
 5705.00000    0.14680   55.57830  227.75190   69.05500   86.74430  102.97510
 5705.50000    0.13770   54.98550  222.75410   68.15780   85.53540  100.75630
 5706.00000    0.12500   54.41990  218.00660   68.66880   84.32660   98.47100
 5706.50000    0.10840   53.96180  213.46710   69.32370   83.10900   96.40490
 5707.00000    0.09740   53.55770  209.35330   68.91300   81.86980   94.64420
 5707.50000    0.09180   53.15350  205.58670   67.12360   80.97190   93.34040
 5708.00000    0.08520   52.71120  201.82020   65.41900   80.11230   92.23730
 5708.50000    0.07860   52.51360  200.19530   64.90520   79.65390   91.50620
 5709.00000    0.07550   52.51070  200.54970   65.42740   79.94360   91.51120
 5709.50000    0.08050   52.93570  205.37910   65.88530   80.89470   93.16120
 5710.00000    0.09030   53.86960  211.18740   65.91410   82.30290   96.63260
 5710.50000    0.10290   54.59580  217.86760   66.05780   83.90560   99.23890
 5711.00000    0.10840   54.67280  219.66300   66.53160   85.49770   99.53230
 5711.50000    0.10960   54.46440  218.41350   66.89300   84.67870   98.66580
 5712.00000    0.10900   54.35210  216.67720   66.46760   84.05560   97.14960
 5712.50000    0.10810   54.47170  216.67720   66.20050   84.06970   98.35430
 5713.00000    0.10970   54.68710  219.14850   66.93770   84.44170   99.41050
 5713.50000    0.11110   54.41090  220.48370   67.63780   84.68480   98.46090
 5714.00000    0.10140   53.92650  217.89900   65.86060   84.06990   95.97130
 5714.50000    0.09040   53.21610  214.42620   62.52000   83.29730   93.43050
 5715.00000    0.08960   52.96380  210.15030   59.45400   82.38760   93.04010
 5715.50000    0.09590   53.33730  205.87450   59.61210   81.41640   94.46400
 5716.00000    0.09930   53.56170  201.79760   61.06390   80.38420   95.42860
 5716.50000    0.09500   53.29130  197.90830   62.38210   79.30160   95.00810
 5717.00000    0.08370   52.67630  194.64570   62.70530   78.49170   91.87280
 5717.50000    0.08140   52.65580  196.44430   64.73950   79.00320   91.71020
 5718.00000    0.09730   53.69860  202.23680   70.86570   80.55350   95.50710
 5718.50000    0.12060   54.97320  208.68990   77.73000   82.15770  100.76470
 5719.00000    0.13020   56.24780  215.22440   77.59180   83.76190  106.98360
 5719.50000    0.12000   56.53210  217.63370   67.41730   84.02630  107.71920
 5720.00000    0.08490   54.59430  209.21940   52.53910   81.59460  100.15990
 5720.50000    0.05450   52.26750  191.72300   41.51660   77.89980   90.03490
 5721.00000    0.03560   50.31750  171.74130   34.86730   72.97080   81.93710
 5721.50000    0.03060   48.52250  157.82590   32.77960   70.04120   74.69540
 5722.00000    0.03230   47.98590  161.28650   32.58760   70.50950   72.70300
 5722.50000    0.03580   48.38040  168.51280   33.45630   71.79090   74.18470
 5723.00000    0.04210   48.87320  170.08950   34.98500   72.24140   76.59860
 5723.50000    0.04390   49.56230  171.02900   36.33430   72.79710   79.09790
 5724.00000    0.04520   50.96490  177.55620   38.13770   73.96060   83.99580
 5724.50000    0.04970   52.83790  188.82350   39.93840   76.65620   91.98570
 5725.00000    0.06420   55.00770  203.97250   42.27360   80.30880  101.22900
 5725.50000    0.08010   56.99170  220.52170   43.73100   84.87080  108.15350
 5726.00000    0.09370   58.05340  237.63790   43.34580   89.16360  113.18290
 5726.50000    0.09900   58.63710  234.17580   41.85950   88.74820  115.21150
 5727.00000    0.09970   59.06820  226.83710   41.50670   86.45340  116.94460
 5727.50000    0.10050   59.12680  219.49850   42.39580   84.47650  117.45360
 5728.00000    0.10140   59.18540  217.75640   44.13550   84.51660  117.64110
 5728.50000    0.10860   59.24390  220.37730   47.15260   85.22330  117.63680
 5729.00000    0.11800   59.26820  223.24460   51.15530   85.86840  117.97390
 5729.50000    0.12790   59.19390  225.24370   53.65790   86.39400  118.02850
 5730.00000    0.12690   59.11970  226.48460   50.63010   86.68260  117.82030
 5730.50000    0.12030   59.04260  227.68470   46.53310   86.97130  117.00520
 5731.00000    0.11860   58.81230  228.99910   46.35130   87.26130  116.36900
 5731.50000    0.12070   59.04840  229.36670   48.38560   87.24430  117.28830
 5732.00000    0.12150   59.25150  228.96320   49.16220   87.14920  118.30310
 5732.50000    0.11860   59.44760  227.68810   45.50170   86.91750  118.70830
 5733.00000    0.11950   59.59900  226.17210   42.71460   86.56770  118.63190
 5733.50000    0.12170   59.62070  223.72480   42.26470   85.86810  118.55560
 5734.00000    0.12020   59.48340  221.65710   42.00810   85.54080  118.44170
 5734.50000    0.11180   59.42600  220.22550   40.45810   85.25940  118.19250
 5735.00000    0.10580   59.40980  220.12330   38.61010   85.19160  118.03370
 5735.50000    0.10140   59.17760  221.54880   37.48350   85.49800  117.73650
 5736.00000    0.09760   58.85550  228.98260   38.85760   87.27400  116.46600
 5736.50000    0.09590   58.52970  233.75430   41.83380   88.37700  115.15890
 5737.00000    0.09930   58.46020  230.64080   45.00020   87.75350  115.13210
 5737.50000    0.10600   58.77840  226.61510   47.90160   86.70900  115.57850
 5738.00000    0.10540   58.54060  222.60890   47.30980   86.00400  115.11500
 5738.50000    0.10270   58.10300  222.23970   45.96430   85.86400  113.70360
 5739.00000    0.10140   57.90210  225.01440   45.19010   86.15700  113.10420
 5739.50000    0.10620   58.40760  228.21640   46.67200   86.94060  114.69970
 5740.00000    0.11100   58.87810  231.49020   48.42380   87.60340  116.42670
 5740.50000    0.11990   59.02640  234.33080   50.95870   88.21040  116.60220
 5741.00000    0.12940   58.60050  234.24880   53.53580   88.51480  115.13120
 5741.50000    0.13270   57.78690  232.92350   55.56050   88.52400  110.66730
 5742.00000    0.13240   55.81740  225.14220   52.31680   86.64900  102.21910
 5742.50000    0.09500   53.04440  206.60070   46.27620   81.79270   92.77100
