~Version ---------------------------------------------------
VERS.   2.0 : CWLS log ASCII Standard -VERSION 2.0
WRAP.    NO : One line per depth step
DLM . SPACE : Column Data Section Delimiter
~Well ------------------------------------------------------
STRT .F                4404.0 : START DEPTH
STOP .F                6848.0 : STOP DEPTH
STEP .F                   0.5 : STEP
NULL .               -9999.25 : NULL VALUE
COMP .                        : COMPANY
WELL .                        : WELL
FLD  .                        : FIELD
LOC  .                        : LOCATION
PROV .                        : PROVINCE
CNTY .                        : COUNTY
STAT .                        : STATE
CTRY .                        : COUNTRY
SRVC .                        : SERVICE COMPANY
DATE .                        : DATE
UWI  .                        : UNIQUE WELL ID
API  .                        : API NUMBER
SLAT .WGS84 6.788468231959101 : SURFACE LATITUDE
SLON .WGS84   3.4018628420352 : SURFACE LONGITUDE
DATUM.F                   nan : DEPTH DATUM ELEV
~Curve Information -----------------------------------------
DEPT   .F     : 1 MEASURED DEPTH
NPHI_LS.DEC   : NEUTRON POROSITY LIMESTONE
DT     .US/F  : DELTA-T (INTERVAL TRANSIT TIME)
DTSM   .US/F  : DELTA-T SHEAR
GRS    .GAPI  : GAMMA RAY FROM SONIC LOG
DT1    .US/F  : DELTA-T SHEAR - LOWER DIPOLE
DTCO   .US/F  : DELTA-T COMPRESSIONAL
~Params ----------------------------------------------------
~Other -----------------------------------------------------
~ASCII -----------------------------------------------------
# ...
 4867.50000    0.42860   64.18340  351.82810   96.89040  116.45220  138.03120
 4868.00000    0.44390   63.99740  313.11910   98.07350  109.72210  137.78240
 4868.50000    0.42980   65.24380  329.58830   99.75410  112.64400  143.64880
 4869.00000    0.40450   67.13220  368.99090  102.29200  122.71950  149.51520
 4869.50000    0.40000   69.78860  389.70120  103.34680  127.43310  160.33310
 4870.00000    0.42110   72.82230  392.83310   97.77920  127.95740  172.41790
 4870.50000    0.44360   73.26360  382.44870   94.05360  123.68060  171.21100
 4871.00000    0.46560   69.79860  362.12190   93.99450  119.43480  160.44170
 4871.50000    0.47850   67.33870  343.79060   95.58590  115.25440  152.08850
 4872.00000    0.47940   65.91310  329.36180   97.64080  111.07400  144.93640
 4872.50000    0.46590   63.92740  307.27660   99.69580  106.88790  136.85310
 4873.00000    0.44320   62.13660  286.44630  100.21880  103.00750  129.50540
 4873.50000    0.40320   63.13060  287.17060  100.74190  102.53030  133.03710
 4874.00000    0.36570   62.98860  292.89620  104.20120  102.51340  133.97740
 4874.50000    0.35490   61.02560  290.62100  103.06180  102.22460  127.21620
 4875.00000    0.35090   61.55900  290.91520   98.86170  103.30580  126.99790
 4875.50000    0.33980   62.59890  300.90750   96.23410  105.37120  133.16050
 4876.00000    0.32860   62.43150  307.68740   97.35360  106.58840  132.43790
 4876.50000    0.32490   61.99750  308.53320   99.25780  106.61700  128.15700
 4877.00000    0.33870   63.14780  308.79290  101.16200  107.14630  131.62090
 4877.50000    0.36810   65.26620  312.91630   99.82300  107.92490  139.56530
 4878.00000    0.40190   67.38470  329.41220   95.82970  111.45820  149.01330
 4878.50000    0.44460   67.53290  342.41600   92.03730  114.40200  150.96170
 4879.00000    0.46980   66.77160  342.09450   90.11340  116.28730  148.37820
 4879.50000    0.48680   67.58920  354.39270   88.74440  120.02200  153.17310
 4880.00000    0.51380   69.31600  369.89720   88.66130  122.29550  159.34910
 4880.50000    0.53960   71.59260  350.15520   88.81980  119.59850  163.74930
 4881.00000    0.49410   75.11880  354.15790   86.86410  117.62210  178.87910
 4881.50000    0.41650   77.32700  361.83400   80.65860  119.71880  192.06610
 4882.00000    0.27630   72.85130  357.22940   75.36630  118.36010  176.22020
 4882.50000    0.22240   70.09460  334.15810   72.70080  114.18800  159.91450
 4883.00000    0.28350   68.02700  319.57800   72.70910  110.38730  152.31890
 4883.50000    0.33870   65.48850  301.18480   73.58480  105.82570  142.91710
 4884.00000    0.28210   64.14080  285.44370   74.48700  101.57490  135.69630
 4884.50000    0.23990   63.60520  275.62250   74.96750   99.01810  135.62570
 4885.00000    0.19490   62.53440  258.19480   75.61190   94.01790  130.14350
 4885.50000    0.20830   60.06820  238.26820   78.68690   89.98330  122.41980
 4886.00000    0.22710   62.67690  270.36510   81.77810   95.73940  139.89260
 4886.50000    0.22480   68.86230  299.84760   81.06690  104.32500  153.76200
 4887.00000    0.22250   66.66920  287.11610   78.87880  101.77990  147.56140
 4887.50000    0.23350   66.09970  297.13880   77.91680  105.05270  145.74440
 4888.00000    0.24420   66.66660  318.78650   81.27190  109.98700  148.48100
 4888.50000    0.23060   64.63440  311.12190   85.41640  108.12010  141.18770
 4889.00000    0.20900   63.69450  306.14840   88.50230  106.03610  136.18300
 4889.50000    0.19760   66.87920  325.10460   89.75810  110.86760  149.08140
 4890.00000    0.21460   66.72560  332.13830   90.80970  113.02550  147.62010
 4890.50000    0.26430   66.64310  333.67860   92.35900  113.67280  148.33480
 4891.00000    0.31960   69.03300  359.90360   95.82510  119.42720  159.04480
 4891.50000    0.39230   70.98680  376.32450   99.37210  123.94480  164.21200
 4892.00000    0.41580   71.08900  366.52180   96.60930  121.01690  160.77240
 4892.50000    0.40520   72.70520  355.28970   91.34920  118.51070  170.72280
 4893.00000    0.34760   76.59300  362.49120   85.60710  120.64590  188.34410
 4893.50000    0.26300   80.48070  377.06050   79.11360  125.63250  203.46950
 4894.00000    0.17810   79.12160  382.03450   73.71800  125.99700  192.87300
 4894.50000    0.13980   73.78690  366.69790   70.03040  120.90080  175.53970
 4895.00000    0.13770   69.62150  343.19540   72.28450  115.06370  159.21310
 4895.50000    0.15610   65.03780  313.45460   77.74310  107.35690  140.66100
 4896.00000    0.16360   59.22970  275.28560   83.13830   98.80590  121.57790
 4896.50000    0.17110   57.35390  249.99470   85.50450   92.68090  110.62920
 4897.00000    0.17890   59.52620  268.91090   86.16890   93.50200  119.08170
 4897.50000    0.20390   64.22090  299.02020   86.78540  105.61110  137.67000
 4898.00000    0.23670   66.39940  328.05960   88.20070  111.70160  146.33120
 4898.50000    0.28010   67.92790  345.44960   90.86420  116.63210  150.87070
 4899.00000    0.33150   70.82320  374.52440   97.14260  123.05140  162.59050
 4899.50000    0.38090   74.90280  403.01740  104.51140  130.90990  178.09790
 4900.00000    0.39690   74.42510  402.54460  125.36890  131.55460  179.53910
 4900.50000    0.40390   72.40780  386.99360  155.71870  128.41840  171.17860
 4901.00000    0.41170   72.41070  390.80060  188.55730  127.32680  170.50140
 4901.50000    0.42000   73.09820  398.48980  199.96240  129.70700  172.98020
 4902.00000    0.41640   71.83500  400.81180  200.09260  126.76560  168.93090
 4902.50000    0.37760   71.56760  380.10890  193.75020  125.10210  165.95160
 4903.00000    0.31580   71.99920  376.86920  149.36960  125.25450  169.41430
 4903.50000    0.24870   70.37170  367.86460  118.10550  121.64680  163.38410
 4904.00000    0.24400   68.36730  343.51390  101.42330  115.74430  154.11910
 4904.50000    0.28750   70.53990  334.52130  101.16090  113.51250  161.44620
 4905.00000    0.33110   74.51430  367.98290  104.18930  123.62950  182.87830
 4905.50000    0.29050   79.32950  400.46980   94.81580  130.15620  197.69990
 4906.00000    0.22660   79.40260  412.21690   85.44240  133.65920  196.77850
 4906.50000    0.14610   77.57680  412.21990   69.77880  132.71460  191.26590
 4907.00000    0.11310   75.87490  398.37320   59.76490  128.66830  185.12190
 4907.50000    0.11130   72.71120  367.05750   61.36880  121.02280  171.57690
 4908.00000    0.12120   66.76100  326.69380   68.62990  109.55370  149.10350
 4908.50000    0.13460   60.82890  270.68060   75.08480   98.95650  126.80260
 4909.00000    0.14790   58.80850  244.92230   76.34120   91.51700  114.75820
 4909.50000    0.15940   59.82370  249.28440   78.40410   93.40800  121.88040
 4910.00000    0.17930   61.43860  274.40620   83.40800   98.87670  127.50340
 4910.50000    0.20260   62.04000  290.16010   90.04270  102.79740  129.22610
 4911.00000    0.21440   62.33010  332.72970   95.75040  112.00450  130.29670
 4911.50000    0.23000   63.07770  355.83950  102.04380  120.48950  133.10890
 4912.00000    0.25340   63.81780  352.35480  106.17360  119.13380  136.12600
 4912.50000    0.27930   64.42650  335.24340  111.75770  113.40330  138.52240
 4913.00000    0.29470   64.42000  324.14870  113.45900  110.79860  139.40740
 4913.50000    0.29250   64.41600  315.00740  113.56770  108.18970  139.41610
 4914.00000    0.28750   64.47380  310.79190  113.90510  108.27850  139.27670
 4914.50000    0.29470   65.48230  319.94940  117.37930  110.18440  142.29380
 4915.00000    0.32300   67.65810  336.26950  128.89080  114.19210  151.28520
 4915.50000    0.37540   70.01120  361.05430  147.21700  119.12740  162.65560
 4916.00000    0.42850   71.76450  377.53050  178.90550  122.98670  168.43170
 4916.50000    0.48950   72.13520  385.95330  198.45030  126.15310  169.18830
 4917.00000    0.46260   71.90510  386.09500  186.90410  126.15940  167.72800
 4917.50000    0.29480   69.42760  375.55700  151.97360  123.12040  159.27630
 4918.00000    0.22920   67.96580  361.47520  119.36750  120.08140  151.80840
 4918.50000    0.11990   69.17270  381.10750   80.16520  123.71990  156.23910
