~Version ---------------------------------------------------
VERS.   2.0 : CWLS log ASCII Standard -VERSION 2.0
WRAP.    NO : One line per depth step
DLM . SPACE : Column Data Section Delimiter
~Well ------------------------------------------------------
STRT .F                4404.0 : START DEPTH
STOP .F                6848.0 : STOP DEPTH
STEP .F                   0.5 : STEP
NULL .               -9999.25 : NULL VALUE
COMP .                        : COMPANY
WELL .                        : WELL
FLD  .                        : FIELD
LOC  .                        : LOCATION
PROV .                        : PROVINCE
CNTY .                        : COUNTY
STAT .                        : STATE
CTRY .                        : COUNTRY
SRVC .                        : SERVICE COMPANY
DATE .                        : DATE
UWI  .                        : UNIQUE WELL ID
API  .                        : API NUMBER
SLAT .WGS84 6.788468231959101 : SURFACE LATITUDE
SLON .WGS84   3.4018628420352 : SURFACE LONGITUDE
DATUM.F                   nan : DEPTH DATUM ELEV
~Curve Information -----------------------------------------
DEPT   .F     : 1 MEASURED DEPTH
NPHI_LS.DEC   : NEUTRON POROSITY LIMESTONE
DT     .US/F  : DELTA-T (INTERVAL TRANSIT TIME)
DTSM   .US/F  : DELTA-T SHEAR
GRS    .GAPI  : GAMMA RAY FROM SONIC LOG
DT1    .US/F  : DELTA-T SHEAR - LOWER DIPOLE
DTCO   .US/F  : DELTA-T COMPRESSIONAL
~Params ----------------------------------------------------
~Other -----------------------------------------------------
~ASCII -----------------------------------------------------
# ...
 6309.50000    0.42040   54.97260  209.61630   63.11090   83.27150   99.86490
 6310.00000    0.43950   54.56370  213.50200   63.50490   82.68760   98.59700
 6310.50000    0.41690   55.12270  217.63790   61.47320   82.70380  102.21790
 6311.00000    0.29400   53.30040  202.56380   56.94530   78.90960   97.99260
 6311.50000    0.18720   50.22520  176.69430   52.03040   74.43300   81.15770
 6312.00000    0.10200   47.89490  161.62150   46.11700   70.73480   72.85410
 6312.50000    0.05840   49.81240  165.48280   46.68480   71.26210   80.37030
 6313.00000    0.05800   52.92430  180.95550   50.53930   75.74480   96.16380
 6313.50000    0.10080   53.77010  177.44750   58.63370   73.00230   95.84690
 6314.00000    0.17690   49.44900  151.69670   65.38980   67.71620   81.72120
 6314.50000    0.24280   46.73990  135.83260   68.40220   64.10230   66.11940
 6315.00000    0.27830   46.67340  137.36710   68.37520   63.90460   66.37830
 6315.50000    0.24140   47.82080  150.31980   68.46220   67.19630   72.45220
 6316.00000    0.14330   49.58980  168.70920   68.58700   71.63720   80.90170
 6316.50000    0.12360   50.14330  181.72120   67.78470   75.08890   81.23850
 6317.00000    0.10310   51.72920  198.02350   64.34270   78.65940   91.42290
 6317.50000    0.08400   56.73330  225.76170   58.63330   87.06210  106.67140
 6318.00000    0.06740   56.26640  233.40600   53.65500   87.18460  106.33920
 6318.50000    0.06000   53.17950  203.64420   53.05060   79.10700   93.27530
 6319.00000    0.06000   49.50180  176.99430   54.84590   74.19760   79.42050
 6319.50000    0.07300   47.14120  160.87750   56.19950   70.85070   68.93240
 6320.00000    0.09790   46.71640  152.25290   56.64050   68.47250   67.72660
 6320.50000    0.20680   46.69760  147.45280   57.52510   67.47540   68.93530
 6321.00000    0.28310   49.65000  163.08540   60.70890   69.41050   78.42560
 6321.50000    0.33640   52.61600  184.68830   63.79770   75.53480   91.66400
 6322.00000    0.26300   50.34730  184.70870   62.37870   76.02360   87.08760
 6322.50000    0.13730   50.87380  187.77270   58.95530   76.35700   86.13550
 6323.00000    0.08520   52.36970  186.46060   56.19900   76.64550   90.80980
 6323.50000    0.08510   52.71200  177.72220   58.22650   75.03580   90.52630
 6324.00000    0.11860   52.74580  165.16960   64.05650   70.79180   93.12520
 6324.50000    0.19320   53.61150  146.64200   68.32770   67.83730   95.65550
 6325.00000    0.23210   52.95820  144.05050   66.23940   66.90420   94.61330
 6325.50000    0.20700   52.11430  175.39150   60.58760   75.10070   88.79300
 6326.00000    0.16780   52.38240  231.85410   54.18950   88.92590   92.96640
 6326.50000    0.12870   51.37970  226.65330   49.58550   84.65690   87.10420
 6327.00000    0.08970   49.97480  189.19890   46.82900   76.51270   80.64230
 6327.50000    0.07760   50.72250  191.22740   46.84300   78.46850   83.49770
 6328.00000    0.08040   51.62800  205.16490   50.43750   80.79730   88.90910
 6328.50000    0.09670   52.21870  211.45290   58.35310   82.22100   90.69900
 6329.00000    0.14220   51.54930  193.98700   66.33160   77.87930   85.81330
 6329.50000    0.21610   49.63280  173.19700   71.52410   71.97530   79.48940
 6330.00000    0.35710   49.00520  168.62850   74.62100   73.15890   77.96230
 6330.50000    0.35100   50.06980  190.23700   68.89760   79.11020   81.99830
 6331.00000    0.26530   50.68430  216.44140   60.39060   84.49200   83.94060
 6331.50000    0.17970   49.43100  204.21180   47.07100   79.43030   76.65260
 6332.00000    0.08480   47.86600  171.67780   38.93070   72.05740   71.18440
 6332.50000    0.02770   47.57280  151.22710   34.43240   67.10140   71.40510
 6333.00000    0.01730   47.79330  156.52300   34.36110   69.29170   72.11970
 6333.50000    0.02420   47.56370  166.85450   35.69800   71.74780   70.76390
 6334.00000    0.02150   47.12960  167.03080   37.67370   71.22470   68.97250
 6334.50000    0.01820   47.05080  161.93740   39.04410   69.84420   69.50490
 6335.00000    0.01740   47.52830  157.83880   40.46700   69.49100   71.33040
 6335.50000    0.02770   48.98030  163.58490   43.50080   70.33430   76.34650
 6336.00000    0.05820   52.10330  180.38180   49.39430   74.44010   87.98190
 6336.50000    0.11500   55.23520  201.39880   56.36120   79.23250  101.66640
 6337.00000    0.17920   58.81920  227.07570   62.45430   85.41850  114.91100
 6337.50000    0.20070   61.74920  257.65780   67.13750   91.60450  126.20440
 6338.00000    0.19260   59.07100  250.93260   69.04490   93.19660  115.92660
 6338.50000    0.18180   55.73230  224.66090   66.09350   86.98890  103.08840
 6339.00000    0.19450   55.16950  212.01660   59.51990   82.20620  100.86220
 6339.50000    0.21050   54.24200  195.21470   50.57680   77.25510   96.93700
 6340.00000    0.20930   50.43420  172.10560   45.80160   72.72280   85.85630
 6340.50000    0.16550   48.46290  156.24500   43.05170   68.30310   75.12600
 6341.00000    0.12230   50.02930  152.50900   44.77630   68.43220   79.14690
 6341.50000    0.12530   53.00550  165.92380   50.08300   71.97840   94.96660
 6342.00000    0.15710   56.16720  200.75650   54.19040   85.26330  107.28620
 6342.50000    0.19290   59.75590  261.93300   58.24530  100.10110  119.73140
 6343.00000    0.25070   63.73810  315.87120   61.53180  109.26300  134.44930
 6343.50000    0.29960   65.92090  327.45720   62.22210  111.55320  144.03890
 6344.00000    0.34050   64.15340  326.23370   62.89200  110.67310  138.66710
 6344.50000    0.37670   61.74610  317.94140   64.58960  106.79150  127.81240
 6345.00000    0.38080   58.02280  281.41490   65.84760   99.36420  117.59600
 6345.50000    0.33400   54.21790  229.30140   62.12330   85.52330  100.60410
 6346.00000    0.25600   52.29090  196.43820   54.44850   78.91030   90.21640
 6346.50000    0.12840   53.01380  199.98250   46.35540   79.52590   92.63900
 6347.00000    0.12640   57.21720  234.64220   41.94120   91.11610  110.91660
 6347.50000    0.15990   58.18490  250.60890   40.83260   92.18220  113.60650
 6348.00000    0.21670   58.29370  245.61670   41.35900   91.27070  113.78490
 6348.50000    0.26130   60.47720  257.43670   42.26400   95.52570  122.65850
 6349.00000    0.27020   62.51070  275.18610   42.29630   98.29940  132.15320
 6349.50000    0.23760   58.55880  261.39980   40.89040   93.81550  114.17360
 6350.00000    0.20510   54.85250  236.80560   39.21640   88.53020   99.77950
 6350.50000    0.19270   54.86480  221.65350   39.06070   85.62230  101.08370
 6351.00000    0.18770   56.41950  220.37900   40.17350   85.59520  106.81420
 6351.50000    0.18730   57.86730  224.52130   42.59120   87.33390  112.90900
 6352.00000    0.20260   59.22240  240.42040   43.18040   90.62500  116.74090
 6352.50000    0.21440   59.53260  253.68390   42.50500   93.91610  119.31930
 6353.00000    0.21520   57.23930  253.74060   40.49120   92.17330  109.67540
 6353.50000    0.14400   50.84390  193.92050   36.75920   79.19080   86.65020
 6354.00000    0.10940   46.56210  153.29220   31.86750   68.11490   65.23610
 6354.50000    0.08090   46.65280  152.56030   28.95160   69.73960   68.15040
 6355.00000    0.07500   47.91650  164.49130   29.73510   72.80610   72.87990
 6355.50000    0.07580   48.96150  183.40480   31.38050   76.30920   77.11140
 6356.00000    0.07750   49.84150  193.62670   31.37330   78.85710   80.33490
 6356.50000    0.07710   50.72150  201.57740   31.04370   80.89830   83.95160
 6357.00000    0.07160   51.81660  207.98550   31.07230   81.85200   88.39360
 6357.50000    0.07280   52.05610  208.26510   31.58850   80.84270   89.72450
 6358.00000    0.07870   52.34110  200.99580   33.09030   79.49420   90.66990
 6358.50000    0.09480   52.78100  199.71890   35.39660   80.33270   92.43560
 6359.00000    0.10780   53.58820  205.90710   38.85240   82.03910   94.94420
 6359.50000    0.11880   54.19940  214.23950   42.50230   83.64140   96.97130
 6360.00000    0.11910   54.32610  214.26930   45.39400   83.43210   98.65530
 6360.50000    0.11670   54.36400  210.51090   47.05880   82.61840   99.36170
