~Version ---------------------------------------------------
VERS.   2.0 : CWLS log ASCII Standard -VERSION 2.0
WRAP.    NO : One line per depth step
DLM . SPACE : Column Data Section Delimiter
~Well ------------------------------------------------------
STRT .F                4404.0 : START DEPTH
STOP .F                6848.0 : STOP DEPTH
STEP .F                   0.5 : STEP
NULL .               -9999.25 : NULL VALUE
COMP .                        : COMPANY
WELL .                        : WELL
FLD  .                        : FIELD
LOC  .                        : LOCATION
PROV .                        : PROVINCE
CNTY .                        : COUNTY
STAT .                        : STATE
CTRY .                        : COUNTRY
SRVC .                        : SERVICE COMPANY
DATE .                        : DATE
UWI  .                        : UNIQUE WELL ID
API  .                        : API NUMBER
SLAT .WGS84 6.788468231959101 : SURFACE LATITUDE
SLON .WGS84   3.4018628420352 : SURFACE LONGITUDE
DATUM.F                   nan : DEPTH DATUM ELEV
~Curve Information -----------------------------------------
DEPT   .F     : 1 MEASURED DEPTH
NPHI_LS.DEC   : NEUTRON POROSITY LIMESTONE
DT     .US/F  : DELTA-T (INTERVAL TRANSIT TIME)
DTSM   .US/F  : DELTA-T SHEAR
GRS    .GAPI  : GAMMA RAY FROM SONIC LOG
DT1    .US/F  : DELTA-T SHEAR - LOWER DIPOLE
DTCO   .US/F  : DELTA-T COMPRESSIONAL
~Params ----------------------------------------------------
~Other -----------------------------------------------------
~ASCII -----------------------------------------------------
# ...
 6773.00000    0.01000   45.19980  168.91670   23.54210   72.14730   61.34020
 6773.50000    0.01160   45.41410  168.86900   22.43810   72.17320   62.07130
 6774.00000    0.01320   45.56220  168.52830   20.64350   72.15580   62.83780
 6774.50000    0.01410   45.64390  168.09630   19.10050   71.97230   63.45790
 6775.00000    0.01260   45.61990  166.66320   19.41730   71.41480   63.65590
 6775.50000    0.01050   45.59090  163.81350   20.10520   70.54230   63.04700
 6776.00000    0.00950   45.62290  159.92030   20.69890   70.04530   63.36690
 6776.50000    0.00910   45.84060  157.73310   20.68100   69.61620   64.19180
 6777.00000    0.01040   46.15730  157.35140   19.70190   69.44110   64.90290
 6777.50000    0.01240   46.30450  157.60710   18.99120   69.47570   65.36920
 6778.00000    0.01520   46.35360  158.07250   18.97860   69.53180   65.83550
 6778.50000    0.01830   46.38520  159.41420   19.21700   69.71280   66.25140
 6779.00000    0.02120   46.66610  161.47920   19.12010   70.27030   67.58850
 6779.50000    0.02150   46.96210  163.91510   18.69930   70.82780   68.85150
 6780.00000    0.02060   47.03140  165.75580   18.29870   71.36910   69.36880
 6780.50000    0.02010   46.98870  166.32920   18.09860   71.55940   68.76030
 6781.00000    0.01990   46.80460  166.59200   18.01550   71.33220   68.22630
 6781.50000    0.01970   46.64360  164.71980   18.02580   71.15960   67.65760
 6782.00000    0.01940   46.57220  162.76520   18.53670   70.69720   67.12890
 6782.50000    0.01940   46.50410  161.16800   19.56560   70.29710   66.80750
 6783.00000    0.01930   46.43590  160.81180   20.13500   70.41210   66.50360
 6783.50000    0.01940   46.36700  163.00660   20.09630   70.89650   66.33120
 6784.00000    0.01950   46.31890  165.16300   19.67450   71.26920   66.15890
 6784.50000    0.01950   46.36020  166.68920   18.84130   71.44310   65.98650
 6785.00000    0.01940   46.33610  166.71190   18.31310   71.50890   65.84710
 6785.50000    0.01930   46.32490  166.48750   18.46160   71.27390   65.82080
 6786.00000    0.01930   46.31910  165.04080   19.60820   70.95770   65.62000
 6786.50000    0.01940   46.31990  162.54340   20.71560   70.63830   65.61100
 6787.00000    0.01970   46.32070  162.51310   19.69290   70.45370   65.83210
 6787.50000    0.02000   46.32150  162.39460   17.77340   70.36570   66.05310
 6788.00000    0.02030   46.32300  162.27620   16.59010   70.25930   66.20240
 6788.50000    0.02060   46.40060  162.55150   17.02790   70.27390   66.16260
 6789.00000    0.02090   46.34070  163.18910   18.87720   70.32620   65.90390
 6789.50000    0.02110   46.38130  163.83470   20.60970   70.69730   66.08410
 6790.00000    0.02140   46.61100  164.48030   20.41070   71.05630   66.58430
 6790.50000    0.02170   46.71470  165.38450   19.39640   71.39310   67.62190
 6791.00000    0.02200   46.71470  166.32690   18.25840   71.58830   68.38370
 6791.50000    0.02190   46.71470  166.86040   17.63890   71.54380   68.10260
 6792.00000    0.02070   46.57980  166.81660   17.89290   71.47640   67.30910
 6792.50000    0.01920   46.26190  165.62320   19.09100   71.21640   65.87980
 6793.00000    0.01750   45.97100  162.24970   20.73790   70.56380   64.41180
 6793.50000    0.01580   45.82530  159.57990   22.62300   69.91120   63.48290
 6794.00000    0.01410   45.62900  156.92270   23.27700   69.38560   62.72920
 6794.50000    0.01240   45.44930  155.88460   23.22440   68.88680   62.16700
 6795.00000    0.01080   45.44440  155.51140   22.45020   68.69340   62.56570
 6795.50000    0.00940   45.52000  156.61810   21.53330   69.20150   62.91320
 6796.00000    0.00980   45.62100  158.00650   20.53350   69.86030   63.34100
 6796.50000    0.01150   45.83250  158.85970   19.24010   69.83680   64.26710
 6797.00000    0.01310   46.19470  158.85500   18.70940   69.68500   65.25200
 6797.50000    0.01470   46.29700  158.57780   19.38030   69.56560   66.03320
 6798.00000    0.01410   46.14410  157.72220   21.12980   69.44610   65.63850
 6798.50000    0.01220   45.83790  156.87380   23.07360   69.31610   64.43090
 6799.00000    0.01000   45.51460  156.53610   24.26780   69.15000   62.53520
 6799.50000    0.00760   45.24260  156.53610   24.40100   68.85660   61.18790
 6800.00000    0.00620   44.97060  156.28360   24.05590   68.85790   60.42410
 6800.50000    0.00560   44.82930  155.79200   23.87770   68.88330   59.79360
 6801.00000    0.00520   44.67480  155.79200   23.97980   68.90640   59.16300
 6801.50000    0.00480   44.65970  155.77250   24.25320   68.84310   58.94880
 6802.00000    0.00460   44.69350  155.46560   24.50590   68.75120   58.94110
 6802.50000    0.00450   44.83540  155.15860   23.82510   68.61620   59.35610
 6803.00000    0.00450   44.87720  154.72550   22.44550   68.55060   59.77110
 6803.50000    0.00460   44.94400  154.28820   21.00480   68.54950   60.18580
 6804.00000    0.00480   45.01090  154.65810   22.16840   68.57670   60.35640
 6804.50000    0.00510   45.02730  155.37390   24.01160   68.74870   60.44600
 6805.00000    0.00530   44.87160  156.28520   24.95390   69.03220   60.27280
 6805.50000    0.00530   44.76300  157.38090   24.85950   69.31760   59.92820
 6806.00000    0.00520   44.73350  158.34690   24.53840   69.44610   59.20140
 6806.50000    0.00520   44.75530  158.42700   24.39830   69.47620   58.94200
 6807.00000    0.00510   44.88650  158.63900   25.35450   69.54150   59.01950
 6807.50000    0.00590   45.05600  159.14910   25.75170   69.59560   60.36350
 6808.00000    0.00760   45.54010  159.73710   24.31880   69.64500   62.99860
 6808.50000    0.01040   45.92340  160.40350   22.39290   69.69450   64.87150
 6809.00000    0.01190   46.19740  161.06980   20.71600   69.74390   65.75510
 6809.50000    0.01340   46.18440  161.40060   19.89500   69.79330   65.54150
 6810.00000    0.01360   45.93800  161.22440   20.26560   69.84280   64.57570
 6810.50000    0.01310   45.72290  160.81810   20.74350   69.89220   63.34110
 6811.00000    0.01260   45.64150  160.47610   20.64620   69.94160   63.08000
 6811.50000    0.01230   45.56010  160.17380   20.06500   70.00130   62.91050
 6812.00000    0.01210   45.51600  159.92250   19.09260   70.07220   62.71600
 6812.50000    0.01180   45.46400  159.74450   18.11490   70.14310   62.27310
 6813.00000    0.01140   45.43160  160.20970   17.65540   70.21390   62.00060
 6813.50000    0.00980   45.42720  161.94850   17.44760   70.22770   61.95060
 6814.00000    0.01000   45.46200  162.57450   17.77850   70.19980   62.43610
 6814.50000    0.01090   45.57480  162.29240   18.57130   69.97580   62.90250
 6815.00000    0.01160   45.59970  158.38280   19.57590   69.51600   62.81770
 6815.50000    0.01020   45.45150  157.26660   20.59690   69.35120   62.29030
 6816.00000    0.00790   45.31090  157.35370   21.64360   69.19780   61.81960
 6816.50000    0.00720   45.20700  157.48820   22.70780   69.20170   61.35730
 6817.00000    0.00740   45.15510  158.10850   25.18830   69.53940   60.89500
 6817.50000    0.00760   45.10320  158.51380   27.09900   69.84690   60.43280
 6818.00000    0.00690   45.05130  158.76110   25.07200   69.84690   59.99560
 6818.50000    0.00620   45.00290  158.73960   22.02500   69.79090   59.65270
 6819.00000    0.00540   44.77280  158.71820   20.32450   69.70710   59.87140
 6819.50000    0.00470   44.73950  158.62170   20.28460   69.62340   60.28420
 6820.00000    0.00440   45.01120  158.33320   20.96190   69.53510   60.71770
 6820.50000    0.00450   45.34530  157.90620   21.96870   69.42190   62.28650
 6821.00000    0.00490   45.53570  156.97340   22.94680   68.97640   62.88610
 6821.50000    0.00540   45.68250  155.04570   23.90490   68.54580   63.44030
 6822.00000    0.00580   45.82930  152.93230   24.59600   67.94320   63.81280
 6822.50000    0.00620   45.92670  150.77050   25.11360   67.42760   64.10340
 6823.00000    0.00670   45.93620  149.81940   25.13370   67.19260   64.39400
 6823.50000    0.00740   45.95290  150.11760   25.34210   67.50690   64.54260
 6824.00000    0.00810   46.07120  150.21030   25.46760   67.09320   64.75430
