~Version ---------------------------------------------------
VERS.   2.0 : CWLS log ASCII Standard -VERSION 2.0
WRAP.    NO : One line per depth step
DLM . SPACE : Column Data Section Delimiter
~Well ------------------------------------------------------
STRT .F                12162.0 : START DEPTH
STOP .F                15324.5 : STOP DEPTH
STEP .F                    0.5 : STEP
NULL .                -9999.25 : NULL VALUE
COMP .                         : COMPANY
WELL .                         : WELL
FLD  .                         : FIELD
LOC  .                         : LOCATION
PROV .                         : PROVINCE
CNTY .                         : COUNTY
STAT .                         : STATE
CTRY .                         : COUNTRY
SRVC .                         : SERVICE COMPANY
DATE .                         : DATE
UWI  .                         : UNIQUE WELL ID
API  .                         : API NUMBER
SLAT .WGS84  5.811716077138705 : SURFACE LATITUDE
SLON .WGS84 3.3863524767489253 : SURFACE LONGITUDE
DATUM.F                1787.23 : DEPTH DATUM ELEV
~Curve Information -----------------------------------------
DEPT.F     : 
SPR .MV    : SPONTANEOUS POTENTIAL FROM RES.
GRR .GAPI  : GAMMA RAY FROM RESISTIVITY
AT10.OHMM  : 10-IN. RESISTIVITY, 2-FT RESOLUTION
AT90.OHMM  : 90-IN. RESISTIVITY, 2-FT RESOLUTION
AT30.OHMM  : 30-IN. RESISTIVITY, 2-FT RESOLUTION
DTCO.US/F  : COMPRESSIONAL-WAVE INTERVAL TRANSIT TIME ACOUSTIC SLOWNESS
DTSM.US/F  : SHEAR-WAVE INTERVAL TRANSIT TIME DELTA-T
CALD.IN    : CALIPER FDC LOG
DPHI.DEC   : DENSITY POROSITY LIMESTONE
NPHI.DEC   : NEUTRON POROSITY LIMESTONE
RHOB.G/C3  : BULK DENSITY
DRHO.G/C3  : DENSITY CORRECTION
GRD .GAPI  : GAMMA RAY FROM DENSITY LOG
~Params ----------------------------------------------------
~Other -----------------------------------------------------
~ASCII -----------------------------------------------------
# ...
 15256.00000   -0.36620   25.31430   22.86030   30.62450   25.05550   52.21610  105.67240   -9999.25   -9999.25   -9999.25   -9999.25   -9999.25   -9999.25
 15256.50000   -0.24820   25.32260   23.20960   28.39450   25.63690   52.24980  105.29540   -9999.25   -9999.25   -9999.25   -9999.25   -9999.25   -9999.25
 15257.00000   -0.12980   26.62130   23.72200   26.97440   26.48970   52.28340  104.91810   -9999.25   -9999.25   -9999.25   -9999.25   -9999.25   -9999.25
 15257.50000   -0.01170   28.44450   23.30090   29.33380   25.93840   52.31710  104.54090   -9999.25   -9999.25   -9999.25   -9999.25   -9999.25   -9999.25
 15258.00000    0.10690   28.41130   23.06160   32.89820   24.63660   52.35080  104.16430   -9999.25   -9999.25   -9999.25   -9999.25   -9999.25   -9999.25
 15258.50000    0.22480   27.75190   22.90790   36.05250   25.43780   52.38440  103.95010   -9999.25   -9999.25   -9999.25   -9999.25   -9999.25   -9999.25
 15259.00000    0.34240   27.11080   25.09960   33.48190   27.24960   52.41810  104.05980   -9999.25   -9999.25   -9999.25   -9999.25   -9999.25   -9999.25
 15259.50000    0.46330   26.50010   23.97040   30.54690   27.97040   52.45180  104.17010   -9999.25   -9999.25   -9999.25   -9999.25   -9999.25   -9999.25
 15260.00000    0.57620   25.89660   22.27420   27.97040   23.75930   52.48550  104.28030   -9999.25   -9999.25   -9999.25   -9999.25   -9999.25   -9999.25
 15260.50000    0.70550   26.25300   21.31030   30.67660   22.50150   52.51910  104.39020   -9999.25   -9999.25   -9999.25   -9999.25   -9999.25   -9999.25
 15261.00000    0.71330   27.63780   22.88550   35.40480   31.75540   52.55280  104.49950   -9999.25   -9999.25   -9999.25   -9999.25   -9999.25   -9999.25
 15261.50000    0.71660   29.01670   24.19400   40.86160   29.06530   52.58650  104.60850   -9999.25   -9999.25   -9999.25   -9999.25   -9999.25   -9999.25
 15262.00000    0.71380   30.41460   22.06740   44.00980   25.45800   52.62020  104.71720   -9999.25   -9999.25   -9999.25   -9999.25   -9999.25   -9999.25
 15262.50000    0.71470   31.81020   19.87090   27.06620   22.29840   52.65380  104.82570   -9999.25   -9999.25   -9999.25   -9999.25   -9999.25   -9999.25
 15263.00000    0.71470   33.02030   18.10190   21.31030   19.81950   52.68750  104.93420   -9999.25   -9999.25   -9999.25   -9999.25   -9999.25   -9999.25
 15263.50000    0.71430   32.89370   17.45720   23.81530   19.11370   52.72110  105.04270   -9999.25   -9999.25   -9999.25   -9999.25   -9999.25   -9999.25
 15264.00000    0.71440   32.26170   19.35180   31.84380   19.11370   52.75470  105.15120   -9999.25   -9999.25   -9999.25   -9999.25   -9999.25   -9999.25
 15264.50000    0.71430   30.25730   21.63230   43.21910   29.00330   52.78810  105.25970   -9999.25   -9999.25   -9999.25   -9999.25   -9999.25   -9999.25
 15265.00000    0.71430   28.48380   23.75930   37.11370   26.87670   52.82150  105.36820   -9999.25   -9999.25   -9999.25   -9999.25   -9999.25   -9999.25
 15265.50000    0.71430   26.57670   22.15340   28.18420   22.09720   52.85480  105.47670   -9999.25   -9999.25   -9999.25   -9999.25   -9999.25   -9999.25
 15266.00000    0.71430   26.50710   21.31030   25.08740   22.50150   52.88810  105.58520   -9999.25   -9999.25   -9999.25   -9999.25   -9999.25   -9999.25
 15266.50000    0.71430   26.50870   22.49740   23.75930   25.16660   52.92170  105.69370   -9999.25   -9999.25   -9999.25   -9999.25   -9999.25   -9999.25
 15267.00000    0.71430   27.27390   23.75750   38.06780   29.00330   53.02390  105.80220   -9999.25   -9999.25   -9999.25   -9999.25   -9999.25   -9999.25
 15267.50000    0.71430   27.64220   22.22590   32.63510   26.55280   53.20140  105.91070   -9999.25   -9999.25   -9999.25   -9999.25   -9999.25   -9999.25
 15268.00000    0.71430   26.75720   19.80960   26.98690   23.81210   53.37900  106.01920   -9999.25   -9999.25   -9999.25   -9999.25   -9999.25   -9999.25
 15268.50000    0.71430   25.85800   19.82970   22.50150   21.35430   53.55650  106.12770   -9999.25   -9999.25   -9999.25   -9999.25   -9999.25   -9999.25
 15269.00000    0.71430   26.76340   20.25730   22.50150   20.55140   53.72550  106.23620   -9999.25   -9999.25   -9999.25   -9999.25   -9999.25   -9999.25
 15269.50000    0.71430   28.37170   20.67390   24.56590   21.80070   54.06670  106.29590   -9999.25   -9999.25   -9999.25   -9999.25   -9999.25   -9999.25
 15270.00000    0.71430   29.91230   21.30410   27.46080   24.19400   54.39220  106.32900   -9999.25   -9999.25   -9999.25   -9999.25   -9999.25   -9999.25
 15270.50000    0.71430   31.34000   20.99700   31.75540   23.31120   54.71770  106.36210   -9999.25   -9999.25   -9999.25   -9999.25   -9999.25   -9999.25
 15271.00000    0.71450   33.01370   20.35830   22.23220   21.70020   55.04350  106.39520   -9999.25   -9999.25   -9999.25   -9999.25   -9999.25   -9999.25
 15271.50000    0.71450   32.39700   19.47050   22.33620   22.11000   55.22930  106.42830   -9999.25   -9999.25   -9999.25   -9999.25   -9999.25   -9999.25
 15272.00000    0.71400   31.20460   19.71200   21.88170   22.93640   54.94900  106.46140   -9999.25   -9999.25   -9999.25   -9999.25   -9999.25   -9999.25
 15272.50000    0.71550   30.39470   20.53320   23.78070   23.79380   54.66920  106.49450   -9999.25   -9999.25   -9999.25   -9999.25   -9999.25   -9999.25
 15273.00000    0.71380   37.88210   21.39040   24.97470   25.08740   54.47860  106.52760   -9999.25   -9999.25   -9999.25   -9999.25   -9999.25   -9999.25
 15273.50000    0.70960   35.50440   22.28410   26.03320   24.90480   54.41180  106.56070   -9999.25   -9999.25   -9999.25   -9999.25   -9999.25   -9999.25
 15274.00000    0.64210   29.36820   22.49960   25.82150   24.58050   54.34520  106.59380   -9999.25   -9999.25   -9999.25   -9999.25   -9999.25   -9999.25
 15274.50000    0.58410   23.59360   22.50140   25.31050   24.26050   54.27970  106.62690   -9999.25   -9999.25   -9999.25   -9999.25   -9999.25   -9999.25
 15275.00000    0.52170   22.81540   22.50270   24.82880   23.94460   54.21230  106.66000   -9999.25   -9999.25   -9999.25   -9999.25   -9999.25   -9999.25
 15275.50000    0.46110   23.46860   22.50370   24.63660   23.63900   54.14500  106.69310   -9999.25   -9999.25   -9999.25   -9999.25   -9999.25   -9999.25
 15276.00000    0.40040   24.23880   22.50420   25.11470   23.33750   54.07760  106.72620   -9999.25   -9999.25   -9999.25   -9999.25   -9999.25   -9999.25
 15276.50000    0.33940   -9999.25   22.55840   25.73700   23.33600   54.01030  106.75930   -9999.25   -9999.25   -9999.25   -9999.25   -9999.25   -9999.25
 15277.00000    0.27850   -9999.25   22.79030   24.63660   23.74480   53.94290  106.79240   -9999.25   -9999.25   -9999.25   -9999.25   -9999.25   -9999.25
 15277.50000    0.21770   -9999.25   23.02490   24.63660   24.24240   53.87560  106.82550   -9999.25   -9999.25   -9999.25   -9999.25   -9999.25   -9999.25
 15278.00000    0.15680   -9999.25   23.33330   25.76730   24.75090   53.80830  106.85860   -9999.25   -9999.25   -9999.25   -9999.25   -9999.25   -9999.25
 15278.50000    0.09580   -9999.25   23.01770   27.46790   25.56190   53.74090  106.89170   -9999.25   -9999.25   -9999.25   -9999.25   -9999.25   -9999.25
 15279.00000    0.03560   -9999.25   21.90340   27.97040   25.54440   53.72550  106.92480   -9999.25   -9999.25   -9999.25   -9999.25   -9999.25   -9999.25
 15279.50000   -0.02650   -9999.25   20.84330   25.77840   22.50150   53.72550  106.95790   -9999.25   -9999.25   -9999.25   -9999.25   -9999.25   -9999.25
 15280.00000   -0.08200   -9999.25   19.83360   23.92680   20.99070   53.72550  106.99100   -9999.25   -9999.25   -9999.25   -9999.25   -9999.25   -9999.25
 15280.50000   -0.14820   -9999.25   18.87180   22.09720   19.44580   53.72550  107.02410   -9999.25   -9999.25   -9999.25   -9999.25   -9999.25   -9999.25
 15281.00000   -0.20780   -9999.25   17.59310   20.67100   18.01450   53.72550  107.05880   -9999.25   -9999.25   -9999.25   -9999.25   -9999.25   -9999.25
 15281.50000   -0.26930   -9999.25   16.11640   18.99380   16.68860   53.72550  107.76700   -9999.25   -9999.25   -9999.25   -9999.25   -9999.25   -9999.25
