~Version ---------------------------------------------------
VERS.   2.0 : CWLS log ASCII Standard -VERSION 2.0
WRAP.    NO : One line per depth step
DLM . SPACE : Column Data Section Delimiter
~Well ------------------------------------------------------
STRT .F                12162.0 : START DEPTH
STOP .F                15324.5 : STOP DEPTH
STEP .F                    0.5 : STEP
NULL .                -9999.25 : NULL VALUE
COMP .                         : COMPANY
WELL .                         : WELL
FLD  .                         : FIELD
LOC  .                         : LOCATION
PROV .                         : PROVINCE
CNTY .                         : COUNTY
STAT .                         : STATE
CTRY .                         : COUNTRY
SRVC .                         : SERVICE COMPANY
DATE .                         : DATE
UWI  .                         : UNIQUE WELL ID
API  .                         : API NUMBER
SLAT .WGS84  5.811716077138705 : SURFACE LATITUDE
SLON .WGS84 3.3863524767489253 : SURFACE LONGITUDE
DATUM.F                1787.23 : DEPTH DATUM ELEV
~Curve Information -----------------------------------------
DEPT.F     : 
SPR .MV    : SPONTANEOUS POTENTIAL FROM RES.
GRR .GAPI  : GAMMA RAY FROM RESISTIVITY
AT10.OHMM  : 10-IN. RESISTIVITY, 2-FT RESOLUTION
AT90.OHMM  : 90-IN. RESISTIVITY, 2-FT RESOLUTION
AT30.OHMM  : 30-IN. RESISTIVITY, 2-FT RESOLUTION
DTCO.US/F  : COMPRESSIONAL-WAVE INTERVAL TRANSIT TIME ACOUSTIC SLOWNESS
DTSM.US/F  : SHEAR-WAVE INTERVAL TRANSIT TIME DELTA-T
CALD.IN    : CALIPER FDC LOG
DPHI.DEC   : DENSITY POROSITY LIMESTONE
NPHI.DEC   : NEUTRON POROSITY LIMESTONE
RHOB.G/C3  : BULK DENSITY
DRHO.G/C3  : DENSITY CORRECTION
GRD .GAPI  : GAMMA RAY FROM DENSITY LOG
~Params ----------------------------------------------------
~Other -----------------------------------------------------
~ASCII -----------------------------------------------------
# ...
 14190.00000   -5.33500   46.88900   27.93560   38.34490   32.22320   58.82350   96.15690    5.75290    0.04290    0.06970    2.64310    0.01170   47.83340
 14190.50000   -5.09690   44.36740   31.75540   47.32010   35.40480   58.51390   94.50980    5.75670    0.03600    0.06970    2.64720    0.01190   49.22280
 14191.00000   -4.85260   42.13660   31.75540   42.12060   36.05250   58.20430   92.54900    5.76060    0.03190    0.06890    2.65450    0.01210   49.64830
 14191.50000   -4.60990   41.63430   26.75030   36.72540   31.75540   57.89470   91.37260    5.76420    0.02900    0.06730    2.66160    0.01240   48.28200
 14192.00000   -4.36780   47.70760   14.89310   26.90180   19.94320   57.64710   91.37260    5.76880    0.02560    0.05550    2.66980    0.01340   46.68130
 14192.50000   -4.12460   60.41380    8.29160   16.16880   11.64830   60.00000   91.37260    5.77430    0.02240    0.05470    2.67500    0.01430   46.34350
 14193.00000   -3.88200   71.27610    4.61630    9.71800    6.80350   69.47710  103.52940    5.77940    0.02160    0.06010    2.67810    0.01540   46.56900
 14193.50000   -3.63920   81.36210    2.41940    5.84080    3.97380   78.95420  122.48370    5.78460    0.03980    0.06500    2.65890    0.01630   52.01290
 14194.00000   -3.39630   91.53800    2.07480    3.51050    2.32100   85.68630  141.43790    5.79000    0.06090    0.12320    2.61670    0.01730   62.35290
 14194.50000   -3.15500   97.79780    1.77770    2.01820    1.90640   90.58820  160.39220    5.79480    0.08190    0.21300    2.57870    0.01840   73.19470
 14195.00000   -2.91000   96.53870    1.68360    2.05510    1.87230   92.94120  179.01960    5.80060    0.10640    0.23160    2.53540    0.02170   84.75180
 14195.50000   -2.66840   95.44020    1.68360    2.02000    1.88320   93.72550  197.64710    5.80690    0.10720    0.26070    2.52830    0.02490   93.30870
 14196.00000   -2.46560   93.84820    1.69210    2.03210    1.89360   93.13730  206.27450    5.83700    0.10680    0.27360    2.52460    0.02620   96.08350
 14196.50000   -2.46180   94.33640    1.70830    2.04020    1.90400   92.15690  205.62090    5.86700    0.10500    0.27360    2.52800    0.02490   98.43130
 14197.00000   -2.45730   96.66260    1.72460    2.04830    1.91420   91.17650  203.00650    5.89900    0.10310    0.26770    2.53320    0.02350   98.09730
 14197.50000   -2.45990   98.97660    1.74100    2.05640    1.92420   90.19610  200.39220    5.93010    0.10110    0.26070    2.53850    0.02210   95.72480
 14198.00000   -2.45980  101.47150    1.75770    2.06460    1.93410   89.90200  197.25490    5.95860    0.09920    0.25240    2.54380    0.02060   94.44900
 14198.50000   -2.45880  103.79170    1.77450    2.07280    1.94360   90.06540  197.25490    5.99630    0.09720    0.25240    2.54930    0.01910   93.42920
 14199.00000   -2.46050  103.41050    1.79160    2.08110    1.95320   90.22880  197.45100    5.97360    0.09530    0.25490    2.55150    0.01770   94.09870
 14199.50000   -2.46260  105.07720    1.80870    2.08940    1.96270   90.39220  197.77780    5.95570    0.09330    0.26330    2.55120    0.01630   96.36480
 14200.00000   -2.51380   94.55720    1.82600    2.09270    1.97240   90.58820  198.43140    5.93140    0.09330    0.27680    2.55130    0.01630   97.42590
 14200.50000   -2.56610   91.98380    1.84320    2.09270    1.98200   90.27580  198.82350    5.91090    0.09360    0.27430    2.55140    0.01630   97.28140
 14201.00000   -2.62060   93.44470    1.84920    2.09270    1.97940   89.88530  198.82350    5.88700    0.09400    0.26780    2.55090    0.01730   97.31870
 14201.50000   -2.67390   95.81810    1.85520    2.09660    1.97690   89.49470  195.91180    5.86460    0.09250    0.26140    2.55340    0.01830   96.81090
 14202.00000   -2.72740   97.72970    1.86110    2.08710    1.97430   89.10420  193.47060    5.84210    0.08500    0.25500    2.55620    0.01940   96.14260
 14202.50000   -2.78110   97.83600    1.86710    2.05130    1.97180   88.71370  190.98040    5.81920    0.07680    0.25080    2.56600    0.02040   95.47170
 14203.00000   -2.83460   97.90430    1.87310    2.05670    1.96930   88.32310  190.98040    5.79670    0.07680    0.25290    2.57550    0.02150   94.71580
 14203.50000   -2.88820   95.91750    1.87910    2.05410    1.96680   88.73990  191.76470    5.77390    0.07520    0.25520    2.58130    0.02240   94.92360
 14204.00000   -2.94170   93.64460    1.88510    2.05480    1.96430   89.39080  193.42550    5.75120    0.07840    0.25750    2.58230    0.02100   96.73810
 14204.50000   -2.99530   92.01190    1.89120    2.05500    1.96190   90.04180  195.13430    5.72670    0.08540    0.25970    2.58160    0.01840   97.58110
 14205.00000   -3.04880   92.07920    1.89720    2.05530    1.95940   90.69280  196.84310    5.68840    0.09150    0.26180    2.57060    0.01600   97.71820
 14205.50000   -3.10230   94.55030    1.90330    2.05510    1.95700   91.37260  198.03920    5.64690    0.09800    0.26330    2.55120    0.01360   97.56500
 14206.00000   -3.15590   97.33900    1.90940    2.05540    1.95430   91.37260  198.03920    5.60920    0.09720    0.26410    2.54220    0.01110   98.72570
 14206.50000   -3.20940   99.65010    1.91550    2.05430    1.95190   91.37260  199.16470    5.60550    0.09570    0.26490    2.54590    0.01020   99.70130
 14207.00000   -3.26300   99.64270    1.92170    2.05350    1.94940   91.37260  200.14120    5.63140    0.08860    0.26290    2.55490    0.01160  100.04140
 14207.50000   -3.31650   98.94520    1.92780    2.05240    1.94690   91.37260  201.11760    5.69620    0.08370    0.26050    2.56350    0.01450   94.73410
 14208.00000   -3.37000   98.09090    1.93400    2.05120    1.98160   91.37260  202.09410    5.75690    0.08100    0.25810    2.57250    0.01700   89.74850
 14208.50000   -3.42360   97.29980    1.94020    2.08790    2.02760   90.92860  203.07060    5.80390    0.07820    0.25570    2.58000    0.02000   88.65800
 14209.00000   -3.47710   96.50640    1.94630    2.12590    2.07460   90.52800  203.52940    5.79810    0.07550    0.25330    2.58390    0.01930   91.95180
 14209.50000   -3.53060   94.92670    2.12780    2.20550    2.12270   90.13530  202.96470    5.79320    0.07270    0.25090    2.58850    0.01820   94.67730
 14210.00000   -3.58420   89.84990    2.32300    2.34000    2.17140   89.79110  201.22880    5.78750    0.07320    0.24840    2.58870    0.01700   95.08510
 14210.50000   -3.63770   84.83740    2.53600    2.50380    2.28430   88.42380  199.49280    5.78090    0.07460    0.24760    2.58790    0.01630   91.46930
 14211.00000   -3.69130   80.05900    2.76860    2.85530    2.61280   87.20600  197.75690    5.77550    0.07610    0.24760    2.58460    0.01510   88.15380
 14211.50000   -3.74480   76.84330    3.02250    3.37720    2.98850   85.87680  197.25490    5.77270    0.07680    0.24680    2.58040    0.01370   84.59750
 14212.00000   -3.79820   73.89230    3.29980    3.99480    3.41810   82.77700  190.44710    5.73630    0.07680    0.22390    2.57900    0.01230   81.23090
 14212.50000   -3.85210   72.42100    3.60240    4.80630    3.90980   79.35950  176.99350    5.66310    0.07520    0.19310    2.58090    0.01090   78.15930
 14213.00000   -3.90520   73.55040    3.93550    4.89690    4.47260   75.94510  163.74890    5.57970    0.05810    0.16870    2.60380    0.00950   75.72210
 14213.50000   -3.95870   74.90140    4.32730    5.00060    4.73290   73.99740  148.79790    5.71920    0.05000    0.15970    2.62330    0.00840   75.05740
 14214.00000   -4.01500   76.12280    4.48950    4.99750    4.82070   73.33330  143.96440    5.72350    0.04920    0.15240    2.62930    0.00820   74.34480
 14214.50000   -4.06700   76.30490    4.82930    5.48950    5.09110   73.60160  139.29140    5.73330    0.05460    0.15340    2.63190    0.00810   73.91870
 14215.00000   -4.11310   70.34230    5.22480    5.92940    5.36640   73.99220  138.46700    5.73030    0.06180    0.15470    2.61070    0.00790   71.45260
 14215.50000   -4.16230   66.37290    5.48240    6.43110    5.65600   74.11770  137.11980    5.73350    0.06260    0.15470    2.60920    0.00780   67.71870
