~Version ---------------------------------------------------
VERS.   2.0 : CWLS log ASCII Standard -VERSION 2.0
WRAP.    NO : One line per depth step
DLM . SPACE : Column Data Section Delimiter
~Well ------------------------------------------------------
STRT .F                12162.0 : START DEPTH
STOP .F                15324.5 : STOP DEPTH
STEP .F                    0.5 : STEP
NULL .                -9999.25 : NULL VALUE
COMP .                         : COMPANY
WELL .                         : WELL
FLD  .                         : FIELD
LOC  .                         : LOCATION
PROV .                         : PROVINCE
CNTY .                         : COUNTY
STAT .                         : STATE
CTRY .                         : COUNTRY
SRVC .                         : SERVICE COMPANY
DATE .                         : DATE
UWI  .                         : UNIQUE WELL ID
API  .                         : API NUMBER
SLAT .WGS84  5.811716077138705 : SURFACE LATITUDE
SLON .WGS84 3.3863524767489253 : SURFACE LONGITUDE
DATUM.F                1787.23 : DEPTH DATUM ELEV
~Curve Information -----------------------------------------
DEPT.F     : 
SPR .MV    : SPONTANEOUS POTENTIAL FROM RES.
GRR .GAPI  : GAMMA RAY FROM RESISTIVITY
AT10.OHMM  : 10-IN. RESISTIVITY, 2-FT RESOLUTION
AT90.OHMM  : 90-IN. RESISTIVITY, 2-FT RESOLUTION
AT30.OHMM  : 30-IN. RESISTIVITY, 2-FT RESOLUTION
DTCO.US/F  : COMPRESSIONAL-WAVE INTERVAL TRANSIT TIME ACOUSTIC SLOWNESS
DTSM.US/F  : SHEAR-WAVE INTERVAL TRANSIT TIME DELTA-T
CALD.IN    : CALIPER FDC LOG
DPHI.DEC   : DENSITY POROSITY LIMESTONE
NPHI.DEC   : NEUTRON POROSITY LIMESTONE
RHOB.G/C3  : BULK DENSITY
DRHO.G/C3  : DENSITY CORRECTION
GRD .GAPI  : GAMMA RAY FROM DENSITY LOG
~Params ----------------------------------------------------
~Other -----------------------------------------------------
~ASCII -----------------------------------------------------
# ...
 13644.00000   16.00100   95.60890    3.21790    3.51070    3.27600   80.39220  164.27860    5.89670    0.04120    0.23740    2.65130    0.01390   95.98390
 13644.50000   16.03480   91.29400    3.17380    3.48790    3.25730   80.39220  164.27210    5.77200    0.04750    0.23660    2.63700    0.01480   96.89940
 13645.00000   16.06860   89.41730    3.13040    3.46520    3.23880   80.39220  163.48380    5.68830    0.05010    0.24550    2.63140    0.02080   97.91460
 13645.50000   16.10240   89.62150    3.08760    3.44260    3.22030   80.39220  163.83150    5.68300    0.05000    0.25310    2.63250    0.02570   98.66740
 13646.00000   16.13620   89.80110    3.04540    3.42020    3.20200   80.39220  164.56710    5.73110    0.05040    0.25350    2.62350    0.02450  100.28290
 13646.50000   16.17000   90.16640    3.00340    3.35300    3.18370   80.39220  165.30360    5.81570    0.05700    0.24490    2.61330    0.02310  101.09470
 13647.00000   16.20390   90.66180    2.96080    3.35300    3.17550   80.39750  166.63980    5.89070    0.06170    0.22810    2.61060    0.02140  101.06090
 13647.50000   16.23770   90.70850    3.14730    3.65790    3.32730   80.39940  166.63810    5.96010    0.05460    0.21140    2.61780    0.02000   99.26890
 13648.00000   16.27150   89.23760    3.42430    4.11250    3.60430   80.40050  166.17610    5.96380    0.04880    0.19250    2.63010    0.01840   96.70620
 13648.50000   16.30530   88.45430    3.72570    4.71660    3.90430   80.40070  164.22120    5.96500    0.04290    0.11220    2.64160    0.01690   93.42790
 13649.00000   16.33920   80.05130    4.05360    6.01370    4.16800   80.14570  162.26590    5.96410    0.03980    0.03740    2.64560    0.01540   87.05970
 13649.50000   16.37310   66.77840    4.41030    8.28010    5.89890   78.97510  160.33500    5.96440    0.03900    0.02090    2.65160    0.01390   70.81210
 13650.00000   16.40710   51.71720    5.55810   10.69980    7.91280   77.05400  150.50510    5.96360    0.03170    0.02010    2.65710    0.01240   54.79590
 13650.50000   16.44060   34.79290    7.72050   22.75130   12.66960   72.16350  140.76840    5.95320    0.02450    0.02010    2.66960    0.01080   38.27130
 13651.00000   16.47520   22.21600   20.18210   42.69640   26.31740   67.29170  131.03900    5.94450    0.01720    0.02400    2.68120    0.00930   24.91170
 13651.50000   16.50860   21.77470   32.33640  101.33380   53.72340   62.41010  121.28090    5.93590    0.00980    0.02790    2.69340    0.00820   19.79840
 13652.00000   16.54130   23.20790   24.58180   57.96370   33.30430   57.52840  111.52270    5.92690    0.00040    0.03120    2.70600    0.00570   20.64180
 13652.50000   16.58040   34.75530   15.87420   24.63660   20.87690   52.64680  101.56860    5.94100    0.00040    0.03820    2.71530    0.00210   29.17530
 13653.00000   16.55130   46.45480    9.59690   11.92950   13.08670   50.58820  101.56860    5.96270    0.00040    0.04630    2.71490    0.00330   38.17180
 13653.50000   16.48280   47.73640    9.42450   11.47550   10.13340   51.38400  101.56860    5.98260    0.00040    0.05440    2.71510    0.00390   47.22740
 13654.00000   16.42000   52.02300    8.32530   10.96300   10.01190   53.51440  101.56860    6.00670    0.00040    0.06380    2.71490    0.00470   51.93440
 13654.50000   16.35820   55.92080    5.95510   10.47330    9.25520   55.64490  107.58570    6.02510    0.00040    0.08360    2.71550    0.00550   53.56340
 13655.00000   16.29460   58.70370    4.25970    8.36770    6.69990   57.77540  112.73440    6.03180    0.00040    0.11950    2.71390    0.00630   54.72240
 13655.50000   16.23210   72.87420    3.04700    6.13300    4.94690   60.00000  117.88310    5.88680    0.00430    0.15550    2.71350    0.00710   58.26170
 13656.00000   16.16930   97.17360    2.69740    4.49520    3.66250   64.51110  123.03170    5.76650    0.01890    0.19140    2.70830    0.00780   64.91950
 13656.50000   16.10640   95.60630    2.64900    3.29470    2.74330   69.23070  137.80710    5.69110    0.04370    0.21410    2.65390    0.00860   72.31670
 13657.00000   16.04360   89.13810    2.72200    3.00740    2.74680   73.95030  155.77410    5.68740    0.06500    0.22440    2.60160    0.00940   79.43230
 13657.50000   15.98090   84.17800    2.82870    3.00740    2.74370   78.66990  164.01960    5.67620    0.06850    0.22810    2.60330    0.01010   86.75420
 13658.00000   15.91810   83.14700    2.93970    3.11850    2.74440   82.74510  168.23530    5.64200    0.07160    0.23170    2.59770    0.01090   87.60950
 13658.50000   15.85540   85.78980    3.05500    3.25360    2.98130   83.30000  168.88630    5.61030    0.07360    0.23190    2.59080    0.01170   86.50330
 13659.00000   15.79270   88.19180    3.17440    3.47280    3.17250   82.97720  168.25100    5.57880    0.07360    0.22300    2.58270    0.01250   85.42870
 13659.50000   15.72990   88.87650    3.29930    3.84880    3.37910   81.93570  165.67650    5.53680    0.07200    0.21350    2.59180    0.01330   84.93210
 13660.00000   15.66720   88.98800    3.42880    3.94740    3.60520   80.89410  163.23530    5.53110    0.06500    0.20510    2.59940    0.01360   85.61890
 13660.50000   15.60440   88.96040    3.54050    3.91290    3.60520   79.85250  160.79410    5.15160    0.06650    0.20280    2.60330    0.01820   87.47820
 13661.00000   15.54170   87.68560    3.52980    3.87730    3.57970   78.81100  158.35290    4.64330    0.06990    0.20720    2.59860    0.02560   89.14700
 13661.50000   15.47890   86.16420    3.51600    3.84200    3.55800   77.76940  155.68630    4.09220    0.07500    0.21210    2.58810    0.03230   90.71270
 13662.00000   15.41610   84.97670    3.50230    3.80680    3.53640   77.44020  155.90780    3.93880    0.08690    0.21710    2.58040    0.03940   91.10700
 13662.50000   15.35330   83.86120    3.48860    3.70800    3.51490   77.80640  156.15200    3.70940    0.10520    0.22240    2.55760    0.04210   92.43850
 13663.00000   15.29070   83.67320    3.47690    3.65750    3.49350   78.17250  156.39610    3.75830    0.12360    0.23050    2.52570    0.04150   94.01780
 13663.50000   15.22730   84.73910    3.25980    3.60770    3.43080   78.53870  156.64020    3.73130    0.13740    0.23940    2.49530    0.03350   98.53210
 13664.00000   15.16530   86.26670    3.05780    3.55860    3.22400   78.90490  156.88430    3.73870    0.11120    0.24830    2.48360    0.02530  102.71430
 13664.50000   15.10260   91.27350    2.86830    3.37080    3.02970   79.27110  157.12840    3.83010    0.07840    0.25720    2.51540    0.01840  107.11760
 13665.00000   15.03530   96.68010    2.69060    3.11690    2.84710   79.60780  157.35950    4.13280    0.08360    0.26610    2.58140    0.01830  110.98070
 13665.50000   14.99630   98.62920    2.52390    2.84820    2.67570   80.90620  157.57650    4.09550    0.09460    0.27510    2.57070    0.01790  113.21660
 13666.00000   15.00060   99.64290    2.37590    2.84820    2.46360   82.10800  157.79350    4.07910    0.10200    0.28400    2.55190    0.01770  113.20490
 13666.50000   14.99990  104.88810    2.41940    3.00740    2.54040   83.30980  158.03920    4.78560    0.10200    0.29570    2.53810    0.01740  110.43650
 13667.00000   14.99950  106.79050    2.55460    3.17550    2.86300   84.51160  159.56390    5.84950    0.09350    0.29300    2.54550    0.01710  107.74240
 13667.50000   15.00000  107.08710    2.89360    3.65540    3.22660   85.88230  161.32160    5.87940    0.09030    0.28720    2.55630    0.01690  104.37760
 13668.00000   14.99980  105.14410    3.25050    4.16860    3.63620   84.51860  163.07920    5.89230    0.09090    0.28150    2.55500    0.01660   99.52660
 13668.50000   14.99990   98.94970    3.65140    4.81860    4.09790   82.93190  165.09800    5.89700    0.09090    0.27570    2.55520    0.01630   94.47980
 13669.00000   15.00000   91.89880    4.10180    4.81860    4.56860   81.34510  165.88240    5.90510    0.09020    0.27000    2.55750    0.01650   90.87340
 13669.50000   14.99990   90.74770    4.32190    4.81860    4.54850   79.75830  164.74610    5.91430    0.08400    0.26420    2.56600    0.01690   88.93070
