~Version ---------------------------------------------------
VERS.   2.0 : CWLS log ASCII Standard -VERSION 2.0
WRAP.    NO : One line per depth step
DLM . SPACE : Column Data Section Delimiter
~Well ------------------------------------------------------
STRT .F                12162.0 : START DEPTH
STOP .F                15324.5 : STOP DEPTH
STEP .F                    0.5 : STEP
NULL .                -9999.25 : NULL VALUE
COMP .                         : COMPANY
WELL .                         : WELL
FLD  .                         : FIELD
LOC  .                         : LOCATION
PROV .                         : PROVINCE
CNTY .                         : COUNTY
STAT .                         : STATE
CTRY .                         : COUNTRY
SRVC .                         : SERVICE COMPANY
DATE .                         : DATE
UWI  .                         : UNIQUE WELL ID
API  .                         : API NUMBER
SLAT .WGS84  5.811716077138705 : SURFACE LATITUDE
SLON .WGS84 3.3863524767489253 : SURFACE LONGITUDE
DATUM.F                1787.23 : DEPTH DATUM ELEV
~Curve Information -----------------------------------------
DEPT.F     : 
SPR .MV    : SPONTANEOUS POTENTIAL FROM RES.
GRR .GAPI  : GAMMA RAY FROM RESISTIVITY
AT10.OHMM  : 10-IN. RESISTIVITY, 2-FT RESOLUTION
AT90.OHMM  : 90-IN. RESISTIVITY, 2-FT RESOLUTION
AT30.OHMM  : 30-IN. RESISTIVITY, 2-FT RESOLUTION
DTCO.US/F  : COMPRESSIONAL-WAVE INTERVAL TRANSIT TIME ACOUSTIC SLOWNESS
DTSM.US/F  : SHEAR-WAVE INTERVAL TRANSIT TIME DELTA-T
CALD.IN    : CALIPER FDC LOG
DPHI.DEC   : DENSITY POROSITY LIMESTONE
NPHI.DEC   : NEUTRON POROSITY LIMESTONE
RHOB.G/C3  : BULK DENSITY
DRHO.G/C3  : DENSITY CORRECTION
GRD .GAPI  : GAMMA RAY FROM DENSITY LOG
~Params ----------------------------------------------------
~Other -----------------------------------------------------
~ASCII -----------------------------------------------------
# ...
 14008.00000    0.07450   52.41620   18.29030   22.31400   20.12850   63.90330  110.19610    5.73950    0.02100    0.12530    2.67830    0.00370   60.26510
 14008.50000    0.10500   49.36120   19.75630   26.01310   22.73660   62.41930  107.23660    5.73750    0.02090    0.12390    2.67570    0.00520   59.95350
 14009.00000    0.13530   46.63590   21.33980   30.32540   25.68260   61.12100  104.63270    5.73560    0.02160    0.10730    2.67530    0.00670   59.92550
 14009.50000    0.16570   46.65060   22.09720   35.35250   29.00330   59.83100  102.02880    5.73340    0.02160    0.08950    2.67700    0.00820   58.22960
 14010.00000    0.19600   49.88850   13.49100   37.38380   23.88100   60.24680  100.78430    5.73180    0.01680    0.07390    2.67230    0.00960   53.96380
 14010.50000    0.22630   58.21010    8.78670   22.24320   13.85940   68.30540  104.43670    5.72940    0.00890    0.07400    2.70120    0.01110   49.51820
 14011.00000    0.25660   65.13930    5.72290   12.95370    8.04340   73.95300  115.94880    5.72690    0.00280    0.07440    2.70710    0.01260   46.86600
 14011.50000    0.28690   73.49440    3.72730    7.54380    4.66800   75.02300  127.46090    5.74030    0.01010    0.08940    2.69870    0.01400   50.13110
 14012.00000    0.31720   84.59650    2.41940    4.39330    2.68030   76.13890  138.97300    5.80160    0.03380    0.10500    2.66650    0.01550   50.97480
 14012.50000    0.34750  105.43570    2.33320    2.82250    2.68300   79.21570  150.48500    5.86240    0.05760    0.13580    2.63690    0.01690   61.69230
 14013.00000    0.37780  103.69100    2.33320    2.69740    2.63360   83.12160  161.99710    5.92400    0.08130    0.16660    2.60560    0.01850   80.03340
 14013.50000    0.40810  104.72260    2.33320    2.71870    2.59550   86.29130  173.50920    5.98560    0.09020    0.19750    2.57260    0.02020   88.07690
 14014.00000    0.43840  104.16860    2.33320    2.81990    2.54480   87.68630  185.02130    6.04830    0.09020    0.22560    2.55160    0.02210   96.57100
 14014.50000    0.46870  101.92720    2.29130    2.95340    2.61810   89.08120  188.62750    6.10430    0.08940    0.26320    2.55150    0.01530  104.39230
 14015.00000    0.49920   98.86660    2.33320    3.02160    2.72360   89.80390  188.62750    6.15570    0.08940    0.28020    2.55090    0.00840  110.11420
 14015.50000    0.52950   92.08830    2.66520    3.11850    2.85140   84.20740  180.25590    6.16390    0.08760    0.29410    2.55420    0.00140  112.51030
 14016.00000    0.56050   75.72030    3.00740    6.90380    5.31220   75.96170  167.92160    6.16300    0.08600    0.28800    2.56090   -0.00550  112.74130
 14016.50000    0.59070   59.24540   10.13340   20.22880   11.04910   67.71590  155.58720    6.15720    0.08060    0.27500    2.56640   -0.01310  106.64040
 14017.00000    0.62030   43.59050   17.82270   39.11150   22.97800   60.00000  143.25280    6.08970    0.06280    0.24850    2.58260   -0.01760   99.49440
 14017.50000    0.65450   25.71380   34.23250   84.04270   47.76750   54.18040  130.91850    6.02840    0.04500    0.20040    2.61840   -0.01720   84.07180
 14018.00000    0.67860   25.09140   62.10920  180.96210   79.24670   49.01960  118.58410    5.96380    0.02720    0.11780    2.65290   -0.01420   66.83200
 14018.50000    0.70500   25.11480   78.31380 1911.26880  103.39980   48.93710  106.24970    5.90170    0.00670    0.02400    2.68880   -0.00970   50.26080
 14019.00000    0.48100   25.27890   96.92520 1857.96310  131.18240   48.85900   94.58550    5.83500    0.00430    0.02310    2.70060   -0.00530   32.33770
 14019.50000    0.22290   23.39980  105.07570 1908.35290  135.80140   48.78090   93.80210    5.80260    0.00350    0.02120    2.70160   -0.00090   27.11490
 14020.00000   -0.04190   19.37390  104.08980 1908.59510  135.43740   48.70280   93.78870    5.80380    0.00220    0.01920    2.70590    0.00060   23.60490
 14020.50000   -0.30170   18.81370  102.20470  854.12820  135.43740   48.62460   94.39440    5.80110   -0.00340    0.01770    2.71620    0.00050   21.60750
 14021.00000   -0.56270   19.12110  101.33380  455.14930  129.02720   48.54650   95.35540    5.79860   -0.00300    0.01770    2.72190    0.00050   19.39690
 14021.50000   -0.82430   25.05730   91.35140  293.12390  122.46280   48.46840   96.32180    5.79690   -0.00190    0.01770    2.71840    0.00050   18.19020
 14022.00000   -1.08660   30.97040   84.53070  293.21230  117.15110   48.39030   96.04470    5.79460    0.00120    0.01770    2.71510    0.00050   18.46140
 14022.50000   -1.34450   34.86190   47.02410  138.22810   61.08690   48.31220   93.73380    5.79250    0.00440    0.01770    2.70980    0.00060   20.49650
 14023.00000   -1.60560   34.42730   28.24880   76.14460   34.69020   48.23530   93.72550    5.79040    0.00750    0.01770    2.70250    0.00030   25.34910
 14023.50000   -1.70450   43.42320   16.96990   42.22870   19.69990   49.82280   95.82550    5.78820    0.01070    0.02010    2.69490    0.00210   28.55840
 14024.00000   -1.74670   56.50950   10.19430   23.17440   11.18720   51.37260   99.21570    5.78610    0.01380    0.02560    2.68900    0.00250   29.52740
 14024.50000   -1.78980   62.33110    6.09930   12.71780    6.32460   55.09110  105.51530    5.78400    0.02370    0.03460    2.67510    0.00250   31.39200
 14025.00000   -1.83530   67.92610    5.97170    7.86170    6.32460   58.78000  111.76470    5.78180    0.03350    0.04360    2.65680    0.00240   33.58690
 14025.50000   -1.87900   73.88520    5.94140    7.21330    6.32460   62.46880  118.01410    5.77970    0.04330    0.05080    2.63860    0.00250   47.80210
 14026.00000   -1.92340   81.74930    5.91130    6.97560    6.32460   65.85880  124.31370    5.77760    0.05000    0.07110    2.62470    0.00250   59.55800
 14026.50000   -1.96780   87.47960    5.88210    6.74570    6.26410   68.21180  127.45100    5.77540    0.04920    0.08810    2.62450    0.00250   72.66550
 14027.00000   -2.01200   87.73730    5.98970    6.52350    6.12260   69.41180  128.88600    5.77330    0.04790    0.10510    2.62930    0.00250   79.45390
 14027.50000   -2.05640   85.54090    5.80560    6.29540    5.97760   69.41180  130.17600    5.77110    0.04660    0.11300    2.63560    0.00250   81.71530
 14028.00000   -2.10090   85.20020    5.66010    6.08220    5.83770   69.72770  131.47220    5.76900    0.04530    0.13350    2.63810    0.00250   84.67530
 14028.50000   -2.14540   85.75820    5.51820    5.96460    5.75890   70.56470  132.76270    5.76690    0.04560    0.13230    2.63560    0.00250   84.70750
 14029.00000   -2.18930  100.66610    5.37230    6.00630    5.64830   71.40170  134.04310    5.76470    0.04760    0.13190    2.63390    0.00250   83.62460
 14029.50000   -2.23420   97.97440    5.44950    6.18140    5.74710   72.04120  134.60040    5.76260    0.04840    0.13590    2.63190    0.00250   82.54570
 14030.00000   -2.27730   95.18680    5.67260    8.16340    6.81100   72.54900  133.14110    5.76040    0.04810    0.14290    2.62970    0.00250   83.92370
 14030.50000   -2.32140   86.37310    7.16950   10.78710    8.76680   71.14310  126.92020    5.75830    0.04760    0.14610    2.62960    0.00250   85.22560
 14031.00000   -2.36980   76.52110    9.35270   14.27230   11.28970   69.13420  120.62030    5.75620    0.04380    0.14450    2.63530    0.00250   86.26460
 14031.50000   -2.40320   67.04670   12.20070   18.62110   14.54400   66.12970  114.40640    5.75400    0.04040    0.14290    2.64030    0.00250   81.58880
 14032.00000   -2.46050   56.49590   15.91590   33.88000   19.11370   63.12520  107.84310    5.75190    0.03710    0.08860    2.64570    0.00250   77.41820
 14032.50000   -2.48860   48.80160   27.79850   75.02450   36.47990   60.12070  104.65950    5.74970    0.03380    0.07940    2.65100    0.00250   72.79720
 14033.00000   -2.94960   42.92630   63.84930  128.26750   74.06490   57.11610  101.28630    5.74760    0.03030    0.06390    2.65520    0.00250   68.47390
 14033.50000   -3.35600   42.33160   94.24500  128.26750  115.04630   54.50980   97.91300    5.74550    0.02460    0.04840    2.66130    0.00250   61.84970
