~Version ---------------------------------------------------
VERS.   2.0 : CWLS log ASCII Standard -VERSION 2.0
WRAP.    NO : One line per depth step
DLM . SPACE : Column Data Section Delimiter
~Well ------------------------------------------------------
STRT .F                12162.0 : START DEPTH
STOP .F                15324.5 : STOP DEPTH
STEP .F                    0.5 : STEP
NULL .                -9999.25 : NULL VALUE
COMP .                         : COMPANY
WELL .                         : WELL
FLD  .                         : FIELD
LOC  .                         : LOCATION
PROV .                         : PROVINCE
CNTY .                         : COUNTY
STAT .                         : STATE
CTRY .                         : COUNTRY
SRVC .                         : SERVICE COMPANY
DATE .                         : DATE
UWI  .                         : UNIQUE WELL ID
API  .                         : API NUMBER
SLAT .WGS84  5.811716077138705 : SURFACE LATITUDE
SLON .WGS84 3.3863524767489253 : SURFACE LONGITUDE
DATUM.F                1787.23 : DEPTH DATUM ELEV
~Curve Information -----------------------------------------
DEPT.F     : 
SPR .MV    : SPONTANEOUS POTENTIAL FROM RES.
GRR .GAPI  : GAMMA RAY FROM RESISTIVITY
AT10.OHMM  : 10-IN. RESISTIVITY, 2-FT RESOLUTION
AT90.OHMM  : 90-IN. RESISTIVITY, 2-FT RESOLUTION
AT30.OHMM  : 30-IN. RESISTIVITY, 2-FT RESOLUTION
DTCO.US/F  : COMPRESSIONAL-WAVE INTERVAL TRANSIT TIME ACOUSTIC SLOWNESS
DTSM.US/F  : SHEAR-WAVE INTERVAL TRANSIT TIME DELTA-T
CALD.IN    : CALIPER FDC LOG
DPHI.DEC   : DENSITY POROSITY LIMESTONE
NPHI.DEC   : NEUTRON POROSITY LIMESTONE
RHOB.G/C3  : BULK DENSITY
DRHO.G/C3  : DENSITY CORRECTION
GRD .GAPI  : GAMMA RAY FROM DENSITY LOG
~Params ----------------------------------------------------
~Other -----------------------------------------------------
~ASCII -----------------------------------------------------
# ...
 14372.00000   -5.44430   85.90730    1.94650    2.18210    2.05290   86.81450  181.24180    5.90120    0.09160    0.25380    2.55340    0.00910   86.73930
 14372.50000   -5.50400   85.41020    1.96690    2.21040    2.08460   86.56740  179.60780    5.92950    0.09490    0.25080    2.55080    0.00610   87.19150
 14373.00000   -5.56140   85.39600    1.98750    2.23900    2.11680   86.32110  177.64710    5.95620    0.09330    0.25080    2.55430    0.00430   87.58300
 14373.50000   -5.62070   85.54180    2.00830    2.26800    2.14970   86.07660  177.64710    5.98290    0.08750    0.25080    2.55680    0.00470   88.05070
 14374.00000   -5.59630   86.17410    2.02940    2.29730    2.18300   85.88250  177.64710    6.01000    0.08180    0.25080    2.56470    0.00880   88.49680
 14374.50000   -5.54230   87.90200    2.05060    2.32700    2.21670   85.41400  176.63870    6.03660    0.07610    0.24470    2.58020    0.01290   88.90770
 14375.00000   -5.48870   89.87320    2.05510    2.33320    2.25090   85.10160  174.11760    6.06400    0.07040    0.23860    2.59410    0.01620   89.41670
 14375.50000   -5.43650   91.87980    2.03640    2.46370    2.19510   85.80850  171.59660    6.09020    0.06810    0.23250    2.59680    0.01600   89.79260
 14376.00000   -5.38320   93.57630    2.01780    2.37330    2.12400   86.39510  170.58820    6.11630    0.06810    0.22640    2.59320    0.01290   89.96170
 14376.50000   -5.33030   93.62840    1.99930    2.26690    2.05540   86.97750  170.58820    6.12590    0.06810    0.23850    2.56840    0.00940   86.99040
 14377.00000   -5.27750   88.78090    1.98200    2.20970    2.01820   87.43990  172.05880    6.09750    0.09490    0.25080    2.55110    0.00610   84.64120
 14377.50000   -5.22450   85.95250    2.01220    2.20970    2.05120   86.96180  173.52940    6.04510    0.10040    0.26450    2.53930    0.00280   82.01730
 14378.00000   -5.17160   88.23660    2.13440    2.29880    2.18470   86.56660  175.29410    5.99690    0.10510    0.26220    2.50210    0.00530   82.81700
 14378.50000   -5.11870   91.77240    2.26410    2.48640    2.32700   86.17970  175.29410    5.94540    0.13110    0.25760    2.44900    0.00820   82.87420
 14379.00000   -5.06590   94.71720    2.37590    2.56920    2.46370   85.87590  171.69940    5.92340    0.15870    0.25300    2.43760    0.01120   82.70280
 14379.50000   -5.01300   93.25350    2.20690    2.69740    2.27530   83.13730  168.10460    5.92360    0.16180    0.24920    2.43460    0.01410   82.51200
 14380.00000   -4.95990   91.87770    1.98590    2.53880    2.11600   80.39220  166.66670    5.92480    0.16030    0.25080    2.44500    0.01390   82.28690
 14380.50000   -4.90780   90.11770    1.78710    2.25630    1.96770   82.83220  174.31370    5.93280    0.15390    0.25380    2.44650    0.01210   82.08660
 14381.00000   -4.85470   89.75140    1.60810    2.00530    1.82990   85.88230  183.87250    5.96480    0.15230    0.25710    2.44630    0.01180   82.07450
 14381.50000   -4.84030   87.96490    1.53760    1.87700    1.71440   88.93250  193.43140    6.00060    0.15140    0.21980    2.44840    0.01090   79.92170
 14382.00000   -4.84100   83.69320    1.56580    1.91140    1.77770   91.37260  198.03920    6.06090    0.14970    0.18050    2.44580    0.01010   77.16630
 14382.50000   -4.84130   75.82910    1.99950    2.28100    2.18870   89.49020  189.67320    6.14340    0.14890    0.14130    2.48020    0.00650   72.10450
 14383.00000   -4.84100   69.15630    2.46600    2.86890    2.61610   88.23530  179.21570    6.24670    0.12220    0.12830    2.50210    0.00300   66.03250
 14383.50000   -4.84120   61.78950    2.90030    3.60850    3.35300   83.52940  172.09420    6.16040    0.09880    0.13170    2.53120    0.00050   59.55830
 14384.00000   -4.84120   58.75830    2.61370    4.40100    3.14710   78.82350  169.76470    6.01630    0.07590    0.13500    2.56390    0.00080   55.70740
 14384.50000   -4.84120   61.84860    2.20290    3.75010    2.51340   79.13730  164.76200    5.87550    0.04680    0.16320    2.62740    0.00100   58.26840
 14385.00000   -4.84120   68.60450    1.85670    2.41940    2.00760   79.52940  157.23710    5.79060    0.05060    0.21370    2.61910    0.00130   68.16280
 14385.50000   -4.84110   75.07210    1.56490    2.07310    1.60380   79.92160  145.72130    5.90350    0.07300    0.26410    2.59260    0.00150   79.23590
 14386.00000   -4.84080   81.79210    1.33000    1.72560    1.43160   80.39220  139.98280    6.08550    0.10520    0.29890    2.54420    0.00180   83.34260
 14386.50000   -4.84100   88.09970    1.33000    1.53760    1.40170   82.22220  140.02260    6.25490    0.13740    0.29900    2.50020    0.00200   88.12210
 14387.00000   -4.84070   95.16380    1.33000    1.53760    1.43080   84.50980  140.07000    6.42250    0.14730    0.29920    2.45870    0.00230   90.38720
 14387.50000   -4.83990   95.39810    1.52720    1.53760    1.65590   85.88230  140.15690    6.57990    0.14920    0.29930    2.45300    0.00250   89.29900
 14388.00000   -4.84220   95.34920    1.78410    1.86620    1.95170   85.88230  140.20040    6.59440    0.15820    0.29950    2.44890    0.00280   88.07660
 14388.50000   -4.84070   87.20940    2.08410    2.45740    2.30090   82.35290  140.24400    6.63040    0.15180    0.29960    2.45290    0.00300   83.57830
 14389.00000   -4.96450   78.42410    2.43460    3.23600    2.71250   79.41180  140.28760    6.57590    0.13280    0.25510    2.48850    0.00330   76.37810
 14389.50000   -5.14200   69.24810    2.84410    4.26120    3.19790   76.47060  140.33110    6.52850    0.10840    0.21440    2.53130    0.00350   69.01110
 14390.00000   -5.31760   66.88560    3.32240    5.27580    3.77000   74.11770  140.37470    6.22590    0.08400    0.15240    2.57400    0.00370   65.34310
 14390.50000   -5.49160   67.89250    3.88120    4.87360    4.32190   70.19610  140.41830    5.82800    0.05950    0.15470    2.61740    0.00400   67.29860
 14391.00000   -5.66670   68.95980    4.16800    4.48150    4.32190   70.52290  140.46190    5.71940    0.05270    0.16200    2.62550    0.00420   68.63340
 14391.50000   -5.84220   69.42020    4.24430    4.48150    4.22550   70.84970  140.50540    5.73440    0.05680    0.16870    2.61520    0.00440   70.09630
 14392.00000   -6.01650   68.16220    4.06550    4.48150    4.12960   70.19610  140.54900    5.74350    0.06110    0.17130    2.60540    0.00440   69.97850
 14392.50000   -6.19070   65.81100    3.92160    4.48150    4.01960   69.01960  140.59260    5.75010    0.06500    0.17720    2.60920    0.00440   69.04540
 14393.00000   -6.36890   67.25890    3.78280    4.36240    4.01960   67.84310  140.63620    5.75990    0.06020    0.18160    2.61740    0.00450   68.18550
 14393.50000   -6.43270   69.13470    3.64890    4.22180    3.96660   70.19610  140.67970    5.76820    0.05290    0.18590    2.62530    0.00430   67.63490
 14394.00000   -6.43640   69.10970    3.51970    3.94740    3.75410   73.33330  140.72330    5.77650    0.04450    0.19090    2.63360    0.00590   68.13480
 14394.50000   -6.35680   66.14850    3.41440    4.04410    3.54050   74.90200  140.76690    5.78550    0.04550    0.17820    2.63380    0.00830   70.06810
 14395.00000   -6.22520   63.38720    3.55330    4.13790    3.60520   74.57520  145.49020    5.79470    0.04790    0.17990    2.63210    0.01060   69.18440
 14395.50000   -6.10140   62.27790    3.73840    4.23390    3.95510   74.24840  153.33330    5.80000    0.04840    0.16810    2.63210    0.01290   67.26480
 14396.00000   -5.98020   63.16450    2.10640    4.32190    2.86050   74.90200  161.17650    5.83480    0.04590    0.19180    2.63560    0.01520   65.57220
 14396.50000   -5.85580   71.12320    1.68360    2.20970    1.73970   65.49020  169.01960    5.88800    0.04530    0.22900    2.62870    0.01750   72.93670
 14397.00000   -5.73300   78.04330    1.71440    2.03140    1.70800   62.35290  176.86270    5.93770    0.06640    0.27280    2.58840    0.01810   82.48460
 14397.50000   -5.61000   85.68090    1.69130    1.89690    1.71840   64.54900  183.92160    5.98280    0.08700    0.27670    2.55030    0.01710   88.82610
