~Version ---------------------------------------------------
VERS.   2.0 : CWLS log ASCII Standard -VERSION 2.0
WRAP.    NO : One line per depth step
DLM . SPACE : Column Data Section Delimiter
~Well ------------------------------------------------------
STRT .F                12162.0 : START DEPTH
STOP .F                15324.5 : STOP DEPTH
STEP .F                    0.5 : STEP
NULL .                -9999.25 : NULL VALUE
COMP .                         : COMPANY
WELL .                         : WELL
FLD  .                         : FIELD
LOC  .                         : LOCATION
PROV .                         : PROVINCE
CNTY .                         : COUNTY
STAT .                         : STATE
CTRY .                         : COUNTRY
SRVC .                         : SERVICE COMPANY
DATE .                         : DATE
UWI  .                         : UNIQUE WELL ID
API  .                         : API NUMBER
SLAT .WGS84  5.811716077138705 : SURFACE LATITUDE
SLON .WGS84 3.3863524767489253 : SURFACE LONGITUDE
DATUM.F                1787.23 : DEPTH DATUM ELEV
~Curve Information -----------------------------------------
DEPT.F     : 
SPR .MV    : SPONTANEOUS POTENTIAL FROM RES.
GRR .GAPI  : GAMMA RAY FROM RESISTIVITY
AT10.OHMM  : 10-IN. RESISTIVITY, 2-FT RESOLUTION
AT90.OHMM  : 90-IN. RESISTIVITY, 2-FT RESOLUTION
AT30.OHMM  : 30-IN. RESISTIVITY, 2-FT RESOLUTION
DTCO.US/F  : COMPRESSIONAL-WAVE INTERVAL TRANSIT TIME ACOUSTIC SLOWNESS
DTSM.US/F  : SHEAR-WAVE INTERVAL TRANSIT TIME DELTA-T
CALD.IN    : CALIPER FDC LOG
DPHI.DEC   : DENSITY POROSITY LIMESTONE
NPHI.DEC   : NEUTRON POROSITY LIMESTONE
RHOB.G/C3  : BULK DENSITY
DRHO.G/C3  : DENSITY CORRECTION
GRD .GAPI  : GAMMA RAY FROM DENSITY LOG
~Params ----------------------------------------------------
~Other -----------------------------------------------------
~ASCII -----------------------------------------------------
# ...
 14892.00000    0.50130   61.89980    2.58460    4.20580    3.19850   84.03140  217.78340   -9999.25   -9999.25   -9999.25   -9999.25   -9999.25   -9999.25
 14892.50000    0.51130   66.30920    2.10580    3.13940    2.52360   80.07840  217.75430   -9999.25   -9999.25   -9999.25   -9999.25   -9999.25   -9999.25
 14893.00000    0.52130   71.11120    1.71570    2.34340    1.99110   76.47060  217.72530   -9999.25   -9999.25   -9999.25   -9999.25   -9999.25   -9999.25
 14893.50000    0.53130   75.64070    1.35440    1.81080    1.57100   76.47060  217.69620   -9999.25   -9999.25   -9999.25   -9999.25   -9999.25   -9999.25
 14894.00000    0.54130   79.94370    1.33000    1.56000    1.35440   77.21180  217.66710   -9999.25   -9999.25   -9999.25   -9999.25   -9999.25   -9999.25
 14894.50000    0.55130   79.14020    1.33000    1.48290    1.35440   78.69410  217.64710   -9999.25   -9999.25   -9999.25   -9999.25   -9999.25   -9999.25
 14895.00000    0.56120   77.74870    1.33050    1.48340    1.35710   80.20000  217.64710   -9999.25   -9999.25   -9999.25   -9999.25   -9999.25   -9999.25
 14895.50000    0.57130   78.12260    1.33150    1.48430    1.35880   80.84230  210.58820   -9999.25   -9999.25   -9999.25   -9999.25   -9999.25   -9999.25
 14896.00000    0.58120   79.62730    1.33240    1.48530    1.36260   79.74100  192.54900   -9999.25   -9999.25   -9999.25   -9999.25   -9999.25   -9999.25
 14896.50000    0.59120   81.11810    1.33340    1.48630    1.36610   78.63510  114.11770   -9999.25   -9999.25   -9999.25   -9999.25   -9999.25   -9999.25
 14897.00000    0.60120   82.73120    1.33440    1.48720    1.36940   77.53040  114.90200   -9999.25   -9999.25   -9999.25   -9999.25   -9999.25   -9999.25
 14897.50000    0.61120   83.71770    1.33540    1.48820    1.37270   77.50870  116.41830   -9999.25   -9999.25   -9999.25   -9999.25   -9999.25   -9999.25
 14898.00000    0.62120   83.61750    1.33630    1.48920    1.37590   77.84910  117.73590   -9999.25   -9999.25   -9999.25   -9999.25   -9999.25   -9999.25
 14898.50000    0.63120   83.59370    1.33730    1.49020    1.37910   78.19990  119.05360   -9999.25   -9999.25   -9999.25   -9999.25   -9999.25   -9999.25
 14899.00000    0.64120   83.69580    1.33830    1.49120    1.38220   78.49150  119.60780   -9999.25   -9999.25   -9999.25   -9999.25   -9999.25   -9999.25
 14899.50000    0.65120   84.36300    1.33930    1.49210    1.38540   78.82350  156.18820   -9999.25   -9999.25   -9999.25   -9999.25   -9999.25   -9999.25
 14900.00000    0.66110   87.94300    1.34030    1.49310    1.38860   79.60780  187.12190   -9999.25   -9999.25   -9999.25   -9999.25   -9999.25   -9999.25
 14900.50000    0.67120   91.81430    1.34120    1.49410    1.39180   86.58430  218.43140   -9999.25   -9999.25   -9999.25   -9999.25   -9999.25   -9999.25
 14901.00000    0.68100   92.80010    1.34220    1.49510    1.39500   92.40570  219.21570   -9999.25   -9999.25   -9999.25   -9999.25   -9999.25   -9999.25
 14901.50000    0.69120   91.79580    1.34320    1.49610    1.39820   95.72290  221.56860   -9999.25   -9999.25   -9999.25   -9999.25   -9999.25   -9999.25
 14902.00000    0.70140   90.92350    1.34420    1.49710    1.40140   96.86270  220.95010   -9999.25   -9999.25   -9999.25   -9999.25   -9999.25   -9999.25
 14902.50000    0.70960   90.15920    1.34510    1.49800    1.40430   96.90800  219.84310   -9999.25   -9999.25   -9999.25   -9999.25   -9999.25   -9999.25
 14903.00000    0.72950   89.59910    1.34610    1.49900    1.40440   96.90530  218.73610   -9999.25   -9999.25   -9999.25   -9999.25   -9999.25   -9999.25
 14903.50000    0.75610   91.40250    1.34710    1.50000    1.40440   97.14190  218.43140   -9999.25   -9999.25   -9999.25   -9999.25   -9999.25   -9999.25
 14904.00000    0.78080   93.45940    1.34810    1.50100    1.40440   97.46950  218.67840   -9999.25   -9999.25   -9999.25   -9999.25   -9999.25   -9999.25
 14904.50000    0.80520   94.41610    1.34910    1.50200    1.40440   97.70010  219.16280   -9999.25   -9999.25   -9999.25   -9999.25   -9999.25   -9999.25
 14905.00000    0.83020   92.06640    1.35010    1.50300    1.40440   95.64680  219.64710   -9999.25   -9999.25   -9999.25   -9999.25   -9999.25   -9999.25
 14905.50000    0.85490   87.30540    1.35100    1.50400    1.40440   91.41760  220.13140   -9999.25   -9999.25   -9999.25   -9999.25   -9999.25   -9999.25
 14906.00000    0.87960   82.44250    1.35200    1.50500    1.40440   87.18710  220.61570   -9999.25   -9999.25   -9999.25   -9999.25   -9999.25   -9999.25
 14906.50000    0.90440   81.20260    1.35300    1.50590    1.40440   82.91340  220.41290   -9999.25   -9999.25   -9999.25   -9999.25   -9999.25   -9999.25
 14907.00000    0.92910   84.56140    1.35390    1.50690    1.40440   78.82350  219.84310   -9999.25   -9999.25   -9999.25   -9999.25   -9999.25   -9999.25
 14907.50000    0.95380   87.93150    1.35600    1.50790    1.40440   78.82350  219.27340   -9999.25   -9999.25   -9999.25   -9999.25   -9999.25   -9999.25
 14908.00000    0.97860   89.82280    1.35910    1.50890    1.40440   78.82350  218.70360   -9999.25   -9999.25   -9999.25   -9999.25   -9999.25   -9999.25
 14908.50000    1.00330   90.23210    1.36180    1.50960    1.40420   78.82350  218.13380   -9999.25   -9999.25   -9999.25   -9999.25   -9999.25   -9999.25
 14909.00000    1.02800   90.00720    1.36470    1.50980    1.40420   78.82350  217.56400   -9999.25   -9999.25   -9999.25   -9999.25   -9999.25   -9999.25
 14909.50000    1.05280   91.59700    1.36720    1.50910    1.40360   78.82350  216.99420   -9999.25   -9999.25   -9999.25   -9999.25   -9999.25   -9999.25
 14910.00000    1.07750   94.72390    1.36900    1.51020    1.40430   78.82350  216.07840   -9999.25   -9999.25   -9999.25   -9999.25   -9999.25   -9999.25
 14910.50000    1.10220   97.71510    1.37330    1.51120    1.40250   74.79610  185.71460   -9999.25   -9999.25   -9999.25   -9999.25   -9999.25   -9999.25
 14911.00000    1.12700  100.96010    1.37620    1.51000    1.40440   70.59870  160.17440   -9999.25   -9999.25   -9999.25   -9999.25   -9999.25   -9999.25
 14911.50000    1.15170  102.90430    1.37920    1.51000    1.40440   68.62740  145.26250   -9999.25   -9999.25   -9999.25   -9999.25   -9999.25   -9999.25
 14912.00000    1.17650  102.50710    1.35440    1.53760    1.40440   68.62740  141.21340   -9999.25   -9999.25   -9999.25   -9999.25   -9999.25   -9999.25
 14912.50000    1.20120  101.87080    1.43010    1.95640    1.68720   68.62740  141.31500   -9999.25   -9999.25   -9999.25   -9999.25   -9999.25   -9999.25
 14913.00000    1.22590   98.97830    1.65890    2.39900    2.03390   68.62740  141.37430   -9999.25   -9999.25   -9999.25   -9999.25   -9999.25   -9999.25
 14913.50000    1.25070   95.84250    2.05660    2.94180    2.45190   68.62740  141.38880   -9999.25   -9999.25   -9999.25   -9999.25   -9999.25   -9999.25
 14914.00000    1.27540   92.68800    2.54970    3.60730    2.95580   68.62740  141.37270   -9999.25   -9999.25   -9999.25   -9999.25   -9999.25   -9999.25
 14914.50000    1.30010   89.58730    3.16100    4.42340    3.56330   68.50810  141.36620   -9999.25   -9999.25   -9999.25   -9999.25   -9999.25   -9999.25
 14915.00000    1.32490   86.29800    4.01960    4.95590    4.29570   68.36980  141.32500   -9999.25   -9999.25   -9999.25   -9999.25   -9999.25   -9999.25
 14915.50000    1.34960   84.59380    4.09310    5.57070    5.08790   68.23140  141.28380   -9999.25   -9999.25   -9999.25   -9999.25   -9999.25   -9999.25
 14916.00000    1.37430   84.49930    4.24430    5.51640    4.99650   68.09300  141.24260   -9999.25   -9999.25   -9999.25   -9999.25   -9999.25   -9999.25
 14916.50000    1.39910   84.27290    4.32190    5.34330    4.89250   67.95460  141.20130   -9999.25   -9999.25   -9999.25   -9999.25   -9999.25   -9999.25
 14917.00000    1.42380   82.81280    4.30330    5.17570    4.78120   67.84310  141.16010   -9999.25   -9999.25   -9999.25   -9999.25   -9999.25   -9999.25
 14917.50000    1.44850   80.79510    4.28680    5.01330    4.67230   67.84310  141.11890   -9999.25   -9999.25   -9999.25   -9999.25   -9999.25   -9999.25
