~Version ---------------------------------------------------
VERS.   2.0 : CWLS log ASCII Standard -VERSION 2.0
WRAP.    NO : One line per depth step
DLM . SPACE : Column Data Section Delimiter
~Well ------------------------------------------------------
STRT .F                12162.0 : START DEPTH
STOP .F                15324.5 : STOP DEPTH
STEP .F                    0.5 : STEP
NULL .                -9999.25 : NULL VALUE
COMP .                         : COMPANY
WELL .                         : WELL
FLD  .                         : FIELD
LOC  .                         : LOCATION
PROV .                         : PROVINCE
CNTY .                         : COUNTY
STAT .                         : STATE
CTRY .                         : COUNTRY
SRVC .                         : SERVICE COMPANY
DATE .                         : DATE
UWI  .                         : UNIQUE WELL ID
API  .                         : API NUMBER
SLAT .WGS84  5.811716077138705 : SURFACE LATITUDE
SLON .WGS84 3.3863524767489253 : SURFACE LONGITUDE
DATUM.F                1787.23 : DEPTH DATUM ELEV
~Curve Information -----------------------------------------
DEPT.F     : 
SPR .MV    : SPONTANEOUS POTENTIAL FROM RES.
GRR .GAPI  : GAMMA RAY FROM RESISTIVITY
AT10.OHMM  : 10-IN. RESISTIVITY, 2-FT RESOLUTION
AT90.OHMM  : 90-IN. RESISTIVITY, 2-FT RESOLUTION
AT30.OHMM  : 30-IN. RESISTIVITY, 2-FT RESOLUTION
DTCO.US/F  : COMPRESSIONAL-WAVE INTERVAL TRANSIT TIME ACOUSTIC SLOWNESS
DTSM.US/F  : SHEAR-WAVE INTERVAL TRANSIT TIME DELTA-T
CALD.IN    : CALIPER FDC LOG
DPHI.DEC   : DENSITY POROSITY LIMESTONE
NPHI.DEC   : NEUTRON POROSITY LIMESTONE
RHOB.G/C3  : BULK DENSITY
DRHO.G/C3  : DENSITY CORRECTION
GRD .GAPI  : GAMMA RAY FROM DENSITY LOG
~Params ----------------------------------------------------
~Other -----------------------------------------------------
~ASCII -----------------------------------------------------
# ...
 13124.00000    7.72270  105.63680    2.23810    2.69500    2.38070   94.53510  198.82350    3.30750    0.14130    0.29800    2.52350    0.00650   95.50580
 13124.50000    7.74870  105.62150    2.38190    2.80000    2.51330   94.13570  198.82350    3.30170    0.12390    0.29650    2.51920    0.00640   95.27640
 13125.00000    7.77470  105.34410    2.53490    2.90910    2.65330   93.16050  197.10410    3.36630    0.10660    0.28250    2.53370    0.00640   94.91500
 13125.50000    7.80160  105.16240    2.69770    2.95340    2.80120   92.18350  194.26120    3.42140    0.09960    0.26500    2.54130    0.00640   96.16490
 13126.00000    7.82600  107.16700    2.84820    3.07030    2.95340   91.38620  191.41840    4.18790    0.09960    0.24760    2.54230    0.00660   97.61670
 13126.50000    7.85470  110.12550    2.91230    3.08910    3.06240   92.15270  188.57560    5.69350    0.10200    0.23350    2.53560    0.01030  101.74900
 13127.00000    7.83530  110.38810    2.93140    3.10810    3.06240   92.80200  185.73270    6.87130    0.10440    0.23190    2.52830    0.01560  105.19480
 13127.50000    7.81000  110.47570    2.95340    3.12720    3.03550   92.95760  183.92160    6.90390    0.10680    0.23290    2.52780    0.02150  108.93140
 13128.00000    7.78300  110.10990    2.85930    3.14630    2.93280   91.44780  183.92160    6.97960    0.10830    0.23460    2.52750    0.02740  112.41560
 13128.50000    7.75730  113.67270    2.75220    3.16560    2.83040   89.80390  185.38040    7.00170    0.10820    0.23630    2.52730    0.03050  116.18770
 13129.00000    7.73110  122.29370    2.57540    3.17550    2.74380   91.97290  187.32550    6.97380    0.10590    0.23740    2.52100    0.03190  117.74140
 13129.50000    7.70490  129.16350    2.34020    3.02000    2.48190   94.27170  189.41180    6.93230    0.11260    0.24300    2.51460    0.03170  117.14310
 13130.00000    7.67890  135.45790    2.12640    2.88460    2.26480   96.57040  195.72550    6.89070    0.12320    0.24920    2.50750    0.02610  121.88630
 13130.50000    7.65280  141.87900    1.93210    2.09270    2.06670   98.86920  202.53330    6.85000    0.12180    0.28810    2.50270    0.02030  130.06670
 13131.00000    7.62670  147.96240    1.77940    2.13100    1.98140  100.00000  206.66670    6.80730    0.11930    0.29800    2.50060    0.01430  138.85540
 13131.50000    7.60060  149.93170    1.89470    2.28220    2.15290  100.00000  205.46110    6.76870    0.12080    0.29840    2.49800    0.00830  148.04850
 13132.00000    7.57450  151.10960    2.00160    2.50150    2.31490  100.00000  198.79220    6.72090    0.12380    0.29830    2.49550    0.00630  159.52520
 13132.50000    7.54840  159.65100    2.11440    2.74180    2.48850  100.00000  192.12320    6.68680    0.12740    0.29080    2.49380    0.00630  172.56890
 13133.00000    7.52240  150.55420    2.21060    3.00520    2.67540  100.00000  188.62750    6.64590    0.13110    0.29260    2.49340    0.00800  185.63050
 13133.50000    7.49630  135.84240    2.23090    3.29400    2.87630  100.31060  192.09930    6.60740    0.13480    0.29690    2.48330    0.00800  198.72390
 13134.00000    7.47020  118.60600    2.25170    3.61050    3.09240  101.47770  197.28630    6.59820    0.13660    0.29980    2.48000    0.00630  209.20850
 13134.50000    7.44410  101.83390    2.44130    4.01960    3.32470  102.35290  202.47320    6.59860    0.13480    0.29920    2.48270    0.00650  202.51720
 13135.00000    7.41810   88.71380    2.69450    3.96860    3.41440  102.35290  207.45100    6.60130    0.13280    0.29860    2.48910    0.00640  183.48640
 13135.50000    7.39200   88.73800    3.06240    3.76050    3.28500  102.35290  207.45100    6.61920    0.13110    0.29130    2.49030    0.00640  165.98500
 13136.00000    7.36590   91.38060    2.94790    3.56340    3.13780  100.19870  207.45100    6.63520    0.13110    0.27840    2.48990    0.00640  154.25920
 13136.50000    7.33980   94.08040    2.78150    3.37660    2.99770   97.60520  195.00000    6.65220    0.13030    0.27050    2.49330    0.00640  118.95870
 13137.00000    7.31370   94.83670    2.62450    3.19960    2.86290   95.01180  187.05880    6.66910    0.12850    0.28100    2.49450    0.00640  122.28690
 13137.50000    7.28770   94.19980    2.47640    3.03180    2.73410   92.74510  187.05880    6.68710    0.12720    0.29330    2.49930    0.00650  120.85800
 13138.00000    7.26160   93.69080    2.33660    2.87290    2.61090   92.34900  187.44710    6.70640    0.12720    0.28260    2.48390    0.00640  122.72300
 13138.50000    7.23550   93.17970    2.20470    2.72230    2.49330   92.83530  187.84310    6.72660    0.12870    0.26260    2.45750    0.00600  122.60540
 13139.00000    7.20940   92.63020    2.17000    2.57960    2.38110   94.71630  195.49180    6.74790    0.16520    0.26470    2.43150    0.00410  120.82990
 13139.50000    7.18340   92.09250    2.17000    2.46370    2.33140   96.98560  197.04780    6.76290    0.16890    0.27190    2.42960    0.00240  119.15350
 13140.00000    7.15710   91.40870    2.20230    2.41940    2.33440   98.78430  198.60390    6.73770    0.16200    0.27910    2.43670    0.00060  119.39400
 13140.50000    7.13120   90.61040    2.24600    2.41940    2.37210   99.75690  200.16000    6.66660    0.15880    0.28630    2.44130   -0.00110  132.88710
 13141.00000    7.10520   90.05120    2.29060    2.55280    2.44230   99.75690  201.17650    6.47750    0.15860    0.29350    2.44010   -0.00290  142.25810
 13141.50000    7.07740   91.17750    2.33610    2.67260    2.51470   99.43270  201.17650    6.30540    0.15930    0.29730    2.43350   -0.00460  155.52200
 13142.00000    7.06200   93.17700    2.40600    2.79810    2.58910   99.34430  200.39220    6.24200    0.16270    0.29730    2.42730   -0.00630  159.15420
 13142.50000    7.06370   95.15680    2.37590    2.95340    2.64900   99.73330  202.06860    5.02090    0.16780    0.29730    2.42000   -0.00910  164.00320
 13143.00000    7.06340   96.20500    2.37590    2.95340    2.59250  100.30590  203.77060    3.88240    0.17280    0.29720    2.41360   -0.01360  166.45910
 13143.50000    7.06330   96.17330    2.28150    2.83360    2.52540  101.27840  205.50940    3.60000    0.17790    0.29720    2.40100   -0.01780  165.20090
 13144.00000    7.06350   95.91220    2.19350    2.72260    2.42350  102.35290  207.00870    3.33800    0.18390    0.29720    2.37980   -0.02280  170.23580
 13144.50000    7.06340   95.49050    2.09270    2.60250    2.45900  101.48240  207.51910    3.28270    0.19460    0.29720    2.35850   -0.02820  178.91890
 13145.00000    7.06350   92.70290    2.17000    2.80030    2.55020  100.64710  206.42560    3.26980    0.20720    0.29720    2.33790   -0.03460  186.96350
 13145.50000    7.06350   92.63160    2.34610    3.04580    2.75380  100.16080  204.82510    3.26320    0.21980    0.29720    2.31760   -0.04080  195.13870
 13146.00000    7.06350   92.52860    2.56080    3.31250    2.97370   99.67450  201.40690    3.26470    0.23000    0.29720    2.32170   -0.04510  203.45650
 13146.50000    7.06350   92.45040    2.79520    3.60250    3.21110   99.18820  192.97740    3.26540    0.22820    0.29720    2.32560   -0.05100  211.88130
 13147.00000    7.06350   91.77900    3.05100    3.87670    3.54240   98.70200  183.23600    3.26570    0.22560    0.29720    2.32340   -0.05250  219.51160
 13147.50000    7.06350   90.23650    3.24240    3.87640    3.53980   98.43720  183.20270    3.26570    0.22720    0.29720    2.31170   -0.04860  230.17770
 13148.00000    7.06350   89.02630    3.08390    3.79420    3.36120   98.44090  183.15630    3.26590    0.23440    0.29330    2.29930   -0.04540  225.21840
 13148.50000    7.06350   89.13630    2.79310    3.64790    3.17440   98.44510  184.56490    3.26590    0.24130    0.28130    2.29690   -0.04200  169.14640
 13149.00000    7.06360   89.60300    2.86420    3.47690    3.11670   98.02440  188.57470    3.26590    0.24290    0.26650    2.29810   -0.03870  142.54550
 13149.50000    7.06370   90.08400    2.97670    3.54050    3.22920   93.67790  188.56780    3.26590    0.22680    0.26570    2.32480   -0.03530  127.77910
