~Version ---------------------------------------------------
VERS.   2.0 : CWLS log ASCII Standard -VERSION 2.0
WRAP.    NO : One line per depth step
DLM . SPACE : Column Data Section Delimiter
~Well ------------------------------------------------------
STRT .F                12162.0 : START DEPTH
STOP .F                15324.5 : STOP DEPTH
STEP .F                    0.5 : STEP
NULL .                -9999.25 : NULL VALUE
COMP .                         : COMPANY
WELL .                         : WELL
FLD  .                         : FIELD
LOC  .                         : LOCATION
PROV .                         : PROVINCE
CNTY .                         : COUNTY
STAT .                         : STATE
CTRY .                         : COUNTRY
SRVC .                         : SERVICE COMPANY
DATE .                         : DATE
UWI  .                         : UNIQUE WELL ID
API  .                         : API NUMBER
SLAT .WGS84  5.811716077138705 : SURFACE LATITUDE
SLON .WGS84 3.3863524767489253 : SURFACE LONGITUDE
DATUM.F                1787.23 : DEPTH DATUM ELEV
~Curve Information -----------------------------------------
DEPT.F     : 
SPR .MV    : SPONTANEOUS POTENTIAL FROM RES.
GRR .GAPI  : GAMMA RAY FROM RESISTIVITY
AT10.OHMM  : 10-IN. RESISTIVITY, 2-FT RESOLUTION
AT90.OHMM  : 90-IN. RESISTIVITY, 2-FT RESOLUTION
AT30.OHMM  : 30-IN. RESISTIVITY, 2-FT RESOLUTION
DTCO.US/F  : COMPRESSIONAL-WAVE INTERVAL TRANSIT TIME ACOUSTIC SLOWNESS
DTSM.US/F  : SHEAR-WAVE INTERVAL TRANSIT TIME DELTA-T
CALD.IN    : CALIPER FDC LOG
DPHI.DEC   : DENSITY POROSITY LIMESTONE
NPHI.DEC   : NEUTRON POROSITY LIMESTONE
RHOB.G/C3  : BULK DENSITY
DRHO.G/C3  : DENSITY CORRECTION
GRD .GAPI  : GAMMA RAY FROM DENSITY LOG
~Params ----------------------------------------------------
~Other -----------------------------------------------------
~ASCII -----------------------------------------------------
# ...
 12578.00000  -14.46140   36.65420    0.53250   -9999.25   -9999.25   -9999.25  216.87680    6.23160   -9999.25    0.29950    2.12610   -9999.25   40.63570
 12578.50000  -11.61570   38.92960    0.47760    2.22180    1.99640   -9999.25  215.42140    6.40980    0.25210    0.29960    2.29000   -9999.25   37.79470
 12579.00000   -8.76980   40.91320    0.42830    2.36580    2.08970   -9999.25  211.81020    6.50900    0.19650    0.29960    2.41880   -0.11110   34.40810
 12579.50000   -6.34240   39.41740    0.38410    2.60140    2.18740   -9999.25  208.20710    6.67100    0.15870    0.29950    2.47060   -0.02650   32.03700
 12580.00000   -5.26060   36.94240    0.34440    2.57140    1.99570   60.00000  196.94860    6.87060    0.12550    0.29920    2.50690    0.02500   31.25170
 12580.50000   -2.79570   34.58840    0.31770    2.49420    1.75070   63.82350  185.69720    6.99520    0.11540    0.30080    2.51280    0.02210   33.37610
 12581.00000   -1.54770   32.24800    0.29530    2.41940    1.53580   67.00980  174.44430    7.12660    0.11460    0.29840    2.52170    0.02020   35.68600
 12581.50000   -1.69140   29.89060    0.29620    3.05580    1.26180   70.19610  163.18620    7.36500    0.07800    0.29960    2.58970    0.02020   38.21140
 12582.00000   -1.53280   27.66470    0.29480    3.03280    1.26720   71.76470  151.91210    7.89010    0.06200    0.29960    2.66920    0.02020   38.53930
 12582.50000   -1.20100   26.05180    0.40210    7.18040    1.01330   64.44440  140.64980    8.38430    0.03030    0.17810    2.72290    0.01940   36.55650
 12583.00000   -0.91570   24.70230    0.50850    5.95290    1.06350   58.43140  129.38840    8.71060   -0.00160    0.15890    2.74060    0.01710   33.58420
 12583.50000   -0.60400   22.96280    0.64320    5.03470    1.23370   54.50980  120.27470    8.85690   -0.01380    0.13970    2.73710    0.01500   30.70990
 12584.00000   -0.29670   22.14640    0.81370    6.54580    1.43120   53.52940  120.26830    8.92850   -0.01220    0.11740    2.72830    0.01340   28.41020
 12584.50000   -0.02490   23.87900    0.99380   12.31550    1.66040   52.54900  121.04350    8.97260   -0.00670    0.09150    2.68880    0.00920   26.64300
 12585.00000    0.17370   29.77040    0.91250   23.75930    1.92620   55.98040  126.92040    9.03380    0.03870    0.06560    2.59730    0.00180   24.92760
 12585.50000    0.37460   35.46220    0.84830   95.96930    2.05510   62.26950  143.53670    9.18770    0.09650    0.03970    2.50030   -0.04220   22.95710
 12586.00000    0.57340   40.68160    0.78620   59.31020    1.96340   86.67570  169.72540    9.05280    0.24560    0.02640    2.24320   -0.10030   23.25260
 12586.50000    0.77240   42.26990    0.80730   32.49900    1.88790   86.77080  169.37850   11.88160    0.29780    0.04740    2.05860   -0.14070   25.64200
 12587.00000    0.97170   45.10250    0.84500   20.04720    1.81020   75.08360  169.04360   12.32310    0.29740    0.12680    2.07100   -0.17410   27.64250
 12587.50000    1.17070   49.20630    0.88450   17.61620    2.35210   55.51520  169.08920   12.92950    0.29710    0.21500    2.03680   -0.18670   33.74410
 12588.00000    1.36990   53.27950    0.92580   25.53570    3.06270   49.23760  165.05600   13.66070    0.29670    0.29650    2.09580   -0.18750   41.74040
 12588.50000    1.56900   54.60300    0.95970   41.03970    3.98800   47.62250  158.29070   13.19880    0.27550    0.29720    2.20780   -0.15970   49.65250
 12589.00000    1.76820   54.41540    0.93610   65.95710    4.81860   42.83450  151.50240   10.87980    0.20740    0.29800    2.34120   -0.11560   57.62790
 12589.50000    1.96750   53.97640    0.89260  106.00300    4.23990   42.74930  144.70590   10.11120    0.13390    0.29800    2.49880   -0.07570   63.41320
 12590.00000    2.16670   59.22300    0.89930  198.89220    3.47470   42.67120  135.88240    9.66440    0.05810    0.29720    2.64990   -0.02340   62.86480
 12590.50000    2.36590   62.42180    0.91480  116.35790    2.82880   55.36890  127.05880    9.04460    0.10480    0.15420    2.54420   -0.04310   61.85630
 12591.00000    2.56510   62.06040    0.93860   47.93080    2.30330   53.61170  123.52940    9.37510    0.19820    0.09330    2.37800   -0.08990   60.71180
 12591.50000    2.76430   56.21140    0.90200   19.71620    1.87600   52.84300  123.52940    9.90650    0.29800    0.10670    2.21170   -0.13460   59.57750
 12592.00000    2.96350   48.79970    0.76290    8.10060    1.52880   56.78440  123.52940   10.47660    0.29880    0.11850    2.09160   -0.18030   58.61670
 12592.50000    3.16270   40.93580    0.63250    2.75830    1.40270   59.14170  123.52940   10.92710    0.29880    0.17530    2.06850   -0.22570   56.81230
 12593.00000    3.36190   37.71660    0.67450    2.77460    1.40440   59.21570  123.50640   11.00080    0.29870    0.24810    2.06890   -0.23820   54.33900
 12593.50000    3.56110   39.80180    0.73240    3.06240    1.47600   60.58820  123.51320   11.07620    0.29870    0.29720    2.07330   -0.23820   49.25680
 12594.00000    3.76030   41.35720    0.70560    3.05080    1.54490   64.70590  123.51080   11.14450    0.29860    0.29800    2.07570   -0.23860   44.04430
 12594.50000    3.95950   40.77690    0.69980    3.02770    1.61710   77.25490  123.50820   11.19190    0.29860    0.29800    2.12670   -0.23280   38.66210
 12595.00000    4.15900   39.60890    0.69340    3.00740    1.69270   78.03920  124.29540   11.15450    0.29850    0.29800    2.14850   -0.22040   35.59130
 12595.50000    4.35830   39.02280    0.72260    3.00740    1.77190   77.86490  126.19580   11.13940    0.29850    0.29800    2.15820   -0.20960   35.22490
 12596.00000    4.55700   39.86020    0.81350    3.15720    1.85470   77.64710  127.48190   11.26940    0.29840    0.29800    2.16700   -0.19770   36.96170
 12596.50000    4.75800   42.75730    0.78030    3.35300    1.94630   77.42920  125.95310   11.71350    0.29840    0.29800    2.16850   -0.19690   39.80720
 12597.00000    4.95520   43.67620    0.77470    3.26730    1.94630   77.25490  124.31370   12.28480    0.29830    0.29800    2.16460   -0.19660   41.17410
 12597.50000    5.15410   42.53090    0.77210    3.17550    1.98310   77.84310  124.31370   12.65330    0.29830    0.29800    2.16120   -0.19680   41.80420
 12598.00000    5.36640   42.00020    0.79500    3.23450    2.01550   78.33330  138.85620   11.96690    0.29820    0.29800    2.15860   -0.19680   41.37540
 12598.50000    5.49580   46.10730    0.81950    3.34180    2.04850   78.82350  153.39870    9.69940    0.29820    0.29810    2.15510   -0.19660   39.26090
 12599.00000    5.50610   51.45270    0.84490    3.45260    2.08210   72.54900  167.94120    7.42460    0.29820    0.29810    2.16000   -0.19650   36.61440
 12599.50000    5.53070   52.64400    0.86590    3.38430    2.11620   73.89550  182.48370    5.15590    0.29810    0.29810    2.17020   -0.18680   36.93370
 12600.00000    5.55460   50.95120    0.87650    3.27010    2.15090   75.57850  194.90200    3.81980    0.29810    0.29810    2.18960   -0.17420   39.51860
 12600.50000    5.57570   49.06050    0.93030    3.11850    2.18610   77.25490  192.92160    3.36140    0.29410    0.29810    2.20850   -0.16250   41.96360
 12601.00000    5.59900   50.65580    0.97770    3.16400    2.22190   76.75610  190.71240    3.36040    0.28620    0.29810    2.21890   -0.14860   44.39600
 12601.50000    5.62150   53.74910    1.02750    3.38130    2.25810   78.13410  190.24010    3.37020    0.28390    0.29810    2.22180   -0.14750   46.14460
 12602.00000    5.64400   56.46160    1.10950    3.73690    2.29490   79.51220  188.06500    3.37770    0.28310    0.29810    2.22850   -0.14770   47.58140
 12602.50000    5.66670   58.80730    1.09310    3.52750    2.33240   80.89020  184.50110    3.38120    0.28510    0.29810    2.23140   -0.14910   49.08950
 12603.00000    5.68940   54.06020    1.05790    3.10030    2.37550   81.96080  180.92670    3.35160    0.29270    0.29810    2.21940   -0.15000   50.45400
 12603.50000    5.71220   49.95170    1.01330    2.89790    2.35970   81.96080  176.10160    3.34640    0.30040    0.29810    2.19920   -0.15090   52.41120
