~Version ---------------------------------------------------
VERS.   2.0 : CWLS log ASCII Standard -VERSION 2.0
WRAP.    NO : One line per depth step
DLM . SPACE : Column Data Section Delimiter
~Well ------------------------------------------------------
STRT .F                12162.0 : START DEPTH
STOP .F                15324.5 : STOP DEPTH
STEP .F                    0.5 : STEP
NULL .                -9999.25 : NULL VALUE
COMP .                         : COMPANY
WELL .                         : WELL
FLD  .                         : FIELD
LOC  .                         : LOCATION
PROV .                         : PROVINCE
CNTY .                         : COUNTY
STAT .                         : STATE
CTRY .                         : COUNTRY
SRVC .                         : SERVICE COMPANY
DATE .                         : DATE
UWI  .                         : UNIQUE WELL ID
API  .                         : API NUMBER
SLAT .WGS84  5.811716077138705 : SURFACE LATITUDE
SLON .WGS84 3.3863524767489253 : SURFACE LONGITUDE
DATUM.F                1787.23 : DEPTH DATUM ELEV
~Curve Information -----------------------------------------
DEPT.F     : 
SPR .MV    : SPONTANEOUS POTENTIAL FROM RES.
GRR .GAPI  : GAMMA RAY FROM RESISTIVITY
AT10.OHMM  : 10-IN. RESISTIVITY, 2-FT RESOLUTION
AT90.OHMM  : 90-IN. RESISTIVITY, 2-FT RESOLUTION
AT30.OHMM  : 30-IN. RESISTIVITY, 2-FT RESOLUTION
DTCO.US/F  : COMPRESSIONAL-WAVE INTERVAL TRANSIT TIME ACOUSTIC SLOWNESS
DTSM.US/F  : SHEAR-WAVE INTERVAL TRANSIT TIME DELTA-T
CALD.IN    : CALIPER FDC LOG
DPHI.DEC   : DENSITY POROSITY LIMESTONE
NPHI.DEC   : NEUTRON POROSITY LIMESTONE
RHOB.G/C3  : BULK DENSITY
DRHO.G/C3  : DENSITY CORRECTION
GRD .GAPI  : GAMMA RAY FROM DENSITY LOG
~Params ----------------------------------------------------
~Other -----------------------------------------------------
~ASCII -----------------------------------------------------
# ...
 13462.00000   16.11890   81.95150    3.01020    5.08790    3.06200   85.92730  208.23880    6.02690    0.02900    0.29830    2.65230    0.02710   94.58250
 13462.50000   16.26030   84.04850    3.47690    4.56350    3.05750   83.30950  201.41960    6.00070    0.01690    0.28610    2.67590    0.03540   97.55280
 13463.00000   16.40170   90.04740    3.33200    4.00300    3.03870   80.68510  184.46700    6.02830    0.01770    0.24940    2.67980    0.04280   95.94430
 13463.50000   16.54310   95.84400    3.06330    3.47690    3.02000   78.05540  168.15910    6.07870    0.03620    0.24780    2.66840    0.04370   91.86980
 13464.00000   16.68450  100.88880    2.84820    3.29730    3.00130   78.36790  152.82860    6.12440    0.05310    0.24780    2.63710    0.04000   89.10280
 13464.50000   16.82600  101.45880    2.84240    3.11850    2.98290   78.68290  143.66230    6.17010    0.06990    0.24770    2.60650    0.03620   88.83200
 13465.00000   16.96740  101.16280    2.82540    3.11850    2.96460   80.00000  149.60780    6.21710    0.08540    0.24980    2.58220    0.03230   91.29800
 13465.50000   17.10870   96.44050    2.80850    3.12010    2.95310   81.96080  155.29410    6.26410    0.09340    0.25160    2.56260    0.02850   96.35120
 13466.00000   17.25020   93.30510    2.79180    3.21310    2.95310   83.92160  160.98040    6.28170    0.09820    0.25160    2.55050    0.02460   97.41930
 13466.50000   17.39160   91.60330    2.77520    3.23410    2.95340   85.88230  166.66670    6.28720    0.10220    0.24450    2.54290    0.02070   95.96240
 13467.00000   17.53290   90.27950    2.75860    3.22900    2.95340   87.84310  170.58820    6.22680    0.11170    0.23790    2.53940    0.01680   95.29400
 13467.50000   17.67470   90.23920    2.74210    3.20440    2.95330   89.41180  174.50980    6.12360    0.12120    0.23130    2.52320    0.01300   94.80220
 13468.00000   17.81570   92.37650    2.72580    3.17590    2.95330   90.58820  179.21570    6.01400    0.12680    0.22470    2.49890    0.00880   93.02380
 13468.50000   17.95690   92.63930    2.70950    3.17590    2.95340   90.27450  179.21570    6.01230    0.12030    0.22170    2.49450    0.00850   92.02060
 13469.00000   18.10110   91.00400    2.69970    3.17580    2.95340   89.88230  178.37540    6.13010    0.10990    0.22500    2.50050    0.01290   90.73710
 13469.50000   18.23170   88.16650    2.70870    3.17580    2.95340   89.49020  176.97480    6.26040    0.09940    0.22890    2.52740    0.01620   90.53630
 13470.00000   18.34710   86.04850    2.71780    3.17570    2.95340   89.01960  175.57420    6.36440    0.08860    0.23270    2.55620    0.01950   91.77080
 13470.50000   18.46540   87.13040    2.72680    3.17570    2.95340   88.68350  174.17370    6.42950    0.09480    0.23350    2.55010    0.02320   92.86390
 13471.00000   18.58390   89.56720    2.73600    3.17580    2.95340   88.26330  172.77310    6.48590    0.10460    0.23350    2.54150    0.02700   93.73680
 13471.50000   18.70160   92.00970    2.74640    3.17590    2.95350   87.84310  171.37250    6.55980    0.11220    0.23270    2.53240    0.03080   93.87330
 13472.00000   18.81990   94.47000    2.70350    3.17600    2.95340   87.42300  169.80390    6.66100    0.10980    0.22940    2.52210    0.03470   93.99140
 13472.50000   18.93800   95.57400    2.57150    3.15940    2.95370   87.00280  169.80390    6.75490    0.10670    0.22480    2.52150    0.03850   94.08910
 13473.00000   19.05610   94.76520    2.44520    3.12870    2.95330   86.66670  169.80390    6.86660    0.10670    0.22690    2.52970    0.03960   94.19390
 13473.50000   19.17430   94.13770    2.32590    3.09830    2.95370   87.03820  169.80390    6.82250    0.10990    0.23190    2.53350    0.03390   94.33640
 13474.00000   19.29240   93.68950    2.20970    3.06840    2.95370   87.34780  170.58820    6.80580    0.11540    0.23700    2.52440    0.02920   93.90270
 13474.50000   19.41030   93.79770    2.17000    3.03900    2.92410   87.65740  183.69750    6.83920    0.12080    0.24130    2.51630    0.02410   93.00090
 13475.00000   19.52920   93.98050    2.09270    3.01040    2.87400   87.96700  194.62190    6.83910    0.12620    0.24180    2.50880    0.01920   91.81770
 13475.50000   19.64650   96.95610    2.11220    2.94790    2.82490   88.27660  201.96080    6.83900    0.13150    0.24230    2.50070    0.01440   90.61380
 13476.00000   19.75990   99.12880    2.13100    2.95870    2.79680   88.58620  202.74510    6.90990    0.13340    0.24290    2.49250    0.00910   90.61650
 13476.50000   19.82210  101.92540    2.14630    2.95940    2.79710   88.88480  202.74510    6.92240    0.13180    0.25390    2.48810    0.00620   90.44650
 13477.00000   19.88220  103.06350    2.20970    2.94670    2.95960   89.00010  198.03920    6.83080    0.11980    0.26500    2.49140    0.00650   90.30890
 13477.50000   19.94050   99.00030    2.51180    3.43480    3.22680   88.99200  190.19610    6.65920    0.10570    0.27610    2.50560    0.00770   90.17860
 13478.00000   19.99970   92.07870    2.83860    3.96740    3.51820   88.98780  175.00000    6.48560    0.08540    0.28310    2.53550    0.00860   90.04670
 13478.50000   20.05880   85.72690    2.96100    4.33850    3.74420   86.04410  154.90200    6.39180    0.08840    0.28150    2.56380    0.00600   89.91120
 13479.00000   20.11770   80.35550    2.97240    4.12290    3.62080   84.12360  134.80390    6.41480    0.09370    0.26760    2.56630   -0.00070   89.74260
 13479.50000   20.17680   80.34730    2.98380    3.91800    3.34820   82.55660  119.86930    6.43520    0.09890    0.24260    2.55390   -0.00660   89.72720
 13480.00000   20.23580   85.60490    2.99520    3.72340    3.35850   80.98830  113.33330    6.65820    0.10430    0.21770    2.53290   -0.01100   88.56280
 13480.50000   20.29480   91.79760    3.00740    3.67120    3.34910   79.45100  123.21570    7.01770    0.10430    0.20430    2.52910   -0.00030   87.33230
 13481.00000   20.35390   98.50490    2.98610    3.67120    3.29370   79.47710  147.92160    7.28100    0.09300    0.21090    2.53950    0.01360   86.41820
 13481.50000   20.41290  102.50050    2.96330    3.60520    3.17700   80.56650  165.35950    7.42370    0.08320    0.21650    2.55390    0.02740   86.30420
 13482.00000   20.47200  101.22980    2.95340    3.35300    3.06750   81.65580  171.89540    7.44130    0.07680    0.22220    2.56940    0.04230   86.61760
 13482.50000   20.53100   99.75360    2.71760    3.23120    2.96180   82.74510  178.43140    7.46090    0.07680    0.22710    2.57380    0.05090   87.20270
 13483.00000   20.59010   98.45890    2.53050    3.13020    2.85970   83.33330  178.43140    7.47390    0.07600    0.22790    2.57770    0.05170   89.64820
 13483.50000   20.64920   97.13900    2.35620    3.03230    2.76110   83.92160  175.29410    7.48740    0.07520    0.22880    2.58030    0.05200   91.96840
 13484.00000   20.70820   92.25850    2.29130    2.93750    2.64900   84.50980  176.50070    7.49290    0.07280    0.23250    2.58290    0.04870   94.88240
 13484.50000   20.76730   87.24880    2.24760    2.84820    2.60140   85.08940  177.64520    7.52530    0.06870    0.24150    2.58870    0.04230   94.77600
 13485.00000   20.82630   85.33360    2.30170    2.74680    2.60140   85.87370  178.86990    7.35350    0.06250    0.25040    2.59910    0.03630   92.56070
 13485.50000   20.88540   85.08210    2.35560    2.74680    2.64900   85.73150  180.09350    7.02800    0.06480    0.25940    2.60530    0.03060   90.39960
 13486.00000   20.94460   88.57900    2.41820    2.79700    2.67270   85.55460  181.54840    6.79190    0.06960    0.26840    2.60420    0.02640   89.24850
 13486.50000   21.00360   91.79570    2.45490    2.79700    2.70930   85.37810  181.06670    6.50990    0.07120    0.27740    2.60350    0.02580   88.52860
 13487.00000   21.06290   90.95360    2.49790    2.90030    2.74640   85.20170  180.46630    6.35760    0.07120    0.28640    2.59060    0.03070   89.31730
 13487.50000   21.12210   86.49100    2.54150    2.91460    2.78390   85.06330  179.86370    5.16980    0.07120    0.29530    2.58730    0.04080   91.33160
