~Version ---------------------------------------------------
VERS.   2.0 : CWLS log ASCII Standard -VERSION 2.0
WRAP.    NO : One line per depth step
DLM . SPACE : Column Data Section Delimiter
~Well ------------------------------------------------------
STRT .F                12162.0 : START DEPTH
STOP .F                15324.5 : STOP DEPTH
STEP .F                    0.5 : STEP
NULL .                -9999.25 : NULL VALUE
COMP .                         : COMPANY
WELL .                         : WELL
FLD  .                         : FIELD
LOC  .                         : LOCATION
PROV .                         : PROVINCE
CNTY .                         : COUNTY
STAT .                         : STATE
CTRY .                         : COUNTRY
SRVC .                         : SERVICE COMPANY
DATE .                         : DATE
UWI  .                         : UNIQUE WELL ID
API  .                         : API NUMBER
SLAT .WGS84  5.811716077138705 : SURFACE LATITUDE
SLON .WGS84 3.3863524767489253 : SURFACE LONGITUDE
DATUM.F                1787.23 : DEPTH DATUM ELEV
~Curve Information -----------------------------------------
DEPT.F     : 
SPR .MV    : SPONTANEOUS POTENTIAL FROM RES.
GRR .GAPI  : GAMMA RAY FROM RESISTIVITY
AT10.OHMM  : 10-IN. RESISTIVITY, 2-FT RESOLUTION
AT90.OHMM  : 90-IN. RESISTIVITY, 2-FT RESOLUTION
AT30.OHMM  : 30-IN. RESISTIVITY, 2-FT RESOLUTION
DTCO.US/F  : COMPRESSIONAL-WAVE INTERVAL TRANSIT TIME ACOUSTIC SLOWNESS
DTSM.US/F  : SHEAR-WAVE INTERVAL TRANSIT TIME DELTA-T
CALD.IN    : CALIPER FDC LOG
DPHI.DEC   : DENSITY POROSITY LIMESTONE
NPHI.DEC   : NEUTRON POROSITY LIMESTONE
RHOB.G/C3  : BULK DENSITY
DRHO.G/C3  : DENSITY CORRECTION
GRD .GAPI  : GAMMA RAY FROM DENSITY LOG
~Params ----------------------------------------------------
~Other -----------------------------------------------------
~ASCII -----------------------------------------------------
# ...
 14710.00000   -0.87290   87.41140    2.09880    2.16350    2.17150   91.37260  217.64710   -9999.25   -9999.25   -9999.25   -9999.25   -9999.25   -9999.25
 14710.50000   -0.87300   85.00580    2.04180    2.10900    2.10720   92.94120  217.64710   -9999.25   -9999.25   -9999.25   -9999.25   -9999.25   -9999.25
 14711.00000   -0.87300   84.67560    1.96530    2.05600    2.04480   92.94120  216.55770   -9999.25   -9999.25   -9999.25   -9999.25   -9999.25   -9999.25
 14711.50000   -0.87300   88.40770    1.89150    2.01320    1.98430   92.94120  215.46840   -9999.25   -9999.25   -9999.25   -9999.25   -9999.25   -9999.25
 14712.00000   -0.87300   93.73910    1.82060    1.99480    1.92550   92.94120  214.37910   -9999.25   -9999.25   -9999.25   -9999.25   -9999.25   -9999.25
 14712.50000   -0.87300   98.67730    1.75230    1.94630    1.86850   93.27730  212.47060   -9999.25   -9999.25   -9999.25   -9999.25   -9999.25   -9999.25
 14713.00000   -0.87300  103.55010    1.68660    1.94630    1.81320   93.55740  209.33330   -9999.25   -9999.25   -9999.25   -9999.25   -9999.25   -9999.25
 14713.50000   -0.87300  105.58670    1.62340    1.94620    1.75950   93.83750  206.66670   -9999.25   -9999.25   -9999.25   -9999.25   -9999.25   -9999.25
 14714.00000   -0.87300  105.70370    1.59440    1.90470    1.71440   94.11770  206.66670   -9999.25   -9999.25   -9999.25   -9999.25   -9999.25   -9999.25
 14714.50000   -0.87290  105.25980    1.59440    1.86080    1.71440   94.39780  206.66670   -9999.25   -9999.25   -9999.25   -9999.25   -9999.25   -9999.25
 14715.00000   -0.87300  104.88620    1.59440    1.84110    1.71440   92.82910  206.66670   -9999.25   -9999.25   -9999.25   -9999.25   -9999.25   -9999.25
 14715.50000   -0.87270  105.39260    1.68890    1.90900    1.74570   90.02800  204.70590   -9999.25   -9999.25   -9999.25   -9999.25   -9999.25   -9999.25
 14716.00000   -0.87300  108.34380    1.77490    2.10860    1.86650   86.66670  202.74510   -9999.25   -9999.25   -9999.25   -9999.25   -9999.25   -9999.25
 14716.50000   -0.87300  127.62520    1.86540    2.37450    1.99950   86.35290  193.96080   -9999.25   -9999.25   -9999.25   -9999.25   -9999.25   -9999.25
 14717.00000   -0.87150  141.22330    1.96040    2.34260    2.22210   85.88230  180.78430   -9999.25   -9999.25   -9999.25   -9999.25   -9999.25   -9999.25
 14717.50000   -0.88880  139.44980    2.01820    2.25010    2.19520   84.70590  177.19890   -9999.25   -9999.25   -9999.25   -9999.25   -9999.25   -9999.25
 14718.00000   -0.93120  126.91520    1.82370    2.25010    1.66550   83.52940  170.19610   -9999.25   -9999.25   -9999.25   -9999.25   -9999.25   -9999.25
 14718.50000   -0.97180  114.09200    1.59440    2.29130    1.93770   80.00000  163.19330   -9999.25   -9999.25   -9999.25   -9999.25   -9999.25   -9999.25
 14719.00000   -1.01270  100.90910    2.01590    3.87920    2.83250   78.82350  151.65270   -9999.25   -9999.25   -9999.25   -9999.25   -9999.25   -9999.25
 14719.50000   -1.05390   87.94660    2.89490    6.42510    4.14020   78.82350  137.08680   -9999.25   -9999.25   -9999.25   -9999.25   -9999.25   -9999.25
 14720.00000   -1.09480   75.00090    4.15710   11.29790    6.05100   77.14290  119.60780   -9999.25   -9999.25   -9999.25   -9999.25   -9999.25   -9999.25
 14720.50000   -1.13580   62.01790    5.77640    9.26480    8.54350   75.46220  118.94570   -9999.25   -9999.25   -9999.25   -9999.25   -9999.25   -9999.25
 14721.00000   -1.17690   56.33710    4.49390    6.39450    5.77070   74.11770  118.78110   -9999.25   -9999.25   -9999.25   -9999.25   -9999.25   -9999.25
 14721.50000   -1.21780   56.37660    3.21510    4.41340    4.06070   75.68630  147.62610   -9999.25   -9999.25   -9999.25   -9999.25   -9999.25   -9999.25
 14722.00000   -1.25880   62.41150    2.30020    3.04610    2.83500   78.03920  168.03550   -9999.25   -9999.25   -9999.25   -9999.25   -9999.25   -9999.25
 14722.50000   -1.29980   70.97160    1.64570    2.10240    1.97930   89.01960  188.47640   -9999.25   -9999.25   -9999.25   -9999.25   -9999.25   -9999.25
 14723.00000   -1.34080   79.84520    1.51000    1.84330    1.56580  100.00000  213.11420   -9999.25   -9999.25   -9999.25   -9999.25   -9999.25   -9999.25
 14723.50000   -1.38180   88.70830    1.65840    1.87700    1.56580  100.78430  213.89240   -9999.25   -9999.25   -9999.25   -9999.25   -9999.25   -9999.25
 14724.00000   -1.42270   94.41050    1.96220    2.51370    1.98750   99.21570  213.96420   -9999.25   -9999.25   -9999.25   -9999.25   -9999.25   -9999.25
 14724.50000   -1.46370   93.45480    2.31990    3.50910    2.58740   96.86270  192.62690   -9999.25   -9999.25   -9999.25   -9999.25   -9999.25   -9999.25
 14725.00000   -1.50470   85.77440    2.74920    4.88810    3.36830   91.37260  174.89120   -9999.25   -9999.25   -9999.25   -9999.25   -9999.25   -9999.25
 14725.50000   -1.54570   76.80520    3.25730    6.81320    4.38490   83.52940  157.13990   -9999.25   -9999.25   -9999.25   -9999.25   -9999.25   -9999.25
 14726.00000   -1.58650   67.23940    4.08220    8.56450    5.67260   74.11770  150.09800   -9999.25   -9999.25   -9999.25   -9999.25   -9999.25   -9999.25
 14726.50000   -1.62780   62.85970    3.65960    5.41270    4.56520   74.11770  156.46100   -9999.25   -9999.25   -9999.25   -9999.25   -9999.25   -9999.25
 14727.00000   -1.66730   63.21420    3.04440    4.08620    3.69260   77.05880  161.75420   -9999.25   -9999.25   -9999.25   -9999.25   -9999.25   -9999.25
 14727.50000   -1.70890   69.31720    2.65390    3.80610    2.90030   80.00000  167.04030   -9999.25   -9999.25   -9999.25   -9999.25   -9999.25   -9999.25
 14728.00000   -1.74880   75.34640    2.55220    3.54660    2.79700   83.52940  172.30930   -9999.25   -9999.25   -9999.25   -9999.25   -9999.25   -9999.25
 14728.50000   -1.78910   81.73630    2.60240    3.35300    2.74680   83.52940  175.46540   -9999.25   -9999.25   -9999.25   -9999.25   -9999.25   -9999.25
 14729.00000   -1.82920   86.95180    2.81380    3.41440    2.97920   83.52940  171.25250   -9999.25   -9999.25   -9999.25   -9999.25   -9999.25   -9999.25
 14729.50000   -1.86930   87.47380    3.07350    3.74820    3.26550   80.98040  164.22830   -9999.25   -9999.25   -9999.25   -9999.25   -9999.25   -9999.25
 14730.00000   -1.90950   76.74310    3.35650    4.08150    3.57920   78.85620  157.18840   -9999.25   -9999.25   -9999.25   -9999.25   -9999.25   -9999.25
 14730.50000   -1.94970   71.49880    3.66530    4.44440    3.92310   76.73200  150.13520   -9999.25   -9999.25   -9999.25   -9999.25   -9999.25   -9999.25
 14731.00000   -1.98980   72.29670    4.00240    4.83960    4.30000   74.60780  143.06420   -9999.25   -9999.25   -9999.25   -9999.25   -9999.25   -9999.25
 14731.50000   -2.03000   73.26090    4.41730    5.26990    4.73200   73.52940  135.97410   -9999.25   -9999.25   -9999.25   -9999.25   -9999.25   -9999.25
 14732.00000   -2.07020   73.57790    4.38880    5.67260    4.99650   74.01960  135.29410   -9999.25   -9999.25   -9999.25   -9999.25   -9999.25   -9999.25
 14732.50000   -2.11030   67.57940    3.60890    5.28860    4.43630   74.50980  149.72550   -9999.25   -9999.25   -9999.25   -9999.25   -9999.25   -9999.25
 14733.00000   -2.15050   63.55080    3.05270    4.35630    3.80200   74.90200  171.37250   -9999.25   -9999.25   -9999.25   -9999.25   -9999.25   -9999.25
 14733.50000   -2.19070   63.38010    2.58240    3.58780    3.25840   77.77780  174.31370   -9999.25   -9999.25   -9999.25   -9999.25   -9999.25   -9999.25
 14734.00000   -2.23090   66.82720    2.28980    2.95570    2.79250   80.17430  177.99020   -9999.25   -9999.25   -9999.25   -9999.25   -9999.25   -9999.25
 14734.50000   -2.27110   79.75090    2.30910    2.64320    2.55460   82.57080  181.66670   -9999.25   -9999.25   -9999.25   -9999.25   -9999.25   -9999.25
 14735.00000   -2.31150   84.92380    2.34910    2.65370    2.56970   83.52940  184.70590   -9999.25   -9999.25   -9999.25   -9999.25   -9999.25   -9999.25
 14735.50000   -2.35130   82.06560    2.38940    2.64780    2.58450   83.52940  185.49020   -9999.25   -9999.25   -9999.25   -9999.25   -9999.25   -9999.25
