~Version ---------------------------------------------------
VERS.   2.0 : CWLS log ASCII Standard -VERSION 2.0
WRAP.    NO : One line per depth step
DLM . SPACE : Column Data Section Delimiter
~Well ------------------------------------------------------
STRT .F                12162.0 : START DEPTH
STOP .F                15324.5 : STOP DEPTH
STEP .F                    0.5 : STEP
NULL .                -9999.25 : NULL VALUE
COMP .                         : COMPANY
WELL .                         : WELL
FLD  .                         : FIELD
LOC  .                         : LOCATION
PROV .                         : PROVINCE
CNTY .                         : COUNTY
STAT .                         : STATE
CTRY .                         : COUNTRY
SRVC .                         : SERVICE COMPANY
DATE .                         : DATE
UWI  .                         : UNIQUE WELL ID
API  .                         : API NUMBER
SLAT .WGS84  5.811716077138705 : SURFACE LATITUDE
SLON .WGS84 3.3863524767489253 : SURFACE LONGITUDE
DATUM.F                1787.23 : DEPTH DATUM ELEV
~Curve Information -----------------------------------------
DEPT.F     : 
SPR .MV    : SPONTANEOUS POTENTIAL FROM RES.
GRR .GAPI  : GAMMA RAY FROM RESISTIVITY
AT10.OHMM  : 10-IN. RESISTIVITY, 2-FT RESOLUTION
AT90.OHMM  : 90-IN. RESISTIVITY, 2-FT RESOLUTION
AT30.OHMM  : 30-IN. RESISTIVITY, 2-FT RESOLUTION
DTCO.US/F  : COMPRESSIONAL-WAVE INTERVAL TRANSIT TIME ACOUSTIC SLOWNESS
DTSM.US/F  : SHEAR-WAVE INTERVAL TRANSIT TIME DELTA-T
CALD.IN    : CALIPER FDC LOG
DPHI.DEC   : DENSITY POROSITY LIMESTONE
NPHI.DEC   : NEUTRON POROSITY LIMESTONE
RHOB.G/C3  : BULK DENSITY
DRHO.G/C3  : DENSITY CORRECTION
GRD .GAPI  : GAMMA RAY FROM DENSITY LOG
~Params ----------------------------------------------------
~Other -----------------------------------------------------
~ASCII -----------------------------------------------------
# ...
 13280.00000   16.64270   39.86270   22.95980   48.18590   27.07930   66.19920  107.05880    5.89670    0.10940    0.06870    2.52910    0.00770   41.79920
 13280.50000   16.41530   37.57260   26.77590   47.32010   31.02210   67.29020  108.62740    5.88330    0.11540    0.06440    2.51800    0.00660   39.11470
 13281.00000   16.18210   35.18310   31.22090   49.06750   35.54600   68.59980  108.62740    5.83420    0.12010    0.06100    2.50520    0.00550   36.61950
 13281.50000   15.93560   32.66570   36.40550   51.90430   40.75240   68.60360  108.62740    5.77780    0.12010    0.05470    2.50530    0.00440   35.93490
 13282.00000   15.78400   27.72340   42.45930   67.44280   47.30630   68.61060  108.62740    5.72050    0.11930    0.05080    2.51980    0.00560   32.35320
 13282.50000   15.95470   23.01980   49.53570  132.61870   57.50590   64.69590  101.56860    5.68300    0.10840    0.04000    2.53810    0.01050   28.22080
 13283.00000   16.12330   21.63960   57.70150  217.73730   71.23250   60.78180   94.50980    5.68760    0.09930    0.03110    2.55180    0.01430   24.16640
 13283.50000   16.29780   21.69200   67.28690  243.59390   88.05560   60.36140   93.56860    5.68630    0.09020    0.02210    2.55580    0.01300   20.13920
 13284.00000   16.47200   21.65520   77.20480  200.83530  108.98220   60.00940   92.39220    5.68610    0.09030    0.01850    2.55720    0.00970   19.01260
 13284.50000   16.64580   22.47050   77.20480  163.77010  140.43870   59.65730   91.21570    5.68660    0.08950    0.01850    2.55750    0.00650   18.09140
 13285.00000   16.82010   24.27080   77.20480  167.64290  133.72940   59.23640   89.80390    5.68640    0.08850    0.01850    2.56060    0.00330   18.40800
 13285.50000   16.99020   25.97230   69.24690  167.38030  119.29450   57.99370   89.80390    5.68600    0.08630    0.01850    2.56970    0.00250   19.59150
 13286.00000   17.17400   27.23480   64.54300  170.44350  103.18780   56.12530   89.80390    5.68700    0.08250    0.02010    2.57460    0.00280   21.14050
 13286.50000   17.35000   32.10200   41.44100  175.25690   56.65110   54.18000   89.80390    5.68770    0.07880    0.02240    2.58110    0.00310   22.85690
 13287.00000   17.97690   39.65550   20.61220   92.42170   30.65040   52.15690   90.29410    5.73940    0.07500    0.03030    2.59070    0.00330   24.72810
 13287.50000   18.75420   46.84190    8.92560   54.99640   16.58310   52.94120   91.76470    5.80490    0.05430    0.05470    2.61460    0.00360   28.11650
 13288.00000   19.52780   53.99200    9.08890   32.39600   11.29790   57.84310   95.00000    5.87230    0.03420    0.07550    2.66710    0.00380   33.68510
 13288.50000   20.28640   61.05030    9.42450   19.08310   11.65020   62.74510   98.43140    5.93580   -0.00350    0.09630    2.70740    0.00410   40.97030
 13289.00000   21.07790   68.39290    9.33440   14.04390   12.14770   64.31370  101.86270    6.00020   -0.00440    0.11720    2.72180    0.00440   48.20880
 13289.50000   21.37300   66.99910    6.44030   14.04390   11.95760   63.84310  105.29410    6.00340   -0.00590    0.13800    2.71990    0.00460   56.26830
 13290.00000   21.34940   64.81830    6.75990   13.79150   11.16560   63.64710  109.41180    6.00490   -0.00450    0.15880    2.71730    0.00490   60.45150
 13290.50000   21.34980   46.56660    7.55320   13.06140   10.31880   63.48550  118.82350    6.00370   -0.00220    0.17520    2.71500    0.00510   56.62650
 13291.00000   21.35400   44.61670    8.43950   13.30040   11.36980   63.29090  132.94120    6.00430   -0.00040    0.15870    2.71520    0.00540   49.91320
 13291.50000   21.34990   48.60500    9.08890   20.18210   12.82670   61.95670  132.94120    6.00430   -0.00160    0.13110    2.71590    0.00560   44.29420
 13292.00000   21.35060   61.97770    8.12600   17.56200   10.95100   58.90750  132.94120    6.00330   -0.00350    0.10350    2.71680    0.00590   42.71030
 13292.50000   21.35000   74.39300    7.13930   13.04960    9.12190   55.85310  125.88230    6.00550   -0.00120    0.07600    2.71610    0.00620   48.76720
 13293.00000   21.34920   87.48140    6.27240    9.95130    7.59830   52.18390  120.00000    6.00270    0.00120    0.06500    2.69900    0.00620   55.22220
 13293.50000   21.34930   92.07020    5.51080    9.77250    6.55810   53.08550  114.11770    5.99810    0.01540    0.10830    2.65560    0.00820   62.16960
 13294.00000   21.34920   90.98950    4.90680   10.13340    7.13110   55.35150  111.76470    5.91250    0.04540    0.15240    2.60740    0.01030   62.71430
 13294.50000   21.34930   82.96880    5.19540    9.95130    8.00560   57.64710  115.29410    5.82980    0.06420    0.14040    2.60570    0.01200   60.41000
 13295.00000   21.34970   75.21200    5.57070    8.54150    6.85310   59.93460  119.70590    5.80930    0.05930    0.11050    2.61000    0.01050   59.94780
 13295.50000   21.34380   69.64910    4.73980    7.21990    5.78000   62.22220  124.11770    5.76880    0.05630    0.09090    2.61680    0.00460   59.18230
 13296.00000   21.32640   70.21260    3.69600    6.10470    4.87500   66.16250  127.05880    5.79830    0.08110    0.12580    2.58000   -0.00100   60.80430
 13296.50000   21.30940   75.74740    2.88200    5.16240    4.11160   71.20450  126.66670    5.80980    0.12240    0.16060    2.52340   -0.00670   63.82720
 13297.00000   21.29230   82.81110    2.25010    4.40040    3.67120   77.25490  121.17650    5.87370    0.16380    0.19540    2.46770   -0.01350   71.62450
 13297.50000   21.27500   90.25780    2.33430    4.52930    3.54050   79.49580  121.17650    5.94350    0.18860    0.23030    2.41170   -0.01920   78.63690
 13298.00000   21.25790   93.33890    2.58700    4.92140    3.88600   82.29690  121.17650    6.03700    0.17050    0.27200    2.42490   -0.02120   82.40350
 13298.50000   21.24070   89.89540    2.86710    5.34830    4.28160   85.05960  137.12420    6.04150    0.14160    0.27280    2.46380   -0.02000   86.91530
 13299.00000   21.22360   84.34490    3.11850    5.81270    4.71750   85.08020  150.41390    6.03880    0.11850    0.27360    2.51540   -0.01680   85.65380
 13299.50000   21.20640   79.94480    3.11850    6.31820    5.19780   84.07120  163.70370    6.03320    0.12910    0.26440    2.50100   -0.01520   82.47370
 13300.00000   21.18930   79.16110    3.46560    6.86900    5.72700   81.52090  169.41180    6.02990    0.14240    0.25290    2.47190   -0.01510   80.33570
 13300.50000   21.17210   77.84080    4.13810    7.46880    6.31010   78.96490  170.58820    6.02560    0.15570    0.24140    2.44160   -0.01730   78.44500
 13301.00000   21.15500   76.55590    5.08790    8.12070    6.80030   76.40770  167.41180    6.02140    0.16140    0.22990    2.43860   -0.02240   76.03270
 13301.50000   21.13780   75.27940    5.37230    8.79220    6.04670   74.48220  162.11760    6.01720    0.15160    0.21840    2.43870   -0.02440   75.22840
 13302.00000   21.12070   74.03420    4.74040    7.68590    5.25300   73.50600  156.82350    6.01360    0.13220    0.21380    2.49150   -0.00920   72.45950
 13302.50000   21.10350   72.64400    4.02440    6.25400    4.56350   72.54900  151.52940    6.00810    0.10790    0.22110    2.54640    0.00560   69.78400
 13303.00000   21.08640   72.36530    3.41660    5.07820    3.96450   71.56860  149.01960    6.00330    0.08370    0.22720    2.56980    0.01010   67.59960
 13303.50000   21.06930   71.94180    2.90060    4.13410    3.44410   70.58820  148.78430    5.93830    0.06760    0.23340    2.60470    0.01030   69.32020
 13304.00000   21.05210   72.57180    2.46250    3.36550    2.99200   69.41180  149.17650    5.85530    0.06760    0.23660    2.57070    0.00790   71.98640
 13304.50000   21.03500   76.00980    2.09050    2.73980    2.59930   70.58820  149.41180    5.77360    0.10500    0.23660    2.51620    0.00440   74.91120
 13305.00000   21.01780   83.56750    1.77480    2.50870    2.46370   71.76470  148.62750    5.68580    0.13600    0.23660    2.45130   -0.00060   77.45380
 13305.50000   21.00070   87.89160    1.62360    2.50870    2.46370   77.54010  149.60780    5.61670    0.16710    0.26730    2.41480   -0.01130   82.59930
