~Version ---------------------------------------------------
VERS.   2.0 : CWLS log ASCII Standard -VERSION 2.0
WRAP.    NO : One line per depth step
DLM . SPACE : Column Data Section Delimiter
~Well ------------------------------------------------------
STRT .F                12162.0 : START DEPTH
STOP .F                15324.5 : STOP DEPTH
STEP .F                    0.5 : STEP
NULL .                -9999.25 : NULL VALUE
COMP .                         : COMPANY
WELL .                         : WELL
FLD  .                         : FIELD
LOC  .                         : LOCATION
PROV .                         : PROVINCE
CNTY .                         : COUNTY
STAT .                         : STATE
CTRY .                         : COUNTRY
SRVC .                         : SERVICE COMPANY
DATE .                         : DATE
UWI  .                         : UNIQUE WELL ID
API  .                         : API NUMBER
SLAT .WGS84  5.811716077138705 : SURFACE LATITUDE
SLON .WGS84 3.3863524767489253 : SURFACE LONGITUDE
DATUM.F                1787.23 : DEPTH DATUM ELEV
~Curve Information -----------------------------------------
DEPT.F     : 
SPR .MV    : SPONTANEOUS POTENTIAL FROM RES.
GRR .GAPI  : GAMMA RAY FROM RESISTIVITY
AT10.OHMM  : 10-IN. RESISTIVITY, 2-FT RESOLUTION
AT90.OHMM  : 90-IN. RESISTIVITY, 2-FT RESOLUTION
AT30.OHMM  : 30-IN. RESISTIVITY, 2-FT RESOLUTION
DTCO.US/F  : COMPRESSIONAL-WAVE INTERVAL TRANSIT TIME ACOUSTIC SLOWNESS
DTSM.US/F  : SHEAR-WAVE INTERVAL TRANSIT TIME DELTA-T
CALD.IN    : CALIPER FDC LOG
DPHI.DEC   : DENSITY POROSITY LIMESTONE
NPHI.DEC   : NEUTRON POROSITY LIMESTONE
RHOB.G/C3  : BULK DENSITY
DRHO.G/C3  : DENSITY CORRECTION
GRD .GAPI  : GAMMA RAY FROM DENSITY LOG
~Params ----------------------------------------------------
~Other -----------------------------------------------------
~ASCII -----------------------------------------------------
# ...
 12760.00000    3.94530   99.99880    3.54690    7.18550    3.61970   86.78160  174.00230    3.33520    0.17520    0.29800    2.41700   -0.02920   90.55780
 12760.50000    3.98960   97.69310    3.67120    7.17800    3.65300   86.95000  174.82710    3.33560    0.16810    0.29800    2.42340   -0.02360   90.07470
 12761.00000    4.03580   93.81200    3.60060    7.18570    3.67120   87.11830  175.65090    3.33600    0.16420    0.29800    2.42770   -0.01820   89.57720
 12761.50000    4.08160   91.03750    3.45130    6.83640    3.47940   87.28670  176.47390    3.33640    0.16730    0.29800    2.42780   -0.01530   89.85740
 12762.00000    4.12710   92.32610    3.30830    6.57710    3.30820   87.45500  177.29740    3.33680    0.18400    0.29800    2.41470   -0.01980   91.04440
 12762.50000    4.17290   98.31740    3.17110    7.02990    3.14550   87.62340  178.12200    3.33720    0.20450    0.29800    2.36700   -0.03420   92.16160
 12763.00000    4.21860  104.40260    3.03960    7.80440    3.00740   87.79170  178.94660    3.33750    0.22500    0.29800    2.32280   -0.05360   93.41750
 12763.50000    4.26420  108.88190    2.90030    8.79810    3.26460   87.96010  179.77110    3.33790    0.24550    0.29800    2.28290   -0.07270   94.54570
 12764.00000    4.30990  108.55410    3.34780    8.74000    3.66880   88.12850  180.59570    3.33840    0.25930    0.29800    2.25650   -0.09160   96.97460
 12764.50000    4.35550  106.45790    3.30100    7.88120    3.57290   88.29680  181.42030    3.33870    0.27130    0.29800    2.22980   -0.11080   99.17040
 12765.00000    4.40120  102.00160    3.13900    7.19580    3.29330   88.46520  182.24490    3.33910    0.28320    0.29800    2.20340   -0.12990   99.45110
 12765.50000    4.44680   97.52890    2.98460    6.56950    3.03550   88.63350  183.06950    3.33950    0.29520    0.29800    2.17530   -0.14540   98.79910
 12766.00000    4.49240   96.37580    2.83790    5.99660    2.79420   88.80190  183.89400    3.33990    0.29810    0.29800    2.16020   -0.14800   95.13930
 12766.50000    4.53810   97.73320    2.69800    5.47200    2.79930   88.97030  184.71860    3.34030    0.29800    0.29800    2.16080   -0.14290   93.41150
 12767.00000    4.58370   98.94920    2.69760    5.05170    2.83100   89.13860  185.49020    3.34070    0.29790    0.29800    2.19070   -0.12660   93.14210
 12767.50000    4.62930  100.60920    2.74670    4.88050    2.86280   89.30670  189.41180    3.34110    0.29770    0.29800    2.22920   -0.10080   93.10500
 12768.00000    4.67500   99.46740    2.74680    4.71620    2.89520   89.47480  189.33180    3.34150    0.25810    0.29800    2.33850   -0.07600   92.59510
 12768.50000    4.72060   99.13350    2.69740    4.56350    2.92820   89.64300  189.23880    3.34190    0.20410    0.29800    2.41340   -0.05050   92.15790
 12769.00000    4.76620   98.90390    2.60860    4.37340    2.96200   89.80320  189.14580    3.34230    0.15710    0.29800    2.46070   -0.02540   91.46660
 12769.50000    4.81190   98.80960    2.52610    4.19870    2.99610   89.80320  189.05290    3.34260    0.12810    0.29800    2.50800   -0.00050   92.12690
 12770.00000    4.85750   98.55940    2.44630    4.03090    3.03070   89.80340  188.95990    3.34220    0.09910    0.29800    2.55500    0.02540   91.97880
 12770.50000    4.90310   97.70840    2.33320    3.87640    3.06560   89.80360  188.86690    3.34380    0.08410    0.29800    2.57160    0.03420   92.88720
 12771.00000    4.94880   93.15140    2.34940    3.89170    3.10100   89.80390  188.77390    3.34300    0.08470    0.29800    2.57070    0.03230   93.78490
 12771.50000    4.99440   89.97290    2.40390    3.94310    3.13680   89.80390  188.68090    3.33960    0.08470    0.29800    2.56630    0.03150   92.85270
 12772.00000    5.04000   90.48080    2.42030    3.99340    3.17550   89.80390  188.62750    3.35400    0.08850    0.29800    2.56270    0.03030   91.29460
 12772.50000    5.08570   97.09780    2.41760    4.09200    3.23360   89.80390  188.62750    3.32700    0.09200    0.29800    2.55880    0.03190   90.33060
 12773.00000    5.13130   99.15530    2.51350    4.24210    3.40700   89.80390  188.62750    3.43640    0.09540    0.29800    2.55480    0.03560   90.02950
 12773.50000    5.17710   99.17690    2.74450    4.42560    3.56690   89.80390  188.62750    3.70760    0.09880    0.29800    2.55110    0.03690   93.81880
 12774.00000    5.22290   99.06830    2.59970    4.62220    3.73840   89.80390  188.62750    4.11950    0.09590    0.29800    2.54890    0.03190   98.36110
 12774.50000    5.26830  100.89090    2.60270    4.82770    3.87640   89.80390  188.62750    4.84820    0.10080    0.29800    2.54300    0.02720  101.74380
 12775.00000    5.31510  103.03730    2.55350    5.04240    4.04390   89.80390  190.00000    5.65930    0.10670    0.29800    2.53810    0.02220  101.83790
 12775.50000    5.35960  105.15240    2.69580    5.26670    4.26620   89.80390  191.70880    6.02520    0.10440    0.29800    2.53410    0.01900  103.48190
 12776.00000    5.40470  107.26550    2.84400    5.49840    4.40100   89.80390  193.41760    6.31600    0.09860    0.29800    2.55250    0.01690  102.51020
 12776.50000    5.45810  108.13930    2.90110    5.74180    4.48150   89.80390  192.87600    6.63180    0.09260    0.29800    2.55430    0.01480   99.57000
 12777.00000    5.42890  107.61420    3.00800    5.98970    4.48150   89.80390  190.77280    6.68070    0.09390    0.29800    2.55350    0.01280   98.15110
 12777.50000    5.29980  106.82180    2.98150    6.09930    4.45090   89.80390  188.66970    6.69230    0.09630    0.29800    2.55190    0.01070   97.84850
 12778.00000    5.17940  105.62750    2.95660    6.07040    4.42180   89.31240  186.56650    6.69760    0.09730    0.29800    2.55080    0.00860   98.67100
 12778.50000    5.05840  104.60770    2.93200    6.00880    4.35030   88.01050  184.46330    6.70760    0.09810    0.29800    2.54960    0.00650  100.19950
 12779.00000    4.93560  104.67900    2.90770    5.94790    4.17430   86.66670  183.37780    6.71760    0.09810    0.29800    2.54930    0.00440  101.69170
 12779.50000    4.81430  107.77040    2.88390    5.77570    4.00550   87.08670  183.92160    6.71720    0.09340    0.29800    2.54990    0.00080  101.63800
 12780.00000    4.69220  110.92130    2.86030    5.77740    3.84350   87.52070  184.30060    6.71120    0.08650    0.29800    2.55800    0.00230  100.98590
 12780.50000    4.57010  111.14200    2.83700    5.91580    3.71600   87.95470  184.62610    6.55710    0.07930    0.29200    2.57920    0.00680  100.39130
 12781.00000    4.44880  107.09190    2.81360    5.96080    3.64840   88.14900  181.33560    6.44130    0.07200    0.28350    2.59530    0.01400  101.04040
 12781.50000    4.32570  103.45600    2.74540    6.00580    3.54050   87.90490  176.87170    6.41300    0.06470    0.27310    2.60300    0.02020  103.88690
 12782.00000    4.20550  100.44600    2.74780    6.05100    3.47690   87.66080  172.15690    6.38900    0.05740    0.25840    2.61480    0.02680  105.25100
 12782.50000    4.08410  103.86300    2.80350    6.10220    3.47690   87.41670  173.74510    6.36270    0.04920    0.24360    2.62470    0.03310  105.30760
 12783.00000    3.95290  108.59260    2.87760    6.09720    3.47690   87.17250  175.08710    6.36140    0.04750    0.23480    2.63580    0.03990  105.71470
 12783.50000    3.89680  113.34920    2.95370    5.93520    3.60520   86.92840  175.86820    6.36050    0.04610    0.23410    2.64070    0.04650  104.71280
 12784.00000    3.94510  116.91960    2.94940    5.80060    3.72590   86.66670  176.64940    6.35990    0.05470    0.23510    2.63380    0.04780  104.82010
 12784.50000    3.98290  116.98780    2.93030    5.66910    3.84960   85.45880  177.43060    6.37920    0.07360    0.23730    2.60140    0.04630  105.18700
 12785.00000    4.02150  115.94990    2.91140    5.54050    3.94640   85.53920  178.11760    6.44970    0.09250    0.23960    2.56570    0.02650  105.62700
 12785.50000    4.06210  111.53730    2.84210    5.41490    3.79610   86.14950  178.76860    6.51980    0.11460    0.24450    2.53120    0.00850  106.09790
