~Version ---------------------------------------------------
VERS.   2.0 : CWLS log ASCII Standard -VERSION 2.0
WRAP.    NO : One line per depth step
DLM . SPACE : Column Data Section Delimiter
~Well ------------------------------------------------------
STRT .F                12162.0 : START DEPTH
STOP .F                15324.5 : STOP DEPTH
STEP .F                    0.5 : STEP
NULL .                -9999.25 : NULL VALUE
COMP .                         : COMPANY
WELL .                         : WELL
FLD  .                         : FIELD
LOC  .                         : LOCATION
PROV .                         : PROVINCE
CNTY .                         : COUNTY
STAT .                         : STATE
CTRY .                         : COUNTRY
SRVC .                         : SERVICE COMPANY
DATE .                         : DATE
UWI  .                         : UNIQUE WELL ID
API  .                         : API NUMBER
SLAT .WGS84  5.811716077138705 : SURFACE LATITUDE
SLON .WGS84 3.3863524767489253 : SURFACE LONGITUDE
DATUM.F                1787.23 : DEPTH DATUM ELEV
~Curve Information -----------------------------------------
DEPT.F     : 
SPR .MV    : SPONTANEOUS POTENTIAL FROM RES.
GRR .GAPI  : GAMMA RAY FROM RESISTIVITY
AT10.OHMM  : 10-IN. RESISTIVITY, 2-FT RESOLUTION
AT90.OHMM  : 90-IN. RESISTIVITY, 2-FT RESOLUTION
AT30.OHMM  : 30-IN. RESISTIVITY, 2-FT RESOLUTION
DTCO.US/F  : COMPRESSIONAL-WAVE INTERVAL TRANSIT TIME ACOUSTIC SLOWNESS
DTSM.US/F  : SHEAR-WAVE INTERVAL TRANSIT TIME DELTA-T
CALD.IN    : CALIPER FDC LOG
DPHI.DEC   : DENSITY POROSITY LIMESTONE
NPHI.DEC   : NEUTRON POROSITY LIMESTONE
RHOB.G/C3  : BULK DENSITY
DRHO.G/C3  : DENSITY CORRECTION
GRD .GAPI  : GAMMA RAY FROM DENSITY LOG
~Params ----------------------------------------------------
~Other -----------------------------------------------------
~ASCII -----------------------------------------------------
# ...
 12942.00000    5.33990  116.86630    1.71330    2.41940    2.14210   98.20330  216.87840    3.32820    0.16710    0.29750    2.42460   -0.00460  110.80030
 12942.50000    5.46530  119.67700    1.71410    2.38380    2.08440   96.52200  211.37250    3.32770    0.16080    0.29740    2.44410    0.00050  113.80420
 12943.00000    5.38060  123.57180    1.71440    2.26010    2.02800   95.43500  212.75290    3.32730    0.15160    0.29730    2.44920    0.00260  116.70830
 12943.50000    5.27630  126.06310    1.71210    2.13100    1.97320   96.07240  214.05490    3.32680    0.15440    0.29710    2.44960    0.00290  119.11490
 12944.00000    5.16430  123.26890    1.70930    2.17000    1.94630   96.81180  218.43140    3.32640    0.16000    0.29700    2.43960    0.00400  117.04010
 12944.50000    5.05750  113.84590    1.70560    2.73430    2.10870   95.15160  218.43140    3.32590    0.16730    0.29680    2.42760    0.00420  115.53200
 12945.00000    4.94920  105.08740    1.99440    3.69660    2.73190   94.46100  201.82630    3.32540    0.15800    0.29670    2.44040    0.00850  112.01550
 12945.50000    4.84060  102.29670    2.39900    4.95380    3.53920   88.32680  185.92380    3.32500    0.12520    0.29660    2.48990    0.02360  107.72660
 12946.00000    4.73250  102.62150    2.30970    8.00560    4.58510   81.02010  170.93110    3.32450    0.08780    0.25440    2.54060    0.03770  100.16720
 12946.50000    4.62390  113.88670    4.74440    7.67950    6.67810   73.71040  158.93440    3.32410    0.08720    0.16810    2.56600    0.05140   96.04800
 12947.00000    4.51590  114.60390    5.88210    6.92470    6.21090   69.41380  146.93780    3.32360    0.09140    0.17510    2.56080    0.04980   97.25630
 12947.50000    4.40720  113.68230    4.90680    6.92470    6.32460   69.87350  136.91180    3.32310    0.09810    0.18170    2.55130    0.04590   98.15680
 12948.00000    4.29860   97.67100    5.77160    9.01010    7.09130   70.42480  128.23530    3.32270    0.10590    0.18940    2.53880    0.04070   97.54460
 12948.50000    4.19260   80.62000    6.83460   11.85180    8.68790   70.96720  128.23530    3.32220    0.08910    0.18700    2.55020    0.04240   93.68650
 12949.00000    4.07940   79.64650    8.09340   13.30040   10.64390   70.41650  130.24310    3.32180    0.06880    0.16700    2.58550    0.04630   88.55450
 12949.50000    3.97580   80.62370    9.59690   15.10020   13.06140   69.90600  136.18550    3.32130    0.04060    0.15550    2.61760    0.05050   84.71150
 12950.00000    3.90400   83.22210    5.98970   11.55480    8.99360   69.37200  149.94640    3.32080    0.04960    0.15630    2.64080    0.05540   83.90590
 12950.50000    4.09640   83.89000    5.96160    7.25720    6.21090   68.83810  165.08330    3.32040    0.06440    0.16310    2.59990    0.05550   89.84230
 12951.00000    4.25310   82.68550    5.88210    6.94320    5.98970   69.54450  162.12720    3.31990    0.07200    0.16870    2.59160    0.05530   90.95670
 12951.50000    4.42570   81.18720    5.64600    6.64430    5.82750   71.05880  157.22040    3.31950    0.06730    0.17440    2.59720    0.05380   89.24220
 12952.00000    4.59930   81.24040    5.36090    6.20430    5.63900   72.57320  150.21280    3.31900    0.06810    0.17660    2.58970    0.05000   87.62900
 12952.50000    4.71680   87.27620    5.09020    6.21470    5.47060   74.08750  140.87310    3.31860    0.09950    0.17900    2.54400    0.02000   86.35450
 12953.00000    4.77460   90.76770    4.66420    5.98790    4.99650   75.60180  142.98040    3.31810    0.12590    0.18140    2.50990    0.00820   87.24340
 12953.50000    4.83830   92.65540    3.91950    5.99280    4.55360   77.12330  146.68620    3.31760    0.14350    0.18390    2.47650   -0.00270   89.77470
 12954.00000    4.90210   94.50830    3.29360    4.98390    3.83470   78.65450  150.39720    3.31720    0.15890    0.18780    2.44840   -0.01230   92.04870
 12954.50000    4.96430   96.51910    2.76770    3.85600    3.24510   80.18560  156.35310    3.31670    0.17470    0.20800    2.42190   -0.02260   94.29690
 12955.00000    5.02760   98.59980    2.55460    2.95340    2.74620   81.71680  159.58080    3.31630    0.19040    0.22540    2.39640   -0.03310   96.76390
 12955.50000    5.09040  100.78050    2.47130    2.73340    2.50870   83.24790  159.75430    3.31580    0.20620    0.24270    2.37460   -0.04280   98.02690
 12956.00000    5.15350  102.72390    2.38740    2.55460    2.41940   84.77910  160.13960    3.31530    0.22200    0.26000    2.35290   -0.05370   97.89110
 12956.50000    5.21640  105.39810    2.29130    2.56270    2.43080   86.31020  163.59900    3.31490    0.23300    0.27130    2.33290   -0.05700   97.91660
 12957.00000    5.27910  105.60800    2.33320    2.60230    2.48740   87.45100  169.30810    3.31440    0.23340    0.27050    2.31990   -0.06320   97.95250
 12957.50000    5.34360  104.19290    2.41720    2.64900    2.54540   87.44700  170.66670    3.31400    0.23370    0.26700    2.31470   -0.06850   97.64970
 12958.00000    5.40400  102.60030    2.46370    2.84820    2.60140   87.44600  172.15690    3.31350    0.23580    0.26260    2.30500   -0.07440   97.00720
 12958.50000    5.47180  101.06160    2.33540    2.76280    2.50420   87.90600  172.15690    3.31300    0.24180    0.26860    2.29620   -0.07980   96.38350
 12959.00000    5.47570   99.59380    2.22010    2.63840    2.36410   88.89410  172.95690    3.31260    0.24700    0.27560    2.28720   -0.08600   95.76930
 12959.50000    5.47740   98.06220    2.11040    2.51970    2.23190   89.88380  175.90980    3.31210    0.25220    0.28270    2.27780   -0.08640   95.13700
 12960.00000    5.47600   97.46800    2.01820    2.40630    2.17000   90.59930  178.86270    3.31170    0.25550    0.28980    2.27490   -0.09040   94.91740
 12960.50000    5.47640   97.39250    2.01820    2.37590    2.20970   90.60270  181.56860    3.31120    0.25470    0.29490    2.27580   -0.08820   94.94730
 12961.00000    5.47640  100.32920    2.10240    2.46370    2.25010   90.60390  181.56860    3.31070    0.25240    0.29510    2.28740   -0.08380   94.94220
 12961.50000    5.47620  102.31480    2.19620    2.57650    2.29130   89.91290  181.56860    3.31030    0.23320    0.29430    2.31020   -0.08060   95.15550
 12962.00000    5.47630  101.24190    2.29410    2.67990    2.40770   88.53490  176.31550    3.30980    0.21600    0.29200    2.33930   -0.06920   96.82980
 12962.50000    5.47620   99.63460    2.39640    2.78650    2.53410   87.15690  171.50330    3.30940    0.19880    0.27570    2.36480   -0.05320   99.09290
 12963.00000    5.47620   99.20750    2.50330    2.89740    2.66720   85.77880  166.69110    3.30890    0.18430    0.25570    2.39450   -0.03820  100.16890
 12963.50000    5.47620  102.18810    2.61490    3.00910    2.74680   84.43400  163.15160    3.30840    0.17130    0.25330    2.41450   -0.02390  100.14590
 12964.00000    5.47620  104.16290    2.73150    3.06430    2.82240   83.46140  160.85490    3.30800    0.16270    0.25230    2.42840   -0.00790   97.44760
 12964.50000    5.47620  105.77980    2.79700    3.06180    2.93600   83.24270  158.82350    3.30750    0.15310    0.25350    2.44720   -0.00050   96.99740
 12965.00000    5.47620  106.29620    2.76380    3.06190    2.90030   83.00490  158.82350    3.30710    0.14350    0.25980    2.47390    0.00520   96.84020
 12965.50000    5.47620  106.54470    2.64660    3.06210    2.84040   82.79150  160.63530    3.30660    0.13660    0.26610    2.47640    0.01070   97.54590
 12966.00000    5.47620  107.60630    2.53430    3.01150    2.72150   83.72560  163.50430    3.30610    0.14200    0.27250    2.48220    0.01250   98.11000
 12966.50000    5.47620  110.02380    2.42680    2.84930    2.60760   85.09430  168.22900    3.30570    0.14810    0.27980    2.46860    0.01190   98.68780
 12967.00000    5.47620  112.41060    2.32390    2.69590    2.49840   86.46260  171.87930    3.30560    0.15390    0.28060    2.45340    0.01110   99.94330
 12967.50000    5.47620  114.99760    2.22530    2.55100    2.39380   87.83050  173.39370    3.30560    0.15550    0.28140    2.44780    0.01030  102.46740
