~Version ---------------------------------------------------
VERS.   2.0 : CWLS log ASCII Standard -VERSION 2.0
WRAP.    NO : One line per depth step
DLM . SPACE : Column Data Section Delimiter
~Well ------------------------------------------------------
STRT .F                12162.0 : START DEPTH
STOP .F                15324.5 : STOP DEPTH
STEP .F                    0.5 : STEP
NULL .                -9999.25 : NULL VALUE
COMP .                         : COMPANY
WELL .                         : WELL
FLD  .                         : FIELD
LOC  .                         : LOCATION
PROV .                         : PROVINCE
CNTY .                         : COUNTY
STAT .                         : STATE
CTRY .                         : COUNTRY
SRVC .                         : SERVICE COMPANY
DATE .                         : DATE
UWI  .                         : UNIQUE WELL ID
API  .                         : API NUMBER
SLAT .WGS84  5.811716077138705 : SURFACE LATITUDE
SLON .WGS84 3.3863524767489253 : SURFACE LONGITUDE
DATUM.F                1787.23 : DEPTH DATUM ELEV
~Curve Information -----------------------------------------
DEPT.F     : 
SPR .MV    : SPONTANEOUS POTENTIAL FROM RES.
GRR .GAPI  : GAMMA RAY FROM RESISTIVITY
AT10.OHMM  : 10-IN. RESISTIVITY, 2-FT RESOLUTION
AT90.OHMM  : 90-IN. RESISTIVITY, 2-FT RESOLUTION
AT30.OHMM  : 30-IN. RESISTIVITY, 2-FT RESOLUTION
DTCO.US/F  : COMPRESSIONAL-WAVE INTERVAL TRANSIT TIME ACOUSTIC SLOWNESS
DTSM.US/F  : SHEAR-WAVE INTERVAL TRANSIT TIME DELTA-T
CALD.IN    : CALIPER FDC LOG
DPHI.DEC   : DENSITY POROSITY LIMESTONE
NPHI.DEC   : NEUTRON POROSITY LIMESTONE
RHOB.G/C3  : BULK DENSITY
DRHO.G/C3  : DENSITY CORRECTION
GRD .GAPI  : GAMMA RAY FROM DENSITY LOG
~Params ----------------------------------------------------
~Other -----------------------------------------------------
~ASCII -----------------------------------------------------
# ...
 14554.00000   -2.30050  101.63180    1.71410    1.81020    1.66940   94.69360  217.64710    6.00800    0.10990    0.29850    2.52390    0.01160  105.56600
 14554.50000   -2.13720  100.99330    1.72570    1.82970    1.69220   93.58210  216.61800    6.01100    0.10730    0.29840    2.52930    0.00900  107.77140
 14555.00000   -1.97320  100.57260    1.73820    1.85080    1.71530   92.47060  213.50590    6.01390    0.10480    0.29840    2.53270    0.00700  109.61470
 14555.50000   -1.80970  100.48200    1.75080    1.87230    1.73870   92.43610  211.37250    6.01690    0.10230    0.29830    2.54030    0.00490  107.38080
 14556.00000   -1.64620   98.99740    1.76340    1.87700    1.76240   92.82510  211.37250    6.01990    0.10240    0.29830    2.54320    0.00280  105.25780
 14556.50000   -1.48200   95.10950    1.77600    1.91550    1.78640   93.76000  211.37250    6.02290    0.10490    0.29820    2.53660    0.00070  103.76000
 14557.00000   -1.31960   92.39020    1.78870    1.95510    1.81020   94.92710  211.37250    6.02590    0.10740    0.29820    2.53100    0.00150  103.56960
 14557.50000   -1.15510   94.26080    1.80160    1.99560    1.84330   95.62740  207.45100    6.02890    0.11000    0.29810    2.52490    0.00250  103.55170
 14558.00000   -0.98860   97.03710    1.88380    2.13100    2.03110   96.07840  201.10830    6.03190    0.11250    0.29810    2.51900    0.00360  104.71590
 14558.50000   -0.88220   94.74690    2.05880    2.45050    2.27890   92.94120  189.00410    6.03470    0.11540    0.29800    2.51290    0.00460  105.60120
 14559.00000   -0.91980   92.42200    2.25000    2.79740    2.55700   90.00390  178.33140    6.03810    0.11690    0.28890    2.51070    0.00570  106.51480
 14559.50000   -0.95300   90.61810    2.45890    3.19340    2.86890   86.23530  174.67700    6.04060    0.11140    0.26750    2.52210    0.00680  106.70650
 14560.00000   -0.99000   90.60940    2.68730    3.64550    3.21900   81.37260  168.72650    6.04260    0.09230    0.25020    2.53590    0.00780  106.24960
 14560.50000   -1.02640   94.63910    2.95340    4.16160    3.61180   79.60780  159.68740    6.02770    0.08470    0.23830    2.55490    0.00890  105.99480
 14561.00000   -1.06210  100.19560    3.00740    4.90680    4.01960   79.60780  152.06800    6.01300    0.08470    0.22630    2.57200    0.01000  105.84830
 14561.50000   -1.09850  105.55330    2.87100    4.39730    3.67160   81.28160  157.80390    5.99750    0.08390    0.22120    2.57260    0.00990  108.51530
 14562.00000   -1.13460  111.04180    2.59330    3.24910    2.85950   85.36630  167.52940    5.98250    0.08150    0.24100    2.57740    0.00890  113.88870
 14562.50000   -1.17060  111.55320    2.27360    2.40070    2.22700   89.45100  177.25490    5.96740    0.07920    0.26070    2.58210    0.00810  120.61540
 14563.00000   -1.20660  109.50970    1.94630    2.09270    1.94630   93.53570  186.98040    5.95210    0.08080    0.28040    2.56370    0.00720  126.25030
 14563.50000   -1.24260  107.56720    1.94630    2.09270    1.91140   96.86270  197.03310    5.93720    0.09680    0.29650    2.54270    0.00630  126.68430
 14564.00000   -1.27860  105.60530    1.94760    2.07080    1.92260   97.72740  207.31430    5.92190    0.11290    0.29730    2.52140    0.00550  121.01700
 14564.50000   -1.31460  103.70520    1.95260    2.04970    1.94040   98.45690  217.59550    5.90640    0.13340    0.29740    2.49820    0.00470  115.76150
 14565.00000   -1.35060  101.69470    1.95760    2.02880    1.95840   99.21570  220.78430    5.89310    0.13140    0.29750    2.48700    0.00480  110.10520
 14565.50000   -1.38660  100.88140    1.96260    2.01820    1.97650   99.30900  221.56860    5.86440    0.12550    0.29770    2.49730    0.00530  109.91960
 14566.00000   -1.42270   99.35030    1.96760    2.07740    1.99130   99.40630  220.59610    5.82340    0.12330    0.29780    2.50400    0.00580  110.47170
 14566.50000   -1.45880   98.00290    1.97260    2.10950    2.02210   99.50350  220.00000    5.78460    0.12320    0.29790    2.50370    0.00630  111.57700
 14567.00000   -1.49480   96.56690    1.97770    2.14210    2.05340   99.60080  220.00000    5.74360    0.12320    0.29800    2.50400    0.00680  112.52340
 14567.50000   -1.53120   95.17090    1.98200    2.17530    2.08520   99.69800  220.00000    5.72450    0.12310    0.29680    2.50400    0.00730  113.31910
 14568.00000   -1.56660   93.83060    1.98200    2.20970    2.09270   99.79530  220.00000    5.72650    0.12290    0.29550    2.50380    0.00770  112.78040
 14568.50000   -1.60340   93.73210    1.98200    2.18030    2.09270   99.89250  220.00000    5.72620    0.12260    0.29490    2.50550    0.00830  112.46840
 14569.00000   -1.64040   93.63760    1.98200    2.17000    2.09270  100.00000  220.00000    5.72600    0.12240    0.29570    2.50590    0.00790  111.11240
 14569.50000   -1.64920   94.82330    1.98130    2.33320    2.09270   99.76110  219.94180    5.72620    0.12360    0.29650    2.50630    0.00690  109.07030
 14570.00000   -1.57320   96.35640    2.15550    2.64260    2.13100   99.49690  210.22150    5.72610    0.12290    0.29730    2.50970    0.00610  109.51970
 14570.50000   -1.49880   99.54070    2.51050    3.20970    2.67050   99.23260  201.95700    5.72620    0.11870    0.29800    2.51060    0.00520  110.97770
 14571.00000   -1.42200  104.78300    2.92390    3.89870    3.31800   98.96880  199.91050    5.72620    0.11390    0.29570    2.51750    0.00440  113.40090
 14571.50000   -1.34580  109.85800    3.40540    4.56350    3.94740   98.70270  195.45840    5.72620    0.11390    0.27980    2.51020    0.00350  116.57450
 14572.00000   -1.26990  114.55960    3.67720    4.41980    4.01960   98.43130  188.00450    5.72620    0.12390    0.25790    2.49200    0.00270  119.02990
 14572.50000   -1.19360  119.44510    3.66860    4.14390    3.77930   98.15480  180.81900    5.72620    0.13330    0.26000    2.47430    0.00180  120.16910
 14573.00000   -1.11740  123.38170    3.64160    3.94740    3.60520   97.87850  177.84560    5.72620    0.14260    0.26510    2.45620    0.00090  121.66170
 14573.50000   -1.04130  130.83700    3.60520    4.03220    3.67120   97.64710  174.96510    5.72620    0.15200    0.26990    2.44420    0.00070  123.82460
 14574.00000   -0.96530  139.00380    3.67120    4.24430    4.29400   95.65490  172.06120    5.72630    0.15710    0.27260    2.44600    0.00150  126.15850
 14574.50000   -0.88920  143.87970    4.10020    8.76520    5.06160   93.72550  167.73390    5.72550    0.15280    0.27270    2.44910    0.00220  129.02000
 14575.00000   -0.81310  140.11440    4.73200    6.80640    5.77640   87.45100  161.39930    5.72350    0.14450    0.24260    2.45920    0.00300  133.75040
 14575.50000   -0.73700  114.55780    3.37430    4.43530    4.10280   81.17650  157.55930    5.72150    0.10990    0.19390    2.51660    0.00370  140.24820
 14576.00000   -0.66100   91.99550    2.21480    2.89020    2.67960   79.60780  173.20450    5.71960    0.06200    0.14530    2.60060    0.00440  154.22350
 14576.50000   -0.58470   78.47130    1.48290    1.88330    1.75020   81.45260  199.84460    5.71770    0.07080    0.16650    2.58740    0.00510  168.56740
 14577.00000   -0.50860   84.86980    1.48290    1.59440    1.51000   82.74510  222.35290    5.71580    0.08840    0.20740    2.55180    0.00580  158.97360
 14577.50000   -0.43280   92.37770    1.48640    1.68340    1.51000   82.26630  223.13730    5.71380    0.10670    0.24840    2.53130    0.00660  149.20600
 14578.00000   -0.35560   92.25100    1.49040    1.65190    1.51680   81.85680  216.91500    5.71190    0.10540    0.29960    2.53620    0.00730  111.63190
 14578.50000   -0.28080   88.56240    1.49440    1.64080    1.53760   81.44730  210.43140    5.71000    0.10320    0.29730    2.54040    0.00800   86.83970
 14579.00000   -0.20470   85.75510    1.49850    1.62130    1.53760   81.03780  207.45100    5.70800    0.10100    0.29050    2.54460    0.00870   88.52860
 14579.50000   -0.12140   86.03490    1.50260    1.62390    1.53760   80.62830  214.50980    5.70610    0.09960    0.28230    2.54750    0.00940   86.32020
