~Version ---------------------------------------------------
VERS.   2.0 : CWLS log ASCII Standard -VERSION 2.0
WRAP.    NO : One line per depth step
DLM . SPACE : Column Data Section Delimiter
~Well ------------------------------------------------------
STRT .F                12162.0 : START DEPTH
STOP .F                15324.5 : STOP DEPTH
STEP .F                    0.5 : STEP
NULL .                -9999.25 : NULL VALUE
COMP .                         : COMPANY
WELL .                         : WELL
FLD  .                         : FIELD
LOC  .                         : LOCATION
PROV .                         : PROVINCE
CNTY .                         : COUNTY
STAT .                         : STATE
CTRY .                         : COUNTRY
SRVC .                         : SERVICE COMPANY
DATE .                         : DATE
UWI  .                         : UNIQUE WELL ID
API  .                         : API NUMBER
SLAT .WGS84  5.811716077138705 : SURFACE LATITUDE
SLON .WGS84 3.3863524767489253 : SURFACE LONGITUDE
DATUM.F                1787.23 : DEPTH DATUM ELEV
~Curve Information -----------------------------------------
DEPT.F     : 
SPR .MV    : SPONTANEOUS POTENTIAL FROM RES.
GRR .GAPI  : GAMMA RAY FROM RESISTIVITY
AT10.OHMM  : 10-IN. RESISTIVITY, 2-FT RESOLUTION
AT90.OHMM  : 90-IN. RESISTIVITY, 2-FT RESOLUTION
AT30.OHMM  : 30-IN. RESISTIVITY, 2-FT RESOLUTION
DTCO.US/F  : COMPRESSIONAL-WAVE INTERVAL TRANSIT TIME ACOUSTIC SLOWNESS
DTSM.US/F  : SHEAR-WAVE INTERVAL TRANSIT TIME DELTA-T
CALD.IN    : CALIPER FDC LOG
DPHI.DEC   : DENSITY POROSITY LIMESTONE
NPHI.DEC   : NEUTRON POROSITY LIMESTONE
RHOB.G/C3  : BULK DENSITY
DRHO.G/C3  : DENSITY CORRECTION
GRD .GAPI  : GAMMA RAY FROM DENSITY LOG
~Params ----------------------------------------------------
~Other -----------------------------------------------------
~ASCII -----------------------------------------------------
# ...
 15074.00000    0.71430   50.93270    4.56350    5.08790    5.18100   94.93210  160.78430   -9999.25   -9999.25   -9999.25   -9999.25   -9999.25   -9999.25
 15074.50000    0.71430   55.12930    4.74600    5.18100    5.11240   91.91550  158.48740   -9999.25   -9999.25   -9999.25   -9999.25   -9999.25   -9999.25
 15075.00000    0.71430   55.91560    4.78230    5.27580    4.94020   88.89890  149.80390   -9999.25   -9999.25   -9999.25   -9999.25   -9999.25   -9999.25
 15075.50000    0.71430   55.41280    4.81860    5.47060    4.77380   85.88230  141.12050   -9999.25   -9999.25   -9999.25   -9999.25   -9999.25   -9999.25
 15076.00000    0.71430   52.15250    4.60170    5.19760    4.61300   85.71890  137.64710   -9999.25   -9999.25   -9999.25   -9999.25   -9999.25   -9999.25
 15076.50000    0.71430   48.73620    4.39620    4.78000    4.45760   85.55560  139.58480   -9999.25   -9999.25   -9999.25   -9999.25   -9999.25   -9999.25
 15077.00000    0.71430   46.13400    4.19990    4.48150    4.30740   85.39220  142.00690   -9999.25   -9999.25   -9999.25   -9999.25   -9999.25   -9999.25
 15077.50000    0.71430   46.87820    4.01230    4.48150    4.16800   85.22880  144.42910   -9999.25   -9999.25   -9999.25   -9999.25   -9999.25   -9999.25
 15078.00000    0.71430   50.76870    3.87640    4.55300    4.01960   85.09800  146.85120   -9999.25   -9999.25   -9999.25   -9999.25   -9999.25   -9999.25
 15078.50000    0.71430   54.64970    3.99260    4.62290    4.01960   84.62740  149.27340   -9999.25   -9999.25   -9999.25   -9999.25   -9999.25   -9999.25
 15079.00000    0.71430   57.44750    4.26190    4.64700    4.29720   84.23530  151.69550   -9999.25   -9999.25   -9999.25   -9999.25   -9999.25   -9999.25
 15079.50000    0.71430   56.61420    4.54930    4.81860    4.57780   83.84310  154.11760   -9999.25   -9999.25   -9999.25   -9999.25   -9999.25   -9999.25
 15080.00000    0.71430   50.96590    4.85620    5.49550    4.87670   83.52940  154.64990   -9999.25   -9999.25   -9999.25   -9999.25   -9999.25   -9999.25
 15080.50000    0.71420   47.37800    5.18370    6.16040    5.19520   79.52940  154.22970   -9999.25   -9999.25   -9999.25   -9999.25   -9999.25   -9999.25
 15081.00000    0.71430   45.12380    5.57070    6.92470    5.57070   76.19610  153.80950   -9999.25   -9999.25   -9999.25   -9999.25   -9999.25   -9999.25
 15081.50000    0.71420   45.02560    5.35240    6.37980    5.88210   72.86270  153.38940   -9999.25   -9999.25   -9999.25   -9999.25   -9999.25   -9999.25
 15082.00000    0.71430   46.15950    4.90680    5.82270    5.18100   70.19610  152.96920   -9999.25   -9999.25   -9999.25   -9999.25   -9999.25   -9999.25
 15082.50000    0.71440   48.45840    4.90680    5.57070    5.18100   68.13730  152.54900   -9999.25   -9999.25   -9999.25   -9999.25   -9999.25   -9999.25
 15083.00000    0.71340   49.86250    5.00490    5.58730    5.24990   66.42160  152.19250   -9999.25   -9999.25   -9999.25   -9999.25   -9999.25   -9999.25
 15083.50000    0.72270   50.57100    5.15290    5.63860    5.34670   64.70590  151.83600   -9999.25   -9999.25   -9999.25   -9999.25   -9999.25   -9999.25
 15084.00000    0.74130   51.67320    5.09440    5.67260    5.37230   67.05880  151.47950   -9999.25   -9999.25   -9999.25   -9999.25   -9999.25   -9999.25
 15084.50000    0.75880   52.27710    4.97930    5.48020    5.24150   67.24340  151.12300   -9999.25   -9999.25   -9999.25   -9999.25   -9999.25   -9999.25
 15085.00000    0.77620   54.25140    4.86690    5.27580    5.10640   67.47410  150.09800   -9999.25   -9999.25   -9999.25   -9999.25   -9999.25   -9999.25
 15085.50000    0.79400   55.54880    4.81860    5.32230    4.99640   67.70470  148.62750   -9999.25   -9999.25   -9999.25   -9999.25   -9999.25   -9999.25
 15086.00000    0.81150   55.50290    4.85370    5.37230    4.99670   67.93540  147.15690   -9999.25   -9999.25   -9999.25   -9999.25   -9999.25   -9999.25
 15086.50000    0.82910   52.49850    4.88410    5.27580    5.02840   68.16610  145.68630   -9999.25   -9999.25   -9999.25   -9999.25   -9999.25   -9999.25
 15087.00000    0.84670   49.19000    4.91460    5.35210    5.06110   68.39680  144.21570   -9999.25   -9999.25   -9999.25   -9999.25   -9999.25   -9999.25
 15087.50000    0.86430   47.80390    4.94530    5.47060    5.08880   68.62740  142.74510   -9999.25   -9999.25   -9999.25   -9999.25   -9999.25   -9999.25
 15088.00000    0.88190   47.99460    4.97620    5.47060    5.08700   68.62740  141.56860   -9999.25   -9999.25   -9999.25   -9999.25   -9999.25   -9999.25
 15088.50000    0.89940   48.16600    5.00730    5.37230    5.08920   68.62740  140.44820   -9999.25   -9999.25   -9999.25   -9999.25   -9999.25   -9999.25
 15089.00000    0.91700   48.30450    5.03860    5.52500    5.18070   68.62740  139.51450   -9999.25   -9999.25   -9999.25   -9999.25   -9999.25   -9999.25
 15089.50000    0.93460   48.44250    5.07010    5.71760    5.38740   68.62740  138.58080   -9999.25   -9999.25   -9999.25   -9999.25   -9999.25   -9999.25
 15090.00000    0.95220   48.51820    5.18100    5.91690    5.67390   68.62740  137.64710   -9999.25   -9999.25   -9999.25   -9999.25   -9999.25   -9999.25
 15090.50000    0.96970   46.65350    4.97510    6.09930    5.57320   67.61900  136.71330   -9999.25   -9999.25   -9999.25   -9999.25   -9999.25   -9999.25
 15091.00000    0.98730   44.59220    4.67090    5.71350    5.18000   66.77870  135.77960   -9999.25   -9999.25   -9999.25   -9999.25   -9999.25   -9999.25
 15091.50000    1.00490   43.23650    4.38530    5.29030    4.81440   66.43140  134.84590   -9999.25   -9999.25   -9999.25   -9999.25   -9999.25   -9999.25
 15092.00000    1.02250   42.87040    4.11710    4.89850    4.47460   66.82350  133.72550   -9999.25   -9999.25   -9999.25   -9999.25   -9999.25   -9999.25
 15092.50000    1.04010   48.30150    3.86540    4.53570    4.15890   67.21570  133.76920   -9999.25   -9999.25   -9999.25   -9999.25   -9999.25   -9999.25
 15093.00000    1.05760   56.26770    3.62910    4.19870    3.86590   67.60780  137.85500   -9999.25   -9999.25   -9999.25   -9999.25   -9999.25   -9999.25
 15093.50000    1.07520   64.17210    3.40720    3.88790    3.59380   68.50680  141.93480   -9999.25   -9999.25   -9999.25   -9999.25   -9999.25   -9999.25
 15094.00000    1.09280   67.89650    3.19880    3.60020    3.34100   70.16590  146.00940   -9999.25   -9999.25   -9999.25   -9999.25   -9999.25   -9999.25
 15094.50000    1.11040   66.20360    3.06240    3.35290    3.12010   71.82500  150.08060   -9999.25   -9999.25   -9999.25   -9999.25   -9999.25   -9999.25
 15095.00000    1.12800   61.60560    3.06240    3.29330    3.17250   73.48420  153.33430   -9999.25   -9999.25   -9999.25   -9999.25   -9999.25   -9999.25
 15095.50000    1.14560   60.38230    3.01730    3.26580    3.00950   75.14330  156.07010   -9999.25   -9999.25   -9999.25   -9999.25   -9999.25   -9999.25
 15096.00000    1.16310   60.46280    2.88250    3.18150    2.95320   76.47060  158.81270   -9999.25   -9999.25   -9999.25   -9999.25   -9999.25   -9999.25
 15096.50000    1.18070   61.56510    2.75380    3.09890    2.89380   77.00690  159.52740   -9999.25   -9999.25   -9999.25   -9999.25   -9999.25   -9999.25
 15097.00000    1.19830   63.23800    2.60140    3.06240    2.83380   77.44420  161.31610   -9999.25   -9999.25   -9999.25   -9999.25   -9999.25   -9999.25
 15097.50000    1.21590   65.22560    2.64900    3.14400    2.79700   77.87990  163.11710   -9999.25   -9999.25   -9999.25   -9999.25   -9999.25   -9999.25
 15098.00000    1.23340   65.77410    2.76780    3.17550    2.92250   77.75880  164.92070   -9999.25   -9999.25   -9999.25   -9999.25   -9999.25   -9999.25
 15098.50000    1.25100   73.24110    2.89720    3.11850    3.00740   77.26670  166.00870   -9999.25   -9999.25   -9999.25   -9999.25   -9999.25   -9999.25
 15099.00000    1.26860   75.14730    3.03260    3.25910    3.12720   76.77490  163.07650   -9999.25   -9999.25   -9999.25   -9999.25   -9999.25   -9999.25
 15099.50000    1.28620   75.50790    3.17440    3.51700    3.25480   76.28370  158.16130   -9999.25   -9999.25   -9999.25   -9999.25   -9999.25   -9999.25
