~Version ---------------------------------------------------
VERS.   2.0 : CWLS log ASCII Standard -VERSION 2.0
WRAP.    NO : One line per depth step
DLM . SPACE : Column Data Section Delimiter
~Well ------------------------------------------------------
STRT .F                12162.0 : START DEPTH
STOP .F                15324.5 : STOP DEPTH
STEP .F                    0.5 : STEP
NULL .                -9999.25 : NULL VALUE
COMP .                         : COMPANY
WELL .                         : WELL
FLD  .                         : FIELD
LOC  .                         : LOCATION
PROV .                         : PROVINCE
CNTY .                         : COUNTY
STAT .                         : STATE
CTRY .                         : COUNTRY
SRVC .                         : SERVICE COMPANY
DATE .                         : DATE
UWI  .                         : UNIQUE WELL ID
API  .                         : API NUMBER
SLAT .WGS84  5.811716077138705 : SURFACE LATITUDE
SLON .WGS84 3.3863524767489253 : SURFACE LONGITUDE
DATUM.F                1787.23 : DEPTH DATUM ELEV
~Curve Information -----------------------------------------
DEPT.F     : 
SPR .MV    : SPONTANEOUS POTENTIAL FROM RES.
GRR .GAPI  : GAMMA RAY FROM RESISTIVITY
AT10.OHMM  : 10-IN. RESISTIVITY, 2-FT RESOLUTION
AT90.OHMM  : 90-IN. RESISTIVITY, 2-FT RESOLUTION
AT30.OHMM  : 30-IN. RESISTIVITY, 2-FT RESOLUTION
DTCO.US/F  : COMPRESSIONAL-WAVE INTERVAL TRANSIT TIME ACOUSTIC SLOWNESS
DTSM.US/F  : SHEAR-WAVE INTERVAL TRANSIT TIME DELTA-T
CALD.IN    : CALIPER FDC LOG
DPHI.DEC   : DENSITY POROSITY LIMESTONE
NPHI.DEC   : NEUTRON POROSITY LIMESTONE
RHOB.G/C3  : BULK DENSITY
DRHO.G/C3  : DENSITY CORRECTION
GRD .GAPI  : GAMMA RAY FROM DENSITY LOG
~Params ----------------------------------------------------
~Other -----------------------------------------------------
~ASCII -----------------------------------------------------
# ...
 13826.00000   11.20260   89.74140    2.15480    3.01220    2.30430   71.93320  180.54570    5.80610    0.07890    0.23980    2.57680    0.01850   95.48530
 13826.50000   11.15100   89.46620    2.14720    3.01450    2.29820   72.18790  182.35910    5.84790    0.07460    0.24520    2.58650    0.02030   93.21650
 13827.00000   11.10030   90.87500    2.13960    3.01680    2.29220   72.44260  184.17250    5.90110    0.07200    0.25000    2.58690    0.02240   91.61660
 13827.50000   11.04570   93.35010    2.13210    3.01910    2.28620   73.58290  185.98600    5.95530    0.07440    0.25490    2.58480    0.02460   93.94170
 13828.00000   11.04710   95.62620    2.12460    3.02150    2.28020   75.35830  187.84310    6.00990    0.07760    0.25790    2.58160    0.02670   95.45260
 13828.50000   11.07820   97.84710    2.11710    3.02380    2.27430   77.13370  187.84310    6.05710    0.07840    0.25790    2.57680    0.02870   94.71380
 13829.00000   11.10600  100.11280    2.10960    3.02620    2.26830   78.90910  184.40780    6.14810    0.07510    0.25780    2.58120    0.03270   94.19760
 13829.50000   11.13290  102.58220    2.10220    3.02850    2.26240   80.39220  181.47840    6.27090    0.07160    0.25360    2.58960    0.03980   91.51100
 13830.00000   11.16110  104.04950    2.09480    3.03090    2.25640   88.23530  178.43140    6.36010    0.06810    0.25000    2.59890    0.04590   93.18180
 13830.50000   11.18860  103.08440    2.05510    3.03330    2.25010   88.23530  178.35330    6.34330    0.06570    0.24750    2.60590    0.04580   94.81720
 13831.00000   11.21630   99.61610    2.05510    3.03560    2.25010   88.23530  178.27190    6.29090    0.06620    0.25010    2.60160    0.04490   95.61060
 13831.50000   11.24400   97.50850    2.13290    3.03800    2.32860   88.09860  178.19050    6.22900    0.06710    0.25520    2.59770    0.04130   95.53680
 13832.00000   11.27160   98.67310    2.24150    3.04030    2.43790   86.42470  178.10910    5.98420    0.06750    0.25780    2.59860    0.03780   95.51490
 13832.50000   11.29920  100.70670    2.35570    3.04270    2.55230   84.75070  178.02780    5.73590    0.06340    0.24310    2.60460    0.02950   95.64800
 13833.00000   11.32680  100.01430    2.47570    3.04510    2.67210   84.90520  177.94640    5.68460    0.06630    0.22930    2.60630    0.02040   96.01540
 13833.50000   11.35440   99.08820    2.64870    3.04750    2.79700   85.67630  177.86500    5.72330    0.07110    0.21380    2.59560    0.01430   95.46170
 13834.00000   11.38200   98.51830    2.64490    3.04990    2.79700   85.16300  177.78370    5.78110    0.07590    0.21380    2.58430    0.01440   93.50410
 13834.50000   11.40960  100.19760    2.62180    3.05220    2.78130   84.18190  177.70230    5.80540    0.07680    0.22750    2.57890    0.01380   91.61040
 13835.00000   11.43730  100.40010    2.59880    3.05460    2.76230   83.20250  177.62090    5.79940    0.07290    0.24530    2.58470    0.01260   90.31780
 13835.50000   11.46490   99.66370    2.57590    3.05720    2.74330   82.84320  177.53950    5.70610    0.06790    0.24300    2.59960    0.01410   89.61330
 13836.00000   11.49250   98.68770    2.55330    3.06010    2.72450   83.06040  177.45820    5.62390    0.06580    0.23940    2.59360    0.01820   90.85560
 13836.50000   11.52010   94.11520    2.53010    3.06170    2.70580   83.27850  177.37680    5.57880    0.07440    0.23660    2.58170    0.02180   93.79580
 13837.00000   11.54770   89.72860    2.50740    3.08130    2.68730   83.52940  177.29540    5.84840    0.07440    0.23760    2.58530    0.02590   92.00130
 13837.50000   11.57530   86.62310    2.48720    3.08500    2.66890   83.33330  177.21410    6.10380    0.07440    0.23840    2.59650    0.02600   89.08210
 13838.00000   11.60300   90.13920    2.46370    3.09850    2.63940   83.11630  177.13270    6.11400    0.06640    0.25010    2.61010    0.02590   88.08600
 13838.50000   11.63060   93.57900    2.51620    3.10970    2.70140   82.89940  177.05130    6.02080    0.05970    0.26000    2.61700    0.01870   87.57040
 13839.00000   11.66010   93.82890    2.62090    3.17310    2.90860   83.16860  176.96990    5.93480    0.05470    0.26980    2.61580    0.01030   90.37730
 13839.50000   11.68860   94.07730    2.73000    3.22670    3.21820   84.63330  176.88860    5.84870    0.05470    0.27950    2.61070    0.00210   93.52420
 13840.00000   11.71250   80.21390    2.84820    4.20820    3.57540   86.09800  176.86270    5.84390    0.05970    0.28980    2.60700   -0.00710   89.98550
 13840.50000   11.75330   62.35670    6.85310   13.52450    9.94180   87.45100  174.00000    5.83590    0.06340    0.26520    2.60570   -0.00960   85.88390
 13841.00000   11.76580   48.67590   17.09570   61.35580   28.80650   87.41390  170.74510    5.83200    0.04760    0.22210    2.62380   -0.00760   68.08200
 13841.50000   11.79150   35.17420   42.64700  148.43690   66.78090   85.36070  165.34900    5.82640    0.03400    0.15260    2.67380   -0.00340   50.14350
 13842.00000   11.89730   26.16480  106.38750  363.08340  150.90470   82.69050  156.47060    5.82110    0.02030    0.15530    2.71310   -0.00060   36.88560
 13842.50000   11.10030   27.93580  265.39500 1482.88930  298.75020   72.56680  133.42480    5.81590    0.00830    0.03960    2.71900    0.00210   27.03810
 13843.00000    9.76270   30.66150  456.34960 1219.18430  758.17620   68.85930  122.06280    5.81080   -0.00350    0.03200    2.71910    0.00510   24.01590
 13843.50000    8.70910   31.06070  241.72670  770.64920  553.52660   69.98920  118.82350    5.80580   -0.00310    0.02800    2.71890    0.00630   25.95750
 13844.00000    7.59630   30.05210  130.56020  487.12920  337.62270   71.11990  118.82350    5.80560   -0.00230    0.03360    2.71790    0.00800   28.29580
 13844.50000    6.45190   28.50460   80.05570  290.03290  205.93240   71.84700  122.16080    5.80550   -0.00140    0.04210    2.71390    0.00820   30.55450
 13845.00000    5.34930   26.99160   80.05570  284.82180  130.61430   72.07840  129.74440    5.80560   -0.00060    0.05150    2.70910    0.00800   32.99420
 13845.50000    4.22000   25.52180  109.75630  287.09270  165.60290   72.29540  137.01310    5.80560    0.00020    0.05550    2.70670    0.00770   33.64880
 13846.00000    3.07780   24.11360  147.03730  295.10390  204.43810   72.54900  159.98540    5.80560    0.00110    0.04970    2.71060    0.00760   31.63860
 13846.50000    2.30120   24.65150  201.82130  300.74290  252.51410   72.46360  182.13880    5.80550   -0.00120    0.04120    2.72000    0.00730   29.68640
 13847.00000    2.25440   26.10040  150.34640  304.98930  284.31980   72.36080  191.95110    5.80560   -0.00370    0.03260    2.71880    0.00710   28.16630
 13847.50000    2.11590   27.73110  109.05460  309.68840  191.75620   72.25800  193.48050    5.80550   -0.00370    0.02780    2.72170    0.00690   25.79690
 13848.00000    2.00300   29.32980   79.10340  311.84830  135.34320   72.15520  194.38510    5.80520   -0.01030    0.02820    2.72500    0.00660   25.34720
 13848.50000    1.88800   30.92830   57.37820  145.11070   95.59450   72.05240  195.30590    5.80110   -0.01530    0.03030    2.73500    0.00640   25.96950
 13849.00000    1.76770   32.53510   41.61960  102.07140   67.50980   71.94960  198.86540    5.79770   -0.01860    0.03300    2.74460    0.00620   29.26700
 13849.50000    1.65180   34.17940   33.53040   97.72520   47.32010   71.84680  204.07320    5.79410   -0.02190    0.03800    2.75380    0.00600   33.74790
 13850.00000    1.53420   35.37800   32.33640   97.72520   47.32010   71.76470  208.62750    5.79050   -0.02400    0.04300    2.75430    0.00570   37.41690
 13850.50000    1.41630   35.29360   40.24940   97.72520   54.48430   68.55270  174.54430    5.78690   -0.01990    0.04800    2.74990    0.00550   39.41960
 13851.00000    1.29860   33.21100   48.32130   98.04460   64.94970   65.87790  131.36310    5.78330   -0.01650    0.05390    2.74360    0.00530   39.56160
 13851.50000    1.18040   31.06670   58.01210   99.51310   77.42530   63.20300  107.75950    5.77970   -0.01460    0.05470    2.74060    0.00510   38.97540
