~Version ---------------------------------------------------
VERS.   2.0 : CWLS log ASCII Standard -VERSION 2.0
WRAP.    NO : One line per depth step
DLM . SPACE : Column Data Section Delimiter
~Well ------------------------------------------------------
STRT .FT                8830.0 : START DEPTH
STOP .FT               10559.0 : STOP DEPTH
STEP .FT                   0.5 : STEP
NULL .                -9999.25 : NULL VALUE
COMP .                         : COMPANY
WELL .                         : WELL
FLD  .                         : FIELD
LOC  .                         : LOCATION
PROV .                         : PROVINCE
CNTY .                         : COUNTY
STAT .                         : STATE
CTRY .                         : COUNTRY
SRVC .                         : SERVICE COMPANY
DATE .                         : DATE
UWI  .                         : UNIQUE WELL ID
API  .                         : API NUMBER
SLAT .WGS84 1.9532597274116021 : SURFACE LATITUDE
SLON .WGS84  8.781415805266988 : SURFACE LONGITUDE
DATUM.F                    nan : DEPTH DATUM ELEV
~Curve Information -----------------------------------------
DEPT.FT    : 
DTCO.US/F  : DELTA-T COMPRESSIONAL
DTSM.US/F  : DELTA-T SHEAR
GRS .GAPI  : GAMMA RAY FROM SONIC LOG
~Params ----------------------------------------------------
~Other -----------------------------------------------------
~ASCII -----------------------------------------------------
# ...
 9631.00000   52.66540   96.34580   24.86540
 9631.50000   52.70550   95.72020   19.86570
 9632.00000   53.38620   95.44500   17.05090
 9632.50000   53.98690   97.59390   16.92680
 9633.00000   56.55450  100.02970   21.57040
 9633.50000   60.83380  102.46550   29.95870
 9634.00000   65.11310  106.33940   44.17530
 9634.50000   68.81610  110.57290   60.03950
 9635.00000   73.30360  114.80630   72.49940
 9635.50000   77.44780  119.03980   80.58810
 9636.00000   79.05710  123.27320   99.19830
 9636.50000   80.75120  127.08710  113.99150
 9637.00000   82.19260  129.13830  120.85580
 9637.50000   83.57880  130.52610  120.96530
 9638.00000   83.90650  131.38150  115.58870
 9638.50000   84.23480  131.58180  108.15000
 9639.00000   83.47610  130.84360  102.21020
 9639.50000   82.52320  129.86350  100.48090
 9640.00000   81.73500  128.71010  101.75540
 9640.50000   81.65500  126.86350   99.92630
 9641.00000   80.15550  125.01680   98.21910
 9641.50000   76.60680  123.17020   94.99100
 9642.00000   73.99020  121.32360   86.70420
 9642.50000   72.72420  119.47700   73.62650
 9643.00000   71.67460  117.89580   60.54870
 9643.50000   70.24110  116.71290   59.33130
 9644.00000   69.12060  115.52990   65.07330
 9644.50000   68.26150  114.34700   78.30480
 9645.00000   67.36610  113.16400   80.25220
 9645.50000   67.75460  113.41430   74.32480
 9646.00000   68.97720  114.30100   63.87530
 9646.50000   69.25450  115.08750   50.12320
 9647.00000   69.69910  115.71680   44.77360
 9647.50000   70.84190  117.41560   44.00330
 9648.00000   73.13610  119.47650   66.94000
 9648.50000   74.92610  121.53740   94.18320
 9649.00000   76.81680  123.59840   97.97670
 9649.50000   77.80900  125.65930   92.67680
 9650.00000   78.72670  127.72020   91.78680
 9650.50000   79.37330  129.78120  108.45140
 9651.00000   79.04050  129.40780  119.17320
 9651.50000   78.84260  128.98430  120.41540
 9652.00000   79.72660  128.73030  102.11470
 9652.50000   80.34630  128.88050   80.90410
 9653.00000   80.43800  129.23090   73.40080
 9653.50000   80.78600  129.19450   89.39100
 9654.00000   80.17420  128.76230  105.64440
 9654.50000   80.23720  128.33010  117.70120
 9655.00000   80.56430  128.28010  113.73730
 9655.50000   80.90240  128.99760  105.45630
 9656.00000   81.28070  130.16540   95.66100
 9656.50000   82.13640  130.68270   85.50370
 9657.00000   82.31320  130.53260   81.95230
 9657.50000   82.33070  130.13220   90.41630
 9658.00000   82.80690  131.14890   98.91750
 9658.50000   83.67980  132.16560  108.00200
 9659.00000   83.86500  133.18230  109.80070
 9659.50000   83.11830  132.91380  110.48740
 9660.00000   81.22820  131.98430  109.57260
 9660.50000   78.49100  131.05490  112.61300
 9661.00000   75.94780  129.48190  109.60700
 9661.50000   74.74670  126.47900   94.97190
 9662.00000   72.65470  123.37590   79.14310
 9662.50000   73.17170  122.29160   58.22510
 9663.00000   73.79590  121.37400   53.74200
 9663.50000   74.13020  121.85180   69.20820
 9664.00000   74.30830  122.17040   82.12870
 9664.50000   75.76790  122.42520   92.90460
 9665.00000   77.26940  123.40630   96.17070
 9665.50000   78.45140  125.73360   97.80450
 9666.00000   78.03110  127.18010   95.51760
 9666.50000   77.96240  127.19270   84.01280
 9667.00000   77.73590  126.67970   76.66050
 9667.50000   77.84010  126.93000   85.31870
 9668.00000   78.79200  126.47960   93.58700
 9668.50000   79.61190  126.89570   90.92300
 9669.00000   80.06550  127.75600   83.88850
 9669.50000   80.45940  128.61630   90.09610
 9670.00000   80.65580  129.18250  100.25420
 9670.50000   80.53570  128.83220  107.85520
 9671.00000   80.49570  128.03150  114.35610
 9671.50000   77.32590  127.13060  118.30910
 9672.00000   76.31680  126.12970  109.21860
 9672.50000   75.88660  123.76070   97.07060
 9673.00000   75.79070  123.05170   73.46940
 9673.50000   75.86720  122.67640   65.01560
 9674.00000   75.54710  122.52630   72.74590
 9674.50000   74.98130  122.52630   86.58560
 9675.00000   75.00950  122.42630   94.97390
 9675.50000   76.76070  122.68570   96.54480
 9676.00000   78.47270  124.23270   96.32460
 9676.50000   78.83480  125.77980   92.02050
 9677.00000   78.31310  126.02010   87.90710
 9677.50000   78.23590  126.24530   90.70310
 9678.00000   78.31850  126.43060  100.87750
 9678.50000   78.25680  126.63080  109.01700
 9679.00000   77.23120  126.09350  106.02120
 9679.50000   76.94520  125.19790   98.53180
 9680.00000   76.17040  124.30230   93.73860
 9680.50000   74.20730  123.40670   93.31420
 9681.00000   72.34540  121.25300   92.69020
 9681.50000   70.24340  118.04530   74.77990
 9682.00000   69.96210  116.12070   56.86970
 9682.50000   70.00940  116.12070   46.52470
 9683.00000   70.05680  116.72140   46.34770
 9683.50000   70.48370  116.87160   55.43050
 9684.00000   72.65540  119.56430   72.53010
 9684.50000   75.34860  123.71850   85.38870
 9685.00000   76.79390  125.68050  100.06830
 9685.50000   78.60660  126.08100  104.11920
 9686.00000   81.44220  128.50340  106.57000
 9686.50000   83.27670  131.15610  108.18280
 9687.00000   84.05750  133.80880  110.73070
 9687.50000   84.71850  134.96110  108.09450
 9688.00000   85.20310  135.73820  106.07300
 9688.50000   85.91190  136.51540  109.65540
 9689.00000   85.79750  137.29250  117.09390
 9689.50000   85.58590  137.39270  122.14130
 9690.00000   85.69830  137.44280  117.25340
 9690.50000   85.55920  137.44280  110.50620
 9691.00000   84.89570  136.62540  102.77580
 9691.50000   83.63730  135.14590  102.33830
 9692.00000   80.22170  132.92000  108.35130
 9692.50000   79.01350  130.69420  112.44720
 9693.00000   78.35220  128.46830  107.65560
 9693.50000   78.36810  126.93260   97.15950
 9694.00000   78.66000  126.73250   81.22690
 9694.50000   79.17180  127.39320   73.10740
 9695.00000   79.97390  128.52720   77.64400
 9695.50000   81.08840  130.13600   94.97700
 9696.00000   82.01220  131.74480  112.00610
 9696.50000   82.51030  132.38840  118.34440
 9697.00000   82.78000  132.52860  122.94380
 9697.50000   83.32900  133.08920  121.41220
 9698.00000   82.22630  132.88900  117.13030
 9698.50000   81.18250  131.49390  111.15480
 9699.00000   78.95310  129.41900  104.56410
 9699.50000   76.55930  127.34410   93.03030
 9700.00000   75.40100  125.26910   81.92910
 9700.50000   74.24280  123.19420   75.16760
 9701.00000   73.34370  121.77820   76.04880
 9701.50000   73.17980  120.67720   77.76710
 9702.00000   73.19690  120.46870   79.48530
 9702.50000   73.52560  120.17680   81.00980
 9703.00000   74.26870  119.88490   78.37000
 9703.50000   73.64310  119.70640   78.25160
 9704.00000   73.20530  119.57630   79.95940
 9704.50000   72.88740  119.57640   84.67970
 9705.00000   70.78530  118.17500   89.17230
 9705.50000   68.50930  114.67160   91.48990
 9706.00000   65.60230  111.16810   83.76620
 9706.50000   64.28920  109.92050   64.72100
 9707.00000   62.61730  109.00890   49.14290
 9707.50000   64.69420  108.09730   35.32450
 9708.00000   65.36330  107.87340   35.47430
 9708.50000   65.61370  108.41560   38.62000
 9709.00000   65.07760  108.95790   49.74230
 9709.50000   64.98980  109.92440   73.40930
 9710.00000   64.83970  111.35440   92.19170
 9710.50000   64.45420  112.78450  103.66710
 9711.00000   63.68130  114.21450   90.16560
 9711.50000   63.56120  115.12260   58.73010
 9712.00000   64.04170  113.97150   47.53780
 9712.50000   64.48210  114.37200   35.40500
 9713.00000   65.32030  115.87350   40.66090
 9713.50000   68.02310  117.37510   55.73460
 9714.00000   71.40590  119.43220   73.09140
 9714.50000   73.30840  121.85970   92.39560
 9715.00000   74.93010  123.23110   92.93490
 9715.50000   75.96720  123.68160   94.04350
 9716.00000   76.84430  126.14840  103.45890
 9716.50000   77.87310  127.31030  107.22520
 9717.00000   78.55580  127.19150   99.91780
 9717.50000   78.47670  126.22180   91.11900
 9718.00000   78.50890  126.20430   86.14250
 9718.50000   79.19450  127.73590   84.00800
 9719.00000   80.00540  127.78600   86.88400
 9719.50000   80.57600  128.34120   91.67740
