~Version ---------------------------------------------------
VERS.   2.0 : CWLS log ASCII Standard -VERSION 2.0
WRAP.    NO : One line per depth step
DLM . SPACE : Column Data Section Delimiter
~Well ------------------------------------------------------
STRT .FT                8830.0 : START DEPTH
STOP .FT               10559.0 : STOP DEPTH
STEP .FT                   0.5 : STEP
NULL .                -9999.25 : NULL VALUE
COMP .                         : COMPANY
WELL .                         : WELL
FLD  .                         : FIELD
LOC  .                         : LOCATION
PROV .                         : PROVINCE
CNTY .                         : COUNTY
STAT .                         : STATE
CTRY .                         : COUNTRY
SRVC .                         : SERVICE COMPANY
DATE .                         : DATE
UWI  .                         : UNIQUE WELL ID
API  .                         : API NUMBER
SLAT .WGS84 1.9532597274116021 : SURFACE LATITUDE
SLON .WGS84  8.781415805266988 : SURFACE LONGITUDE
DATUM.F                    nan : DEPTH DATUM ELEV
~Curve Information -----------------------------------------
DEPT.FT    : 
DTCO.US/F  : DELTA-T COMPRESSIONAL
DTSM.US/F  : DELTA-T SHEAR
GRS .GAPI  : GAMMA RAY FROM SONIC LOG
~Params ----------------------------------------------------
~Other -----------------------------------------------------
~ASCII -----------------------------------------------------
# ...
 9987.00000   83.80600  134.27980  125.94870
 9987.50000   83.31510  133.52890  126.94150
 9988.00000   82.83360  133.72900  118.19850
 9988.50000   82.40330  133.97910  106.96710
 9989.00000   82.20380  133.77880  100.16920
 9989.50000   81.87580  133.30320  107.20300
 9990.00000   81.64120  132.82760  117.41270
 9990.50000   81.31960  132.35210  127.94210
 9991.00000   81.06490  131.87650  125.58680
 9991.50000   81.36510  131.89780  114.75590
 9992.00000   81.70260  131.98710  108.10750
 9992.50000   81.79450  132.07640  100.88600
 9993.00000   81.06460  131.24210   97.83880
 9993.50000   80.04360  129.15650   96.88070
 9994.00000   78.35940  127.07100   99.60810
 9994.50000   77.58440  124.44910  106.15540
 9995.00000   77.22400  121.02280  108.07970
 9995.50000   69.01070  113.92180   92.38250
 9996.00000   61.33800  105.49490   69.03530
 9996.50000   57.13560  103.34670   45.35770
 9997.00000   55.30620  102.94620   33.52500
 9997.50000   55.18600  101.34450   26.78520
 9998.00000   55.18590   98.84190   24.81710
 9998.50000   55.24590   98.34130   24.47580
 9999.00000   56.77740   98.34120   27.76830
 9999.50000   59.58920  100.18420   31.58170
 10000.00000   62.40110  104.16640   34.77650
 10000.50000   65.21290  108.14850   37.42500
 10001.00000   68.02470  112.13060   40.87100
 10001.50000   70.84110  116.11280   60.34450
 10002.00000   73.66050  120.73790   89.60730
 10002.50000   75.27540  125.09720  118.64150
 10003.00000   76.47660  128.00000  133.85630
 10003.50000   77.67770  130.41230  127.75340
 10004.00000   77.64760  130.77250  115.80190
 10004.50000   77.61750  130.57220  105.28640
 10005.00000   75.75440  129.42100   96.54880
 10005.50000   74.21610  126.91830   94.27510
 10006.00000   73.59050  124.41570   91.43150
 10006.50000   73.01470  121.91310   89.71140
 10007.00000   72.63670  120.54020   87.52860
 10007.50000   72.35400  119.43190   87.61750
 10008.00000   71.88270  119.06000   88.96840
 10008.50000   71.27280  118.37390   89.05470
 10009.00000   70.86670  117.44630   88.68770
 10009.50000   70.37180  116.51880   89.05970
 10010.00000   70.04640  115.59130   87.92590
 10010.50000   69.60720  114.42350   85.25350
 10011.00000   68.48750  112.95320   80.57040
 10011.50000   67.53280  110.99610   78.89640
 10012.00000   65.31210  108.61240   81.27640
 10012.50000   63.09140  106.22860   82.06040
 10013.00000   60.87070  103.84490   74.14330
 10013.50000   58.91760  101.46110   61.26210
 10014.00000   56.58240   99.07740   39.32250
 10014.50000   54.74830   96.69370   28.67600
 10015.00000   53.96000   94.30990   23.48490
 10015.50000   53.17160   93.68290   23.66790
 10016.00000   53.39680   93.63280   23.21780
 10016.50000   53.32160   93.58260   22.40650
 10017.00000   53.56180   93.58250   25.31790
 10017.50000   54.64280   95.14700   31.40140
 10018.00000   56.47460   98.43280   37.37170
 10018.50000   59.37740  101.71860   39.82480
 10019.00000   62.93090  105.00440   39.56230
 10019.50000   66.48440  108.29020   48.30810
 10020.00000   70.03790  114.58140   64.00990
 10020.50000   72.72050  119.54520   87.33650
 10021.00000   74.82250  122.48550  108.30800
 10021.50000   76.55980  125.42590  117.25850
 10022.00000   78.22680  128.36620  113.06620
 10022.50000   78.83850  130.24800  108.31030
 10023.00000   79.44340  132.72530  103.54200
 10023.50000   79.42820  133.27080  101.68360
 10024.00000   79.69930  133.07050   98.65850
 10024.50000   80.33980  133.07030   91.94860
 10025.00000   80.78600  133.17030   97.23750
 10025.50000   81.30840  133.57950  105.80200
 10026.00000   80.88800  134.22710  114.36660
 10026.50000   81.36670  134.87470  114.55530
 10027.00000   81.66080  135.52220  113.18240
 10027.50000   81.11620  135.47210  111.78440
 10028.00000   80.61260  134.93810  111.31480
 10028.50000   80.19990  134.29850  109.74610
 10029.00000   79.70110  133.65880  108.02100
 10029.50000   79.58720  133.01920  105.02600
 10030.00000   79.55420  132.44520  101.37970
 10030.50000   79.50680  131.72770   99.51290
 10031.00000   79.32050  131.01020  101.69010
 10031.50000   78.84150  129.96570  106.74380
 10032.00000   78.40820  128.71430  112.34260
 10032.50000   78.05170  127.41300  106.50000
 10033.00000   78.41460  123.71680   98.74020
 10033.50000   79.35540  120.02070   85.25990
 10034.00000   71.10910  116.32460   73.30670
 10034.50000   58.69470  112.62850   54.70420
 10035.00000   60.88010  108.93240   41.22390
 10035.50000   63.64950  107.54240   26.95160
 10036.00000   62.73650  108.64340   20.66630
 10036.50000   63.06160  111.90970   27.10810
 10037.00000   67.63040  115.17600   50.69670
 10037.50000   70.51860  118.44240   81.67120
 10038.00000   72.98660  121.47890  103.24700
 10038.50000   75.45460  123.59630  114.89460
 10039.00000   76.73210  125.71370  111.34690
 10039.50000   76.74720  126.56060  102.47210
 10040.00000   76.31860  125.97650   97.60220
 10040.50000   75.53290  125.50930   92.68770
 10041.00000   74.20250  123.65730   88.48160
 10041.50000   73.13820  121.34240   82.27660
 10042.00000   73.60910  119.85330   78.37220
 10042.50000   74.44410  120.58730   73.59030
 10043.00000   75.56820  121.50470   67.83900
 10043.50000   75.99330  123.46810   68.69750
 10044.00000   76.53490  125.43150   83.23790
 10044.50000   76.77930  126.77640  108.94390
 10045.00000   77.10890  127.61040  123.81120
 10045.50000   77.11730  128.11080  128.53030
 10046.00000   76.63830  128.16070  120.83080
 10046.50000   75.75230  127.02870  108.64760
 10047.00000   72.64910  124.44910   95.16720
 10047.50000   71.20760  121.86950   88.87680
 10048.00000   69.57630  120.90310   82.13130
 10048.50000   65.32160  114.92200   79.14570
 10049.00000   62.71610  108.94090   76.23750
 10049.50000   62.57070  107.58940   69.39080
 10050.00000   64.06470  107.83950   52.95740
 10050.50000   65.80180  109.84140   41.65980
 10051.00000   67.02780  111.69320   42.85890
 10051.50000   67.54260  114.17890   65.15540
 10052.00000   72.07570  118.59990   87.45190
 10052.50000   75.55900  123.02080  105.62840
 10053.00000   77.27300  125.66440  116.24340
 10053.50000   78.11380  128.51330  112.04390
 10054.00000   78.90350  131.36220  108.31150
 10054.50000   78.51800  131.91260  106.98090
 10055.00000   77.63310  131.46970  105.98210
 10055.50000   76.25490  129.25520  102.14570
 10056.00000   73.15550  127.04080   93.10080
 10056.50000   72.52780  124.82630   87.09340
 10057.00000   72.11320  122.61190   80.44690
 10057.50000   71.20630  120.39740   79.26800
 10058.00000   70.54220  118.18300   80.95400
 10058.50000   69.75800  117.04690   83.51370
 10059.00000   69.22740  116.44620   85.56170
 10059.50000   69.13720  115.47180   84.59450
 10060.00000   68.40760  114.60410   82.98220
 10060.50000   66.80890  113.73650   81.36990
 10061.00000   65.21010  113.04230   83.91700
 10061.50000   63.61140  110.87480   83.31870
 10062.00000   63.49120  108.16550   82.27090
 10062.50000   61.52170  105.45620   75.10320
 10063.00000   59.58220  102.74680   61.93870
 10063.50000   58.23580  100.46920   49.05760
 10064.00000   58.59330  100.02870   31.50050
 10064.50000   60.68170  100.19540   19.36290
 10065.00000   62.77010  100.77920   22.45930
 10065.50000   62.83010  102.78110   32.55850
 10066.00000   63.71890  104.78300   56.58820
 10066.50000   65.94110  105.69040   80.61780
 10067.00000   67.27200  106.45780   85.72390
 10067.50000   67.26040  107.22510   76.64010
 10068.00000   67.24880  107.73550   61.39990
 10068.50000   67.42190  107.78540   51.46520
 10069.00000   67.18080  107.61850   49.10820
 10069.50000   66.52010  106.78420   52.58790
 10070.00000   65.91650  105.94990   51.96620
 10070.50000   65.01840  105.11570   53.75300
 10071.00000   64.57010  104.68180   51.41320
 10071.50000   63.93840  105.39670   57.19980
 10072.00000   63.44430  106.28320   62.14560
 10072.50000   62.95030  106.23300   66.94790
 10073.00000   62.45620  106.27460   65.25740
 10073.50000   62.25850  106.77950   59.85820
 10074.00000   63.59370  107.51090   56.16340
