~Version ---------------------------------------------------
VERS.   2.0 : CWLS log ASCII Standard -VERSION 2.0
WRAP.    NO : One line per depth step
DLM . SPACE : Column Data Section Delimiter
~Well ------------------------------------------------------
STRT .FT                8830.0 : START DEPTH
STOP .FT               10559.0 : STOP DEPTH
STEP .FT                   0.5 : STEP
NULL .                -9999.25 : NULL VALUE
COMP .                         : COMPANY
WELL .                         : WELL
FLD  .                         : FIELD
LOC  .                         : LOCATION
PROV .                         : PROVINCE
CNTY .                         : COUNTY
STAT .                         : STATE
CTRY .                         : COUNTRY
SRVC .                         : SERVICE COMPANY
DATE .                         : DATE
UWI  .                         : UNIQUE WELL ID
API  .                         : API NUMBER
SLAT .WGS84 1.9532597274116021 : SURFACE LATITUDE
SLON .WGS84  8.781415805266988 : SURFACE LONGITUDE
DATUM.F                    nan : DEPTH DATUM ELEV
~Curve Information -----------------------------------------
DEPT.FT    : 
DTCO.US/F  : DELTA-T COMPRESSIONAL
DTSM.US/F  : DELTA-T SHEAR
GRS .GAPI  : GAMMA RAY FROM SONIC LOG
~Params ----------------------------------------------------
~Other -----------------------------------------------------
~ASCII -----------------------------------------------------
# ...
 9809.00000   80.58560  132.53940  117.95840
 9809.50000   80.28270  131.65310  114.20470
 9810.00000   80.29100  131.19850  102.86220
 9810.50000   79.92290  131.14850   88.47640
 9811.00000   78.53940  130.89830   85.29640
 9811.50000   76.49740  129.77000  103.68220
 9812.00000   75.85950  126.88080  129.10890
 9812.50000   75.74550  123.99160  126.12870
 9813.00000   76.28050  123.94160  111.97660
 9813.50000   77.33840  124.69240   89.60220
 9814.00000   77.98290  125.04280   68.75250
 9814.50000   78.80990  126.24860   75.13490
 9815.00000   80.46240  127.45440   97.09200
 9815.50000   81.09070  128.41630  114.46770
 9816.00000   83.17440  129.59750  126.68320
 9816.50000   84.54580  133.47650  134.40300
 9817.00000   85.97980  134.75280  137.49360
 9817.50000   86.31600  135.56540  132.97960
 9818.00000   86.12150  135.84520  122.05250
 9818.50000   85.93730  136.12490  115.36390
 9819.00000   85.08120  136.40470  120.69520
 9819.50000   84.83920  136.35470  128.24900
 9820.00000   84.59710  135.85420  133.35440
 9820.50000   84.51870  135.30370  129.66960
 9821.00000   84.51870  135.40380  114.16900
 9821.50000   84.93850  136.62850  103.59250
 9822.00000   85.53810  137.84640  109.11520
 9822.50000   86.13770  139.06430  126.75160
 9823.00000   87.72930  140.28230  141.73070
 9823.50000   88.75040  141.50020  146.11120
 9824.00000   89.23510  142.71810  149.48210
 9824.50000   89.82540  143.01180  159.87760
 9825.00000   87.04830  142.31120  171.48650
 9825.50000   86.07130  141.08730  173.35890
 9826.00000   83.66910  140.06360  149.84190
 9826.50000   81.18570  133.34120  123.41900
 9827.00000   74.17960  125.19420  104.47060
 9827.50000   67.14350  124.74380   99.19090
 9828.00000   66.31770  121.12780   88.44200
 9828.50000   65.61200  116.67020   74.62540
 9829.00000   65.91240  112.21270   56.52840
 9829.50000   65.94240  110.45330   45.07910
 9830.00000   65.79230  110.51210   53.13790
 9830.50000   66.06010  110.62410   67.96370
 9831.00000   67.09870  111.86700   75.67430
 9831.50000   68.13720  114.47380   80.61750
 9832.00000   71.01770  117.08070   87.69270
 9832.50000   73.72040  120.13730   89.82030
 9833.00000   77.08380  123.19400   85.43480
 9833.50000   80.23700  126.44020   80.01270
 9834.00000   83.87060  130.44420   88.94280
 9834.50000   87.45710  133.60740  101.44600
 9835.00000   87.97190  135.50940  121.36100
 9835.50000   88.10490  137.41130  127.46470
 9836.00000   87.86470  138.55250  125.21790
 9836.50000   87.26420  138.60260  120.72430
 9837.00000   84.42690  137.37420  117.25780
 9837.50000   82.22350  135.96370  117.89980
 9838.00000   80.33440  134.02940  106.59430
 9838.50000   79.29220  131.74600   93.76230
 9839.00000   78.51360  129.46250   94.06200
 9839.50000   78.85450  127.99230  109.04110
 9840.00000   79.57330  127.89230  111.58760
 9840.50000   80.34300  128.49290  100.80280
 9841.00000   82.08480  130.99550   90.01790
 9841.50000   83.34610  133.49800  100.91190
 9842.00000   84.43750  136.00060  127.39760
 9842.50000   84.93280  138.06700  148.58620
 9843.00000   85.37770  139.84260  174.70970
 9843.50000   86.28910  141.61820  174.85950
 9844.00000   86.84170  143.39390  162.42700
 9844.50000   86.89630  144.40920  150.29400
 9845.00000   86.55950  144.15900  139.74890
 9845.50000   85.98890  143.90880  133.33120
 9846.00000   83.66030  142.46990  131.90870
 9846.50000   82.27980  138.77880  133.81870
 9847.00000   84.32560  135.08770  128.61500
 9847.50000   85.55310  131.39650  116.86910
 9848.00000   75.02260  127.70540  104.67740
 9848.50000   74.91440  125.41560   85.41330
 9849.00000   75.17370  125.22800   71.66240
 9849.50000   75.43310  125.24060   68.74900
 9850.00000   76.47280  125.99690   93.56570
 9850.50000   77.73480  126.88520  122.19460
 9851.00000   78.90220  129.10170  140.48850
 9851.50000   79.02290  129.54510  146.64020
 9852.00000   79.00170  129.70640  142.93300
 9852.50000   78.63980  130.01230  128.89050
 9853.00000   78.05130  129.85550  114.77290
 9853.50000   77.85130  128.54430   97.99650
 9854.00000   78.23390  128.34410   89.69310
 9854.50000   78.54200  128.44430   81.18230
 9855.00000   79.35130  128.59450   81.63180
 9855.50000   79.91710  130.30870   95.23310
 9856.00000   81.31910  132.07620  114.93340
 9856.50000   82.56620  133.84360  135.71070
 9857.00000   84.45810  136.95300  141.57320
 9857.50000   85.65930  138.15430  140.00580
 9858.00000   87.08240  140.08120  139.11210
 9858.50000   87.08230  141.45770  139.26930
 9859.00000   86.84500  141.91650  137.84150
 9859.50000   86.28600  141.88820  132.56120
 9860.00000   85.87410  141.49540  134.24980
 9860.50000   85.71960  140.58820  141.94360
 9861.00000   85.62950  139.68110  149.63750
 9861.50000   84.90880  138.77400  151.44500
 9862.00000   84.30820  137.86690  146.61190
 9862.50000   84.40080  137.40400  141.69880
 9863.00000   84.92150  137.35400  146.19260
 9863.50000   85.16650  137.35410  140.44070
 9864.00000   85.34390  137.60440  130.85420
 9864.50000   86.04460  138.51780  127.01970
 9865.00000   86.60520  139.45630  138.55360
 9865.50000   86.24490  140.39480  149.78790
 9866.00000   85.79450  141.00800  174.11390
 9866.50000   85.20460  140.32400  171.33610
 9867.00000   84.52170  139.46900  160.44230
 9867.50000   83.64790  138.90600  149.54860
 9868.00000   83.10750  135.97310  126.87040
 9868.50000   81.72610  131.48620  120.27970
 9869.00000   73.45270  126.77840  117.88310
 9869.50000   70.83970  122.07060  109.84450
 9870.00000   70.83980  120.08750   80.28590
 9870.50000   71.93640  119.93740   50.23800
 9871.00000   72.83730  119.88740   43.58740
 9871.50000   74.15870  121.97030   69.42130
 9872.00000   76.10800  124.26110  100.77750
 9872.50000   80.10470  126.68110  132.13370
 9873.00000   82.14670  129.61830  138.55480
 9873.50000   84.48910  132.55550  131.14030
 9874.00000   85.72890  135.49270  123.72570
 9874.50000   86.89550  138.05590  124.32490
 9875.00000   86.58400  138.85670  138.83800
 9875.50000   85.79740  138.80670  150.08900
 9876.00000   85.41240  138.45640  167.90590
 9876.50000   84.87450  137.10510  172.31800
 9877.00000   83.76860  135.60370  158.38760
 9877.50000   82.59190  134.10220  140.32300
 9878.00000   82.18460  132.60080  138.40580
 9878.50000   82.23990  131.09930  145.77050
 9879.00000   82.25800  130.56200  145.95960
 9879.50000   82.46600  130.26570  142.74990
 9880.00000   82.53200  130.14720  130.91650
 9880.50000   83.35880  130.79920  132.62190
 9881.00000   84.10320  132.17880  136.13630
 9881.50000   84.87830  133.74500  139.65070
 9882.00000   85.51360  135.12040  140.80300
 9882.50000   86.14890  136.39160  150.09000
 9883.00000   86.33600  137.33270  156.31280
 9883.50000   86.42610  137.70810  161.83380
 9884.00000   86.29270  137.70010  159.58700
 9884.50000   85.95910  137.40790  151.49840
 9885.00000   85.82560  136.97000  154.11150
 9885.50000   85.62190  136.97910  160.26960
 9886.00000   85.33230  136.60040  162.73290
 9886.50000   85.04280  136.62310  161.95900
 9887.00000   85.10160  136.69810  157.64020
 9887.50000   85.34610  136.78260  156.89130
 9888.00000   85.86530  137.39730  159.13820
 9888.50000   86.15410  137.59050  162.34810
 9889.00000   86.51250  137.98400  163.93160
 9889.50000   86.28230  138.16280  162.76340
 9890.00000   85.98740  138.37580  162.28410
 9890.50000   85.69130  138.30290  161.44160
 9891.00000   85.03070  138.18430  159.72120
 9891.50000   84.88660  138.14440  153.64640
 9892.00000   84.74260  137.90590  150.00160
 9892.50000   84.74500  137.67400  133.76440
 9893.00000   84.78510  138.31610  132.56620
 9893.50000   84.65500  138.70020  131.36790
 9894.00000   84.42980  139.00750  132.24180
 9894.50000   84.09360  138.62490  138.10870
 9895.00000   83.44720  138.07070  145.89780
 9895.50000   82.95320  137.45620  145.74810
 9896.00000   82.17060  136.07090  139.73010
 9896.50000   81.42980  135.36300  129.94980
 9897.00000   80.68510  134.43120  120.16940
 9897.50000   80.73680  134.43360  111.44640
