~Version ---------------------------------------------------
VERS.   2.0 : CWLS log ASCII Standard -VERSION 2.0
WRAP.    NO : One line per depth step
DLM . SPACE : Column Data Section Delimiter
~Well ------------------------------------------------------
STRT .FT                8830.0 : START DEPTH
STOP .FT               10559.0 : STOP DEPTH
STEP .FT                   0.5 : STEP
NULL .                -9999.25 : NULL VALUE
COMP .                         : COMPANY
WELL .                         : WELL
FLD  .                         : FIELD
LOC  .                         : LOCATION
PROV .                         : PROVINCE
CNTY .                         : COUNTY
STAT .                         : STATE
CTRY .                         : COUNTRY
SRVC .                         : SERVICE COMPANY
DATE .                         : DATE
UWI  .                         : UNIQUE WELL ID
API  .                         : API NUMBER
SLAT .WGS84 1.9532597274116021 : SURFACE LATITUDE
SLON .WGS84  8.781415805266988 : SURFACE LONGITUDE
DATUM.F                    nan : DEPTH DATUM ELEV
~Curve Information -----------------------------------------
DEPT.FT    : 
DTCO.US/F  : DELTA-T COMPRESSIONAL
DTSM.US/F  : DELTA-T SHEAR
GRS .GAPI  : GAMMA RAY FROM SONIC LOG
~Params ----------------------------------------------------
~Other -----------------------------------------------------
~ASCII -----------------------------------------------------
# ...
 10422.50000   66.41120  111.17810   81.93200
 10423.00000   66.47750  110.40230   75.33290
 10423.50000   65.73010  109.46050   66.23440
 10424.00000   65.31320  108.51860   63.19700
 10424.50000   64.52380  107.95860   65.92050
 10425.00000   64.32720  107.77310   69.32600
 10425.50000   64.38300  107.61460   72.67130
 10426.00000   64.43880  108.23470   72.65850
 10426.50000   64.60250  109.39790   69.56070
 10427.00000   64.45840  111.02780   75.35100
 10427.50000   64.31950  111.17740   78.93500
 10428.00000   64.13740  111.10370   85.30600
 10428.50000   63.86490  111.00030   88.43060
 10429.00000   63.77320  110.81310   89.82550
 10429.50000   63.75240  111.17170   80.05990
 10430.00000   63.59680  111.25330   69.97810
 10430.50000   63.78860  111.31320   59.55110
 10431.00000   63.94880  112.72230   57.51470
 10431.50000   63.72850  113.29130   58.10580
 10432.00000   63.78470  113.85520   63.64420
 10432.50000   63.82530  114.41920   70.48570
 10433.00000   63.95510  115.41620   82.53980
 10433.50000   64.09680  116.14230   92.33250
 10434.00000   64.38890  118.36220   88.51580
 10434.50000   64.76620  121.91380   79.72850
 10435.00000   65.14360  122.31550   72.69800
 10435.50000   65.52090  122.68720   77.96660
 10436.00000   65.68700  123.54250   90.39400
 10436.50000   65.92810  124.88340   98.63800
 10437.00000   67.50770  126.22440  104.93700
 10437.50000   68.60240  127.21650  108.04570
 10438.00000   68.45310  126.81370  107.63170
 10438.50000   68.30380  126.41080  104.31250
 10439.00000   68.15450  126.00790  102.02770
 10439.50000   68.00510  125.60510  104.38490
 10440.00000   67.85580  125.20220  106.37420
 10440.50000   67.66140  124.79930  104.29920
 10441.00000   67.69230  124.39640   98.28380
 10441.50000   67.69240  124.05520   97.91020
 10442.00000   67.59940  123.90640  102.57030
 10442.50000   67.66280  124.17870  104.78980
 10443.00000   68.15490  124.85780  100.98450
 10443.50000   68.76860  125.53690   96.34200
 10444.00000   68.56320  126.21610   94.44550
 10444.50000   68.02870  126.89520   97.67760
 10445.00000   68.56200  127.21770  104.26450
 10445.50000   68.44440  127.25500  110.55190
 10446.00000   68.50350  127.43500  115.93580
 10446.50000   68.78220  127.61510  116.08050
 10447.00000   69.34400  127.72370  109.17770
 10447.50000   68.97280  127.72500  102.72780
 10448.00000   68.71030  127.52630  100.45170
 10448.50000   68.66710  127.37740  104.49950
 10449.00000   68.77020  127.07860  107.81560
 10449.50000   68.83230  127.35510  106.25730
 10450.00000   69.11820  127.53160  102.69110
 10450.50000   69.34380  127.17440   99.13170
 10451.00000   69.39180  126.98130  101.40710
 10451.50000   69.55400  126.88120  101.42520
 10452.00000   70.12460  126.88110  101.42890
 10452.50000   70.18460  126.93110  101.57190
 10453.00000   70.21470  126.28040  100.77760
 10453.50000   70.12460  126.53060  101.65490
 10454.00000   70.76720  126.63060  102.65820
 10454.50000   71.35580  125.39930  106.45060
 10455.00000   70.71960  123.98540  109.22870
 10455.50000   69.88680  122.57140  109.31380
 10456.00000   67.76180  121.15740  108.72320
 10456.50000   67.54160  120.18630  103.32150
 10457.00000   68.98300  119.20580   93.18860
 10457.50000   68.21720  117.82080   81.78200
 10458.00000   67.09100  114.81770   79.75860
 10458.50000   66.61050  112.41520   84.75350
 10459.00000   66.49040  112.26500   82.54810
 10459.50000   66.03990  111.78580   70.69390
 10460.00000   65.58940  111.08860   61.92780
 10460.50000   66.15990  110.39140   60.14140
 10461.00000   65.97220  109.96140   70.21020
 10461.50000   65.78450  110.11170   79.14090
 10462.00000   65.67940  110.36220   83.51910
 10462.50000   65.82520  110.56260   87.89720
 10463.00000   66.34000  110.61260   93.05060
 10463.50000   65.98480  110.29070   97.58680
 10464.00000   64.35940  109.50060   92.62090
 10464.50000   62.73400  108.12620   80.95590
 10465.00000   61.10860  106.65400   69.76260
 10465.50000   60.84350  105.18180   62.34790
 10466.00000   60.90350  104.00410   57.78330
 10466.50000   60.78340  103.45340   55.04440
 10467.00000   60.81760  103.05280   57.44070
 10467.50000   61.13930  104.87120   63.43190
 10468.00000   62.76520  107.06770   69.42310
 10468.50000   64.20680  108.26600   73.01770
 10469.00000   64.88300  109.30850   69.12280
 10469.50000   63.98140  114.22510   62.38200
 10470.00000   66.96370  115.52750   59.68580
 10470.50000   69.58870  119.15640   82.34160
 10471.00000   69.85910  119.78220   98.81820
 10471.50000   69.05140  119.63220  120.97480
 10472.00000   67.65510  117.48650  130.23410
 10472.50000   66.69150  115.39080  125.89100
 10473.00000   66.09550  113.29520  110.20090
 10473.50000   65.38520  110.19020   82.93870
 10474.00000   63.22310  106.83280   68.15090
 10474.50000   62.42250  104.86860   58.06570
 10475.00000   62.32250  105.36930   53.58130
 10475.50000   62.23250  105.66970   52.67970
 10476.00000   63.51070  108.98750   56.77110
 10476.50000   65.08370  113.58710   61.95260
 10477.00000   66.48230  116.13530   68.35140
 10477.50000   67.14310  118.83370   79.53140
 10478.00000   67.29600  119.83480   93.66610
 10478.50000   67.28060  120.80030  107.80080
 10479.00000   67.01410  121.64700  113.75410
 10479.50000   66.85580  121.88750  104.98700
 10480.00000   66.76870  121.98770   90.87480
 10480.50000   66.79820  121.83780   76.76270
 10481.00000   67.01780  121.53770   62.65050
 10481.50000   66.92450  121.12620   59.82780
 10482.00000   66.88230  120.56930   61.32540
 10482.50000   66.63580  120.01250   62.82290
 10483.00000   66.51510  119.45570   65.96820
 10483.50000   66.33330  118.89890   73.66160
 10484.00000   65.83810  118.34200   81.35510
 10484.50000   65.55410  117.78520   80.60280
 10485.00000   65.59700  117.40270   72.14460
 10485.50000   65.39240  117.02010   64.35660
 10486.00000   65.25640  116.63760   59.18210
 10486.50000   65.06730  116.53470   58.86470
 10487.00000   64.73220  117.02150   63.10320
 10487.50000   65.35850  117.50830   68.24980
 10488.00000   65.45000  117.99510   75.64070
 10488.50000   65.59150  118.53750   79.98560
 10489.00000   65.77920  119.16330   76.72350
 10489.50000   65.95940  120.01430   74.56960
 10490.00000   66.04960  121.20320   75.90230
 10490.50000   66.58200  122.39210   82.55270
 10491.00000   67.16910  124.23990   94.61050
 10491.50000   67.73410  125.23070  103.89720
 10492.00000   68.64760  126.22150  117.04060
 10492.50000   69.56110  127.21220  117.14020
 10493.00000   70.70490  128.20300  117.03990
 10493.50000   70.38760  128.69950  111.98450
 10494.00000   69.68410  128.69970  114.01520
 10494.50000   68.63320  127.28180  117.82580
 10495.00000   67.94260  126.14750  116.80670
 10495.50000   66.63140  123.97060  112.58230
 10496.00000   63.87880  120.50890  102.89940
 10496.50000   61.12610  117.33930   92.80930
 10497.00000   61.15630  115.33750   78.42910
 10497.50000   61.15640  114.33670   70.63970
 10498.00000   61.53190  114.85400   60.85330
 10498.50000   62.32030  116.14720   54.45730
 10499.00000   64.09970  117.44030   59.11190
 10499.50000   65.57830  119.03140   76.08280
 10500.00000   66.69130  120.62240   90.21270
 10500.50000   67.80430  121.98710  104.34260
 10501.00000   68.69470  122.44610  122.46480
 10501.50000   68.60470  122.09590  128.52550
 10502.00000   67.59540  120.59460  131.56350
 10502.50000   66.37120  119.09330  121.24390
 10503.00000   65.05150  118.14250   98.49700
 10503.50000   63.50010  113.70830   81.10010
 10504.00000   62.41910  108.22800   73.50600
 10504.50000   62.18350  107.08200   68.50010
 10505.00000   61.88360  107.26100   66.64610
 10505.50000   62.17000  107.38270   64.11810
 10506.00000   62.62930  107.73320   65.03250
 10506.50000   63.06270  108.43420   74.66160
 10507.00000   63.54840  110.18610   82.01830
 10507.50000   63.73940  111.93800   86.18590
 10508.00000   64.00890  113.33960   82.51450
 10508.50000   64.03390  114.21570   81.58800
 10509.00000   64.16700  115.19180   85.31140
