~Version ---------------------------------------------------
VERS.   2.0 : CWLS log ASCII Standard -VERSION 2.0
WRAP.    NO : One line per depth step
DLM . SPACE : Column Data Section Delimiter
~Well ------------------------------------------------------
STRT .FT                8830.0 : START DEPTH
STOP .FT               10559.0 : STOP DEPTH
STEP .FT                   0.5 : STEP
NULL .                -9999.25 : NULL VALUE
COMP .                         : COMPANY
WELL .                         : WELL
FLD  .                         : FIELD
LOC  .                         : LOCATION
PROV .                         : PROVINCE
CNTY .                         : COUNTY
STAT .                         : STATE
CTRY .                         : COUNTRY
SRVC .                         : SERVICE COMPANY
DATE .                         : DATE
UWI  .                         : UNIQUE WELL ID
API  .                         : API NUMBER
SLAT .WGS84 1.9532597274116021 : SURFACE LATITUDE
SLON .WGS84  8.781415805266988 : SURFACE LONGITUDE
DATUM.F                    nan : DEPTH DATUM ELEV
~Curve Information -----------------------------------------
DEPT.FT    : 
DTCO.US/F  : DELTA-T COMPRESSIONAL
DTSM.US/F  : DELTA-T SHEAR
GRS .GAPI  : GAMMA RAY FROM SONIC LOG
~Params ----------------------------------------------------
~Other -----------------------------------------------------
~ASCII -----------------------------------------------------
# ...
 10074.50000   64.26500  108.24230   50.80490
 10075.00000   65.55840  108.68490   45.74240
 10075.50000   66.42680  109.60170   49.50000
 10076.00000   68.21630  112.18420   64.92460
 10076.50000   70.00580  114.76670   79.65930
 10077.00000   71.62740  117.34910   86.89140
 10077.50000   73.42590  119.93160   90.91530
 10078.00000   75.09430  122.19780   94.11930
 10078.50000   76.64600  124.95040   96.54320
 10079.00000   76.83410  125.70110   92.21230
 10079.50000   76.81800  126.07130   92.98320
 10080.00000   76.43820  126.10130   95.55610
 10080.50000   76.22230  125.95100   98.07800
 10081.00000   76.28180  125.30020   97.74620
 10081.50000   75.83610  124.29910   94.62200
 10082.00000   74.32790  123.29800   91.65320
 10082.50000   73.48620  122.39700   90.53270
 10083.00000   71.80360  119.86940   87.73400
 10083.50000   69.88160  117.34170   92.70870
 10084.00000   67.00650  114.81410   86.76770
 10084.50000   66.34390  112.28640   72.15810
 10085.00000   66.63810  112.23630   58.67780
 10085.50000   67.39750  113.01820   42.48040
 10086.00000   68.47550  114.34750   47.20330
 10086.50000   69.70100  115.67690   68.86590
 10087.00000   71.68290  116.74040   84.74440
 10087.50000   72.94410  118.84230   97.71620
 10088.00000   74.47300  121.11950  101.67150
 10088.50000   75.35320  123.79710   99.44890
 10089.00000   75.13130  124.29750   98.55820
 10089.50000   74.51830  123.99710   98.78160
 10090.00000   73.31170  122.74570   99.12820
 10090.50000   71.93180  120.82700   91.93980
 10091.00000   71.13960  118.74150   84.30130
 10091.50000   71.13740  118.59120   77.26190
 10092.00000   71.55590  118.64120   71.98860
 10092.50000   71.96810  118.94140   71.38310
 10093.00000   72.52650  120.07240   78.46270
 10093.50000   73.29310  121.42360   90.14720
 10094.00000   73.71610  122.77490  106.19210
 10094.50000   73.81830  123.19520  111.10240
 10095.00000   74.22260  123.39530  107.80880
 10095.50000   74.49010  123.64540  103.63140
 10096.00000   74.15510  123.89550   93.25070
 10096.50000   73.93530  123.89540   84.41280
 10097.00000   74.04980  123.10790   79.14390
 10097.50000   74.05180  122.12340   78.66040
 10098.00000   74.05390  121.13900   82.79930
 10098.50000   73.92980  120.42900   86.26040
 10099.00000   73.81350  119.74070   93.45110
 10099.50000   73.45760  119.14000  100.50440
 10100.00000   72.55190  118.98980  106.14710
 10100.50000   71.50770  117.91000   98.55320
 10101.00000   71.25280  115.83640   86.86350
 10101.50000   71.58840  115.88630   76.07930
 10102.00000   71.74100  116.11140   61.70910
 10102.50000   71.76920  115.98620   53.36270
 10103.00000   71.72950  115.88600   64.20850
 10103.50000   71.65070  116.17310   82.37370
 10104.00000   71.29030  116.65180  105.35200
 10104.50000   71.29030  117.13040  109.14990
 10105.00000   71.33390  117.60900  100.16330
 10105.50000   71.12650  118.08760   91.17670
 10106.00000   70.38240  117.83730   76.61450
 10106.50000   69.07940  113.45780   64.66540
 10107.00000   67.77640  112.08130   67.71630
 10107.50000   66.38110  110.90280   75.60560
 10108.00000   65.88730  109.35570   80.69530
 10108.50000   65.82420  108.55600   76.26730
 10109.00000   65.96830  108.87770   57.81660
 10109.50000   66.05570  109.32800   43.28310
 10110.00000   66.47790  109.67820   41.71590
 10110.50000   67.66800  110.17860   49.73030
 10111.00000   68.61670  111.37420   71.66700
 10111.50000   69.32060  112.68090   76.09490
 10112.00000   69.81200  115.60520   71.37870
 10112.50000   72.40740  117.83590   74.57710
 10113.00000   73.74150  118.11600   85.68390
 10113.50000   74.13610  118.48630   98.41830
 10114.00000   74.10600  118.48620   92.44670
 10114.50000   73.22990  117.64150   85.28410
 10115.00000   72.17220  116.73420   85.58440
 10115.50000   71.11460  115.31600   89.36290
 10116.00000   70.05690  113.60590   87.00260
 10116.50000   69.19580  111.89570   78.19990
 10117.00000   69.18070  110.52760   71.31040
 10117.50000   69.86490  110.47740   63.06710
 10118.00000   70.68260  112.00380   57.89290
 10118.50000   71.69640  113.38010   60.07310
 10119.00000   72.87990  115.98550   70.41480
 10119.50000   74.38140  118.59100   87.79120
 10120.00000   75.53970  121.19640  100.62700
 10120.50000   76.78360  123.17410  106.36680
 10121.00000   77.32120  124.73320  110.20980
 10121.50000   77.58370  126.29240  111.87940
 10122.00000   77.35050  125.29640  106.49260
 10122.50000   74.88620  123.55320   98.28120
 10123.00000   73.29980  121.81000   92.29040
 10123.50000   72.33880  120.06670   88.26030
 10124.00000   71.87290  118.32350   87.51520
 10124.50000   71.07490  116.58030   82.40240
 10125.00000   70.53680  116.13140   71.89690
 10125.50000   70.15740  115.89780   65.74360
 10126.00000   70.35830  115.88100   75.18930
 10126.50000   70.60090  116.74960   90.11780
 10127.00000   71.07710  117.51810   94.74610
 10127.50000   71.97790  118.13290   89.13320
 10128.00000   72.41770  118.42310   87.74650
 10128.50000   72.66250  118.72330   90.83640
 10129.00000   72.25580  118.53300   93.66940
 10129.50000   71.61980  117.23150   94.65940
 10130.00000   70.91690  115.93010   87.39530
 10130.50000   70.47600  114.62870   77.67910
 10131.00000   69.67150  113.32730   71.54950
 10131.50000   68.85430  112.02590   70.32850
 10132.00000   67.66430  110.37140   73.87220
 10132.50000   66.40870  108.71680   74.87820
 10133.00000   64.28950  107.06230   74.98020
 10133.50000   63.26840  105.62910   74.01660
 10134.00000   61.94920  104.81810   66.60900
 10134.50000   60.98600  102.97530   55.16030
 10135.00000   59.54450  101.13240   45.87410
 10135.50000   58.25310   99.28960   37.08500
 10136.00000   57.86630   97.44670   36.29810
 10136.50000   58.07650   96.70950   37.17410
 10137.00000   58.89320   97.68030   37.43180
 10137.50000   60.20480   99.85740   33.66970
 10138.00000   62.49050  101.46390   33.73970
 10138.50000   63.78020  102.94530   48.57590
 10139.00000   64.92770  104.84710   73.74150
 10139.50000   65.36640  106.36850   86.73620
 10140.00000   65.96570  107.04980   87.03650
 10140.50000   66.87110  108.12770   80.28190
 10141.00000   68.19240  109.20560   71.83850
 10141.50000   68.88870  110.98270   59.66510
 10142.00000   70.21850  112.93450   44.40850
 10142.50000   71.18860  114.88640   36.11170
 10143.00000   72.06600  117.08680   52.40970
 10143.50000   73.29710  119.34940   72.78200
 10144.00000   75.47430  121.61190   93.15430
 10144.50000   76.30440  123.87450  106.28450
 10145.00000   76.72040  126.13710  107.49540
 10145.50000   77.29090  126.67840  104.00920
 10146.00000   77.54760  127.15600   99.30620
 10146.50000   77.44350  127.53810   92.39560
 10147.00000   77.17050  127.32110   87.23510
 10147.50000   76.96790  126.65370   91.54210
 10148.00000   76.50280  125.98630   99.12720
 10148.50000   76.08580  125.31880  104.43330
 10149.00000   76.49290  125.23530  106.95080
 10149.50000   77.19280  126.38630  103.22780
 10150.00000   77.62990  127.53740   94.31900
 10150.50000   77.77070  128.68840   89.49200
 10151.00000   77.44030  128.68830   93.59860
 10151.50000   76.68900  128.02170  102.22110
 10152.00000   75.89150  127.37620  115.28020
 10152.50000   75.27790  126.73080  118.63040
 10153.00000   74.49120  126.08530  111.81000
 10153.50000   74.00540  125.52830  101.04810
 10154.00000   73.64860  124.74620   88.28030
 10154.50000   71.91430  123.03190   83.31450
 10155.00000   70.57150  119.52830   86.63320
 10155.50000   69.33160  118.36030   89.04580
 10156.00000   68.75190  116.90540   80.98140
 10156.50000   68.90020  115.37880   72.27080
 10157.00000   69.33140  115.02330   57.33740
 10157.50000   69.91000  115.50060   48.86740
 10158.00000   70.53180  116.88650   55.39490
 10158.50000   71.91380  118.27240   67.48070
 10159.00000   72.51430  119.27710   84.25810
 10159.50000   73.89560  120.02780   96.84130
 10160.00000   76.10240  123.31220  103.33270
 10160.50000   77.12530  125.90840  109.36780
 10161.00000   77.35880  127.47240  113.63160
