~Version ---------------------------------------------------
VERS.   2.0 : CWLS log ASCII Standard -VERSION 2.0
WRAP.    NO : One line per depth step
DLM . SPACE : Column Data Section Delimiter
~Well ------------------------------------------------------
STRT .FT                8830.0 : START DEPTH
STOP .FT               10559.0 : STOP DEPTH
STEP .FT                   0.5 : STEP
NULL .                -9999.25 : NULL VALUE
COMP .                         : COMPANY
WELL .                         : WELL
FLD  .                         : FIELD
LOC  .                         : LOCATION
PROV .                         : PROVINCE
CNTY .                         : COUNTY
STAT .                         : STATE
CTRY .                         : COUNTRY
SRVC .                         : SERVICE COMPANY
DATE .                         : DATE
UWI  .                         : UNIQUE WELL ID
API  .                         : API NUMBER
SLAT .WGS84 1.9532597274116021 : SURFACE LATITUDE
SLON .WGS84  8.781415805266988 : SURFACE LONGITUDE
DATUM.F                    nan : DEPTH DATUM ELEV
~Curve Information -----------------------------------------
DEPT.FT    : 
DTCO.US/F  : DELTA-T COMPRESSIONAL
DTSM.US/F  : DELTA-T SHEAR
GRS .GAPI  : GAMMA RAY FROM SONIC LOG
~Params ----------------------------------------------------
~Other -----------------------------------------------------
~ASCII -----------------------------------------------------
# ...
 10248.50000   69.49130  125.07350   70.93150
 10249.00000   69.16000  122.84110   60.97100
 10249.50000   68.33280  121.89060   76.69120
 10250.00000   68.35990  121.02060  100.89400
 10250.50000   68.82220  121.34270  110.75650
 10251.00000   69.47620  121.97580  109.93660
 10251.50000   70.19070  122.42300  102.65330
 10252.00000   70.48180  122.66170   95.30400
 10252.50000   70.37160  122.90050   92.72650
 10253.00000   70.72190  122.56070   94.34080
 10253.50000   70.91920  121.68590   97.72430
 10254.00000   70.85500  121.42440   99.11890
 10254.50000   70.72630  121.66880  100.25560
 10255.00000   70.74480  121.86420   99.87240
 10255.50000   70.93170  121.94380   98.46350
 10256.00000   71.22660  122.11990   99.07120
 10256.50000   71.21800  121.83520  100.70450
 10257.00000   71.00980  121.44580  101.76050
 10257.50000   70.82160  121.14520  102.72870
 10258.00000   70.18460  120.46690  102.13110
 10258.50000   69.32510  119.45810  104.55080
 10259.00000   67.95030  118.72840  103.93990
 10259.50000   67.06340  117.99870   99.80020
 10260.00000   66.13420  117.19590   92.28490
 10260.50000   64.42990  116.10100   84.38870
 10261.00000   62.94340  114.04130   76.75880
 10261.50000   62.35770  111.33850   72.10700
 10262.00000   62.20750  109.64000   65.26710
 10262.50000   62.07870  108.61110   57.67860
 10263.00000   62.07870  107.22110   56.41810
 10263.50000   62.22730  106.51370   60.02550
 10264.00000   63.09000  106.32350   66.04320
 10264.50000   63.07420  106.16460   65.89610
 10265.00000   62.56750  106.22610   62.40510
 10265.50000   62.27740  106.01250   60.70650
 10266.00000   62.20700  105.31990   63.50390
 10266.50000   61.86630  104.62740   68.83410
 10267.00000   61.94280  104.35030   71.71480
 10267.50000   62.11720  104.55040   66.42150
 10268.00000   62.45790  106.22240   57.88920
 10268.50000   63.83690  107.84430   54.43610
 10269.00000   64.95340  109.84450   65.52440
 10269.50000   65.10390  111.60740   77.50810
 10270.00000   65.18660  113.37030   96.66610
 10270.50000   67.01120  115.40910  106.38100
 10271.00000   67.88690  116.30990  108.47860
 10271.50000   68.09870  116.72000  105.21370
 10272.00000   68.11800  116.89160   89.17220
 10272.50000   67.46140  116.27140   83.79220
 10273.00000   66.73140  114.29500   90.51370
 10273.50000   66.04990  112.50270   97.87240
 10274.00000   64.62720  109.84120   99.49440
 10274.50000   63.81580  107.19110   83.42400
 10275.00000   63.75780  106.21210   75.41440
 10275.50000   63.95360  105.93970   72.72140
 10276.00000   63.82750  105.66730   67.56090
 10276.50000   64.30800  105.95580   61.69850
 10277.00000   65.23070  106.73580   59.65350
 10277.50000   64.97790  107.51590   70.32690
 10278.00000   64.18900  108.29600   81.86130
 10278.50000   63.28650  108.65210   95.39650
 10279.00000   62.32540  108.65200  100.90220
 10279.50000   61.46290  107.01700   95.55490
 10280.00000   60.34320  105.43190   78.54360
 10280.50000   59.20210  102.39400   63.73940
 10281.00000   57.73060  100.69210   52.18760
 10281.50000   57.45400   98.88060   49.79130
 10282.00000   57.01880   98.12940   51.34730
 10282.50000   57.04310   98.21740   52.88780
 10283.00000   58.72130   98.77090   56.25270
 10283.50000   59.41760  100.27170   63.21570
 10284.00000   60.81800  101.69170   66.53290
 10284.50000   61.78420  102.74340   66.81940
 10285.00000   63.88620  106.06360   69.12830
 10285.50000   64.30210  108.23320   74.55820
 10286.00000   64.81700  110.10200   78.25620
 10286.50000   65.14730  112.10390   80.63450
 10287.00000   66.00750  113.05470   84.53720
 10287.50000   66.28830  114.00560   95.80960
 10288.00000   66.08480  114.19850  107.08200
 10288.50000   66.05440  114.30570  108.09750
 10289.00000   65.96950  114.55580  107.50330
 10289.50000   66.02450  114.80590  100.29810
 10290.00000   65.77460  114.90800   90.05020
 10290.50000   65.51100  114.65120   82.87070
 10291.00000   65.43330  114.57010   85.98800
 10291.50000   65.57940  114.55200   94.60830
 10292.00000   65.69710  115.22440   96.93890
 10292.50000   66.28770  115.99880   96.61690
 10293.00000   67.96930  116.56770   99.10360
 10293.50000   68.30100  116.90190  102.98300
 10294.00000   68.51150  117.51880  105.73050
 10294.50000   68.24100  117.40980  107.19850
 10295.00000   67.64290  116.98260  108.89950
 10295.50000   67.75870  116.95530  108.53750
 10296.00000   67.97080  116.45470  103.84130
 10296.50000   67.48830  116.09040   95.81200
 10297.00000   66.10690  115.51760   90.03890
 10297.50000   65.65490  114.71530   86.90930
 10298.00000   65.46310  113.85540   94.92110
 10298.50000   65.44380  113.72430   99.24660
 10299.00000   65.88080  113.51780   94.31050
 10299.50000   66.14590  113.48600   84.09120
 10300.00000   66.39470  113.76130   84.64560
 10300.50000   66.27460  114.20240   96.66830
 10301.00000   65.32560  113.85700  106.41430
 10301.50000   64.56170  113.04240  103.22080
 10302.00000   63.28730  111.23810   99.22880
 10302.50000   62.14220  109.43390   94.91980
 10303.00000   60.33230  107.62960   87.43090
 10303.50000   60.04220  105.82540   73.05150
 10304.00000   60.38920  104.74280   61.64380
 10304.50000   60.55040  104.74270   58.07360
 10305.00000   61.12090  106.33160   62.89530
 10305.50000   61.89440  107.27000   71.25620
 10306.00000   62.79130  108.20830   82.82110
 10306.50000   63.95620  109.28430   96.12250
 10307.00000   65.12110  111.00460  105.37260
 10307.50000   66.02520  112.72500  102.46870
 10308.00000   66.53810  114.23710   94.42890
 10308.50000   67.05110  114.91620   86.53810
 10309.00000   67.05530  115.05200   90.15930
 10309.50000   66.77640  114.51250   93.46990
 10310.00000   66.49750  113.83820   94.99160
 10310.50000   66.30010  113.16390   95.45330
 10311.00000   66.41010  112.75480   96.08970
 10311.50000   66.52020  112.85210   93.03830
 10312.00000   66.63020  113.06300   89.20050
 10312.50000   66.74030  113.70220   89.05120
 10313.00000   66.85030  113.84840   94.45210
 10313.50000   66.96040  113.93020   99.85300
 10314.00000   66.96030  113.88460  105.25390
 10314.50000   66.93020  113.84810  109.57470
 10315.00000   67.23040  114.04820  109.57520
 10315.50000   67.35050  114.24830   97.74230
 10316.00000   67.30020  114.17560   87.58940
 10316.50000   66.89880  113.45450   85.64820
 10317.00000   66.16440  111.97170   91.90330
 10317.50000   64.66280  110.66930   98.83080
 10318.00000   63.15090  108.89700  104.31880
 10318.50000   62.42370  106.43340  102.25580
 10319.00000   62.14010  105.53810   90.08660
 10319.50000   62.54360  105.12830   78.44800
 10320.00000   62.15730  104.99180   69.13720
 10320.50000   61.86960  104.76320   71.90900
 10321.00000   61.68070  104.53450   79.21180
 10321.50000   61.63280  104.48870   86.51460
 10322.00000   62.07370  105.48040   88.81850
 10322.50000   62.75050  106.21270   90.59960
 10323.00000   63.22430  106.75770   89.82480
 10323.50000   62.37980  107.08130   86.25650
 10324.00000   62.09580  107.40500   86.63720
 10324.50000   62.29280  107.32200   91.99530
 10325.00000   62.59400  106.88890  101.03100
 10325.50000   62.84020  107.10870   95.67340
 10326.00000   63.91890  107.65370   82.65260
 10326.50000   64.41390  108.22800   70.64230
 10327.00000   64.35410  108.57930   75.76800
 10327.50000   64.21600  109.04050   84.31040
 10328.00000   64.24530  109.67670   94.33540
 10328.50000   64.72440  109.79830   97.61930
 10329.00000   65.17350  110.71930   92.66340
 10329.50000   65.45530  111.33750   86.25020
 10330.00000   64.42860  111.22730   79.95960
 10330.50000   64.13130  111.26540   87.70740
 10331.00000   63.84790  110.78370   98.29650
 10331.50000   63.64050  110.00370  104.94970
 10332.00000   63.47450  109.69170   97.17310
 10332.50000   64.15320  110.48550   83.52110
 10333.00000   64.55340  111.49180   84.32230
 10333.50000   64.62130  112.26690   91.55830
 10334.00000   63.86840  112.17900   91.05130
 10334.50000   63.59390  111.67040   88.06440
 10335.00000   63.25270  111.54210   92.56300
