~Version ---------------------------------------------------
VERS.   2.0 : CWLS log ASCII Standard -VERSION 2.0
WRAP.    NO : One line per depth step
DLM . SPACE : Column Data Section Delimiter
~Well ------------------------------------------------------
STRT .FT                8830.0 : START DEPTH
STOP .FT               10559.0 : STOP DEPTH
STEP .FT                   0.5 : STEP
NULL .                -9999.25 : NULL VALUE
COMP .                         : COMPANY
WELL .                         : WELL
FLD  .                         : FIELD
LOC  .                         : LOCATION
PROV .                         : PROVINCE
CNTY .                         : COUNTY
STAT .                         : STATE
CTRY .                         : COUNTRY
SRVC .                         : SERVICE COMPANY
DATE .                         : DATE
UWI  .                         : UNIQUE WELL ID
API  .                         : API NUMBER
SLAT .WGS84 1.9532597274116021 : SURFACE LATITUDE
SLON .WGS84  8.781415805266988 : SURFACE LONGITUDE
DATUM.F                    nan : DEPTH DATUM ELEV
~Curve Information -----------------------------------------
DEPT.FT    : 
DTCO.US/F  : DELTA-T COMPRESSIONAL
DTSM.US/F  : DELTA-T SHEAR
GRS .GAPI  : GAMMA RAY FROM SONIC LOG
~Params ----------------------------------------------------
~Other -----------------------------------------------------
~ASCII -----------------------------------------------------
# ...
 9186.00000   81.79770  137.99220   93.78620
 9186.50000   82.12920  138.65890   96.13900
 9187.00000   82.35530  139.80800   99.32980
 9187.50000   82.18620  139.77580   98.38190
 9188.00000   81.64260  139.13230   96.45030
 9188.50000   81.47500  138.33430   91.46430
 9189.00000   81.51880  138.13630   93.79970
 9189.50000   81.22780  138.39810   94.57910
 9190.00000   81.01880  138.65980   91.76930
 9190.50000   81.18280  139.61600   87.35880
 9191.00000   81.62120  140.36480   91.43100
 9191.50000   81.95520  140.78610   99.39510
 9192.00000   81.76180  140.08190  105.01680
 9192.50000   81.27830  139.00260  105.37320
 9193.00000   80.87420  139.00270  106.68020
 9193.50000   80.75350  138.87760  103.12590
 9194.00000   80.47580  138.81510   98.04910
 9194.50000   80.47780  138.84640   94.30270
 9195.00000   80.96480  138.45230   91.56610
 9195.50000   81.50360  138.05200   90.33340
 9196.00000   82.25880  141.29700   90.70790
 9196.50000   82.82680  142.20620   95.50130
 9197.00000   83.69360  144.35840   98.87160
 9197.50000   84.17820  144.00810  101.79260
 9198.00000   84.34220  142.50670  106.23170
 9198.50000   84.35560  141.40560  110.48060
 9199.00000   84.19400  141.91620  106.99310
 9199.50000   83.81540  142.49180  101.92530
 9200.00000   82.78610  142.45680   97.88660
 9200.50000   81.86610  138.58080   99.65620
 9201.00000   79.76400  133.79830   97.81420
 9201.50000   79.07330  132.69010   94.00420
 9202.00000   78.13050  130.94550   87.77030
 9202.50000   76.76110  128.54320   82.65320
 9203.00000   74.29870  125.79050   79.13410
 9203.50000   73.36210  123.03780   82.63820
 9204.00000   72.68540  122.48730   84.08060
 9204.50000   72.61240  122.43730   78.95780
 9205.00000   73.75430  122.70660   60.58270
 9205.50000   74.85840  124.05330   50.22820
 9206.00000   75.73990  125.39990   54.68110
 9206.50000   76.40060  126.74660   73.94970
 9207.00000   76.20240  128.09320   93.21820
 9207.50000   75.86010  128.19330   94.56640
 9208.00000   76.56080  127.56780   92.11390
 9208.50000   76.97130  126.94220   88.31320
 9209.00000   76.83120  125.97460   81.64420
 9209.50000   76.13070  124.69000   75.03800
 9210.00000   75.43020  122.14070   72.09830
 9210.50000   75.07990  119.59130   83.52020
 9211.00000   74.32920  117.04190   94.19270
 9211.50000   74.32500  116.33190  100.70840
 9212.00000   73.24720  115.23080   96.12290
 9212.50000   69.55450  113.24970   91.60910
 9213.00000   68.28860  111.26860   84.71890
 9213.50000   68.02880  110.47620   79.62610
 9214.00000   67.33260  110.42620   68.93820
 9214.50000   67.81630  110.52640   61.35180
 9215.00000   68.17150  111.80270   46.48490
 9215.50000   69.22430  113.21040   44.38790
 9216.00000   71.18780  114.61810   57.07920
 9216.50000   75.38060  118.96830   72.13700
 9217.00000   76.34640  125.28030   90.71110
 9217.50000   76.55970  127.61560   97.76680
 9218.00000   77.48270  128.82000  100.52010
 9218.50000   77.69220  130.02440  101.81320
 9219.00000   78.07830  130.74700  103.13120
 9219.50000   77.72080  130.94730  100.43960
 9220.00000   77.58580  130.99740   94.44010
 9220.50000   77.40780  130.72340   92.27880
 9221.00000   76.96080  130.44930   94.90580
 9221.50000   77.01720  130.17530   96.63170
 9222.00000   77.02250  129.90130   98.46220
 9222.50000   77.19660  129.89650   97.63830
 9223.00000   77.60320  130.96020   97.42250
 9223.50000   78.53000  132.49300   96.10450
 9224.00000   79.04940  134.02580   99.04190
 9224.50000   79.88550  135.66360   98.50130
 9225.00000   80.72640  137.72130   97.16800
 9225.50000   81.89650  139.77890   96.67280
 9226.00000   82.36810  141.83660   96.41040
 9226.50000   83.06880  143.41040   97.97410
 9227.00000   83.47540  144.23630   98.78990
 9227.50000   83.57730  144.91210  100.65630
 9228.00000   83.17000  144.51170   99.89090
 9228.50000   83.00890  143.26050   98.49250
 9229.00000   81.97510  142.00930   98.09440
 9229.50000   80.90670  140.13250   97.17530
 9230.00000   80.41590  138.25570   97.77250
 9230.50000   80.53150  137.90530   97.35780
 9231.00000   80.87270  137.15460   91.91150
 9231.50000   80.99920  136.65420   85.65010
 9232.00000   81.98290  138.19430   85.81370
 9232.50000   83.05780  139.73430   92.21130
 9233.00000   83.73280  140.97200   99.10170
 9233.50000   84.19540  141.75620  104.31300
 9234.00000   84.39560  142.54030  105.75330
 9234.50000   84.47650  143.01090  105.93690
 9235.00000   83.72090  140.65860  104.53140
 9235.50000   82.31000  139.58610  102.75680
 9236.00000   79.65000  136.26680   99.24610
 9236.50000   78.38480  131.44950   94.60860
 9237.00000   75.86230  129.34740   90.71410
 9237.50000   74.72120  126.56610   85.36530
 9238.00000   74.09970  122.91970   80.56240
 9238.50000   73.82030  122.09030   75.75940
 9239.00000   74.15930  121.40640   74.64900
 9239.50000   74.39410  120.26640   78.24990
 9240.00000   75.28860  119.93830   84.27080
 9240.50000   76.30470  120.29710   88.57470
 9241.00000   76.64330  121.06180   89.65900
 9241.50000   77.14440  121.82650   88.25460
 9242.00000   77.17130  122.59120   88.99740
 9242.50000   76.66950  122.54120   91.61360
 9243.00000   75.38200  121.16290   90.95940
 9243.50000   74.30070  119.56520   86.66120
 9244.00000   70.57600  117.96750   82.69080
 9244.50000   68.23180  116.36980   76.64560
 9245.00000   68.35080  114.77210   64.20230
 9245.50000   68.71840  113.53250   50.15940
 9246.00000   69.23530  112.73170   36.11660
 9246.50000   69.85180  112.13120   33.45780
 9247.00000   70.46820  112.70020   49.35080
 9247.50000   71.11780  113.41150   68.84250
 9248.00000   72.09480  114.12280   88.86560
 9248.50000   72.42450  114.83410   95.32150
 9249.00000   72.73080  114.97430   92.21380
 9249.50000   72.43960  115.14950   96.67240
 9250.00000   71.67350  115.33470   98.02460
 9250.50000   71.28610  114.72050   90.20070
 9251.00000   71.27780  114.10630   80.68750
 9251.50000   71.28960  113.93350   77.04760
 9252.00000   71.71450  114.08370   84.29490
 9252.50000   72.36170  114.47700   94.31140
 9253.00000   73.30220  114.87030  112.88550
 9253.50000   74.00140  115.26360  122.38300
 9254.00000   74.74200  115.65690  121.18660
 9254.50000   75.06110  116.05020  113.18530
 9255.00000   75.26500  116.28620  105.09670
 9255.50000   75.35260  116.39350  100.40770
 9256.00000   75.43410  116.48650   98.78770
 9256.50000   75.23700  116.48650   98.32080
 9257.00000   75.23700  116.48660  104.79740
 9257.50000   75.40950  116.62430  116.33130
 9258.00000   75.69530  117.31250  123.40260
 9258.50000   76.04810  118.00080  124.53100
 9259.00000   76.40090  118.68900  114.92350
 9259.50000   76.75360  118.92140  106.27300
 9260.00000   76.93830  119.15380  104.65960
 9260.50000   76.94880  119.38980  106.23120
 9261.00000   76.90330  119.49000  100.60380
 9261.50000   76.79800  119.10500   92.51520
 9262.00000   76.44410  118.72010   78.61400
 9262.50000   75.82830  118.33510   70.63300
 9263.00000   75.40070  117.95020   69.41000
 9263.50000   74.53290  117.56520   70.39310
 9264.00000   74.07170  117.53830   72.47640
 9264.50000   73.85270  117.86370   74.73210
 9265.00000   73.85920  118.88980   75.19690
 9265.50000   74.33240  120.64160   76.63810
 9266.00000   74.98380  121.89290   80.53740
 9266.50000   75.86400  122.29330   85.62560
 9267.00000   76.43660  123.40700   92.51610
 9267.50000   77.24550  124.52070   96.37070
 9268.00000   77.87760  125.63430   97.54630
 9268.50000   78.68820  126.74800   94.96620
 9269.00000   78.83680  127.04000   96.30700
 9269.50000   78.69960  126.86700   97.97480
 9270.00000   78.35650  126.21010  103.30210
 9270.50000   78.01350  125.55330   99.63840
 9271.00000   77.78850  124.84630   93.71500
 9271.50000   77.47950  124.57530   86.74330
 9272.00000   77.54120  124.30420   81.31250
 9272.50000   77.81530  124.04570   75.25350
 9273.00000   77.75630  124.21260   72.34090
 9273.50000   77.63900  123.87340   69.55480
 9274.00000   77.33350  124.01250   67.06150
 9274.50000   75.92460  124.36290   73.23360
