~Version ---------------------------------------------------
VERS.   2.0 : CWLS log ASCII Standard -VERSION 2.0
WRAP.    NO : One line per depth step
DLM . SPACE : Column Data Section Delimiter
~Well ------------------------------------------------------
STRT .FT                8830.0 : START DEPTH
STOP .FT               10559.0 : STOP DEPTH
STEP .FT                   0.5 : STEP
NULL .                -9999.25 : NULL VALUE
COMP .                         : COMPANY
WELL .                         : WELL
FLD  .                         : FIELD
LOC  .                         : LOCATION
PROV .                         : PROVINCE
CNTY .                         : COUNTY
STAT .                         : STATE
CTRY .                         : COUNTRY
SRVC .                         : SERVICE COMPANY
DATE .                         : DATE
UWI  .                         : UNIQUE WELL ID
API  .                         : API NUMBER
SLAT .WGS84 1.9532597274116021 : SURFACE LATITUDE
SLON .WGS84  8.781415805266988 : SURFACE LONGITUDE
DATUM.F                    nan : DEPTH DATUM ELEV
~Curve Information -----------------------------------------
DEPT.FT    : 
DTCO.US/F  : DELTA-T COMPRESSIONAL
DTSM.US/F  : DELTA-T SHEAR
GRS .GAPI  : GAMMA RAY FROM SONIC LOG
~Params ----------------------------------------------------
~Other -----------------------------------------------------
~ASCII -----------------------------------------------------
# ...
 9542.00000   73.64920  119.29850   91.93890
 9542.50000   74.32960  121.08620   72.17330
 9543.00000   74.28040  121.53320   67.65450
 9543.50000   73.54700  121.81250   79.57790
 9544.00000   71.39450  120.65380   94.48210
 9544.50000   69.68860  118.66980   97.91240
 9545.00000   68.75710  117.35820   97.16350
 9545.50000   70.43450  118.04280   76.68000
 9546.00000   70.46320  118.88200   59.50480
 9546.50000   70.44500  119.44860   39.94380
 9547.00000   70.42760  118.94320   42.93970
 9547.50000   69.81710  117.73150   65.29630
 9548.00000   69.88470  116.71120   84.19650
 9548.50000   70.04760  116.62850   98.21250
 9549.00000   69.89300  115.84650   87.22800
 9549.50000   68.67380  115.18210   68.92040
 9550.00000   66.09670  113.53880   64.95930
 9550.50000   64.27180  111.15810   72.57370
 9551.00000   62.77750  108.77730   74.39620
 9551.50000   63.40990  107.29880   56.87090
 9552.00000   64.81700  108.38750   35.71300
 9552.50000   66.15150  110.85900   22.71880
 9553.00000   67.21260  113.33060   35.30130
 9553.50000   67.95150  115.35740   56.52160
 9554.00000   68.62450  117.61990   94.31880
 9554.50000   71.10820  119.88240  111.24520
 9555.00000   71.94890  120.17060  102.49660
 9555.50000   71.91740  120.63750   87.58500
 9556.00000   70.59840  120.11040   76.19450
 9556.50000   69.51510  119.12870   76.43400
 9557.00000   67.47310  117.90060   86.14850
 9557.50000   65.91160  111.90400   84.89940
 9558.00000   63.87500  110.77790   74.72710
 9558.50000   62.31020  107.95010   55.70000
 9559.00000   62.22020  107.42040   40.13320
 9559.50000   64.21940  108.04760   29.48090
 9560.00000   66.19140  109.16690   29.07150
 9560.50000   67.23300  110.37340   43.72840
 9561.00000   68.42370  113.37640   60.20540
 9561.50000   71.55740  115.33530   83.27320
 9562.00000   75.05190  118.21250   99.08810
 9562.50000   76.12200  120.17100  112.59440
 9563.00000   77.40010  123.18630  111.67600
 9563.50000   77.84870  123.82440  110.14530
 9564.00000   77.71400  124.09360  108.51180
 9564.50000   77.38330  124.36290  105.99350
 9565.00000   75.76160  123.14880  100.97340
 9565.50000   74.92920  121.83490   96.22740
 9566.00000   74.49160  120.57920   98.17660
 9566.50000   74.12500  119.62930   98.97180
 9567.00000   73.80970  118.94860   93.45950
 9567.50000   73.44240  117.79070   78.44280
 9568.00000   72.45870  117.06730   79.74630
 9568.50000   72.36860  116.80170   83.37920
 9569.00000   72.45840  116.29330   86.66440
 9569.50000   73.74630  117.33310   83.49360
 9570.00000   74.82510  118.21780   77.69120
 9570.50000   75.35560  118.81470   71.88880
 9571.00000   75.88180  120.73140   68.40740
 9571.50000   76.96300  122.41480   77.53490
 9572.00000   77.64160  122.76520   98.85580
 9572.50000   77.60730  123.71610  109.22100
 9573.00000   77.32340  124.77970  110.99620
 9573.50000   77.83370  125.26770  111.99880
 9574.00000   75.00150  124.55160  109.92140
 9574.50000   73.35940  123.26180  104.54490
 9575.00000   71.85790  121.97210   86.27060
 9575.50000   68.61450  118.96120   75.90640
 9576.00000   66.00390  116.02070   73.89320
 9576.50000   64.29020  113.08020   75.52930
 9577.00000   62.74480  110.13970   74.82310
 9577.50000   61.52720  107.19910   69.19490
 9578.00000   59.99310  104.64650   54.52340
 9578.50000   58.24360  103.23670   42.53250
 9579.00000   57.08260  101.21370   29.05160
 9579.50000   55.85140   99.19080   23.75660
 9580.00000   54.80690   98.13550   21.33610
 9580.50000   53.89800   96.71050   20.51390
 9581.00000   53.48060   96.09050   19.67060
 9581.50000   52.99780   95.94040   18.22710
 9582.00000   52.85590   96.02810   17.08710
 9582.50000   52.44270   96.17410   16.90530
 9583.00000   52.97700   96.44110   16.34120
 9583.50000   53.86630   96.74140   16.33080
 9584.00000   54.22470   96.92920   16.32030
 9584.50000   54.67840   97.11690   19.46600
 9585.00000   55.12880   97.19200   36.51100
 9585.50000   54.38830   96.95650   53.46850
 9586.00000   54.02260   96.66220   65.86350
 9586.50000   53.63950   96.36780   57.54560
 9587.00000   53.27290   96.19120   34.44540
 9587.50000   53.36300   96.34140   23.81040
 9588.00000   53.51320   96.69180   19.48820
 9588.50000   55.20870   97.67620   19.01720
 9589.00000   57.20480   99.74500   21.34840
 9589.50000   58.90260  102.49780   28.35090
 9590.00000   60.26060  104.58560   48.83050
 9590.50000   62.00640  105.90130   85.78620
 9591.00000   63.75140  109.51860  108.25490
 9591.50000   67.77550  113.13590  100.63690
 9592.00000   69.84330  115.01050   75.86920
 9592.50000   70.40610  116.21180   71.10710
 9593.00000   69.33140  116.01160   95.41400
 9593.50000   67.75160  114.96400  119.72100
 9594.00000   66.17190  113.52930  124.43270
 9594.50000   65.76580  112.09450  100.55670
 9595.00000   65.73580  111.14030   63.53870
 9595.50000   66.10300  110.75660   45.72750
 9596.00000   66.94610  112.42500   38.60310
 9596.50000   68.36570  113.85980   54.09450
 9597.00000   77.75510  114.36040   69.74120
 9597.50000   79.73710  118.80240   94.96230
 9598.00000   78.37580  123.24440  116.32530
 9598.50000   79.01650  127.68640  124.87770
 9599.00000   83.28750  130.44330  126.69000
 9599.50000   87.55840  132.27850  125.27210
 9600.00000   91.82940  133.07940  125.30760
 9600.50000   96.10040  132.61650  126.41870
 9601.00000   99.47710  130.65070  123.56560
 9601.50000   97.21480  126.58080  116.06020
 9602.00000   82.76040  122.51090  102.43120
 9602.50000   69.31360  118.44110   76.38890
 9603.00000   68.38600  114.69600   60.21170
 9603.50000   66.01250  111.16740   46.65710
 9604.00000   62.92770  107.63890   52.15940
 9604.50000   60.38990  104.11030   61.66970
 9605.00000   59.00720  102.58630   59.96840
 9605.50000   59.65930  102.54880   45.53260
 9606.00000   61.39590  104.17310   30.87570
 9606.50000   62.67090  106.63010   18.83230
 9607.00000   64.71300  108.55470   22.78310
 9607.50000   65.97420  109.51570   39.54120
 9608.00000   67.39420  110.28340   59.58430
 9608.50000   68.07630  112.92060   82.08170
 9609.00000   70.35870  115.55790   89.34120
 9609.50000   71.97540  117.37250   87.23560
 9610.00000   72.81230  118.63850   84.33600
 9610.50000   72.78340  119.90450   79.59760
 9611.00000   72.45850  120.91730   72.52430
 9611.50000   72.49510  121.06750   73.19370
 9612.00000   73.59380  121.31770   83.60560
 9612.50000   74.98340  121.46790   91.93050
 9613.00000   76.69130  124.38750   84.02920
 9613.50000   77.32580  125.47190   64.27570
 9614.00000   78.06940  126.72310   60.47490
 9614.50000   78.57220  127.52390  100.91810
 9615.00000   78.74580  128.04330  135.07020
 9615.50000   79.65300  129.63880  138.06600
 9616.00000   79.64400  130.27700  120.17460
 9616.50000   78.82740  129.59050  105.71160
 9617.00000   77.26590  128.57500  112.69880
 9617.50000   73.24170  125.88110  124.13580
 9618.00000   71.49510  123.18710  116.80240
 9618.50000   70.90560  120.49320  100.95640
 9619.00000   71.68010  119.36550   72.12130
 9619.50000   72.71170  119.31550   52.68650
 9620.00000   73.37860  120.26700   54.48450
 9620.50000   74.80430  122.27040   72.48640
 9621.00000   76.36580  123.07150   95.86460
 9621.50000   79.42890  123.97250  108.76770
 9622.00000   80.64570  128.42140  112.03060
 9622.50000   81.90560  132.13070  113.46840
 9623.00000   82.55210  133.17470  117.64670
 9623.50000   83.07560  134.89070  124.90540
 9624.00000   82.95870  135.18390  128.48150
 9624.50000   82.36960  134.60100  122.95190
 9625.00000   81.41830  133.99750  116.04000
 9625.50000   80.14990  133.39400  111.62270
 9626.00000   78.97210  131.78860  112.40810
 9626.50000   76.78660  128.68030  112.68680
 9627.00000   74.56510  125.57200  111.72430
 9627.50000   72.51430  122.46370  108.74750
 9628.00000   70.11700  118.64380   99.18850
 9628.50000   64.28260  114.34950   84.48160
 9629.00000   60.80950  110.05530   65.65880
 9629.50000   58.23630  105.76110   56.32120
 9630.00000   55.74050  101.46680   42.85380
 9630.50000   53.24470   98.37280   33.29370
