~Version ---------------------------------------------------
VERS.   2.0 : CWLS log ASCII Standard -VERSION 2.0
WRAP.    NO : One line per depth step
DLM . SPACE : Column Data Section Delimiter
~Well ------------------------------------------------------
STRT .FT                8830.0 : START DEPTH
STOP .FT               10559.0 : STOP DEPTH
STEP .FT                   0.5 : STEP
NULL .                -9999.25 : NULL VALUE
COMP .                         : COMPANY
WELL .                         : WELL
FLD  .                         : FIELD
LOC  .                         : LOCATION
PROV .                         : PROVINCE
CNTY .                         : COUNTY
STAT .                         : STATE
CTRY .                         : COUNTRY
SRVC .                         : SERVICE COMPANY
DATE .                         : DATE
UWI  .                         : UNIQUE WELL ID
API  .                         : API NUMBER
SLAT .WGS84 1.9532597274116021 : SURFACE LATITUDE
SLON .WGS84  8.781415805266988 : SURFACE LONGITUDE
DATUM.F                    nan : DEPTH DATUM ELEV
~Curve Information -----------------------------------------
DEPT.FT    : 
DTCO.US/F  : DELTA-T COMPRESSIONAL
DTSM.US/F  : DELTA-T SHEAR
GRS .GAPI  : GAMMA RAY FROM SONIC LOG
~Params ----------------------------------------------------
~Other -----------------------------------------------------
~ASCII -----------------------------------------------------
# ...
 9364.00000   76.17060  118.54030   69.42510
 9364.50000   77.02180  119.52610   70.02440
 9365.00000   77.61170  120.51200   83.50560
 9365.50000   77.99190  121.49790   93.00370
 9366.00000   78.70290  122.48380  101.50620
 9366.50000   79.66400  123.46970  105.56270
 9367.00000   79.92050  124.45560  103.80680
 9367.50000   79.92330  124.43210  102.23810
 9368.00000   79.92620  124.37320  107.41670
 9368.50000   79.96570  124.31440  112.14700
 9369.00000   80.04440  124.25560  113.84580
 9369.50000   79.83420  124.16800  107.51050
 9370.00000   78.84720  123.68840   99.74940
 9370.50000   78.27200  123.10460   94.33220
 9371.00000   77.19160  123.00450   92.19600
 9371.50000   76.38880  122.49410   90.71130
 9372.00000   76.13640  121.91850   88.36310
 9372.50000   75.83020  121.34300   78.94280
 9373.00000   75.50790  120.76750   68.92930
 9373.50000   75.36000  120.65240   63.17310
 9374.00000   75.44140  120.65240   72.23060
 9374.50000   76.01960  120.65250   82.71330
 9375.00000   76.17690  120.65260   89.79830
 9375.50000   76.49320  120.80280   89.07930
 9376.00000   76.66880  120.90290   89.40020
 9376.50000   76.36400  121.05310   90.23450
 9377.00000   77.30490  121.15330   89.27270
 9377.50000   78.04300  121.55370   82.34690
 9378.00000   78.24560  122.05430   74.76910
 9378.50000   78.40080  122.55480   71.16760
 9379.00000   78.67760  123.35570   76.16710
 9379.50000   78.72160  124.35670   83.39570
 9380.00000   78.73660  124.87730   89.36860
 9380.50000   78.99410  125.13700   93.75860
 9381.00000   79.43490  125.53450   91.07980
 9381.50000   79.56460  125.93200   87.46560
 9382.00000   79.74650  126.32950   83.35830
 9382.50000   79.80620  126.09380   85.63520
 9383.00000   79.80830  125.56830   91.03520
 9383.50000   79.98160  125.25800  100.62220
 9384.00000   80.23670  125.29810  103.19940
 9384.50000   80.37560  125.34820  104.05800
 9385.00000   79.82060  125.39830  102.78870
 9385.50000   79.24340  124.78630  102.34900
 9386.00000   78.50600  123.74960  102.32020
 9386.50000   78.10530  122.71290   96.72810
 9387.00000   78.13540  122.25540   89.83780
 9387.50000   78.31550  122.14170   83.05820
 9388.00000   77.96180  122.02800   88.33540
 9388.50000   78.29390  122.28410  101.22210
 9389.00000   78.76900  122.70600  113.55230
 9389.50000   78.98670  123.11170  121.92490
 9390.00000   79.29190  123.49370  126.94850
 9390.50000   79.69130  123.87580  120.33120
 9391.00000   79.73320  124.25780  111.40820
 9391.50000   79.77510  124.25780  107.07900
 9392.00000   78.50320  123.53750  104.21840
 9392.50000   78.10400  122.86720   98.82630
 9393.00000   77.49330  122.19700   92.22500
 9393.50000   77.01570  121.52670   94.81540
 9394.00000   76.15500  120.85650   96.27540
 9394.50000   75.62270  120.03720   93.09320
 9395.00000   74.97830  118.99460   91.86260
 9395.50000   74.54640  117.95190   97.32860
 9396.00000   73.05860  116.90930  103.44280
 9396.50000   72.19300  115.86660  107.11300
 9397.00000   71.18720  114.82140  102.72130
 9397.50000   69.70130  113.18240   88.64110
 9398.00000   68.43610  111.54330   75.51610
 9398.50000   67.37080  109.90420   64.30220
 9399.00000   67.39460  108.59290   60.03140
 9399.50000   67.67900  108.73750   55.49590
 9400.00000   68.44130  109.96100   51.65540
 9400.50000   69.26550  111.09560   59.08020
 9401.00000   72.32860  113.32280   78.45590
 9401.50000   73.22950  115.79410  103.32110
 9402.00000   74.89880  118.26540  115.20820
 9402.50000   76.17250  122.30700  122.79400
 9403.00000   78.26110  123.62080  126.50110
 9403.50000   79.39200  124.93470  126.50120
 9404.00000   79.60800  125.66050  118.53240
 9404.50000   79.39900  126.11100  108.71400
 9405.00000   78.51500  125.66060  101.82370
 9405.50000   77.61410  124.15910   96.92280
 9406.00000   76.06030  122.65770   96.69230
 9406.50000   74.97160  121.15620   96.52790
 9407.00000   74.07070  119.65480   92.69640
 9407.50000   73.74040  118.15330   82.35140
 9408.00000   72.71460  116.65190   73.67270
 9408.50000   71.86660  115.15040   71.97820
 9409.00000   70.92190  114.39470   75.73560
 9409.50000   69.96630  112.86820   81.74830
 9410.00000   69.05550  111.34180   86.46540
 9410.50000   66.47290  109.81530   83.98370
 9411.00000   64.64640  108.20710   73.66410
 9411.50000   61.29290  106.27180   65.57550
 9412.00000   58.56350  104.33660   54.38600
 9412.50000   57.25420  102.40140   46.70200
 9413.00000   56.11310  100.46620   35.31810
 9413.50000   55.46080   98.53100   29.92570
 9414.00000   55.01380   96.98280   23.86980
 9414.50000   54.95210   96.98280   20.23940
 9415.00000   54.89030   96.98290   17.49330
 9415.50000   54.82860   97.28330   15.26630
 9416.00000   54.79160   97.43350   13.29270
 9416.50000   54.59340   97.48360   12.48200
 9417.00000   54.26310   97.33680   13.80100
 9417.50000   53.93280   97.15330   15.51920
 9418.00000   53.80070   96.96990   17.79240
 9418.50000   54.04100   96.98330   19.12140
 9419.00000   54.88180   97.33370   20.46870
 9419.50000   64.01100   99.25230   21.11000
 9420.00000   69.93440  101.35210   28.16210
 9420.50000   72.94710  104.17640   39.21370
 9421.00000   76.22830  108.92320   59.28570
 9421.50000   81.90900  114.15070   76.06230
 9422.00000   77.49460  115.29480  100.95270
 9422.50000   77.61480  117.32900  118.90250
 9423.00000   77.88970  119.95670  133.78140
 9423.50000   78.10260  122.01880  136.24050
 9424.00000   78.48610  122.91970  124.01780
 9424.50000   78.48400  123.46030  109.94580
 9425.00000   78.48200  123.31020   99.32110
 9425.50000   77.97220  122.91370  103.35340
 9426.00000   77.05060  121.54700  108.99790
 9426.50000   76.11390  120.18030  111.22600
 9427.00000   74.91270  118.82590  102.72580
 9427.50000   72.27010  117.47460   92.96860
 9428.00000   70.79570  116.12330   85.69800
 9428.50000   70.10800  114.77200   79.65830
 9429.00000   69.14710  113.44860   64.37980
 9429.50000   66.80480  112.13210   52.96570
 9430.00000   65.57480  110.81560   49.42940
 9430.50000   64.74820  109.49910   58.30880
 9431.00000   63.92160  108.39590   71.39190
 9431.50000   63.77150  108.39600   76.62520
 9432.00000   65.29640  108.74640   61.23970
 9432.50000   66.86500  110.14160   39.47730
 9433.00000   68.24640  112.04980   38.27910
 9433.50000   70.48620  113.95800   56.38150
 9434.00000   72.22770  115.86620   77.93030
 9434.50000   74.91320  117.77440   92.83410
 9435.00000   76.17450  119.53930  100.82930
 9435.50000   77.25470  121.26830  100.38180
 9436.00000   77.13090  121.96000   99.43670
 9436.50000   77.46550  121.96000   99.56760
 9437.00000   77.15020  121.65980   97.94260
 9437.50000   60.40850  119.43860   91.34330
 9438.00000   58.63670  117.16250   82.36710
 9438.50000   61.06920  114.88650   70.37280
 9439.00000   63.81400  112.61050   55.99300
 9439.50000   64.85300  110.94930   40.91660
 9440.00000   65.18340  110.59900   32.13870
 9440.50000   65.72400  110.54900   45.38570
 9441.00000   66.47470  110.84940   69.77400
 9441.50000   67.68030  111.66690  101.44960
 9442.00000   70.70470  113.75240  116.62520
 9442.50000   72.11190  115.83780  110.83760
 9443.00000   73.24880  117.78150  106.02360
 9443.50000   74.38570  119.15790  101.78250
 9444.00000   75.20080  120.42600  103.11460
 9444.50000   75.69460  121.26040  104.11330
 9445.00000   77.61650  122.22740  103.84790
 9445.50000   78.74420  123.26790  102.81430
 9446.00000   79.47960  124.30850   98.68990
 9446.50000   80.13910  125.34910   89.95880
 9447.00000   79.59260  125.81540   95.82580
 9447.50000   78.88810  125.81540  105.42510
 9448.00000   77.72370  125.09670  112.60730
 9448.50000   77.35800  124.26080  108.29030
 9449.00000   77.07620  123.42490  104.22700
 9449.50000   76.64160  122.58900   93.74640
 9450.00000   76.11200  121.75310   78.57520
 9450.50000   75.54480  120.91720   81.49620
 9451.00000   74.84790  120.08130   90.03590
 9451.50000   74.16210  119.24540  100.14950
 9452.00000   73.47640  118.40950  100.68800
 9452.50000   73.13910  117.90800   97.52900
