~Version ---------------------------------------------------
VERS.   2.0 : CWLS log ASCII Standard -VERSION 2.0
WRAP.    NO : One line per depth step
DLM . SPACE : Column Data Section Delimiter
~Well ------------------------------------------------------
STRT .FT                8830.0 : START DEPTH
STOP .FT               10559.0 : STOP DEPTH
STEP .FT                   0.5 : STEP
NULL .                -9999.25 : NULL VALUE
COMP .                         : COMPANY
WELL .                         : WELL
FLD  .                         : FIELD
LOC  .                         : LOCATION
PROV .                         : PROVINCE
CNTY .                         : COUNTY
STAT .                         : STATE
CTRY .                         : COUNTRY
SRVC .                         : SERVICE COMPANY
DATE .                         : DATE
UWI  .                         : UNIQUE WELL ID
API  .                         : API NUMBER
SLAT .WGS84 1.9532597274116021 : SURFACE LATITUDE
SLON .WGS84  8.781415805266988 : SURFACE LONGITUDE
DATUM.F                    nan : DEPTH DATUM ELEV
~Curve Information -----------------------------------------
DEPT.FT    : 
DTCO.US/F  : DELTA-T COMPRESSIONAL
DTSM.US/F  : DELTA-T SHEAR
GRS .GAPI  : GAMMA RAY FROM SONIC LOG
~Params ----------------------------------------------------
~Other -----------------------------------------------------
~ASCII -----------------------------------------------------
# ...
 9720.00000   81.31470  128.61420   93.65420
 9720.50000   81.65710  128.88730   93.95170
 9721.00000   81.29260  128.88730   96.55080
 9721.50000   81.57220  128.66790  104.16070
 9722.00000   77.07590  127.32050  105.54530
 9722.50000   74.88590  125.97300  101.27220
 9723.00000   75.17710  123.97010   79.70250
 9723.50000   73.79880  121.53020   63.03820
 9724.00000   72.92810  120.52930   49.70680
 9724.50000   72.69690  120.02880   66.87780
 9725.00000   73.24900  120.02890   92.69810
 9725.50000   75.21140  120.27920  109.32360
 9726.00000   77.07640  121.88080  100.65090
 9726.50000   79.43520  125.11740   82.51160
 9727.00000   80.81670  126.78580   86.83950
 9727.50000   81.59080  128.45420   96.18010
 9728.00000   82.17950  129.18830  107.12200
 9728.50000   82.81480  129.68890  115.71610
 9729.00000   83.35110  130.18940  111.35300
 9729.50000   83.72370  130.48980  103.66990
 9730.00000   83.41210  130.48980   96.14270
 9730.50000   82.90350  130.31970  103.14850
 9731.00000   82.71220  130.16960  112.65760
 9731.50000   82.70850  130.01950  117.95420
 9732.00000   82.75410  129.98950  120.59660
 9732.50000   83.33950  130.56160  127.31030
 9733.00000   83.74400  131.27660  130.14560
 9733.50000   83.74800  131.99170  122.09470
 9734.00000   83.60710  131.99170  113.31090
 9734.50000   83.32360  131.61020  117.45510
 9735.00000   82.79910  130.95330  127.21880
 9735.50000   82.09410  130.45030  127.80940
 9736.00000   81.39050  129.03900  120.19860
 9736.50000   77.97990  125.78580  107.41890
 9737.00000   71.40340  122.53260   97.08030
 9737.50000   64.40860  119.27940   89.29120
 9738.00000   64.24340  116.40990   75.45430
 9738.50000   66.40290  114.11600   53.94090
 9739.00000   67.84440  111.82210   38.23770
 9739.50000   68.44500  111.72200   36.82720
 9740.00000   69.93000  112.91640   45.01770
 9740.50000   72.16880  115.90220   64.12690
 9741.00000   76.61330  118.88800   81.50270
 9741.50000   78.47520  121.87370   99.17800
 9742.00000   79.90170  124.85950  102.74920
 9742.50000   81.41820  127.84530   99.78200
 9743.00000   83.76060  130.31650   96.63810
 9743.50000   84.56510  131.56300   96.31720
 9744.00000   84.87570  133.26110   97.95370
 9744.50000   85.18120  134.94570  101.07980
 9745.00000   85.55630  135.24610  104.21020
 9745.50000   85.68530  135.87180  107.34070
 9746.00000   85.18430  136.39730  110.47110
 9746.50000   84.08170  136.24720  111.87320
 9747.00000   82.55960  135.18580  111.72340
 9747.50000   81.91540  133.92160  111.60370
 9748.00000   81.18580  132.65750  105.00800
 9748.50000   80.45760  131.63040   89.34250
 9749.00000   79.25640  130.44070   73.67700
 9749.50000   78.41560  128.47030   74.50090
 9750.00000   78.02860  126.23030   85.28590
 9750.50000   78.08620  124.73610   95.39680
 9751.00000   78.30560  124.63610   85.46690
 9751.50000   78.57110  125.43690   72.96520
 9752.00000   79.43670  126.43800   76.20730
 9752.50000   79.48070  127.28890  102.77460
 9753.00000   79.33660  127.58920  121.94790
 9753.50000   79.46690  126.78850  136.29300
 9754.00000   80.44460  126.97620  137.01280
 9754.50000   81.61390  128.20390  120.15060
 9755.00000   82.37210  129.86540  103.67370
 9755.50000   82.71030  131.06370   83.12990
 9756.00000   82.92080  131.66740   75.02620
 9756.50000   83.14760  132.89060  100.67810
 9757.00000   82.75290  133.86660  114.62410
 9757.50000   82.83810  134.03740  117.29040
 9758.00000   83.16420  134.05380  112.69100
 9758.50000   83.66040  134.53340  104.57300
 9759.00000   82.61240  135.29140   99.01960
 9759.50000   81.83960  135.32810   94.42640
 9760.00000   80.97030  132.59070   94.08430
 9760.50000   80.53540  132.40220  103.37500
 9761.00000   80.84560  132.65880  113.55090
 9761.50000   81.30570  132.26950  123.05790
 9762.00000   81.72560  132.40020  121.93870
 9762.50000   82.29030  133.01630  117.46990
 9763.00000   83.24520  133.46680  117.84430
 9763.50000   82.94140  134.32360  119.38080
 9764.00000   82.22430  133.93110  114.98930
 9764.50000   81.17930  133.27280  111.47880
 9765.00000   80.63880  132.61620  109.59520
 9765.50000   79.39200  131.79150  108.07710
 9766.00000   79.02420  131.42970  102.63190
 9766.50000   78.63770  131.06780   91.87910
 9767.00000   78.11930  130.70600   81.12640
 9767.50000   77.56380  130.34420   76.82540
 9768.00000   77.47080  129.98230   85.16680
 9768.50000   78.25460  129.64280   98.07060
 9769.00000   78.89730  129.84310  108.52200
 9769.50000   80.27870  131.51790  105.41700
 9770.00000   80.90890  133.19270  104.18000
 9770.50000   81.38500  134.55250  107.57840
 9771.00000   81.74560  135.43980  117.14310
 9771.50000   81.74340  136.14960  123.36910
 9772.00000   81.61660  136.09960  124.01950
 9772.50000   81.53300  135.94950  121.05200
 9773.00000   81.17980  135.84950  114.95780
 9773.50000   80.21710  134.24790  114.57200
 9774.00000   79.83590  132.24600  118.55360
 9774.50000   79.47090  130.19400  122.97770
 9775.00000   80.39320  127.52470  124.90930
 9775.50000   78.23110  122.49550  119.55460
 9776.00000   66.77680  116.87630  103.01810
 9776.50000   64.00820  112.82680   80.30970
 9777.00000   62.22010  109.89900   61.73570
 9777.50000   60.43200  107.02110   55.82210
 9778.00000   56.61820  102.81700   51.90020
 9778.50000   56.76840   98.61280   46.75690
 9779.00000   59.45240   97.44500   38.96790
 9779.50000   62.13630   96.46080   30.87930
 9780.00000   64.82030   96.36070   22.07220
 9780.50000   67.52680   96.51090   18.52400
 9781.00000   69.94900   97.01150   18.37690
 9781.50000   73.07220   98.26280   20.09470
 9782.00000   76.42390  102.14850   23.98910
 9782.50000   78.53770  107.79060   28.45310
 9783.00000   81.00020  113.43260   44.36100
 9783.50000   84.45000  119.07470   74.69060
 9784.00000   86.80510  124.48650  109.76170
 9784.50000   81.06300  128.97710  144.83270
 9785.00000   82.74220  133.46780  147.67880
 9785.50000   84.87950  137.95840  138.56890
 9786.00000   86.20860  140.36780  126.99430
 9786.50000   86.70870  141.22290  122.36450
 9787.00000   85.80520  141.90700  130.60300
 9787.50000   85.25140  141.61810  134.19810
 9788.00000   85.18470  140.42370  134.94710
 9788.50000   84.67200  139.22940  134.58120
 9789.00000   83.30230  138.03510  133.93650
 9789.50000   83.49740  136.84080  127.34580
 9790.00000   83.71200  136.18150  119.99500
 9790.50000   83.80610  135.65600  116.65860
 9791.00000   84.38560  135.61840  118.91500
 9791.50000   84.86810  136.06460  124.05070
 9792.00000   85.65810  136.51070  130.12670
 9792.50000   85.71820  136.95690  132.31630
 9793.00000   85.83830  137.40300  129.77720
 9793.50000   85.42170  137.75340  127.56010
 9794.00000   84.72730  137.95370  132.80180
 9794.50000   83.76370  138.25400  142.37290
 9795.00000   81.94850  136.78700  136.18190
 9795.50000   81.57150  135.26990  123.15250
 9796.00000   81.69170  133.75280  110.76200
 9796.50000   81.77280  133.24930  105.09230
 9797.00000   81.84380  133.14200  104.03010
 9797.50000   81.29660  132.85610  110.41270
 9798.00000   80.50160  132.32510  123.76950
 9798.50000   80.08520  131.64120  134.19970
 9799.00000   79.11450  130.95720  134.19980
 9799.50000   78.33660  130.10890  118.10510
 9800.00000   77.25920  129.01410   98.70600
 9800.50000   75.72270  127.91930   79.32490
 9801.00000   74.18620  126.82450   68.74170
 9801.50000   74.52160  125.72970   77.70280
 9802.00000   74.64210  125.29180   85.00100
 9802.50000   75.44580  126.50260   85.62400
 9803.00000   77.09750  128.01610   88.70190
 9803.50000   77.75820  129.52960   99.75670
 9804.00000   78.66660  131.04300  107.73070
 9804.50000   78.92380  131.84860  108.74240
 9805.00000   79.92040  132.33340  102.67240
 9805.50000   81.06160  133.29490  103.66910
 9806.00000   82.62720  134.25650  107.63240
 9806.50000   83.15460  135.21800  108.41370
 9807.00000   83.44300  135.55260  106.24330
 9807.50000   83.45700  135.19810  107.26080
 9808.00000   82.63260  134.31190  113.01890
 9808.50000   82.08450  133.42560  118.93970
