~Version ---------------------------------------------------
VERS.   2.0 : CWLS log ASCII Standard -VERSION 2.0
WRAP.    NO : One line per depth step
DLM . SPACE : Column Data Section Delimiter
~Well ------------------------------------------------------
STRT .FT                8830.0 : START DEPTH
STOP .FT               10559.0 : STOP DEPTH
STEP .FT                   0.5 : STEP
NULL .                -9999.25 : NULL VALUE
COMP .                         : COMPANY
WELL .                         : WELL
FLD  .                         : FIELD
LOC  .                         : LOCATION
PROV .                         : PROVINCE
CNTY .                         : COUNTY
STAT .                         : STATE
CTRY .                         : COUNTRY
SRVC .                         : SERVICE COMPANY
DATE .                         : DATE
UWI  .                         : UNIQUE WELL ID
API  .                         : API NUMBER
SLAT .WGS84 1.9532597274116021 : SURFACE LATITUDE
SLON .WGS84  8.781415805266988 : SURFACE LONGITUDE
DATUM.F                    nan : DEPTH DATUM ELEV
~Curve Information -----------------------------------------
DEPT.FT    : 
DTCO.US/F  : DELTA-T COMPRESSIONAL
DTSM.US/F  : DELTA-T SHEAR
GRS .GAPI  : GAMMA RAY FROM SONIC LOG
~Params ----------------------------------------------------
~Other -----------------------------------------------------
~ASCII -----------------------------------------------------
# ...
 10161.50000   77.11880  127.73510  110.90270
 10162.00000   75.98570  127.68490  109.33680
 10162.50000   74.85270  126.81730  107.48110
 10163.00000   74.60010  125.45470  103.43750
 10163.50000   74.26870  124.09210   89.35800
 10164.00000   73.93740  122.72950   75.84910
 10164.50000   73.50390  122.57920   78.52770
 10165.00000   73.32880  120.90250   89.65990
 10165.50000   73.15810  119.17560  103.56700
 10166.00000   73.09770  119.12550  101.06320
 10166.50000   72.45360  118.58550   90.56100
 10167.00000   71.12090  116.63700   82.75030
 10167.50000   70.49770  114.68860   80.95240
 10168.00000   70.22360  113.36930   86.99880
 10168.50000   68.85340  112.63510   90.74160
 10169.00000   67.88240  111.55060   95.05940
 10169.50000   64.52150  109.48550   80.37990
 10170.00000   61.45520  106.76670   57.10780
 10170.50000   58.67950  104.04790   36.94250
 10171.00000   58.52680  102.91130   23.76170
 10171.50000   59.60210  102.91260   16.83440
 10172.00000   61.68260  105.20530   21.25390
 10172.50000   63.28360  107.57020   37.52210
 10173.00000   64.93560  110.18610   61.21230
 10173.50000   70.89030  114.29490   88.36660
 10174.00000   73.90660  118.43750  103.07580
 10174.50000   75.45570  121.46310  109.40940
 10175.00000   76.48310  124.48880  102.43460
 10175.50000   77.28040  126.42910   98.02280
 10176.00000   77.49200  127.64370  100.54640
 10176.50000   77.02000  127.64460  106.15480
 10177.00000   75.64110  127.11150  113.44480
 10177.50000   74.20640  125.71930  115.25570
 10178.00000   73.46540  123.84340  105.01470
 10178.50000   73.41070  122.92460   94.47420
 10179.00000   73.21810  121.83070   84.61350
 10179.50000   73.17980  121.34360   80.84980
 10180.00000   73.54710  121.29440   77.96190
 10180.50000   73.87210  121.24520   86.38870
 10181.00000   74.28840  121.50180   99.58890
 10181.50000   74.29200  121.89200  107.73810
 10182.00000   74.05960  121.98870  110.05740
 10182.50000   73.76960  121.68920  107.22060
 10183.00000   73.79020  121.34980  100.77230
 10183.50000   73.66610  121.58620   92.98390
 10184.00000   73.98370  122.26420   77.46120
 10184.50000   74.04820  122.94220   68.83160
 10185.00000   74.44580  123.62030   75.48960
 10185.50000   75.46890  124.39560   91.01020
 10186.00000   76.36360  125.99420  105.81820
 10186.50000   76.84390  127.59290  111.27750
 10187.00000   77.40730  128.58560  113.96000
 10187.50000   77.90560  129.39120  120.25180
 10188.00000   77.74900  130.19670  124.55860
 10188.50000   77.72060  130.40840  119.83740
 10189.00000   77.69220  130.40900  113.06420
 10189.50000   77.60530  130.15930  107.43480
 10190.00000   77.58380  129.68850  108.38740
 10190.50000   77.23910  128.85360  109.62210
 10191.00000   75.97740  128.01860  109.60140
 10191.50000   74.38540  126.81880  109.58070
 10192.00000   72.29490  124.23740  108.77120
 10192.50000   71.47160  121.65590  104.73660
 10193.00000   70.78040  119.67230   94.19750
 10193.50000   70.83880  120.07980   73.82680
 10194.00000   71.46640  120.48740   58.55700
 10194.50000   71.99950  120.89500   59.55550
 10195.00000   73.09100  121.68970   80.13620
 10195.50000   74.45310  123.06530  105.28590
 10196.00000   75.72520  124.64110  120.92740
 10196.50000   76.58750  126.51720  122.67490
 10197.00000   77.54020  127.84670  119.66810
 10197.50000   78.04000  129.02020  112.77860
 10198.00000   78.04750  130.19370  108.13590
 10198.50000   77.78640  130.09290  107.60150
 10199.00000   77.62400  129.27460  108.37620
 10199.50000   77.19490  128.10610  108.84710
 10200.00000   76.60760  126.93760  109.45850
 10200.50000   75.57870  126.13630  111.49490
 10201.00000   74.49590  123.90470  114.61570
 10201.50000   73.20990  121.67300  113.42940
 10202.00000   66.81740  117.75390  103.70880
 10202.50000   59.26350  110.81320   87.62050
 10203.00000   53.22030  103.87260   59.16090
 10203.50000   53.82080   99.65810   42.98410
 10204.00000   55.76510   99.72930   28.53880
 10204.50000   56.70330   99.80770   22.08500
 10205.00000   60.53560  101.40910   20.61480
 10205.50000   69.18660  103.41090   24.37220
 10206.00000   77.83760  107.85050   41.63870
 10206.50000   81.91570  113.91530   67.25330
 10207.00000   82.73940  119.98010  109.19500
 10207.50000   81.14800  125.84400  126.82240
 10208.00000   79.08550  130.90460  132.37670
 10208.50000   79.13950  134.53430  124.89250
 10209.00000   79.63040  137.00090  115.48830
 10209.50000   79.58660  137.34390  110.16580
 10210.00000   78.45870  136.61570  113.23150
 10210.50000   77.43840  135.56900  110.17220
 10211.00000   76.97290  134.14390  107.55260
 10211.50000   76.02680  132.15120  104.17690
 10212.00000   74.70510  130.15850  102.02440
 10212.50000   74.04430  128.16580  100.66280
 10213.00000   73.14330  126.17320   99.67920
 10213.50000   71.40140  124.33760   97.05100
 10214.00000   70.84190  123.13030   91.99310
 10214.50000   70.23020  121.92290   87.25670
 10215.00000   69.61840  120.71560   82.82910
 10215.50000   69.33020  119.51720   82.69120
 10216.00000   69.37590  118.32100   85.07330
 10216.50000   69.44800  118.27080   89.73240
 10217.00000   69.42470  118.07030   93.66090
 10217.50000   69.28650  117.71970   96.46110
 10218.00000   69.34880  117.56930   91.63860
 10218.50000   69.37540  117.46900   88.29520
 10219.00000   69.32760  117.36860   86.22520
 10219.50000   69.35700  117.31840   87.07890
 10220.00000   69.49950  117.27330   89.73680
 10220.50000   69.55490  117.22320   90.67330
 10221.00000   68.47890  116.22210   92.46740
 10221.50000   67.13770  114.65370   94.48040
 10222.00000   64.79140  111.31690   96.96400
 10222.50000   63.17360  108.95730   91.84580
 10223.00000   62.69300  107.16970   79.60580
 10223.50000   61.30210  105.38210   60.38170
 10224.00000   60.41060  103.57540   35.84640
 10224.50000   60.65800  103.05810   31.43550
 10225.00000   61.66120  103.95890   48.10070
 10225.50000   62.96000  104.05890   65.77950
 10226.00000   64.32540  106.68640   76.37150
 10226.50000   65.45530  109.51770   81.17020
 10227.00000   66.33610  110.82240   85.55040
 10227.50000   67.27770  112.08260   91.93770
 10228.00000   67.81640  113.14310   97.04750
 10228.50000   67.68730  113.57910   96.89830
 10229.00000   67.73730  113.91730   85.08210
 10229.50000   68.08450  114.41730   75.62920
 10230.00000   68.54400  114.91740   79.24090
 10230.50000   68.99840  115.91970   87.95090
 10231.00000   69.56890  115.61280   90.08250
 10231.50000   70.37710  116.50640   92.29590
 10232.00000   71.78570  118.94920   96.34080
 10232.50000   72.40650  120.22210  105.02910
 10233.00000   73.08210  121.62340  107.29930
 10233.50000   73.66020  122.62430  107.25190
 10234.00000   74.35150  124.51360  104.73120
 10234.50000   75.20230  124.94920  108.25110
 10235.00000   75.30850  124.81360  112.33770
 10235.50000   74.63060  124.50760  114.85440
 10236.00000   73.97830  123.95510  113.11450
 10236.50000   73.77240  123.33910  110.87530
 10237.00000   73.53200  123.66580  109.00810
 10237.50000   73.35900  123.82560  102.32260
 10238.00000   73.38390  123.98540   95.97640
 10238.50000   73.61020  124.38350   90.00570
 10239.00000   73.83210  124.72770   94.79880
 10239.50000   74.34980  125.78880  103.23900
 10240.00000   75.04980  127.12740  112.93850
 10240.50000   75.39700  128.31310  116.68380
 10241.00000   75.78250  129.49870  122.11450
 10241.50000   76.13220  130.68440  118.90300
 10242.00000   76.66080  131.83320  119.38630
 10242.50000   77.05340  132.23350  115.52530
 10243.00000   76.70400  132.28340  109.55000
 10243.50000   77.10220  133.18340  100.91090
 10244.00000   77.76700  134.08350  101.46540
 10244.50000   78.07390  135.13590  112.54750
 10245.00000   78.04140  135.13580  122.65760
 10245.50000   77.77000  134.88550  128.96160
 10246.00000   76.72610  133.44160  132.58640
 10246.50000   74.91740  131.99770  136.21120
 10247.00000   73.10870  129.89260  137.51170
 10247.50000   71.30000  127.29620  131.47070
 10248.00000   69.49130  126.32640  100.24490
