~Version ---------------------------------------------------
VERS.   2.0 : CWLS log ASCII Standard -VERSION 2.0
WRAP.    NO : One line per depth step
DLM . SPACE : Column Data Section Delimiter
~Well ------------------------------------------------------
STRT .FT                8830.0 : START DEPTH
STOP .FT               10559.0 : STOP DEPTH
STEP .FT                   0.5 : STEP
NULL .                -9999.25 : NULL VALUE
COMP .                         : COMPANY
WELL .                         : WELL
FLD  .                         : FIELD
LOC  .                         : LOCATION
PROV .                         : PROVINCE
CNTY .                         : COUNTY
STAT .                         : STATE
CTRY .                         : COUNTRY
SRVC .                         : SERVICE COMPANY
DATE .                         : DATE
UWI  .                         : UNIQUE WELL ID
API  .                         : API NUMBER
SLAT .WGS84 1.9532597274116021 : SURFACE LATITUDE
SLON .WGS84  8.781415805266988 : SURFACE LONGITUDE
DATUM.F                    nan : DEPTH DATUM ELEV
~Curve Information -----------------------------------------
DEPT.FT    : 
DTCO.US/F  : DELTA-T COMPRESSIONAL
DTSM.US/F  : DELTA-T SHEAR
GRS .GAPI  : GAMMA RAY FROM SONIC LOG
~Params ----------------------------------------------------
~Other -----------------------------------------------------
~ASCII -----------------------------------------------------
# ...
 9097.00000   71.40940  115.47840   89.49480
 9097.50000   72.19020  116.28810   99.31380
 9098.00000   73.09100  117.09770  106.54320
 9098.50000   73.99180  117.72200  108.87790
 9099.00000   74.50220  117.97230  108.73670
 9099.50000   74.27490  118.07240  104.82750
 9100.00000   73.70650  118.02240   95.90330
 9100.50000   73.13810  117.62210   88.55880
 9101.00000   72.92250  117.42190   91.22720
 9101.50000   73.13140  117.42190   94.53660
 9102.00000   73.48180  117.37200   97.84600
 9102.50000   74.19310  117.94400   91.25610
 9103.00000   75.16580  118.51610   84.39190
 9103.50000   75.85420  119.02380   90.85580
 9104.00000   76.59850  119.94140  104.31250
 9104.50000   77.13780  120.85900  112.37600
 9105.00000   77.59610  122.25840  110.64940
 9105.50000   78.32550  123.97890  106.65520
 9106.00000   78.63630  124.57960  103.95830
 9106.50000   78.94710  124.62970  103.09030
 9107.00000   78.72010  124.62970  105.87260
 9107.50000   78.22770  124.98010  107.53680
 9108.00000   77.73520  124.21270  109.08120
 9108.50000   77.24270  123.77900  106.41650
 9109.00000   76.75030  124.07940  104.63510
 9109.50000   76.21160  123.69570  100.73090
 9110.00000   75.60350  122.93460   91.28370
 9110.50000   74.99540  122.02750   85.42980
 9111.00000   74.38730  121.12040   85.49580
 9111.50000   73.93240  120.21320   88.29860
 9112.00000   73.75230  119.30610   83.39790
 9112.50000   73.66220  119.22490   76.45420
 9113.00000   73.66220  118.97470   69.42530
 9113.50000   72.86950  118.72450   71.27570
 9114.00000   71.10880  118.87470   72.42120
 9114.50000   69.99870  116.93940   75.80010
 9115.00000   69.99870  116.07200   80.21050
 9115.50000   71.36790  117.15700   75.68710
 9116.00000   72.19040  118.51320   59.27070
 9116.50000   72.97710  119.86950   50.36460
 9117.00000   74.40550  121.22570   60.15870
 9117.50000   74.42800  122.58190   76.23240
 9118.00000   74.08100  123.93820   92.30620
 9118.50000   73.78750  124.58080  100.69260
 9119.00000   71.94270  124.58090   98.58220
 9119.50000   71.74110  124.18610   90.33250
 9120.00000   71.36530  123.32420   80.35290
 9120.50000   70.48950  121.83180   68.07040
 9121.00000   69.92940  119.91930   60.55110
 9121.50000   69.18210  118.00670   70.71260
 9122.00000   68.26520  117.12370   84.42450
 9122.50000   66.90640  116.31840   93.35540
 9123.00000   65.46500  113.54300   82.30870
 9123.50000   63.59540  110.76750   68.82770
 9124.00000   63.21240  110.67200   55.61480
 9124.50000   63.61950  110.80860   44.56180
 9125.00000   64.90420  110.91780   36.50440
 9125.50000   65.73510  110.71760   33.43970
 9126.00000   65.82520  110.51750   41.79060
 9126.50000   65.73080  110.58910   76.80410
 9127.00000   64.65830  110.66060  102.43720
 9127.50000   64.44390  110.71790  113.95550
 9128.00000   65.72240  111.89570   90.53000
 9128.50000   67.24550  113.18040   55.34730
 9129.00000   67.71310  114.46510   29.54570
 9129.50000   68.09200  114.82220   27.59850
 9130.00000   71.95150  115.76480   39.59260
 9130.50000   78.46810  118.47590   70.32660
 9131.00000   77.77740  121.18700   83.79800
 9131.50000   77.33710  123.23740   90.54570
 9132.00000   77.83780  125.12270   93.44490
 9132.50000   78.34420  127.00800   97.09230
 9133.00000   79.03920  127.48520   96.77120
 9133.50000   78.67460  127.00750   92.56490
 9134.00000   78.55310  126.52980   87.04950
 9134.50000   78.50520  126.05210   86.05520
 9135.00000   78.36530  125.57440   88.30210
 9135.50000   78.34860  125.36190   97.28960
 9136.00000   78.54590  125.32620  102.29250
 9136.50000   79.03900  125.29050  104.77930
 9137.00000   79.24930  125.73380  102.56250
 9137.50000   79.51990  126.29690   98.78780
 9138.00000   79.01550  126.63480   95.02440
 9138.50000   78.79930  126.55300   93.84490
 9139.00000   78.35310  126.14350   95.01150
 9139.50000   78.34780  125.73410   96.72200
 9140.00000   77.87860  124.85820   92.20540
 9140.50000   77.48820  123.98240   83.80410
 9141.00000   77.07460  123.10660   82.27360
 9141.50000   76.66090  122.23080   85.64400
 9142.00000   76.24720  122.22530   89.01440
 9142.50000   75.88620  122.44780   90.21280
 9143.00000   75.88630  122.18090   90.40040
 9143.50000   75.82620  121.17990   92.30570
 9144.00000   75.04550  120.17900   92.65820
 9144.50000   74.06400  119.17800   91.68300
 9145.00000   73.81110  118.17710   85.21760
 9145.50000   73.60450  117.51650   80.26150
 9146.00000   73.83030  117.68820   72.26880
 9146.50000   73.90910  117.74600   68.19870
 9147.00000   74.36550  117.80380   69.14400
 9147.50000   74.75040  117.82700   70.89060
 9148.00000   75.62740  118.47770   79.43590
 9148.50000   76.17910  118.71680   87.98120
 9149.00000   76.96810  119.91250   93.13500
 9149.50000   77.45010  120.63000   90.45480
 9150.00000   77.93260  121.91260   85.90470
 9150.50000   78.40750  122.98240   82.87420
 9151.00000   78.77600  123.33280   83.02410
 9151.50000   79.53820  124.24630   84.52210
 9152.00000   79.75640  125.68530   86.02010
 9152.50000   79.93270  127.12430   85.87030
 9153.00000   80.02720  127.97660   86.62510
 9153.50000   79.86190  127.92100   91.60030
 9154.00000   80.15230  127.88770  100.98530
 9154.50000   80.54430  128.56570  111.76790
 9155.00000   80.51290  129.38470  114.04490
 9155.50000   80.48160  130.04000  107.27180
 9156.00000   80.65430  128.63860   95.87430
 9156.50000   81.51770  126.30300   89.27380
 9157.00000   81.86310  124.28440   92.33070
 9157.50000   74.48570  123.68380   94.10960
 9158.00000   71.18250  123.83400   79.03980
 9158.50000   71.80810  124.55980   55.82360
 9159.00000   72.43380  125.53580   40.93420
 9159.50000   74.59050  127.28760   53.15060
 9160.00000   76.74720  129.49760   73.92570
 9160.50000   79.88170  132.39480   93.69840
 9161.00000   82.50790  135.29190  108.02190
 9161.50000   82.85380  138.18910  111.63560
 9162.00000   84.18930  141.08630  111.40060
 9162.50000   84.94230  143.40400  109.27690
 9163.00000   85.09580  143.11000  103.58500
 9163.50000   84.14610  141.38960   97.98520
 9164.00000   83.31860  138.83530   94.64980
 9164.50000   82.57460  135.99680   94.16940
 9165.00000   80.18230  134.24510   96.40980
 9165.50000   79.38650  132.49340   98.81330
 9166.00000   77.41050  129.44040  101.00120
 9166.50000   76.51870  126.38740   94.89760
 9167.00000   75.37760  124.18980   83.22320
 9167.50000   72.79500  120.52710   78.68270
 9168.00000   71.06360  117.48580   83.77560
 9168.50000   70.46780  115.37660   95.75890
 9169.00000   70.49550  115.12640   95.90880
 9169.50000   70.83500  115.77710   87.73460
 9170.00000   71.12470  116.42780   70.02560
 9170.50000   71.49430  116.00240   49.80970
 9171.00000   71.86390  115.52700   55.52820
 9171.50000   72.57790  116.23570   80.62460
 9172.00000   73.43270  117.24990   91.85940
 9172.50000   74.44920  118.26410   87.62060
 9173.00000   75.25740  119.27830   83.89320
 9173.50000   73.25550  119.48120   81.12110
 9174.00000   72.54390  119.03080   81.59770
 9174.50000   74.14090  118.28010   82.12890
 9175.00000   75.73800  113.09680   76.62450
 9175.50000   74.95750  107.96360   68.23630
 9176.00000   70.56090  102.83030   57.99510
 9176.50000   56.78920   99.75040   43.97040
 9177.00000   56.57900   99.75040   33.84900
 9177.50000   57.69680  102.89610   23.94310
 9178.00000   67.54000  106.82830   19.15040
 9178.50000   75.58810  110.76040   27.01180
 9179.00000   74.74180  114.69250   41.27460
 9179.50000   73.89550  118.62470   65.54070
 9180.00000   76.21880  122.55680   76.20940
 9180.50000   76.20170  126.48890   83.60240
 9181.00000   76.03870  128.59820   85.08860
 9181.50000   78.46610  130.70750   92.80280
 9182.00000   79.07680  132.53260  100.23980
 9182.50000   78.95210  133.22090  102.80110
 9183.00000   79.17070  133.59630   96.69760
 9183.50000   79.70290  133.70480   89.44360
 9184.00000   80.17080  134.24700   86.77380
 9184.50000   80.46870  135.32320   92.69550
 9185.00000   81.16600  136.44930   96.91770
 9185.50000   81.17760  137.53390   96.51520
