~Version ---------------------------------------------------
VERS.   2.0 : CWLS log ASCII Standard -VERSION 2.0
WRAP.    NO : One line per depth step
DLM . SPACE : Column Data Section Delimiter
~Well ------------------------------------------------------
STRT .FT                8830.0 : START DEPTH
STOP .FT               10559.0 : STOP DEPTH
STEP .FT                   0.5 : STEP
NULL .                -9999.25 : NULL VALUE
COMP .                         : COMPANY
WELL .                         : WELL
FLD  .                         : FIELD
LOC  .                         : LOCATION
PROV .                         : PROVINCE
CNTY .                         : COUNTY
STAT .                         : STATE
CTRY .                         : COUNTRY
SRVC .                         : SERVICE COMPANY
DATE .                         : DATE
UWI  .                         : UNIQUE WELL ID
API  .                         : API NUMBER
SLAT .WGS84 1.9532597274116021 : SURFACE LATITUDE
SLON .WGS84  8.781415805266988 : SURFACE LONGITUDE
DATUM.F                    nan : DEPTH DATUM ELEV
~Curve Information -----------------------------------------
DEPT.FT    : 
DTCO.US/F  : DELTA-T COMPRESSIONAL
DTSM.US/F  : DELTA-T SHEAR
GRS .GAPI  : GAMMA RAY FROM SONIC LOG
~Params ----------------------------------------------------
~Other -----------------------------------------------------
~ASCII -----------------------------------------------------
# ...
 10509.50000   63.99820  115.06330   89.86110
 10510.00000   64.67390  114.89190   86.75980
 10510.50000   65.24320  116.54370   83.48720
 10511.00000   65.46900  116.59400   80.76330
 10511.50000   65.81950  116.59420   85.28300
 10512.00000   66.19320  116.84460   92.77970
 10512.50000   66.40020  117.14510   99.02160
 10513.00000   66.56230  117.39550  102.47960
 10513.50000   66.88670  117.49580   97.80460
 10514.00000   68.00570  117.64620   95.81590
 10514.50000   68.59180  117.64640   97.56780
 10515.00000   68.57500  117.54640   98.97780
 10515.50000   68.50300  117.13370   99.23740
 10516.00000   68.65130  116.97750  100.80990
 10516.50000   69.02200  117.43780  106.87610
 10517.00000   69.32850  118.05230  114.42130
 10517.50000   69.52680  118.29810  118.97060
 10518.00000   69.35460  118.29830  116.68060
 10518.50000   68.78140  118.24850  102.98520
 10519.00000   68.52380  117.36650   98.74790
 10519.50000   68.19660  116.14670  101.89320
 10520.00000   67.45570  114.92700  100.14980
 10520.50000   67.16390  114.14510   86.19180
 10521.00000   67.51870  114.14530   72.23370
 10521.50000   67.87380  114.14550   71.93380
 10522.00000   67.60800  114.14570   73.35350
 10522.50000   67.31020  113.85310   75.71980
 10523.00000   66.99330  113.61550   78.56130
 10523.50000   66.43280  113.37800   88.89650
 10524.00000   65.83840  113.14040   98.56270
 10524.50000   65.20530  112.99550  111.77600
 10525.00000   64.81150  113.07350  103.71180
 10525.50000   63.95590  113.26830   84.30100
 10526.00000   63.42980  112.71110   71.24620
 10526.50000   62.87390  111.65260   62.49360
 10527.00000   62.34950  110.59400   64.84710
 10527.50000   61.44870  110.21880   70.73140
 10528.00000   60.83000  109.84360   70.73100
 10528.50000   60.39790  109.46840   66.38680
 10529.00000   60.28420  109.09330   62.19230
 10529.50000   60.29480  109.14350   66.77560
 10530.00000   60.46570  110.67300   64.69530
 10530.50000   60.67500  112.64740   51.85580
 10531.00000   60.91580  113.14800   46.61280
 10531.50000   61.70400  113.49860   46.91200
 10532.00000   62.36140  114.76670   54.30140
 10532.50000   63.53030  116.29620   63.53810
 10533.00000   65.10260  118.47910   72.77480
 10533.50000   66.12920  121.10690   75.07130
 10534.00000   67.05280  123.43980   69.63350
 10534.50000   67.90760  125.57610   60.57090
 10535.00000   68.76240  127.71230   56.34650
 10535.50000   69.61720  129.84860   58.62290
 10536.00000   70.47210  131.98480   59.19180
 10536.50000   71.01500  134.12110   -9999.25
 10537.00000   71.10520  134.57170   -9999.25
 10537.50000   71.83460  135.12250   -9999.25
 10538.00000   72.56410  135.58420   -9999.25
 10538.50000   73.14760  135.97370   -9999.25
 10539.00000   73.04940  136.07400   -9999.25
 10539.50000   72.85850  136.07420   -9999.25
 10540.00000   72.66750  135.57390   -9999.25
 10540.50000   72.47650  135.07350   -9999.25
 10541.00000   72.28550  134.57320   -9999.25
 10541.50000   72.22670  134.12300   -9999.25
 10542.00000   71.97350  133.87290   -9999.25
 10542.50000   71.72020  133.82300   -9999.25
 10543.00000   71.46690  133.58550   -9999.25
 10543.50000   71.28690  133.35630   -9999.25
 10544.00000   71.01670  133.02280   -9999.25
 10544.50000   70.82910  132.27220   -9999.25
 10545.00000   70.68660  131.57170   -9999.25
 10545.50000   70.56660  131.12150   -9999.25
 10546.00000   70.00550  130.82140   -9999.25
 10546.50000   68.85100  129.13350   -9999.25
 10547.00000   67.69650  127.08620   -9999.25
 10547.50000   66.54200  125.03890   -9999.25
 10548.00000   65.38750  122.99160   -9999.25
 10548.50000   64.23300  121.71320   -9999.25
 10549.00000   63.18000  122.05490   -9999.25
 10549.50000   62.27920  122.39660   -9999.25
 10550.00000   62.03910  122.73830   -9999.25
 10550.50000   64.14070  123.08000   -9999.25
 10551.00000   64.14060  123.42170   -9999.25
 10551.50000   64.13970  123.81330   -9999.25
 10552.00000   64.10920  123.91270   -9999.25
 10552.50000   64.08290  123.96190   -9999.25
 10553.00000   64.03950  123.67440   -9999.25
 10553.50000   63.99600  122.83190   -9999.25
 10554.00000   63.58140  121.98930   -9999.25
 10554.50000   63.20560  121.14670   -9999.25
 10555.00000   63.14500  120.30410   -9999.25
 10555.50000   62.59790  120.20320   -9999.25
 10556.00000   61.88270  120.62380   -9999.25
 10556.50000   62.19740  121.04440   -9999.25
 10557.00000   63.02270  121.46500   -9999.25
 10557.50000   62.88490  121.88560   -9999.25
 10558.00000   62.65560  122.30630   -9999.25
 10558.50000   62.42630  122.72690   -9999.25
 10559.00000   62.19690  123.14750   -9999.25
