~Version ---------------------------------------------------
VERS.   2.0 : CWLS log ASCII Standard -VERSION 2.0
WRAP.    NO : One line per depth step
DLM . SPACE : Column Data Section Delimiter
~Well ------------------------------------------------------
STRT .FT                8830.0 : START DEPTH
STOP .FT               10559.0 : STOP DEPTH
STEP .FT                   0.5 : STEP
NULL .                -9999.25 : NULL VALUE
COMP .                         : COMPANY
WELL .                         : WELL
FLD  .                         : FIELD
LOC  .                         : LOCATION
PROV .                         : PROVINCE
CNTY .                         : COUNTY
STAT .                         : STATE
CTRY .                         : COUNTRY
SRVC .                         : SERVICE COMPANY
DATE .                         : DATE
UWI  .                         : UNIQUE WELL ID
API  .                         : API NUMBER
SLAT .WGS84 1.9532597274116021 : SURFACE LATITUDE
SLON .WGS84  8.781415805266988 : SURFACE LONGITUDE
DATUM.F                    nan : DEPTH DATUM ELEV
~Curve Information -----------------------------------------
DEPT.FT    : 
DTCO.US/F  : DELTA-T COMPRESSIONAL
DTSM.US/F  : DELTA-T SHEAR
GRS .GAPI  : GAMMA RAY FROM SONIC LOG
~Params ----------------------------------------------------
~Other -----------------------------------------------------
~ASCII -----------------------------------------------------
# ...
 8919.00000   74.22150  120.30200  150.00550
 8919.50000   72.84020  119.10550  109.83960
 8920.00000   71.29420  117.81890  100.74890
 8920.50000   69.83720  114.97520   93.06330
 8921.00000   67.98860  112.13150   84.07590
 8921.50000   67.49500  111.56850   67.66850
 8922.00000   67.82770  111.08060   53.63090
 8922.50000   68.69620  111.74250   55.52830
 8923.00000   70.37790  113.06230   63.51720
 8923.50000   72.32990  115.21450   86.77250
 8924.00000   73.61250  116.86370   97.76200
 8924.50000   74.49210  117.91730  111.63790
 8925.00000   75.41320  119.16860  120.62540
 8925.50000   76.26460  120.91660  125.69310
 8926.00000   76.77540  121.90160  124.17010
 8926.50000   76.79210  122.19100  117.80900
 8927.00000   76.78960  122.30840  109.96220
 8927.50000   76.65450  122.03920  108.45490
 8928.00000   75.79280  121.37380  117.25120
 8928.50000   74.46230  120.17000  125.21120
 8929.00000   72.90080  119.10850  122.82750
 8929.50000   72.24310  118.04710  114.93400
 8930.00000   71.76320  116.98560  110.11010
 8930.50000   71.50750  116.03140  101.15340
 8931.00000   71.49250  115.50590   89.76950
 8931.50000   71.43050  114.93540   77.87590
 8932.00000   71.67980  114.93090   73.40470
 8932.50000   71.85000  114.98190   89.47010
 8933.00000   72.14670  115.33960  100.18450
 8933.50000   72.45530  115.59330  103.09890
 8934.00000   73.11770  115.93820   97.03520
 8934.50000   73.33080  116.06650   91.56750
 8935.00000   72.84110  115.96200   86.49390
 8935.50000   71.76010  115.55320   83.92330
 8936.00000   70.60410  114.61040   82.27460
 8936.50000   70.07940  113.34730   80.78290
 8937.00000   69.69610  113.06430   75.98970
 8937.50000   69.46620  112.56670   72.38520
 8938.00000   69.43620  112.65070   70.45620
 8938.50000   69.85210  112.76060   72.70530
 8939.00000   70.54340  112.90650   75.89010
 8939.50000   71.41830  113.73970   78.61160
 8940.00000   73.90650  114.91790   79.89510
 8940.50000   74.90180  115.87230   78.08470
 8941.00000   75.05200  116.54800   79.74070
 8941.50000   75.20220  117.08850   86.92500
 8942.00000   69.93880  115.39800   98.32990
 8942.50000   63.35950  113.28480  108.00780
 8943.00000   60.18030  111.17160   93.84360
 8943.50000   59.26790  109.05850   71.19730
 8944.00000   58.35550  106.94530   44.35170
 8944.50000   58.29550  105.15870   31.67740
 8945.00000   58.37060  103.86200   26.05090
 8945.50000   58.65590  102.77460   24.60460
 8946.00000   60.90820  103.34670   27.54830
 8946.50000   63.16040  104.52650   28.94560
 8947.00000   65.41270  106.47850   34.49920
 8947.50000   67.66500  108.43050   49.84600
 8948.00000   69.91730  114.20630   77.35300
 8948.50000   72.16960  118.46140   99.65820
 8949.00000   74.42190  119.56670  139.48370
 8949.50000   74.94510  120.67210  152.55650
 8950.00000   74.82880  121.81410  151.50810
 8950.50000   74.04320  121.94430  127.90990
 8951.00000   73.34060  120.87180  104.75150
 8951.50000   72.96220  119.21160   93.36750
 8952.00000   72.48570  117.15960   78.98210
 8952.50000   71.67460  116.13870   69.77670
 8953.00000   71.12750  115.78840   64.86980
 8953.50000   70.92670  114.95420   70.89930
 8954.00000   70.73420  114.68740   86.24470
 8954.50000   71.52280  115.10780   92.56410
 8955.00000   72.12160  115.80860   85.56810
 8955.50000   73.76210  116.50930   77.13600
 8956.00000   75.00520  117.21010   75.11170
 8956.50000   75.41330  117.91080   79.58750
 8957.00000   75.12120  118.39140   95.16580
 8957.50000   74.79360  118.54160  106.25040
 8958.00000   74.30230  118.69180  123.34710
 8958.50000   73.70170  119.54270  132.81330
 8959.00000   73.59360  119.59280  126.92050
 8959.50000   73.69870  119.34260   92.17040
 8960.00000   73.80370  119.09240   70.66900
 8960.50000   73.90880  119.28430   65.91950
 8961.00000   74.01380  119.76400   81.08730
 8961.50000   73.88850  120.24370   99.85980
 8962.00000   73.69460  119.93570  118.63230
 8962.50000   73.21790  118.39580  122.66360
 8963.00000   71.19730  116.85580  111.04450
 8963.50000   69.61190  115.78940   93.36930
 8964.00000   68.84620  115.03870   76.70730
 8964.50000   68.35670  114.68840   57.71400
 8965.00000   68.29670  114.33810   48.09510
 8965.50000   68.38680  114.23810   47.49600
 8966.00000   69.08030  114.23810   62.99360
 8966.50000   69.87200  114.53850   78.49120
 8967.00000   72.24080  116.69070   94.21670
 8967.50000   75.11990  119.38090   98.06440
 8968.00000   75.83440  121.30370   95.66510
 8968.50000   76.35080  122.07540   96.54960
 8969.00000   76.29900  122.84700  102.25180
 8969.50000   75.58860  122.74700  106.81350
 8970.00000   74.77880  121.90290   99.46660
 8970.50000   74.17110  120.41810   87.77220
 8971.00000   73.05710  119.36980   88.13950
 8971.50000   71.71190  118.02210   97.36440
 8972.00000   70.36670  116.70810  100.01850
 8972.50000   69.76860  115.06740   85.58160
 8973.00000   69.73860  114.58920   70.55230
 8973.50000   70.84980  115.01300   59.69120
 8974.00000   72.50140  116.19750   68.16220
 8974.50000   73.22220  117.38210   82.58610
 8975.00000   73.30470  118.19300   94.26980
 8975.50000   73.59690  118.54340  109.83610
 8976.00000   73.98450  119.17500  118.34840
 8976.50000   74.22500  120.12840  115.18190
 8977.00000   74.66950  121.08180  101.26500
 8977.50000   74.98050  122.03520   78.36480
 8978.00000   75.55930  122.79790   71.61740
 8978.50000   75.17960  122.82650   85.87980
 8979.00000   74.57530  122.74790  100.56160
 8979.50000   74.35110  122.47270  117.38450
 8980.00000   74.03460  122.19750  120.86550
 8980.50000   73.81920  121.49230  110.78900
 8981.00000   72.39340  120.67330  100.26230
 8981.50000   70.02110  119.57750   85.85670
 8982.00000   67.14160  116.48700   76.10840
 8982.50000   65.03620  113.39640   75.90880
 8983.00000   62.63380  110.30590   76.55790
 8983.50000   61.60690  107.47810   67.72040
 8984.00000   61.13710  105.70140   51.82560
 8984.50000   61.26420  104.28000   36.91640
 8985.00000   61.79310  104.51960   28.62530
 8985.50000   62.24350  104.96650   41.28880
 8986.00000   63.16680  105.41340   57.80460
 8986.50000   63.95530  106.56580   72.40210
 8987.00000   65.75710  108.59820   81.68920
 8987.50000   67.31870  109.91780   83.00370
 8988.00000   68.42460  111.23730   85.03160
 8988.50000   68.91900  111.84510   84.41130
 8989.00000   68.96840  112.23840   82.27670
 8989.50000   68.85140  112.33860   77.78280
 8990.00000   68.98990  112.48880   78.48740
 8990.50000   68.86700  112.63900   81.39010
 8991.00000   68.89240  112.68910   84.77830
 8991.50000   68.84860  112.43220   85.41910
 8992.00000   68.75410  112.14860   84.35620
 8992.50000   68.61030  111.86510   81.92110
 8993.00000   68.45020  111.54120   82.58340
 8993.50000   68.26310  111.05640   84.80340
 8994.00000   67.96820  110.57160   84.26140
 8994.50000   67.46230  110.08680   81.80440
 8995.00000   66.34990  109.29970   79.65450
 8995.50000   65.60240  108.32150   79.57970
 8996.00000   63.93470  106.92310   82.68030
 8996.50000   62.29580  104.89430   82.70140
 8997.00000   59.54090  102.86560   81.65290
 8997.50000   56.63750  100.83680   67.68190
 8998.00000   54.72500   98.80800   48.86430
 8998.50000   53.74580   96.77930   39.45000
 8999.00000   52.53020   95.09230   28.06600
 8999.50000   51.78420   93.49070   22.37410
 9000.00000   51.29150   93.12040   18.50920
 9000.50000   50.94150   93.22060   16.20840
 9001.00000   52.82230   94.00470   18.04910
 9001.50000   54.47200   96.17360   21.05070
 9002.00000   54.63530  100.46970   24.29050
 9002.50000   58.11880  104.76590   30.16360
 9003.00000   70.28100  109.06200   50.83480
 9003.50000   79.13980  113.35810   70.00800
 9004.00000   77.31810  119.31410   98.65550
 9004.50000   76.49730  125.27010  112.89090
 9005.00000   78.23900  125.83320  119.52710
 9005.50000   78.94600  126.98340  121.74460
 9006.00000   79.65290  128.63900  115.44580
 9006.50000   79.71810  130.29450  108.95390
 9007.00000   79.24920  130.72580  103.24390
 9007.50000   78.95160  130.59240  104.24980
