~Version ---------------------------------------------------
VERS.   2.0 : CWLS log ASCII Standard -VERSION 2.0
WRAP.    NO : One line per depth step
DLM . SPACE : Column Data Section Delimiter
~Well ------------------------------------------------------
STRT .FT                8830.0 : START DEPTH
STOP .FT               10559.0 : STOP DEPTH
STEP .FT                   0.5 : STEP
NULL .                -9999.25 : NULL VALUE
COMP .                         : COMPANY
WELL .                         : WELL
FLD  .                         : FIELD
LOC  .                         : LOCATION
PROV .                         : PROVINCE
CNTY .                         : COUNTY
STAT .                         : STATE
CTRY .                         : COUNTRY
SRVC .                         : SERVICE COMPANY
DATE .                         : DATE
UWI  .                         : UNIQUE WELL ID
API  .                         : API NUMBER
SLAT .WGS84 1.9532597274116021 : SURFACE LATITUDE
SLON .WGS84  8.781415805266988 : SURFACE LONGITUDE
DATUM.F                    nan : DEPTH DATUM ELEV
~Curve Information -----------------------------------------
DEPT.FT    : 
DTCO.US/F  : DELTA-T COMPRESSIONAL
DTSM.US/F  : DELTA-T SHEAR
GRS .GAPI  : GAMMA RAY FROM SONIC LOG
~Params ----------------------------------------------------
~Other -----------------------------------------------------
~ASCII -----------------------------------------------------
# ...
 9275.00000   75.05370  124.49640   76.83920
 9275.50000   74.30300  123.25340   82.98930
 9276.00000   73.11370  121.78420   80.00500
 9276.50000   72.02080  120.68990   72.14600
 9277.00000   71.66050  119.52740   57.76620
 9277.50000   71.83240  118.75350   49.79690
 9278.00000   72.26940  118.77860   55.76850
 9278.50000   72.75830  118.98520   64.95640
 9279.00000   73.25670  118.91080   74.10010
 9279.50000   74.00300  119.82180   83.64670
 9280.00000   74.38250  120.75500   93.19330
 9280.50000   74.90390  121.46210   99.07110
 9281.00000   74.99400  121.93640   98.62180
 9281.50000   74.93510  122.41070   90.72080
 9282.00000   75.25490  122.74530   84.99960
 9282.50000   75.27090  121.82980   79.37580
 9283.00000   75.05840  121.06440   80.25650
 9283.50000   75.11430  120.29890   85.62820
 9284.00000   75.58340  119.69250   89.86810
 9284.50000   75.76830  119.19210   91.65490
 9285.00000   76.02540  120.99390   93.71710
 9285.50000   76.19650  121.69460   96.72430
 9286.00000   76.10920  121.51450   97.57430
 9286.50000   75.98540  121.28930   98.88510
 9287.00000   75.50440  120.81530  102.09520
 9287.50000   75.14790  120.27910  103.99820
 9288.00000   74.81140  119.74290  101.95980
 9288.50000   74.63410  119.77430   93.41800
 9289.00000   74.67560  120.43120   89.07420
 9289.50000   74.75540  120.74410   84.54280
 9290.00000   75.04760  120.74420   84.84240
 9290.50000   75.52530  120.94440   89.67360
 9291.00000   76.09250  121.30480   93.36460
 9291.50000   76.38610  121.56760   98.29200
 9292.00000   76.48810  121.83040   98.86290
 9292.50000   76.63630  122.09320   94.01780
 9293.00000   76.16590  121.59790   89.22460
 9293.50000   75.87550  120.91310   84.96800
 9294.00000   75.65090  120.22820   84.40810
 9294.50000   75.22660  119.54340   87.55970
 9295.00000   75.24040  119.64910   89.43460
 9295.50000   75.35530  119.84380   93.46980
 9296.00000   75.66860  120.39800   95.61420
 9296.50000   75.26670  120.95210   96.55960
 9297.00000   74.30430  121.39550   96.56490
 9297.50000   73.28330  121.44560   99.39280
 9298.00000   71.06110  119.67720  101.32060
 9298.50000   67.89080  117.59180  101.02110
 9299.00000   66.97670  116.29060   87.47080
 9299.50000   67.30110  116.66600   62.86240
 9300.00000   67.84160  116.79120   45.74150
 9300.50000   68.38220  116.99140   35.92140
 9301.00000   68.90540  117.54210   45.63540
 9301.50000   69.67290  119.04360   62.39560
 9302.00000   71.28620  122.17680   79.36650
 9302.50000   74.64960  125.65530   96.65340
 9303.00000   76.10650  127.47570  104.16730
 9303.50000   76.94730  128.61600  101.00600
 9304.00000   77.91830  130.56800   97.28890
 9304.50000   78.28250  131.85830   93.81200
 9305.00000   78.23870  131.85860   94.09450
 9305.50000   78.11860  131.19090   97.61470
 9306.00000   77.85720  129.93890  103.43200
 9306.50000   77.57810  128.37740  108.61910
 9307.00000   76.88160  127.06810  103.33580
 9307.50000   76.49960  126.65940   97.57720
 9308.00000   76.44750  125.95280   86.79240
 9308.50000   76.50790  125.77160   84.02970
 9309.00000   76.86120  126.24730   80.95070
 9309.50000   77.24800  127.07480   81.10060
 9310.00000   77.71930  127.94370   85.84370
 9310.50000   78.09600  128.98580   91.95610
 9311.00000   78.53190  130.07130  100.91090
 9311.50000   78.64450  131.15670  104.74120
 9312.00000   78.13120  131.20680  107.11240
 9312.50000   77.41840  130.27260  107.66700
 9313.00000   75.13110  128.18720  102.75450
 9313.50000   73.76140  126.10190   98.51460
 9314.00000   72.64620  124.60040   89.37580
 9314.50000   72.20100  123.41750   78.44290
 9315.00000   72.02830  121.21080   62.65480
 9315.50000   71.77190  119.08880   59.38190
 9316.00000   72.14280  117.30580   67.92000
 9316.50000   72.50370  116.54260   78.40540
 9317.00000   73.22440  117.76450   82.74940
 9317.50000   74.78600  119.35430   79.37920
 9318.00000   76.08620  120.94420   77.17740
 9318.50000   76.63980  122.39870   76.90780
 9319.00000   76.94830  123.14950   83.93180
 9319.50000   77.48880  124.27760   88.09050
 9320.00000   78.29650  125.62510   89.72380
 9320.50000   78.54000  126.85330   92.44610
 9321.00000   78.79090  127.60410   93.79170
 9321.50000   78.88180  128.17470   95.53260
 9322.00000   79.00390  128.35500   97.79810
 9322.50000   79.12690  128.01470   95.98040
 9323.00000   79.20340  127.58930   90.12780
 9323.50000   79.21000  127.58560   87.58140
 9324.00000   79.30930  127.99230   83.47620
 9324.50000   79.44110  128.39900   85.78770
 9325.00000   79.43480  128.80570   87.20720
 9325.50000   79.42850  128.85580   89.82860
 9326.00000   78.82820  129.11860   93.55580
 9326.50000   78.14990  129.55660   96.11990
 9327.00000   76.88870  129.22300  100.37990
 9327.50000   76.03750  127.80500  101.59370
 9328.00000   75.45710  127.10430   98.64610
 9328.50000   74.66320  124.50180   90.80800
 9329.00000   74.43920  123.92620   83.71960
 9329.50000   74.38130  123.17200   82.07310
 9330.00000   74.46680  122.02800   82.42700
 9330.50000   75.08900  121.59910   84.00860
 9331.00000   75.62480  121.50690   87.10050
 9331.50000   76.01510  121.41480   91.55130
 9332.00000   76.50980  121.32260   87.69610
 9332.50000   77.09920  121.24890   85.09630
 9333.00000   77.47460  121.79240   84.49070
 9333.50000   77.65340  122.47170   89.53020
 9334.00000   77.78380  123.15100   93.95240
 9334.50000   77.76000  123.35120   97.99030
 9335.00000   77.70000  123.40130   99.55590
 9335.50000   77.64000  123.70170   97.99370
 9336.00000   77.54990  124.45250   91.50020
 9336.50000   77.25560  125.05310   85.14900
 9337.00000   76.67910  125.14210   87.64970
 9337.50000   76.55900  125.25340   91.02870
 9338.00000   76.47390  125.01320   94.09730
 9338.50000   76.44480  124.61290   93.72430
 9339.00000   76.43800  124.23170   91.26600
 9339.50000   76.16860  123.67910   88.69860
 9340.00000   76.17400  123.12650   87.09640
 9340.50000   76.19340  122.57390   90.17480
 9341.00000   76.54060  122.02140   93.42590
 9341.50000   77.05640  121.80040   86.35910
 9342.00000   77.87410  122.01880   80.50360
 9342.50000   78.38820  122.69000   71.55670
 9343.00000   78.72290  123.36120   75.60650
 9343.50000   79.19310  124.03230   81.57540
 9344.00000   79.90130  124.70350   88.04940
 9344.50000   80.33820  125.28750   88.89490
 9345.00000   80.40330  125.87140   85.89920
 9345.50000   80.16850  126.15510   83.50260
 9346.00000   79.88040  125.99310   87.91320
 9346.50000   79.59220  125.79060   90.33550
 9347.00000   79.77220  125.58800   84.05590
 9347.50000   79.99730  125.38550   77.77630
 9348.00000   79.76420  125.25450   75.26460
 9348.50000   79.70380  125.30450   83.26340
 9349.00000   79.84890  125.30450   93.07480
 9349.50000   80.18000  125.30470  101.47810
 9350.00000   80.84090  125.70090  101.62790
 9350.50000   81.18330  126.09720   95.88610
 9351.00000   80.65170  126.25580   91.44240
 9351.50000   80.15640  126.21410   91.44240
 9352.00000   79.69430  125.98480   93.60610
 9352.50000   79.23220  125.75540   95.33710
 9353.00000   79.20220  125.52610   95.33720
 9353.50000   79.31420  125.29670   95.18750
 9354.00000   79.68920  125.20500   95.63690
 9354.50000   79.81420  125.28340   99.94350
 9355.00000   79.92960  125.38140  104.25000
 9355.50000   80.04360  125.47940  108.55660
 9356.00000   80.24380  125.57730  109.41790
 9356.50000   80.30030  125.65570  106.39230
 9357.00000   80.36500  125.50560  100.89670
 9357.50000   79.49930  125.25540   94.73870
 9358.00000   79.12210  125.00520   97.16040
 9358.50000   78.54000  124.56040  103.96350
 9359.00000   77.76800  123.58720  110.76650
 9359.50000   76.47680  122.61410  111.06620
 9360.00000   75.94930  121.64090  106.27290
 9360.50000   75.64560  120.66780  110.46720
 9361.00000   75.09550  119.69470  105.46420
 9361.50000   74.18810  118.72150   99.02330
 9362.00000   73.67560  117.74840   92.58240
 9362.50000   73.85780  117.94860   86.14150
 9363.00000   74.30830  118.14890   84.40400
 9363.50000   75.03330  117.99880   78.96170
