~Version ---------------------------------------------------
VERS.   2.0 : CWLS log ASCII Standard -VERSION 2.0
WRAP.    NO : One line per depth step
DLM . SPACE : Column Data Section Delimiter
~Well ------------------------------------------------------
STRT .FT                8830.0 : START DEPTH
STOP .FT               10559.0 : STOP DEPTH
STEP .FT                   0.5 : STEP
NULL .                -9999.25 : NULL VALUE
COMP .                         : COMPANY
WELL .                         : WELL
FLD  .                         : FIELD
LOC  .                         : LOCATION
PROV .                         : PROVINCE
CNTY .                         : COUNTY
STAT .                         : STATE
CTRY .                         : COUNTRY
SRVC .                         : SERVICE COMPANY
DATE .                         : DATE
UWI  .                         : UNIQUE WELL ID
API  .                         : API NUMBER
SLAT .WGS84 1.9532597274116021 : SURFACE LATITUDE
SLON .WGS84  8.781415805266988 : SURFACE LONGITUDE
DATUM.F                    nan : DEPTH DATUM ELEV
~Curve Information -----------------------------------------
DEPT.FT    : 
DTCO.US/F  : DELTA-T COMPRESSIONAL
DTSM.US/F  : DELTA-T SHEAR
GRS .GAPI  : GAMMA RAY FROM SONIC LOG
~Params ----------------------------------------------------
~Other -----------------------------------------------------
~ASCII -----------------------------------------------------
 8830.00000   -9999.25   -9999.25   33.79480
 8830.50000   -9999.25   -9999.25   40.86000
 8831.00000   -9999.25   -9999.25   47.92520
 8831.50000   -9999.25   -9999.25   47.92520
 8832.00000   -9999.25   -9999.25   40.67940
 8832.50000   -9999.25   -9999.25   33.43350
 8833.00000   -9999.25   -9999.25   28.04110
 8833.50000   -9999.25   -9999.25   25.05460
 8834.00000   -9999.25   -9999.25   20.45770
 8834.50000   -9999.25   -9999.25   17.33120
 8835.00000   -9999.25   -9999.25   15.80070
 8835.50000   -9999.25   -9999.25   15.72090
 8836.00000   -9999.25   -9999.25   16.17030
 8836.50000   -9999.25   -9999.25   16.61980
 8837.00000   -9999.25   -9999.25   21.11350
 8837.50000   -9999.25   -9999.25   31.99700
 8838.00000   -9999.25   -9999.25   53.84980
 8838.50000   -9999.25   -9999.25   72.08010
 8839.00000   -9999.25   -9999.25  101.56040
 8839.50000   -9999.25   -9999.25  110.53840
 8840.00000   -9999.25   -9999.25   87.99550
 8840.50000   -9999.25   -9999.25   66.98750
 8841.00000   -9999.25   -9999.25   37.70900
 8841.50000   -9999.25   -9999.25   32.06900
 8842.00000   -9999.25   -9999.25   37.15480
 8842.50000   -9999.25   -9999.25   51.84980
 8843.00000   -9999.25   -9999.25   56.24580
 8843.50000   -9999.25   -9999.25   49.07280
 8844.00000   65.29820  108.26820   46.42890
 8844.50000   66.03180  110.58310   52.66420
 8845.00000   67.44750  112.50600   65.19060
 8845.50000   67.94090  113.37350   79.57040
 8846.00000   68.30120  115.57570   94.83020
 8846.50000   70.11670  117.93640  108.70460
 8847.00000   71.93230  118.97910  106.44730
 8847.50000   72.49560  119.07920  103.35420
 8848.00000   72.65570  119.17930  105.36310
 8848.50000   72.53560  118.04350  109.39660
 8849.00000   70.47090  116.90780  107.13200
 8849.50000   68.04010  115.16670  101.14060
 8850.00000   65.60930  112.51760   83.42250
 8850.50000   63.17860  109.86850   65.79090
 8851.00000   62.05610  107.21940   45.41950
 8851.50000   61.75580  105.96820   36.12210
 8852.00000   61.75580  104.71690   32.94670
 8852.50000   62.35040  104.11630   35.98760
 8853.00000   63.05610  105.67550   48.41560
 8853.50000   65.30480  107.31180   57.30320
 8854.00000   67.93930  109.04620   62.35510
 8854.50000   69.54490  111.17340   67.58890
 8855.00000   70.46460  114.27020   71.18390
 8855.50000   71.29040  116.22840   77.51070
 8856.00000   72.11620  116.57880   80.54720
 8856.50000   72.56670  117.36960   82.97550
 8857.00000   72.95710  118.58080   83.73820
 8857.50000   72.79490  118.18040   86.48790
 8858.00000   72.16430  118.12030   85.64070
 8858.50000   71.75590  119.18140   84.71260
 8859.00000   71.81600  117.13760   82.40080
 8859.50000   71.93610  116.84150   79.05860
 8860.00000   71.11670  117.02920   74.58750
 8860.50000   69.95400  117.17930   75.71540
 8861.00000   69.77570  116.56870   78.83610
 8861.50000   69.59740  115.95810   81.33270
 8862.00000   69.41910  115.34750   69.34960
 8862.50000   70.33850  114.73690   57.26660
 8863.00000   73.70790  114.12630   56.61760
 8863.50000   73.30250  114.04890   66.08160
 8864.00000   72.21400  114.01480   75.54560
 8864.50000   69.89410  113.98060   76.09040
 8865.00000   67.26640  113.94650   74.14320
 8865.50000   65.68980  113.92600   75.79090
 8866.00000   66.04090  113.92600   70.16320
 8866.50000   66.47980  113.77590   56.19700
 8867.00000   66.83090  113.57570   40.38640
 8867.50000   66.92100  113.32540   34.14970
 8868.00000   67.22830  113.15520   44.50410
 8868.50000   67.77110  113.30540   63.69610
 8869.00000   68.31400  113.42550   80.77220
 8869.50000   68.42260  113.86940   94.36530
 8870.00000   67.75370  114.97920   90.53130
 8870.50000   66.91750  115.02930   73.99460
 8871.00000   66.08140  115.10450   78.90030
 8871.50000   65.90130  115.22960   86.57720
 8872.00000   65.90130  115.80030   92.71860
 8872.50000   67.47790  117.10160   86.27770
 8873.00000   70.55600  118.40300   79.68700
 8873.50000   72.35780  119.33390   86.65240
 8874.00000   71.64240  120.13480   97.51220
 8874.50000   70.78570  123.04400  106.34990
 8875.00000   69.92900  124.83960  103.77360
 8875.50000   69.38500  116.96510  100.05890
 8876.00000   69.29490  101.21610  106.59980
 8876.50000   69.26490  101.21610  114.58870
 8877.00000   69.05470  101.66660  111.15310
 8877.50000   68.24400  102.06710   95.75310
 8878.00000   67.07420  109.95840   77.71810
 8878.50000   65.83730  115.03010   67.29300
 8879.00000   64.60040  116.86540   62.45120
 8879.50000   63.36350  117.33250   64.19470
 8880.00000   62.86870  116.22690   73.96480
 8880.50000   63.11800  114.38420   83.06990
 8881.00000   63.58350  113.17850   90.39080
 8881.50000   65.05500  113.12850   93.61880
 8882.00000   67.09710  112.48790   75.66030
 8882.50000   67.91390  112.07760   57.10790
 8883.00000   66.94300  112.22780   44.84000
 8883.50000   65.32470  110.36490   43.18980
 8884.00000   63.13920  108.50190   47.44070
 8884.50000   63.71210  106.63900   54.58000
 8885.00000   64.42830  105.47120   57.71780
 8885.50000   65.00120  105.98320   52.16530
 8886.00000   66.06730  107.79200   45.53680
 8886.50000   67.13340  108.50030   50.64440
 8887.00000   67.32110  109.70540   72.98640
 8887.50000   67.75630  110.51250   86.91690
 8888.00000   68.37610  111.52900   96.91520
 8888.50000   69.50500  112.38150   92.53930
 8889.00000   70.28670  113.02650   81.97410
 8889.50000   70.78580  113.45940   73.77510
 8890.00000   69.52700  113.28520   70.35160
 8890.50000   67.31380  112.92580   77.93290
 8891.00000   67.10360  112.09130   79.47790
 8891.50000   67.35130  111.77980   75.64550
 8892.00000   67.78850  111.84120   63.39270
 8892.50000   68.08370  111.71030   60.66660
 8893.00000   68.56920  111.10840   66.76530
 8893.50000   68.41840  110.62690   70.12850
 8894.00000   68.16240  110.81910   73.99820
 8894.50000   68.58600  111.30430   77.86780
 8895.00000   70.07290  111.87610   79.09120
 8895.50000   70.85870  112.63230   70.02060
 8896.00000   71.32670  113.34240   62.76420
 8896.50000   71.67540  113.97440   65.19840
 8897.00000   71.86780  114.44380   82.81130
 8897.50000   71.86660  114.83180   99.63550
 8898.00000   71.53870  114.98200  109.94840
 8898.50000   71.49020  114.83190  105.01200
 8899.00000   70.29660  114.36720   90.96300
 8899.50000   69.35610  114.03120   85.05230
 8900.00000   68.16560  113.18040   84.82790
 8900.50000   66.34740  112.22950   86.32170
 8901.00000   63.65080  109.75490   78.98010
 8901.50000   63.47060  107.67510   71.64040
 8902.00000   63.41060  106.62410   57.66220
 8902.50000   64.01120  106.37390   42.84460
 8903.00000   64.43170  107.17650   32.05820
 8903.50000   65.68300  108.18630   32.95700
 8904.00000   66.93420  109.19610   51.61240
 8904.50000   67.52490  110.20590   67.89610
 8905.00000   67.76510  111.30880   89.46600
 8905.50000   67.89810  112.25390  100.55050
 8906.00000   68.03550  113.27130  112.64590
 8906.50000   67.59900  114.13200  103.77180
 8907.00000   67.27880  114.03660   82.27640
 8907.50000   66.95850  113.67290   55.40090
 8908.00000   66.92450  113.28860   49.13510
 8908.50000   67.64520  112.95450   64.60130
 8909.00000   68.70990  113.61850   75.38630
 8909.50000   69.77470  115.11880   81.10080
 8910.00000   70.48920  116.48470   82.81610
 8910.50000   71.18020  116.39180   91.41410
 8911.00000   71.36820  115.98440  109.61360
 8911.50000   71.60420  115.79780  127.77550
 8912.00000   71.51580  115.57040  117.73960
 8912.50000   71.64520  115.28380   95.27120
 8913.00000   72.31210  115.77560   77.29640
 8913.50000   72.28070  116.63030   83.07170
 8914.00000   72.29670  116.74960  105.95640
 8914.50000   73.14680  117.04490  123.80650
 8915.00000   74.52160  118.15700  128.22540
 8915.50000   75.64410  119.44990  123.45740
 8916.00000   76.14090  120.56610  113.28520
 8916.50000   76.53370  121.75490  109.13380
 8917.00000   76.70970  122.19700  108.15380
 8917.50000   76.50190  122.77150  133.13890
 8918.00000   76.12480  122.58340  149.79560
 8918.50000   75.42930  121.48700  158.44360
