~Version ---------------------------------------------------
VERS.   2.0 : CWLS log ASCII Standard -VERSION 2.0
WRAP.    NO : One line per depth step
DLM . SPACE : Column Data Section Delimiter
~Well ------------------------------------------------------
STRT .F                 2480.0 : START DEPTH
STOP .F                10248.0 : STOP DEPTH
STEP .F                    0.5 : STEP
NULL .                -9999.25 : NULL VALUE
COMP .                         : COMPANY
WELL .                         : WELL
FLD  .                         : FIELD
LOC  .                         : LOCATION
PROV .                         : PROVINCE
CNTY .                         : COUNTY
STAT .                         : STATE
CTRY .                         : COUNTRY
SRVC .                         : SERVICE COMPANY
DATE .                         : DATE
UWI  .                         : UNIQUE WELL ID
API  .                         : API NUMBER
SLAT .WGS84 0.7754116781778997 : SURFACE LATITUDE
SLON .WGS84  5.853024298999998 : SURFACE LONGITUDE
DATUM.F                 2404.6 : DEPTH DATUM ELEV
~Curve Information -----------------------------------------
DEPT.F     : 
GRS .GAPI  : GAMMA RAY FROM SONIC LOG
DTCO.US/F  : COMPRESSIONAL-WAVE INTERVAL TRANSIT TIME ACOUSTIC SLOWNESS
DTSM.US/F  : SHEAR-WAVE INTERVAL TRANSIT TIME DELTA-T
~Params ----------------------------------------------------
~Other -----------------------------------------------------
~ASCII -----------------------------------------------------
# ...
 9778.00000    9.41900   53.39170  100.50000
 9778.50000    9.08250   53.45410  100.50000
 9779.00000    9.34860   53.57880  100.50000
 9779.50000   10.39890   53.69620  100.50000
 9780.00000   10.50170   53.81350  100.50000
 9780.50000    9.90640   53.93090  100.50000
 9781.00000    9.01240   54.03960  100.50000
 9781.50000    8.24590   54.13600  100.50000
 9782.00000    8.10710   54.05250   99.14080
 9782.50000    8.41830   53.57660   99.09250
 9783.00000    9.32370   53.43440   99.47390
 9783.50000    9.47660   53.40950   99.05820
 9784.00000    9.24160   53.50590   98.95830
 9784.50000    8.72110   53.79380   98.46850
 9785.00000    8.52570   54.59630   97.84750
 9785.50000    8.36510   54.84710   97.22080
 9786.00000    8.22380   54.29530   96.79300
 9786.50000    8.82100   53.68490   96.13570
 9787.00000   10.46830   52.63920   95.47840
 9787.50000   12.12820   51.59910   94.61320
 9788.00000   13.66300   51.28690   93.99890
 9788.50000   14.26390   51.31860   93.38460
 9789.00000   13.46950   51.39940   92.77030
 9789.50000   12.18590   51.49800   92.16460
 9790.00000   11.33740   51.24150   91.58070
 9790.50000   10.85520   50.94680   90.99680
 9791.00000   10.90120   50.66110   90.70760
 9791.50000   11.57620   50.98600   90.21800
 9792.00000   12.62620   52.20330   89.72840
 9792.50000   14.11760   52.20430   89.23870
 9793.00000   16.06450   50.76170   89.08320
 9793.50000   19.52110   51.02990   88.51370
 9794.00000   24.48690   52.27710   88.66830
 9794.50000   29.38170   53.09700   88.68000
 9795.00000   29.65130   53.45020   88.82990
 9795.50000   28.11360   53.87960   88.89390
 9796.00000   25.29360   53.31500   87.91710
 9796.50000   24.38160   51.33250   85.81200
 9797.00000   24.51380   50.65410   84.06460
 9797.50000   23.60680   51.01200   83.86310
 9798.00000   21.00690   51.13390   84.75270
 9798.50000   14.59210   50.19110   86.20090
 9799.00000   14.18210   50.27040   87.12310
 9799.50000   14.49880   50.90680   87.62690
 9800.00000   16.73770   52.02640   87.62690
 9800.50000   18.10350   52.03630   85.95730
 9801.00000   19.45200   51.51310   83.96250
 9801.50000   21.00930   50.98990   83.23400
 9802.00000   23.41850   50.75220   83.83330
 9802.50000   25.87300   50.69670   84.49300
 9803.00000   26.46290   52.30280   85.15270
 9803.50000   25.59620   52.31440   85.81240
 9804.00000   21.37720   52.12820   86.36270
 9804.50000   18.48750   52.49430   86.59740
 9805.00000   14.83740   52.76040   86.64690
 9805.50000   13.92330   52.85070   87.48810
 9806.00000   14.19430   52.86490   87.36080
 9806.50000   18.36080   52.86850   85.87720
 9807.00000   23.13400   51.92240   84.96620
 9807.50000   26.54540   51.00890   84.43910
 9808.00000   25.68860   51.14310   84.43310
 9808.50000   23.94070   51.88040   84.97920
 9809.00000   22.12920   52.13320   85.52530
 9809.50000   19.79220   52.62890   86.13250
 9810.00000   19.64650   53.31120   87.14510
 9810.50000   20.20960   53.90340   87.60000
 9811.00000   21.18070   53.69090   87.60000
 9811.50000   22.15180   53.42080   87.60000
 9812.00000   23.17400   53.57450   87.60000
 9812.50000   23.99790   53.69260   87.48460
 9813.00000   21.59630   53.61520   87.22310
 9813.50000   18.67490   53.22880   86.96150
 9814.00000   17.09320   53.67690   86.70000
 9814.50000   17.40650   54.17450   86.43850
 9815.00000   19.38900   53.84630   86.17700
 9815.50000   19.67000   53.47570   86.00290
 9816.00000   19.03220   56.11120   86.07400
 9816.50000   19.59450   57.10610   86.14580
 9817.00000   21.75930   56.58210   86.12060
 9817.50000   22.00040   55.17020   85.46790
 9818.00000   21.23570   52.99170   84.42470
 9818.50000   20.42840   52.51560   84.41030
 9819.00000   20.00360   52.88550   84.48200
 9819.50000   19.60690   53.31690   84.53020
 9820.00000   19.69750   52.82640   84.57840
 9820.50000   20.40970   51.90120   84.62670
 9821.00000   21.77700   51.28520   84.47420
 9821.50000   22.99110   50.97130   84.35400
 9822.00000   23.76160   51.13210   84.37130
 9822.50000   23.69680   51.40450   84.40180
 9823.00000   22.79090   51.50000   84.85120
 9823.50000   20.75710   51.53580   85.30170
 9824.00000   19.81740   52.04380   85.74490
 9824.50000   20.70960   52.64560   86.00380
 9825.00000   22.42100   53.26200   86.26450
 9825.50000   23.65680   53.26860   86.75750
 9826.00000   22.50410   53.23060   87.25050
 9826.50000   21.31530   53.19250   87.56270
 9827.00000   21.18460   53.17380   87.50930
 9827.50000   21.05390   53.01210   86.92050
 9828.00000   20.92320   52.64950   85.71400
 9828.50000   20.79290   52.40080   85.29880
 9829.00000   20.68350   52.65760   85.61020
 9829.50000   21.27490   53.00950   85.86200
 9830.00000   21.62630   53.14850   85.98310
 9830.50000   21.36290   53.15160   85.90880
 9831.00000   20.97500   53.09190   85.65450
 9831.50000   21.50380   53.02760   85.40020
 9832.00000   22.68860   53.77990   85.30900
 9832.50000   24.90310   53.90320   85.39400
 9833.00000   25.92540   53.31950   85.29430
 9833.50000   25.80570   52.79040   85.20000
 9834.00000   25.83440   52.52990   85.20480
 9834.50000   26.16590   52.89780   85.33610
 9835.00000   27.14550   53.21100   85.70200
 9835.50000   28.62590   53.15580   86.04540
 9836.00000   30.14240   52.72200   86.04940
 9836.50000   29.92410   52.46670   86.14140
 9837.00000   26.44340   52.71680   86.24880
 9837.50000   24.30890   52.92810   86.35610
 9838.00000   24.37450   53.05950   86.46350
 9838.50000   26.67780   53.34960   86.57080
 9839.00000   29.96770   53.43680   86.67810
 9839.50000   30.40600   53.52390   86.78550
 9840.00000   29.87420   53.52640   86.79240
 9840.50000   28.93790   53.45930   86.80250
 9841.00000   29.93240   53.32370   86.81070
 9841.50000   30.37760   53.38870   86.71970
 9842.00000   29.93630   53.82340   86.53610
 9842.50000   29.62760   53.88880   86.35260
 9843.00000   29.66380   53.88880   86.16900
 9843.50000   29.64150   53.92130   85.75580
 9844.00000   29.86660   54.02690   85.20480
 9844.50000   31.86660   54.12800   85.37390
 9845.00000   34.63600   54.79480   85.86760
 9845.50000   36.03380   55.12900   86.27410
 9846.00000   35.87640   54.41320   86.42160
 9846.50000   33.59230   53.87160   86.88110
 9847.00000   31.90410   53.15610   87.14990
 9847.50000   30.81450   52.25820   87.58790
 9848.00000   29.60440   51.96420   87.60480
 9848.50000   30.65850   53.26400   87.62170
 9849.00000   30.98620   54.08440   87.63850
 9849.50000   30.31530   54.52360   87.60900
 9850.00000   28.85440   54.82090   87.57180
 9850.50000   26.82380   54.64280   87.54540
 9851.00000   25.75620   54.57680   87.57280
 9851.50000   25.75620   54.59850   87.66740
 9852.00000   26.61390   54.57730   87.66600
 9852.50000   26.91290   54.43430   86.35970
 9853.00000   27.27470   54.36380   86.00450
 9853.50000   28.04360   54.36380   86.22380
 9854.00000   29.80720   54.50690   86.68650
 9854.50000   32.93160   54.73270   87.14920
 9855.00000   35.74050   54.03720   87.46750
 9855.50000   37.96300   53.38430   87.68380
 9856.00000   40.11250   52.97990   88.99850
 9856.50000   40.70760   53.00720   89.25340
 9857.00000   39.89680   53.93180   89.58870
 9857.50000   38.85620   54.52470   90.11020
 9858.00000   39.86160   54.76880   89.98380
 9858.50000   41.43620   54.82330   89.64960
 9859.00000   41.67140   54.83330   89.31550
 9859.50000   39.30920   54.96700   89.23130
 9860.00000   37.78520   55.10150   89.19410
 9860.50000   38.50310   55.00980   89.19020
 9861.00000   40.67590   54.86290   89.19380
 9861.50000   42.00470   54.82160   89.19750
 9862.00000   41.45320   54.79970   89.48860
 9862.50000   39.84220   54.79970   90.43640
 9863.00000   39.28190   54.86220   91.53170
 9863.50000   40.39540   55.21300   92.92400
 9864.00000   41.75930   55.53320   93.86940
 9864.50000   41.81330   55.43710   93.89970
 9865.00000   40.17700   54.16470   93.93010
 9865.50000   38.44340   52.49720   93.96040
 9866.00000   40.26850   52.64570   93.99070
 9866.50000   47.26130   53.88340   94.00560
