~Version ---------------------------------------------------
VERS.   2.0 : CWLS log ASCII Standard -VERSION 2.0
WRAP.    NO : One line per depth step
DLM . SPACE : Column Data Section Delimiter
~Well ------------------------------------------------------
STRT .F                 2480.0 : START DEPTH
STOP .F                10248.0 : STOP DEPTH
STEP .F                    0.5 : STEP
NULL .                -9999.25 : NULL VALUE
COMP .                         : COMPANY
WELL .                         : WELL
FLD  .                         : FIELD
LOC  .                         : LOCATION
PROV .                         : PROVINCE
CNTY .                         : COUNTY
STAT .                         : STATE
CTRY .                         : COUNTRY
SRVC .                         : SERVICE COMPANY
DATE .                         : DATE
UWI  .                         : UNIQUE WELL ID
API  .                         : API NUMBER
SLAT .WGS84 0.7754116781778997 : SURFACE LATITUDE
SLON .WGS84  5.853024298999998 : SURFACE LONGITUDE
DATUM.F                 2404.6 : DEPTH DATUM ELEV
~Curve Information -----------------------------------------
DEPT.F     : 
GRS .GAPI  : GAMMA RAY FROM SONIC LOG
DTCO.US/F  : COMPRESSIONAL-WAVE INTERVAL TRANSIT TIME ACOUSTIC SLOWNESS
DTSM.US/F  : SHEAR-WAVE INTERVAL TRANSIT TIME DELTA-T
~Params ----------------------------------------------------
~Other -----------------------------------------------------
~ASCII -----------------------------------------------------
# ...
 6574.00000   95.94490   76.51830  140.30010
 6574.50000   98.21400   76.89970  137.76430
 6575.00000   95.75350   78.02890  135.39750
 6575.50000   90.81890   77.94950  132.95330
 6576.00000   78.87640   76.92600  130.40630
 6576.50000   71.85570   75.35150  127.85920
 6577.00000   70.63480   73.16700  126.35680
 6577.50000   72.56650   73.33650  129.41670
 6578.00000   76.27210   73.60160  135.49950
 6578.50000   81.14910   73.33080  141.24920
 6579.00000   87.44940   73.13810  143.32290
 6579.50000   92.31150   73.51200  144.44200
 6580.00000   93.20950   74.17110  141.22500
 6580.50000   91.32670   74.92480  137.13590
 6581.00000   84.44660   74.56660  136.05890
 6581.50000   79.01700   76.14370  135.92510
 6582.00000   80.21480   76.83590  135.91710
 6582.50000   83.33040   77.65830  135.77280
 6583.00000   81.14300   80.03050  134.60960
 6583.50000   74.09620   80.19990  134.49180
 6584.00000   68.37360   78.38120  135.28720
 6584.50000   68.52340   71.87170  135.79960
 6585.00000   70.16180   70.09620  136.02200
 6585.50000   73.85640   70.84280  135.74530
 6586.00000   81.29860   71.43210  134.01180
 6586.50000   86.92490   72.14240  133.27840
 6587.00000   83.87450   73.89220  135.73540
 6587.50000   74.09740   76.56480  138.27820
 6588.00000   66.45490   79.18940  134.60090
 6588.50000   60.61620   79.18190  131.87910
 6589.00000   61.38300   78.24090  128.67150
 6589.50000   64.33520   73.07190  119.68230
 6590.00000   65.19470   66.56460  114.06040
 6590.50000   62.53940   64.79080  116.54090
 6591.00000   60.47450   66.54790  122.20020
 6591.50000   62.66980   68.13520  126.00090
 6592.00000   64.54600   70.60100  131.70660
 6592.50000   62.29640   73.23070  137.20690
 6593.00000   54.92860   76.41450  141.61800
 6593.50000   48.40910   78.44730  144.44490
 6594.00000   44.63890   79.63450  143.17620
 6594.50000   42.86480   78.72570  140.49070
 6595.00000   46.00140   76.69090  139.69400
 6595.50000   50.74170   74.75970  139.70130
 6596.00000   56.19070   72.83400  140.68580
 6596.50000   65.54400   72.71040  140.28710
 6597.00000   72.83260   72.60380  140.66090
 6597.50000   76.81230   73.72870  141.60910
 6598.00000   82.61230   76.51220  142.92490
 6598.50000   87.97990   78.03890  144.56340
 6599.00000   92.02070   78.66340  144.96890
 6599.50000   90.75280   78.96820  144.39550
 6600.00000   86.00130   79.23460  142.41360
 6600.50000   83.25850   79.48300  140.16510
 6601.00000   87.22610   79.73140  138.00830
 6601.50000   93.04270   80.33030  139.07820
 6602.00000  100.50650   80.65480  140.61460
 6602.50000  104.47840   80.97920  140.94900
 6603.00000  103.05110   81.42310  139.88610
 6603.50000   98.52520   81.84570  138.90710
 6604.00000   92.57200   81.52330  137.88790
 6604.50000   86.47830   81.20100  136.77520
 6605.00000   78.72670   80.57020  135.59320
 6605.50000   75.22890   78.99310  134.24070
 6606.00000   74.67100   76.83090  134.51710
 6606.50000   74.67100   74.31840  134.61100
 6607.00000   71.71560   74.45460  134.49190
 6607.50000   67.86290   74.62150  133.96980
 6608.00000   67.48200   73.65210  133.15130
 6608.50000   69.96670   73.51760  132.66290
 6609.00000   72.73530   74.97830  132.81640
 6609.50000   77.60550   76.46640  133.90030
 6610.00000   87.75000   77.48110  139.01780
 6610.50000   94.53290   79.10960  147.03830
 6611.00000   98.86500   80.33870  147.19290
 6611.50000   97.59970   79.37360  143.43190
 6612.00000   91.72290   78.24060  139.84400
 6612.50000   85.54280   76.82290  137.41540
 6613.00000   83.14550   77.47870  135.71480
 6613.50000   85.74380   79.29650  135.28850
 6614.00000   93.24500   81.72820  135.71320
 6614.50000  101.04790   81.97630  136.83700
 6615.00000  100.84950   81.10550  138.46140
 6615.50000   95.86550   79.83460  140.78410
 6616.00000   89.92200   79.60870  142.66830
 6616.50000   90.52520   80.12500  145.96040
 6617.00000   95.18840   81.68710  149.09590
 6617.50000  103.03240   83.96420  152.63060
 6618.00000  107.30800   85.77180  155.45480
 6618.50000  108.40890   85.92890  156.02820
 6619.00000  107.93090   85.38710  155.23850
 6619.50000  106.19520   84.48800  153.55370
 6620.00000  104.48570   83.16720  150.85430
 6620.50000  103.05150   81.41140  147.13280
 6621.00000  100.08180   80.99240  144.13770
 6621.50000   95.73440   80.72010  142.19040
 6622.00000   90.20590   80.37080  142.91030
 6622.50000   87.80220   80.02780  144.71980
 6623.00000   90.66890   80.01030  145.13010
 6623.50000   95.88640   80.36990  146.38150
 6624.00000  101.47740   81.04950  148.96730
 6624.50000  102.22850   81.58740  149.03160
 6625.00000  100.12040   82.12320  148.26920
 6625.50000   98.11080   82.64160  147.46820
 6626.00000  100.25200   83.31680  147.29900
 6626.50000  104.60420   83.10680  147.92900
 6627.00000  106.60930   82.79470  149.59420
 6627.50000  104.74180   82.70980  151.80590
 6628.00000  100.63820   83.00390  155.35960
 6628.50000   97.66060   83.39300  158.02310
 6629.00000   96.52260   83.78200  158.07010
 6629.50000   96.62550   84.15930  156.58150
 6630.00000   98.15150   84.32480  154.53860
 6630.50000  100.02450   84.21810  152.01440
 6631.00000  102.66320   84.05270  149.38870
 6631.50000  105.08930   84.00100  149.59980
 6632.00000  104.15300   83.91960  150.41610
 6632.50000  102.47700   83.76150  150.88780
 6633.00000  101.17660   83.44670  150.44740
 6633.50000   99.68750   83.13200  150.28760
 6634.00000   97.99930   82.56640  151.39780
 6634.50000   96.31110   81.73700  152.95410
 6635.00000   95.49860   81.64500  153.59330
 6635.50000   97.58760   82.18330  152.94020
 6636.00000  101.06910   82.81190  152.34940
 6636.50000  105.19050   83.44040  152.32600
 6637.00000  105.82300   84.18600  151.78970
 6637.50000  104.62450   84.56050  150.73290
 6638.00000  103.55260   84.79870  149.67610
 6638.50000  102.27890   84.98770  148.30700
 6639.00000   99.64210   85.13070  146.90580
 6639.50000   96.71350   85.13070  146.34160
 6640.00000   95.62920   85.12800  146.92680
 6640.50000   95.45560   85.12480  147.84390
 6641.00000   96.41620   85.12840  149.54350
 6641.50000   96.54470   85.13810  151.24300
 6642.00000   96.26170   85.14790  152.96340
 6642.50000   95.07020   85.14030  154.55340
 6643.00000   94.93090   84.26300  155.15590
 6643.50000   94.96140   84.30500  155.75840
 6644.00000   95.55170   86.06160  156.20980
 6644.50000   97.22480   86.97600  155.25460
 6645.00000  100.02700   87.05310  151.44690
 6645.50000  103.35540   87.30450  149.56070
 6646.00000  104.73400   88.85890  149.32660
 6646.50000  100.92540   89.28700  149.76080
 6647.00000   98.98020   88.51430  150.11790
 6647.50000   98.85760   88.28430  150.42280
 6648.00000   99.86260   88.31540  151.03980
 6648.50000  100.95370   88.34500  152.01800
 6649.00000  102.46670   88.25960  153.23990
 6649.50000  104.64330   88.03850  154.41900
 6650.00000  109.48130   87.75500  155.46540
 6650.50000  111.28510   87.62460  154.59450
 6651.00000  110.26720   87.49430  154.19830
 6651.50000  106.73360   86.94510  156.37170
 6652.00000  100.83640   86.23740  157.13840
 6652.50000   95.09730   85.49460  155.09140
 6653.00000   90.80410   84.95460  153.76400
 6653.50000   89.72680   84.64980  152.43660
 6654.00000   92.82410   83.66470  151.10930
 6654.50000   94.39050   82.57170  150.19020
 6655.00000   94.34490   81.95580  150.21540
 6655.50000   91.65060   80.40110  149.49900
 6656.00000   89.89000   78.86500  147.55780
 6656.50000   89.90610   78.94510  147.67960
 6657.00000   91.11000   79.41520  149.41150
 6657.50000   95.42310   79.47190  150.98510
 6658.00000   97.60570   78.75790  151.50560
 6658.50000   94.46230   77.93450  147.82110
 6659.00000   92.41000   76.98950  145.50140
 6659.50000   92.42340   77.54910  145.52140
 6660.00000   95.40310   80.53750  145.07120
 6660.50000   98.58040   80.78340  145.12930
 6661.00000   99.34230   78.29500  144.62140
 6661.50000   98.93420   78.27480  143.80450
 6662.00000   97.23450   79.49460  143.76480
 6662.50000   95.08730   80.96290  149.77000
