~Version ---------------------------------------------------
VERS.   2.0 : CWLS log ASCII Standard -VERSION 2.0
WRAP.    NO : One line per depth step
DLM . SPACE : Column Data Section Delimiter
~Well ------------------------------------------------------
STRT .F                 2480.0 : START DEPTH
STOP .F                10248.0 : STOP DEPTH
STEP .F                    0.5 : STEP
NULL .                -9999.25 : NULL VALUE
COMP .                         : COMPANY
WELL .                         : WELL
FLD  .                         : FIELD
LOC  .                         : LOCATION
PROV .                         : PROVINCE
CNTY .                         : COUNTY
STAT .                         : STATE
CTRY .                         : COUNTRY
SRVC .                         : SERVICE COMPANY
DATE .                         : DATE
UWI  .                         : UNIQUE WELL ID
API  .                         : API NUMBER
SLAT .WGS84 0.7754116781778997 : SURFACE LATITUDE
SLON .WGS84  5.853024298999998 : SURFACE LONGITUDE
DATUM.F                 2404.6 : DEPTH DATUM ELEV
~Curve Information -----------------------------------------
DEPT.F     : 
GRS .GAPI  : GAMMA RAY FROM SONIC LOG
DTCO.US/F  : COMPRESSIONAL-WAVE INTERVAL TRANSIT TIME ACOUSTIC SLOWNESS
DTSM.US/F  : SHEAR-WAVE INTERVAL TRANSIT TIME DELTA-T
~Params ----------------------------------------------------
~Other -----------------------------------------------------
~ASCII -----------------------------------------------------
# ...
 3014.00000   73.73640   94.80350  167.92200
 3014.50000   73.61910   94.67220  167.17870
 3015.00000   75.68140   93.66200  164.29670
 3015.50000   80.12330   91.40630  159.81130
 3016.00000   80.19240   89.85190  160.53790
 3016.50000   79.29880   89.49680  163.35410
 3017.00000   80.01250   89.26630  167.23990
 3017.50000   82.42190   89.12850  168.55800
 3018.00000   85.89750   89.05110  168.26180
 3018.50000   87.08480   88.54520  167.51990
 3019.00000   86.05410   87.73150  166.21710
 3019.50000   85.00650   86.93750  165.06550
 3020.00000   84.84560   86.60830  163.10680
 3020.50000   85.06960   86.54760  161.14810
 3021.00000   84.98860   86.54240  161.25860
 3021.50000   84.73390   86.48370  162.68310
 3022.00000   83.20640   85.95320  164.43050
 3022.50000   81.99570   85.09340  164.06390
 3023.00000   82.01860   84.14690  161.04060
 3023.50000   84.03040   83.91790  162.01110
 3024.00000   88.07590   83.64830  164.85250
 3024.50000   91.02910   83.63390  168.03120
 3025.00000   91.37260   83.90360  170.42050
 3025.50000   88.52650   84.27180  168.13390
 3026.00000   84.68500   84.77270  162.76330
 3026.50000   79.56700   85.34260  159.43000
 3027.00000   77.04080   85.51670  157.26690
 3027.50000   74.97540   85.40630  156.71790
 3028.00000   73.27660   85.02020  156.92290
 3028.50000   72.31170   85.15350  157.62410
 3029.00000   74.05440   85.32990  158.32530
 3029.50000   77.43290   85.50640  158.91250
 3030.00000   80.96360   85.63590  158.87000
 3030.50000   82.49280   85.65250  158.84110
 3031.00000   81.90820   85.70610  158.81790
 3031.50000   81.92690   85.75670  158.79470
 3032.00000   83.11210   85.65360  158.77150
 3032.50000   84.01960   85.32700  158.71030
 3033.00000   82.82530   84.92410  157.88900
 3033.50000   81.17560   84.55480  156.82440
 3034.00000   80.43900   84.29370  157.39450
 3034.50000   81.45410   84.53350  158.26350
 3035.00000   83.57110   84.97230  159.06400
 3035.50000   85.92540   85.78030  159.64840
 3036.00000   87.73630   85.95070  160.23290
 3036.50000   89.54730   86.24280  160.81730
 3037.00000   91.30820   86.93770  161.70710
 3037.50000   92.45870   87.76810  162.48050
 3038.00000   93.47440   88.36730  163.22050
 3038.50000   94.74250   88.96650  164.11110
 3039.00000   96.89770   89.58520  165.63520
 3039.50000   99.20700   89.75330  166.40550
 3040.00000  101.17770   89.48380  165.52430
 3040.50000  100.90390   89.14990  164.42990
 3041.00000  100.17830   88.81600  163.50430
 3041.50000   99.56340   88.42890  162.93590
 3042.00000   97.83650   87.82100  161.59270
 3042.50000   94.15900   87.28230  159.76190
 3043.00000   90.66380   86.35420  157.93120
 3043.50000   86.34310   84.94550  156.21210
 3044.00000   83.89350   84.49820  156.48300
 3044.50000   80.78960   85.20760  159.13570
 3045.00000   78.59230   85.84490  159.17400
 3045.50000   79.47820   86.51570  159.17400
 3046.00000   82.99920   86.84680  159.19840
 3046.50000   87.92080   87.35860  159.91680
 3047.00000   92.92200   88.73610  162.21350
 3047.50000   93.04570   89.92920  164.13940
 3048.00000   93.01710   90.63890  164.40210
 3048.50000   93.54690   91.02170  164.54140
 3049.00000   95.76440   91.05730  164.46590
 3049.50000   98.33500   90.92620  164.36810
 3050.00000   97.21660   90.55200  163.68840
 3050.50000   95.36810   89.68940  163.18160
 3051.00000   90.25190   88.72000  163.59250
 3051.50000   86.77620   87.91780  164.19990
 3052.00000   86.33950   87.87120  166.14310
 3052.50000   86.16530   88.13890  165.91800
 3053.00000   86.60790   88.67570  164.45650
 3053.50000   88.23390   89.84070  165.03860
 3054.00000   91.98140   91.02160  166.08220
 3054.50000   95.72890   92.10510  168.13410
 3055.00000   99.58010   92.37430  166.70120
 3055.50000  105.19210   92.15890  165.18970
 3056.00000  108.93470   91.71510  163.82620
 3056.50000  109.50130   91.25070  162.64870
 3057.00000  108.54740   91.18350  161.47130
 3057.50000  108.30350   91.30210  161.42370
 3058.00000  108.31260   91.22020  163.24290
 3058.50000  108.06880   91.29750  164.07130
 3059.00000  105.52100   92.35070  164.84220
 3059.50000  103.17600   92.70820  165.33760
 3060.00000  102.51100   91.36600  164.87620
 3060.50000  102.56750   90.34130  164.34800
 3061.00000  103.36960   89.79540  162.43310
 3061.50000  104.44620   89.69010  160.51810
 3062.00000  104.53020   90.23200  159.71930
 3062.50000  103.02140   90.96890  161.83450
 3063.00000  101.47800   91.70590  161.78430
 3063.50000  101.34440   92.44280  161.84250
 3064.00000  101.21370   93.19810  161.46770
 3064.50000  100.95870   93.69520  159.97690
 3065.00000   99.52630   92.90820  158.48630
 3065.50000   98.55610   90.87340  156.99560
 3066.00000   97.85030   88.88830  155.50500
 3066.50000   97.14450   87.30250  153.44620
 3067.00000   96.29330   86.87040  153.44790
 3067.50000   95.26330   87.04490  153.47490
 3068.00000   95.36520   87.15540  153.99940
 3068.50000   97.22180   87.54890  154.64690
 3069.00000  100.24630   88.07510  156.72430
 3069.50000  102.03730   88.77270  159.38430
 3070.00000  101.63110   89.62510  161.65810
 3070.50000  101.41590   90.48710  161.48530
 3071.00000  103.26640   90.90840  160.80860
 3071.50000  105.84060   90.82710  160.00140
 3072.00000  105.80070   90.51800  159.19410
 3072.50000  102.48450   89.98290  158.38680
 3073.00000   97.76230   88.93040  157.55510
 3073.50000   93.89740   88.21400  155.37910
 3074.00000   93.07760   87.94910  155.46470
 3074.50000   94.97350   87.73860  155.43100
 3075.00000   95.30360   87.29920  153.56070
 3075.50000   92.30710   86.12960  151.47100
 3076.00000   90.14690   85.79680  150.41730
 3076.50000   91.39620   86.46940  151.34940
 3077.00000   96.95610   87.81310  157.16520
 3077.50000  101.51200   88.14020  159.13280
 3078.00000  102.37080   86.12370  159.53130
 3078.50000  100.63250   85.17840  159.92990
 3079.00000   97.92660   86.73380  160.32840
 3079.50000   95.87370   89.21070  160.86360
 3080.00000   95.16810   89.92570  163.35890
 3080.50000   95.18290   88.83890  163.42960
 3081.00000   95.74520   86.00060  159.83740
 3081.50000   96.32970   85.94580  157.21830
 3082.00000   97.20800   87.30690  156.26270
 3082.50000   97.63620   88.53120  157.05050
 3083.00000   98.26060   90.01830  158.10150
 3083.50000   99.92360   90.97800  158.52590
 3084.00000  103.53750   91.57740  158.68110
 3084.50000  103.78020   91.62110  158.90310
 3085.00000  102.83920   91.55430  158.90310
 3085.50000  102.41530   91.57120  158.50470
 3086.00000  103.69150   91.39960  156.09720
 3086.50000  103.24740   89.01120  153.78730
 3087.00000   93.10900   84.36600  148.81600
 3087.50000   74.97700   80.19480  142.47270
 3088.00000   62.68900   77.99400  136.52180
 3088.50000   63.77120   77.13840  131.54870
 3089.00000   73.27970   76.10760  131.64930
 3089.50000   84.32030   74.66800  130.84070
 3090.00000   76.71100   71.59080  125.97440
 3090.50000   62.67460   69.48550  120.00000
 3091.00000   50.44320   67.93680  113.87830
 3091.50000   47.40940   67.81250  113.45800
 3092.00000   49.32480   67.86330  116.12420
 3092.50000   50.97260   67.52130  119.01550
 3093.00000   47.53700   66.65330  121.59400
 3093.50000   42.18240   64.86560  121.75550
 3094.00000   37.03300   60.45330  121.64120
 3094.50000   36.69850   60.43660  121.62550
 3095.00000   37.70510   62.76120  124.56660
 3095.50000   38.59210   67.24210  127.50780
 3096.00000   37.89030   71.44360  126.20170
 3096.50000   37.13600   71.63210  125.02580
 3097.00000   36.08670   71.46860  125.50490
 3097.50000   35.03740   72.30600  126.91990
 3098.00000   34.80430   73.72700  129.60550
 3098.50000   35.35240   74.34500  132.31830
 3099.00000   36.45510   75.01070  133.49940
 3099.50000   37.86370   75.79380  131.52840
 3100.00000   40.90400   75.75670  128.86100
 3100.50000   44.54890   74.65420  126.24630
 3101.00000   48.23350   72.79720  124.32920
 3101.50000   49.16140   73.60460  123.44560
 3102.00000   43.31430   73.53650  124.57720
 3102.50000   38.44580   70.69410  123.42040
