~Version ---------------------------------------------------
VERS.   2.0 : CWLS log ASCII Standard -VERSION 2.0
WRAP.    NO : One line per depth step
DLM . SPACE : Column Data Section Delimiter
~Well ------------------------------------------------------
STRT .F                 2480.0 : START DEPTH
STOP .F                10248.0 : STOP DEPTH
STEP .F                    0.5 : STEP
NULL .                -9999.25 : NULL VALUE
COMP .                         : COMPANY
WELL .                         : WELL
FLD  .                         : FIELD
LOC  .                         : LOCATION
PROV .                         : PROVINCE
CNTY .                         : COUNTY
STAT .                         : STATE
CTRY .                         : COUNTRY
SRVC .                         : SERVICE COMPANY
DATE .                         : DATE
UWI  .                         : UNIQUE WELL ID
API  .                         : API NUMBER
SLAT .WGS84 0.7754116781778997 : SURFACE LATITUDE
SLON .WGS84  5.853024298999998 : SURFACE LONGITUDE
DATUM.F                 2404.6 : DEPTH DATUM ELEV
~Curve Information -----------------------------------------
DEPT.F     : 
GRS .GAPI  : GAMMA RAY FROM SONIC LOG
DTCO.US/F  : COMPRESSIONAL-WAVE INTERVAL TRANSIT TIME ACOUSTIC SLOWNESS
DTSM.US/F  : SHEAR-WAVE INTERVAL TRANSIT TIME DELTA-T
~Params ----------------------------------------------------
~Other -----------------------------------------------------
~ASCII -----------------------------------------------------
# ...
 6396.00000  101.03610   84.55230  151.51680
 6396.50000  101.87390   84.30290  150.89970
 6397.00000  103.77530   83.81080  153.37280
 6397.50000  106.10560   83.39210  154.97640
 6398.00000  106.70810   83.68660  153.28210
 6398.50000  103.75400   83.69670  149.62930
 6399.00000   99.83090   82.78310  149.49290
 6399.50000   96.96180   81.75760  151.61870
 6400.00000   98.19620   81.50690  153.52600
 6400.50000   99.99580   81.18840  153.19110
 6401.00000  101.56450   80.02010  148.88960
 6401.50000  100.38190   79.00060  147.00720
 6402.00000   91.69760   78.23230  147.72250
 6402.50000   78.02040   77.46390  141.39900
 6403.00000   67.21980   74.42370  134.66770
 6403.50000   60.81790   71.09460  124.72720
 6404.00000   60.53720   69.43620  123.26890
 6404.50000   69.73060   71.53520  131.18830
 6405.00000   76.43940   74.68300  140.98410
 6405.50000   86.70010   77.82240  147.40580
 6406.00000   93.51890   78.97180  147.11790
 6406.50000   94.43030   79.13130  146.78470
 6407.00000   94.86030   79.60000  147.62890
 6407.50000   96.84890   80.61820  148.73720
 6408.00000   97.28620   81.79710  148.62280
 6408.50000   94.93080   82.66540  145.16770
 6409.00000   93.24790   82.47900  141.51360
 6409.50000   92.13860   81.10940  139.56170
 6410.00000   86.06030   79.22680  138.56740
 6410.50000   79.62590   77.74710  137.57310
 6411.00000   78.41180   77.72840  136.87660
 6411.50000   83.63990   78.38100  137.46490
 6412.00000   87.89380   79.87890  138.46230
 6412.50000   85.23290   80.06470  139.54720
 6413.00000   78.34560   79.86380  140.63630
 6413.50000   76.26990   79.57000  141.72540
 6414.00000   85.13340   79.71070  146.89550
 6414.50000   94.18210   80.87850  150.10260
 6415.00000  101.13170   81.55900  150.00960
 6415.50000   99.21080   80.73760  148.29640
 6416.00000   94.52190   79.27810  145.90910
 6416.50000   90.99700   76.44900  143.28120
 6417.00000   89.87920   76.46250  142.66800
 6417.50000   89.16580   77.94790  144.74940
 6418.00000   89.15370   77.84220  141.33910
 6418.50000   89.50430   77.52820  140.10120
 6419.00000   92.39910   81.08980  142.88350
 6419.50000   96.45520   84.19360  147.22030
 6420.00000   97.17010   84.57340  151.36670
 6420.50000   97.21740   84.17660  151.91830
 6421.00000   97.05040   84.15790  153.26960
 6421.50000   98.74350   84.32670  152.47930
 6422.00000  100.95090   83.89380  154.46060
 6422.50000  103.41090   83.20480  150.20180
 6423.00000  105.96780   81.56190  147.62930
 6423.50000  107.86170   83.29330  147.43130
 6424.00000  106.69890   85.44320  149.21600
 6424.50000  102.44770   85.50530  147.06730
 6425.00000   96.64870   83.00230  141.25330
 6425.50000   83.81490   78.17280  132.84590
 6426.00000   70.95080   75.69170  128.50100
 6426.50000   61.42360   72.78960  125.66530
 6427.00000   61.41350   69.87400  125.78680
 6427.50000   62.93890   68.74000  127.49010
 6428.00000   62.19150   69.88120  132.31900
 6428.50000   64.17320   73.20920  140.16080
 6429.00000   72.27260   76.54610  145.75130
 6429.50000   88.85630   83.06280  149.86150
 6430.00000  104.79830   89.86280  151.78730
 6430.50000  109.14570   89.78620  150.72950
 6431.00000  108.30110   87.72170  147.28200
 6431.50000  100.66880   83.76420  142.83130
 6432.00000   88.77670   78.28060  139.18550
 6432.50000   72.84710   75.32840  138.54780
 6433.00000   63.31850   73.81060  140.39980
 6433.50000   64.65430   75.42090  144.20980
 6434.00000   77.56440   78.04240  148.82160
 6434.50000   89.39080   80.49250  153.43330
 6435.00000   93.62260   82.84620  154.84880
 6435.50000   97.26460   84.26850  153.22220
 6436.00000  100.05990   84.54790  150.03940
 6436.50000  100.03430   83.21390  146.19590
 6437.00000   92.97360   79.91520  145.54140
 6437.50000   83.21940   77.26840  145.73560
 6438.00000   73.43890   73.72060  146.32760
 6438.50000   70.48770   71.79100  146.20300
 6439.00000   76.54140   74.72070  150.46680
 6439.50000   83.68510   78.46440  153.86950
 6440.00000   81.82640   80.42750  153.94160
 6440.50000   71.79670   80.41500  146.68270
 6441.00000   54.81970   78.09980  136.60620
 6441.50000   48.96080   75.99700  130.01610
 6442.00000   53.23550   76.18360  131.38750
 6442.50000   67.26690   79.38740  131.57860
 6443.00000   86.80920   80.62660  138.52160
 6443.50000   89.99790   79.54250  142.17270
 6444.00000   87.43380   78.39960  143.72000
 6444.50000   84.26550   77.55950  145.18180
 6445.00000   86.08010   79.81240  145.91220
 6445.50000   92.15260   81.17040  145.93370
 6446.00000   97.24900   80.44550  144.11320
 6446.50000   97.36760   79.13390  142.45830
 6447.00000   92.32770   78.69920  141.29560
 6447.50000   90.78170   77.94620  142.05060
 6448.00000   90.86030   77.12520  144.56170
 6448.50000   92.15870   77.15510  147.36940
 6449.00000   93.91260   78.71470  147.90010
 6449.50000   96.36170   81.42460  147.61230
 6450.00000   95.80460   83.27300  146.60160
 6450.50000   91.19150   83.07290  144.32820
 6451.00000   84.45430   80.66070  140.24060
 6451.50000   78.88070   78.82820  140.12130
 6452.00000   78.65270   78.85490  143.90750
 6452.50000   82.20140   79.62560  147.02030
 6453.00000   81.81350   78.67680  147.54200
 6453.50000   75.95690   77.09110  147.59690
 6454.00000   73.36690   75.92340  147.20490
 6454.50000   75.39910   76.13250  146.61610
 6455.00000   81.94070   76.93520  143.53890
 6455.50000   83.88110   77.34200  138.52310
 6456.00000   77.90300   77.23980  134.24850
 6456.50000   72.18700   76.35190  130.48860
 6457.00000   67.32710   74.00330  129.58120
 6457.50000   64.37020   72.48470  128.67380
 6458.00000   63.69680   72.90220  127.17900
 6458.50000   69.04380   73.56500  125.70230
 6459.00000   75.86990   74.02890  124.86800
 6459.50000   81.74120   75.58450  135.20250
 6460.00000   86.20140   78.86610  148.25940
 6460.50000   93.22100   81.94420  153.42560
 6461.00000   99.28410   83.08010  156.34170
 6461.50000  104.33390   83.25350  156.30310
 6462.00000  105.94100   84.57600  154.93430
 6462.50000  105.03400   85.75940  154.04550
 6463.00000  104.19150   86.19920  155.63530
 6463.50000  104.45160   86.31860  155.81000
 6464.00000  104.66510   86.23140  154.78320
 6464.50000  102.11210   85.22870  153.17970
 6465.00000   97.75570   83.77380  151.34590
 6465.50000   95.85480   82.19150  148.80060
 6466.00000   98.85020   81.94580  148.72720
 6466.50000  101.84560   82.79910  150.29790
 6467.00000  103.31990   84.28740  150.19360
 6467.50000  104.13250   86.45620  149.27320
 6468.00000  105.60440   86.96630  148.73180
 6468.50000  105.46440   84.91650  147.95520
 6469.00000  100.32720   81.93810  146.05260
 6469.50000   91.16550   80.38840  143.70980
 6470.00000   84.84180   79.91090  141.52740
 6470.50000   85.59460   79.79500  140.57330
 6471.00000   89.85310   80.16240  141.97870
 6471.50000   94.64940   80.66220  146.57590
 6472.00000   96.94780   81.40090  149.75820
 6472.50000   98.50470   82.09940  151.18410
 6473.00000   99.41850   82.56540  150.57980
 6473.50000  100.65350   82.68410  149.97550
 6474.00000  102.37730   80.78690  149.37120
 6474.50000  104.84490   81.07940  149.03030
 6475.00000  105.52130   83.14250  149.94510
 6475.50000  104.67340   84.21390  153.05310
 6476.00000  103.75660   84.63210  154.40500
 6476.50000  104.06520   84.61640  152.21900
 6477.00000  104.33850   83.96640  150.00570
 6477.50000  102.42290   82.70320  148.20760
 6478.00000   98.26650   81.54980  147.29750
 6478.50000   94.96010   81.10860  146.56350
 6479.00000   93.49060   80.65790  145.84090
 6479.50000   93.52660   80.22100  145.29420
 6480.00000   94.11270   80.43090  142.63970
 6480.50000   94.82380   80.42330  140.42570
 6481.00000   95.47850   79.81330  140.24690
 6481.50000   95.32870   78.56270  140.16110
 6482.00000   93.20150   78.10150  135.59560
 6482.50000   91.84980   77.64030  134.39740
 6483.00000   90.86950   76.68060  136.94670
 6483.50000   89.88920   75.92860  139.69800
 6484.00000   88.90970   75.52650  142.44930
 6484.50000   88.42450   75.88620  145.21450
