~Version ---------------------------------------------------
VERS.   2.0 : CWLS log ASCII Standard -VERSION 2.0
WRAP.    NO : One line per depth step
DLM . SPACE : Column Data Section Delimiter
~Well ------------------------------------------------------
STRT .F                 2480.0 : START DEPTH
STOP .F                10248.0 : STOP DEPTH
STEP .F                    0.5 : STEP
NULL .                -9999.25 : NULL VALUE
COMP .                         : COMPANY
WELL .                         : WELL
FLD  .                         : FIELD
LOC  .                         : LOCATION
PROV .                         : PROVINCE
CNTY .                         : COUNTY
STAT .                         : STATE
CTRY .                         : COUNTRY
SRVC .                         : SERVICE COMPANY
DATE .                         : DATE
UWI  .                         : UNIQUE WELL ID
API  .                         : API NUMBER
SLAT .WGS84 0.7754116781778997 : SURFACE LATITUDE
SLON .WGS84  5.853024298999998 : SURFACE LONGITUDE
DATUM.F                 2404.6 : DEPTH DATUM ELEV
~Curve Information -----------------------------------------
DEPT.F     : 
GRS .GAPI  : GAMMA RAY FROM SONIC LOG
DTCO.US/F  : COMPRESSIONAL-WAVE INTERVAL TRANSIT TIME ACOUSTIC SLOWNESS
DTSM.US/F  : SHEAR-WAVE INTERVAL TRANSIT TIME DELTA-T
~Params ----------------------------------------------------
~Other -----------------------------------------------------
~ASCII -----------------------------------------------------
# ...
 6218.00000  104.51520   91.85470  155.60710
 6218.50000  105.06680   92.86360  155.60240
 6219.00000  105.18990   93.40750  155.21990
 6219.50000  104.42490   93.14460  154.41410
 6220.00000  102.00450   91.24610  153.60830
 6220.50000   98.95600   89.34890  152.86380
 6221.00000   98.34770   88.26920  152.41220
 6221.50000  102.27410   88.21290  152.40060
 6222.00000  107.16640   88.30060  153.45520
 6222.50000  111.97500   89.75370  154.73060
 6223.00000  115.82900   89.99890  154.10890
 6223.50000  114.00020   88.77610  152.79590
 6224.00000  101.87650   88.01850  152.05400
 6224.50000   92.31080   86.98630  153.88150
 6225.00000   88.53380   87.52840  156.28990
 6225.50000   91.93900   88.43010  158.56480
 6226.00000   96.75300   89.65360  158.58690
 6226.50000  101.58290   90.89570  158.60900
 6227.00000  105.02000   92.57350  158.63110
 6227.50000  108.03530   94.01860  158.65320
 6228.00000  111.31460   94.47370  158.67520
 6228.50000  112.74710   94.24370  158.69730
 6229.00000  112.31490   93.62770  158.71940
 6229.50000  111.45670   92.43270  158.74150
 6230.00000  111.78910   92.27720  158.59120
 6230.50000  112.46420   92.24590  158.63660
 6231.00000  109.61980   91.68190  156.55230
 6231.50000  104.52440   90.97630  154.62130
 6232.00000   99.05180   90.01710  153.19190
 6232.50000   96.25310   89.72570  153.08940
 6233.00000   99.27450   89.77800  153.64970
 6233.50000  103.83880   90.32650  154.85450
 6234.00000  108.34500   91.04150  156.28460
 6234.50000  112.58960   91.88540  156.61950
 6235.00000  111.97920   92.72930  156.70610
 6235.50000  107.56550   93.62930  156.77830
 6236.00000  101.23610   94.09660  157.00290
 6236.50000   97.80840   94.41720  157.21340
 6237.00000   97.08580   94.61540  157.20200
 6237.50000   97.36260   94.72570  157.24380
 6238.00000   98.20440   94.00770  157.29660
 6238.50000   99.98230   92.31610  157.34940
 6239.00000  101.22550   90.93040  157.41290
 6239.50000  102.33040   90.92490  157.72650
 6240.00000  103.13820   91.54210  157.41740
 6240.50000  102.77490   92.19690  156.59350
 6241.00000   99.08530   92.49050  155.76950
 6241.50000   94.24680   91.99520  155.10220
 6242.00000   92.43140   91.22690  155.19200
 6242.50000   94.09880   91.22920  155.46150
 6243.00000   98.52870   92.82110  155.73110
 6243.50000  103.16630   93.98570  156.00280
 6244.00000  106.96910   94.47600  156.27950
 6244.50000  106.32220   93.68280  156.55620
 6245.00000  105.00490   92.89720  156.83280
 6245.50000  103.48700   92.57270  157.19970
 6246.00000  102.01330   92.27390  157.33660
 6246.50000  100.59040   91.90610  157.05220
 6247.00000   98.53020   91.01640  156.44000
 6247.50000   97.78440   89.94120  156.07710
 6248.00000   99.56610   89.79450  156.24040
 6248.50000  101.87530   89.86870  157.19900
 6249.00000  104.79260   89.90210  157.14780
 6249.50000  107.82260   89.50610  156.86040
 6250.00000  109.09760   89.75200  156.58530
 6250.50000  108.55130   90.42500  157.15440
 6251.00000  106.15550   91.15630  158.22130
 6251.50000  102.78240   91.82040  158.90760
 6252.00000  103.38460   92.41020  156.62230
 6252.50000  104.65810   92.78960  154.85580
 6253.00000  105.69510   92.99080  153.08930
 6253.50000  103.51180   92.29680  150.33800
 6254.00000   98.15930   90.06300  146.67700
 6254.50000   93.75280   89.67050  143.00810
 6255.00000   94.05160   90.49110  143.10490
 6255.50000   95.54450   92.08160  144.44060
 6256.00000   97.13320   93.46620  144.41780
 6256.50000   99.79190   94.14840  144.18900
 6257.00000  104.61690   94.21120  143.96880
 6257.50000  104.90910   94.11640  143.96880
 6258.00000  102.47660   93.91090  147.38630
 6258.50000   99.53120   93.37290  148.77640
 6259.00000   98.87040   92.55500  150.44550
 6259.50000   98.75970   91.87270  151.77600
 6260.00000   97.34170   91.45260  153.77960
 6260.50000   93.16300   91.39160  155.14330
 6261.00000   92.15040   91.61600  156.93580
 6261.50000   93.40310   92.02430  156.91720
 6262.00000   95.07130   92.05850  155.73420
 6262.50000   95.25010   92.34620  155.79260
 6263.00000   94.03630   92.76350  156.41530
 6263.50000   93.47220   93.27740  157.16720
 6264.00000   94.30970   93.27450  157.14420
 6264.50000   97.00120   92.56990  156.90200
 6265.00000   98.08980   91.86530  155.57910
 6265.50000   96.22420   90.75620  153.77260
 6266.00000   93.51890   89.59560  152.43140
 6266.50000   91.26510   89.26040  152.40070
 6267.00000   91.82450   89.09330  152.11760
 6267.50000   92.39340   89.04470  151.82840
 6268.00000   92.80900   88.98260  151.53920
 6268.50000   93.24280   88.89390  151.25000
 6269.00000   95.77530   88.42300  150.96080
 6269.50000   99.89510   88.29320  150.72500
 6270.00000  101.77960   88.05190  150.65150
 6270.50000  100.51930   87.67030  150.48270
 6271.00000   96.50120   86.82960  149.20650
 6271.50000   92.46460   85.79250  148.76010
 6272.00000   89.67110   85.94410  149.25810
 6272.50000   89.53090   86.28680  151.20070
 6273.00000   91.46810   88.37640  153.25440
 6273.50000   98.13160   90.45950  155.30820
 6274.00000  103.77040   92.12850  156.31820
 6274.50000  106.96450   92.04760  155.88130
 6275.00000  106.34830   91.38650  154.92840
 6275.50000  102.76400   89.77360  154.44000
 6276.00000   99.34820   87.93240  155.37780
 6276.50000   96.16130   87.13040  155.93550
 6277.00000   93.13820   86.87250  156.07100
 6277.50000   89.76730   86.82060  155.98690
 6278.00000   88.92430   87.38090  155.72930
 6278.50000   89.72210   87.18240  155.00940
 6279.00000   91.33180   86.08830  154.23520
 6279.50000   90.96940   83.89310  152.14910
 6280.00000   86.00640   81.76170  148.71390
 6280.50000   81.22840   80.64440  148.33310
 6281.00000   77.84670   80.84500  147.16170
 6281.50000   78.42270   81.88570  145.69860
 6282.00000   80.70630   83.64860  147.44000
 6282.50000   87.86150   85.36370  150.91740
 6283.00000   93.50730   86.51540  154.07390
 6283.50000   99.37450   87.91850  157.23110
 6284.00000  104.97800   88.98460  157.11510
 6284.50000  107.48580   89.38620  156.02620
 6285.00000  105.62390   88.66020  155.17680
 6285.50000  102.27200   87.15860  154.36150
 6286.00000   99.31090   84.47680  154.14690
 6286.50000   95.91800   82.79800  152.30310
 6287.00000   92.58670   82.52030  152.86670
 6287.50000   92.81780   82.54840  153.93720
 6288.00000   95.26250   82.09320  152.07640
 6288.50000   95.50220   81.38520  147.79290
 6289.00000   88.59420   80.75500  146.56570
 6289.50000   82.26410   80.67670  145.23660
 6290.00000   77.59320   81.14930  146.38480
 6290.50000   82.05680   82.07690  148.67550
 6291.00000   90.54590   83.62500  151.26670
 6291.50000   96.63380   84.73130  153.85790
 6292.00000  103.78010   86.13390  156.07710
 6292.50000  105.35260   86.62440  155.99100
 6293.00000  102.47640   85.47710  154.35010
 6293.50000   98.81460   82.75750  146.69140
 6294.00000   95.10870   82.32330  141.10820
 6294.50000   92.17370   81.88910  141.35420
 6295.00000   90.54350   80.76090  144.00370
 6295.50000   90.08990   79.82950  143.96810
 6296.00000   90.67670   80.19550  144.20380
 6296.50000   90.89640   80.35310  146.79460
 6297.00000   88.16340   80.19520  148.37210
 6297.50000   82.03460   78.80880  147.59860
 6298.00000   76.76130   77.48300  141.45200
 6298.50000   73.28220   77.86230  137.81740
 6299.00000   77.12910   78.52910  139.70220
 6299.50000   86.46590   79.36530  144.68460
 6300.00000   95.40370   82.97160  150.31510
 6300.50000   99.57050   86.17510  150.96000
 6301.00000   97.96230   87.41830  147.34150
 6301.50000   90.86790   86.24350  140.50090
 6302.00000   77.74080   83.60290  135.90640
 6302.50000   68.01470   77.76250  131.35670
 6303.00000   62.30160   74.13350  127.85500
 6303.50000   62.37680   72.98510  126.89260
 6304.00000   65.81090   73.00920  127.86780
 6304.50000   68.19140   74.23060  129.18730
 6305.00000   68.21760   74.95310  127.05500
 6305.50000   70.02880   75.06750  125.18590
 6306.00000   74.94390   76.59120  134.52040
 6306.50000   84.51470   78.21550  141.82420
