~Version ---------------------------------------------------
VERS.   2.0 : CWLS log ASCII Standard -VERSION 2.0
WRAP.    NO : One line per depth step
DLM . SPACE : Column Data Section Delimiter
~Well ------------------------------------------------------
STRT .F                 2480.0 : START DEPTH
STOP .F                10248.0 : STOP DEPTH
STEP .F                    0.5 : STEP
NULL .                -9999.25 : NULL VALUE
COMP .                         : COMPANY
WELL .                         : WELL
FLD  .                         : FIELD
LOC  .                         : LOCATION
PROV .                         : PROVINCE
CNTY .                         : COUNTY
STAT .                         : STATE
CTRY .                         : COUNTRY
SRVC .                         : SERVICE COMPANY
DATE .                         : DATE
UWI  .                         : UNIQUE WELL ID
API  .                         : API NUMBER
SLAT .WGS84 0.7754116781778997 : SURFACE LATITUDE
SLON .WGS84  5.853024298999998 : SURFACE LONGITUDE
DATUM.F                 2404.6 : DEPTH DATUM ELEV
~Curve Information -----------------------------------------
DEPT.F     : 
GRS .GAPI  : GAMMA RAY FROM SONIC LOG
DTCO.US/F  : COMPRESSIONAL-WAVE INTERVAL TRANSIT TIME ACOUSTIC SLOWNESS
DTSM.US/F  : SHEAR-WAVE INTERVAL TRANSIT TIME DELTA-T
~Params ----------------------------------------------------
~Other -----------------------------------------------------
~ASCII -----------------------------------------------------
 2480.00000   88.51710   -9999.25   -9999.25
 2480.50000   88.67230   -9999.25   -9999.25
 2481.00000   91.11460   -9999.25   -9999.25
 2481.50000   93.32700   -9999.25   -9999.25
 2482.00000   93.60060   -9999.25   -9999.25
 2482.50000   93.27340   -9999.25   -9999.25
 2483.00000   91.64880   -9999.25   -9999.25
 2483.50000   89.08920   -9999.25   -9999.25
 2484.00000   88.17640   -9999.25   -9999.25
 2484.50000   89.28100   -9999.25   -9999.25
 2485.00000   90.39130   -9999.25   -9999.25
 2485.50000   90.98280   -9999.25   -9999.25
 2486.00000   91.51150   97.93340  179.38840
 2486.50000   92.49970   97.94220  179.49740
 2487.00000   95.27400   97.95100  179.26530
 2487.50000   98.74580   98.04270  179.03330
 2488.00000  102.15240   98.73520  178.80120
 2488.50000  103.01500   98.93880  178.71000
 2489.00000  100.97980   98.62530  176.92670
 2489.50000   98.40120   98.09360  175.76060
 2490.00000   97.62140   97.87630  175.18130
 2490.50000   97.22030   97.86490  174.79080
 2491.00000   96.24610   98.18450  174.68110
 2491.50000   94.60970   98.69100  174.57150
 2492.00000   92.55930   99.17200  174.46180
 2492.50000   91.88470   99.58590  174.35210
 2493.00000   92.80110   99.57090  174.05150
 2493.50000   94.60410   99.29460  173.26840
 2494.00000   94.99190   98.38660  171.29920
 2494.50000   92.19170   95.87400  163.06390
 2495.00000   85.07430   92.44770  146.98200
 2495.50000   77.80680   88.73840  130.71090
 2496.00000   72.99120   86.28200  116.52930
 2496.50000   72.95550   85.48550  104.67850
 2497.00000   80.66440   86.27950  105.21000
 2497.50000   91.59560   90.46160  116.73830
 2498.00000  100.93040   93.89930  129.56220
 2498.50000  103.39770   95.59150  143.13240
 2499.00000   99.85740   96.69110  153.22090
 2499.50000   96.09830   97.09650  159.78150
 2500.00000   94.56520   97.24610  159.24920
 2500.50000   94.29040   97.37310  164.98060
 2501.00000   94.50470   97.68860  165.48190
 2501.50000   94.64770   98.07400  166.60950
 2502.00000   94.73320   98.46440  166.65420
 2502.50000   95.39870   98.94170  167.40800
 2503.00000   97.73460   99.33590  168.14000
 2503.50000   97.65100   98.98520  167.95180
 2504.00000   95.16170   97.98160  168.35740
 2504.50000   91.70690   96.94970  168.76290
 2505.00000   90.93120   95.81620  169.16850
 2505.50000   92.60460   94.48940  169.57410
 2506.00000   94.01550   93.15870  169.97970
 2506.50000   95.21990   92.63040  170.30420
 2507.00000   96.25370   92.83070  170.55220
 2507.50000   98.05100   94.16630  170.80010
 2508.00000   99.80120   95.56230  170.91240
 2508.50000  100.76450   95.76540  170.94480
 2509.00000   98.50630   95.43120  170.97720
 2509.50000   93.13140   95.59180  171.00960
 2510.00000   90.38690   95.96440  171.04210
 2510.50000   91.51680   95.92680  171.07450
 2511.00000   94.05300   95.33030  171.10690
 2511.50000   94.96640   94.87360  171.13940
 2512.00000   94.75490   95.24680  171.17180
 2512.50000   94.81590   96.09120  171.36190
 2513.00000   97.01130   96.94850  172.00800
 2513.50000  101.02600   98.53900  172.54220
 2514.00000  103.86580   99.55030  172.52990
 2514.50000  103.70490   99.16740  171.93570
 2515.00000  100.58520   98.28870  170.45600
 2515.50000   97.66990   97.05940  169.41870
 2516.00000   96.26740   96.70210  168.97830
 2516.50000   95.64240   96.78030  169.40160
 2517.00000   95.49320   97.63330  171.45280
 2517.50000   95.58890   98.76370  173.82630
 2518.00000   95.98160   98.85170  175.00890
 2518.50000   97.74350   98.81100  175.01280
 2519.00000  100.62420   99.71710  172.88250
 2519.50000  104.61480   99.89340  170.88960
 2520.00000  102.46260   98.36760  169.10350
 2520.50000   95.53540   92.80610  162.43400
 2521.00000   80.25900   88.89400  155.02730
 2521.50000   65.56330   84.57430  148.53110
 2522.00000   66.74260   82.81490  146.20030
 2522.50000   78.07610   84.70170  148.70440
 2523.00000   92.32900   90.27710  157.29320
 2523.50000  101.65850   95.11070  159.89870
 2524.00000  103.01060   96.87590  162.02990
 2524.50000  100.37380   97.27050  164.16110
 2525.00000   98.01070   97.27190  166.02120
 2525.50000   98.16650   96.96800  168.03880
 2526.00000  100.67310   97.45020  169.72280
 2526.50000  102.71040   97.90480  172.85260
 2527.00000   99.79270   97.29730  175.14150
 2527.50000   95.71370   96.27920  176.05960
 2528.00000   91.35010   95.55000  176.06160
 2528.50000   90.05370   94.56830  175.39430
 2529.00000   90.69190   93.88570  174.15570
 2529.50000   91.61270   94.00410  172.91340
 2530.00000   91.71280   94.59900  173.81330
 2530.50000   92.17520   95.24530  174.80430
 2531.00000   94.79320   95.92140  174.11200
 2531.50000   99.02650   96.59890  175.01840
 2532.00000  103.15590   97.27650  175.89020
 2532.50000  104.51230   97.40150  175.82410
 2533.00000  101.42670   96.97700  176.17200
 2533.50000   98.64380   96.34810  177.32360
 2534.00000   99.22530   94.82340  178.26440
 2534.50000  100.30460   93.00610  177.76830
 2535.00000   98.00340   91.00630  176.61670
 2535.50000   89.88320   91.02730  176.08490
 2536.00000   87.23950   92.77460  175.98970
 2536.50000   89.68090   94.54610  175.96130
 2537.00000   91.94190   95.61670  175.83490
 2537.50000   92.01520   96.60920  174.47890
 2538.00000   90.83990   96.72760  172.68960
 2538.50000   89.97540   96.64020  170.90040
 2539.00000   93.69590   96.45020  168.84650
 2539.50000   99.39980   96.05950  167.43420
 2540.00000  105.78170   96.13560  167.45350
 2540.50000  107.83840   96.59690  167.63570
 2541.00000  107.74740   97.05820  168.34150
 2541.50000  107.47700   97.19370  168.53630
 2542.00000  107.83180   95.89630  166.74040
 2542.50000  104.15870   94.38380  164.73710
 2543.00000   99.63930   92.86420  163.00600
 2543.50000   95.30940   92.86220  163.78400
 2544.00000   92.45560   93.74390  165.28220
 2544.50000   92.05030   94.85090  168.08270
 2545.00000   90.98220   95.97390  171.66140
 2545.50000   89.88470   96.80100  173.83460
 2546.00000   88.62910   95.42600  168.20830
 2546.50000   87.99840   92.93870  160.53050
 2547.00000   88.79170   92.60050  159.64750
 2547.50000   93.01880   95.40150  162.84480
 2548.00000   96.16600   96.75200  168.91740
 2548.50000   98.66310   97.70950  169.34700
 2549.00000  100.65510   98.51180  170.27550
 2549.50000  103.85240   99.20550  171.07740
 2550.00000  106.60160   99.30110  170.97880
 2550.50000  109.66430   99.17310  170.72970
 2551.00000  109.86660   98.59300  170.49150
 2551.50000  107.04520   97.71440  171.80970
 2552.00000  103.74820   96.46930  173.54200
 2552.50000  101.33570   96.04760  173.08170
 2553.00000  101.69650   96.38490  173.11900
 2553.50000  104.44620   96.94040  173.62920
 2554.00000  109.63130   97.34880  173.95390
 2554.50000  111.81770   97.30960  173.47790
 2555.00000  106.97230   96.35240  172.63460
 2555.50000  100.14780   92.98230  173.29860
 2556.00000   93.09300   90.29720  176.70210
 2556.50000   90.16630   89.10380  174.18170
 2557.00000   93.11540   89.65770  171.86720
 2557.50000  101.88980   91.41230  169.88620
 2558.00000  110.35190   93.93540  174.48190
 2558.50000  114.06240   96.53910  177.88450
 2559.00000  112.64720   96.90550  179.14400
 2559.50000  110.95630   96.81910  179.39490
 2560.00000  108.53950   96.57650  177.31520
 2560.50000  105.93690   96.24180  177.59830
 2561.00000  104.30630   95.78390  177.60090
 2561.50000  104.70370   95.19270  176.75800
 2562.00000  105.38430   94.20430  174.93160
 2562.50000  104.41130   93.05390  173.63990
 2563.00000  101.71170   92.58080  172.86210
 2563.50000   96.34680   92.29720  173.40210
 2564.00000   91.14950   92.01350  174.29910
 2564.50000   88.88270   91.41190  173.70700
 2565.00000   90.56700   90.13540  171.98570
 2565.50000   94.56200   88.84180  170.48040
 2566.00000   99.00390   89.03960  168.97520
 2566.50000  102.41370   90.13920  167.46990
 2567.00000  104.25000   92.03980  165.95640
 2567.50000  105.74320   94.05580  165.84010
 2568.00000  104.90540   95.21700  165.44830
 2568.50000  100.81190   94.95940  164.38520
