~Version ---------------------------------------------------
VERS.   2.0 : CWLS log ASCII Standard -VERSION 2.0
WRAP.    NO : One line per depth step
DLM . SPACE : Column Data Section Delimiter
~Well ------------------------------------------------------
STRT .F                 2480.0 : START DEPTH
STOP .F                10248.0 : STOP DEPTH
STEP .F                    0.5 : STEP
NULL .                -9999.25 : NULL VALUE
COMP .                         : COMPANY
WELL .                         : WELL
FLD  .                         : FIELD
LOC  .                         : LOCATION
PROV .                         : PROVINCE
CNTY .                         : COUNTY
STAT .                         : STATE
CTRY .                         : COUNTRY
SRVC .                         : SERVICE COMPANY
DATE .                         : DATE
UWI  .                         : UNIQUE WELL ID
API  .                         : API NUMBER
SLAT .WGS84 0.7754116781778997 : SURFACE LATITUDE
SLON .WGS84  5.853024298999998 : SURFACE LONGITUDE
DATUM.F                 2404.6 : DEPTH DATUM ELEV
~Curve Information -----------------------------------------
DEPT.F     : 
GRS .GAPI  : GAMMA RAY FROM SONIC LOG
DTCO.US/F  : COMPRESSIONAL-WAVE INTERVAL TRANSIT TIME ACOUSTIC SLOWNESS
DTSM.US/F  : SHEAR-WAVE INTERVAL TRANSIT TIME DELTA-T
~Params ----------------------------------------------------
~Other -----------------------------------------------------
~ASCII -----------------------------------------------------
# ...
 6752.00000  102.20460   80.45450  152.70610
 6752.50000  101.03630   80.33810  154.08540
 6753.00000   99.18830   80.40130  154.79620
 6753.50000   98.34790   80.54470  152.60830
 6754.00000   99.56810   81.04090  149.33230
 6754.50000  101.38420   81.83990  149.45930
 6755.00000  101.21640   82.55790  150.53260
 6755.50000   99.68900   82.39830  151.67850
 6756.00000   96.79810   81.60480  151.33100
 6756.50000   94.33420   80.70250  149.98430
 6757.00000   95.03440   80.25240  148.64680
 6757.50000  101.83640   80.14430  148.92490
 6758.00000  110.34930   81.75270  150.58860
 6758.50000  112.57660   82.48280  151.85680
 6759.00000  109.59740   82.33060  151.29820
 6759.50000  103.18840   81.97000  147.10540
 6760.00000   96.31640   80.57070  144.28020
 6760.50000   95.42100   79.92890  142.66540
 6761.00000   99.45940   79.92890  141.05060
 6761.50000  101.90450   80.03330  139.43570
 6762.00000  101.13580   79.60740  137.52380
 6762.50000   96.47050   79.26830  134.64220
 6763.00000   90.32100   79.18940  132.08960
 6763.50000   84.30280   78.16780  135.12080
 6764.00000   85.82320   76.53410  142.71790
 6764.50000   90.30700   76.69830  144.86190
 6765.00000   94.79090   77.78430  143.69820
 6765.50000   97.36120   78.70600  142.66860
 6766.00000   97.37950   79.62770  144.02180
 6766.50000   94.90790   80.63810  147.90850
 6767.00000   94.74440   81.79950  151.03200
 6767.50000   98.20870   82.80330  152.89760
 6768.00000  102.89250   82.87070  152.16010
 6768.50000  103.27590   81.66610  150.47000
 6769.00000   98.08570   79.00840  149.14650
 6769.50000   92.61410   77.29230  150.12070
 6770.00000   86.91640   75.61050  148.73300
 6770.50000   83.04430   74.36190  142.71080
 6771.00000   79.81640   72.28060  140.05220
 6771.50000   78.59220   71.81010  139.82730
 6772.00000   79.21230   71.78290  139.82330
 6772.50000   85.95230   73.00630  140.35340
 6773.00000   92.94590   75.75090  142.50340
 6773.50000   97.16240   77.86770  144.36960
 6774.00000   98.03520   78.99030  141.97870
 6774.50000   97.27550   79.47660  139.33180
 6775.00000   94.05540   79.19950  139.39440
 6775.50000   94.33840   79.42420  139.51500
 6776.00000   99.19420   80.22920  139.73990
 6776.50000  104.61450   81.42780  140.62860
 6777.00000  105.53630   81.25960  141.73780
 6777.50000  101.40680   79.05340  142.31930
 6778.00000   92.83500   76.44290  141.84010
 6778.50000   83.45910   76.12230  140.57620
 6779.00000   76.81840   77.36200  139.31240
 6779.50000   78.63720   77.54940  138.01910
 6780.00000   81.79790   77.49650  136.49130
 6780.50000   81.62450   77.40620  134.96350
 6781.00000   75.89860   76.83660  133.43560
 6781.50000   70.18780   75.92160  131.47360
 6782.00000   68.98500   74.95150  131.16320
 6782.50000   73.85700   75.00250  131.29600
 6783.00000   81.05890   75.31350  132.18000
 6783.50000   89.16700   75.62450  135.14070
 6784.00000   88.35610   75.93560  137.08830
 6784.50000   86.61940   76.24660  137.61640
 6785.00000   86.63280   76.55760  137.59130
 6785.50000   88.97680   77.03810  137.56620
 6786.00000   91.57640   77.38250  137.54110
 6786.50000   93.47990   77.63360  137.52270
 6787.00000   92.75110   77.86710  138.19070
 6787.50000   89.92120   77.97750  140.66510
 6788.00000   87.20660   77.72610  145.72570
 6788.50000   87.42300   77.45530  148.14260
 6789.00000   88.71050   77.84730  148.38890
 6789.50000   89.15200   79.57160  147.69260
 6790.00000   89.73920   80.70590  146.91520
 6790.50000   91.27550   81.21270  145.33540
 6791.00000   96.76720   80.39840  142.13910
 6791.50000  100.54820   80.59370  140.38330
 6792.00000  102.17330   80.91850  141.53460
 6792.50000  101.30490   80.53160  143.83070
 6793.00000   99.54390   79.94210  142.62530
 6793.50000   98.89160   79.24150  142.31210
 6794.00000   98.70560   78.52750  142.63950
 6794.50000   98.61220   78.08560  143.54690
 6795.00000   98.51890   77.99300  144.45430
 6795.50000   99.64360   78.11280  145.29980
 6796.00000  101.31060   79.51250  146.42040
 6796.50000   98.89250   81.58320  147.04350
 6797.00000  103.97490   81.95690  146.91810
 6797.50000  104.72740   81.75010  145.98530
 6798.00000  101.61040   80.85070  145.50890
 6798.50000   95.82460   79.87060  144.13660
 6799.00000   93.45430   79.16000  143.58230
 6799.50000   95.25460   79.08990  142.26470
 6800.00000   95.00020   79.12250  140.58140
 6800.50000   90.61400   79.23530  139.79110
 6801.00000   87.11430   78.94000  139.50190
 6801.50000   85.61780   78.07440  140.12260
 6802.00000   86.07930   77.87760  141.23050
 6802.50000   95.41770   77.97720  142.75570
 6803.00000   98.95340   78.47330  143.37410
 6803.50000  100.35040   79.28040  141.11630
 6804.00000   97.32700   79.38290  144.50990
 6804.50000   92.79970   79.06070  148.83280
 6805.00000   91.66310   78.43500  152.06930
 6805.50000   94.54370   78.06280  150.41360
 6806.00000   99.58060   78.82950  147.45470
 6806.50000  104.27360   79.83900  148.02890
 6807.00000  101.97520   80.36050  150.03490
 6807.50000   96.46610   79.64130  150.16360
 6808.00000   89.78220   78.58660  148.52780
 6808.50000   88.72220   78.34160  146.78110
 6809.00000   95.09570   80.66090  144.76970
 6809.50000  106.02970   82.39690  142.75820
 6810.00000  116.86250   80.86340  140.74680
 6810.50000  117.47820   78.32880  138.73530
 6811.00000  109.97940   75.16620  133.90300
 6811.50000  100.03920   69.73510  115.44670
 6812.00000   76.58230   55.56550   95.88730
 6812.50000   63.44860   48.91280   91.41670
 6813.00000   62.32030   63.05720  119.97150
 6813.50000   73.59700   70.26940  130.54700
 6814.00000   87.58320   71.06290  133.32260
 6814.50000   90.68280   73.45460  136.03230
 6815.00000   87.40850   74.28740  137.70700
 6815.50000   82.65510   74.34990  137.45700
 6816.00000   80.01200   73.15820  137.52930
 6816.50000   -9999.25   72.72810  139.30290
 6817.00000   -9999.25   73.91610  139.17970
 6817.50000   -9999.25   75.82370  137.68130
 6818.00000   -9999.25   75.71540  136.11480
 6818.50000   -9999.25   75.56020  135.87950
 6819.00000   -9999.25   75.97570  136.24780
 6819.50000   -9999.25   80.85850  138.32890
 6820.00000   -9999.25   83.93620  142.39960
 6820.50000   -9999.25   83.40130  144.66330
 6821.00000   -9999.25   82.08730  144.35150
 6821.50000   -9999.25   80.53930  138.75520
 6822.00000   -9999.25   78.39390  132.90990
 6822.50000   -9999.25   74.85850  132.95050
 6823.00000   -9999.25   74.14960  135.40770
 6823.50000   -9999.25   76.15040  135.26320
 6824.00000   -9999.25   74.60000  136.27500
 6824.50000   -9999.25   71.61540  139.09400
 6825.00000   -9999.25   70.74890  138.96900
 6825.50000   -9999.25   71.40200  139.14660
 6826.00000   -9999.25   72.65120  139.27740
 6826.50000   -9999.25   72.94160  137.99000
 6827.00000   -9999.25   72.62670  134.10080
 6827.50000   -9999.25   72.22700  127.65310
 6828.00000   -9999.25   71.95870  119.65900
 6828.50000   -9999.25   71.83860  118.93100
 6829.00000   -9999.25   73.25720  124.93270
 6829.50000   -9999.25   75.96140  133.59630
 6830.00000   -9999.25   78.30320  143.93280
 6830.50000   -9999.25   79.91480  151.09720
 6831.00000   -9999.25   80.42610  153.94740
 6831.50000   -9999.25   80.55140  153.87560
 6832.00000   -9999.25   79.88670  153.48570
 6832.50000   -9999.25   78.92050  151.68240
 6833.00000   -9999.25   77.47750  150.64320
 6833.50000   -9999.25   76.68840  148.55360
 6834.00000   -9999.25   76.31590  143.11280
 6834.50000   -9999.25   75.74130  135.77890
 6835.00000   -9999.25   73.93300  126.73980
 6835.50000   -9999.25   72.95580  119.98950
 6836.00000   -9999.25   73.63610  119.82610
 6836.50000   -9999.25   75.66780  127.97400
 6837.00000   -9999.25   77.71460  137.15900
 6837.50000   -9999.25   80.88090  139.44400
 6838.00000   -9999.25   80.89440  140.16620
 6838.50000   -9999.25   -9999.25   -9999.25
 6839.00000   -9999.25   -9999.25   -9999.25
 6839.50000   -9999.25   -9999.25   -9999.25
 6840.00000   -9999.25   -9999.25   -9999.25
 6840.50000   -9999.25   -9999.25   -9999.25
