~Version ---------------------------------------------------
VERS.   2.0 : CWLS log ASCII Standard -VERSION 2.0
WRAP.    NO : One line per depth step
DLM . SPACE : Column Data Section Delimiter
~Well ------------------------------------------------------
STRT .F                 2480.0 : START DEPTH
STOP .F                10248.0 : STOP DEPTH
STEP .F                    0.5 : STEP
NULL .                -9999.25 : NULL VALUE
COMP .                         : COMPANY
WELL .                         : WELL
FLD  .                         : FIELD
LOC  .                         : LOCATION
PROV .                         : PROVINCE
CNTY .                         : COUNTY
STAT .                         : STATE
CTRY .                         : COUNTRY
SRVC .                         : SERVICE COMPANY
DATE .                         : DATE
UWI  .                         : UNIQUE WELL ID
API  .                         : API NUMBER
SLAT .WGS84 0.7754116781778997 : SURFACE LATITUDE
SLON .WGS84  5.853024298999998 : SURFACE LONGITUDE
DATUM.F                 2404.6 : DEPTH DATUM ELEV
~Curve Information -----------------------------------------
DEPT.F     : 
GRS .GAPI  : GAMMA RAY FROM SONIC LOG
DTCO.US/F  : COMPRESSIONAL-WAVE INTERVAL TRANSIT TIME ACOUSTIC SLOWNESS
DTSM.US/F  : SHEAR-WAVE INTERVAL TRANSIT TIME DELTA-T
~Params ----------------------------------------------------
~Other -----------------------------------------------------
~ASCII -----------------------------------------------------
# ...
 5862.00000   92.57280   89.81180  157.00110
 5862.50000   91.17470   89.73050  156.86150
 5863.00000   87.96370   90.02590  155.90190
 5863.50000   85.08210   89.79560  151.87350
 5864.00000   82.38510   88.15300  146.87460
 5864.50000   79.64750   85.33940  140.64330
 5865.00000   73.97590   82.49410  135.58850
 5865.50000   69.85460   79.87470  133.42230
 5866.00000   66.75750   79.69320  131.94680
 5866.50000   70.23880   82.66160  131.90840
 5867.00000   76.83680   85.11540  135.52260
 5867.50000   82.53390   85.95720  140.23320
 5868.00000   84.53220   86.60590  140.46200
 5868.50000   84.82630   87.29480  139.44260
 5869.00000   85.88930   88.23920  138.27070
 5869.50000   86.29200   88.93620  139.94860
 5870.00000   84.46350   89.30000  142.37920
 5870.50000   79.73190   89.23830  146.21330
 5871.00000   74.79140   88.09160  150.33040
 5871.50000   74.03260   87.30070  154.31520
 5872.00000   75.04210   87.66450  156.31580
 5872.50000   78.27080   88.18450  157.50560
 5873.00000   81.94440   88.66870  157.17990
 5873.50000   82.65690   88.72230  154.26510
 5874.00000   82.70930   88.66720  148.71340
 5874.50000   79.89010   87.25660  143.96880
 5875.00000   77.42330   86.03130  144.42100
 5875.50000   74.98390   85.27980  147.88030
 5876.00000   74.73680   84.23130  149.63140
 5876.50000   78.86680   83.14280  150.05080
 5877.00000   82.81130   81.43800  149.58500
 5877.50000   84.76010   80.21500  148.69720
 5878.00000   84.74400   81.25540  146.36910
 5878.50000   84.07990   84.15960  140.39400
 5879.00000   84.07990   86.75250  136.91020
 5879.50000   84.77190   87.70120  134.77700
 5880.00000   86.30550   88.01290  136.09010
 5880.50000   87.65570   88.20580  139.86550
 5881.00000   89.49130   88.98360  143.67510
 5881.50000   92.13910   90.33960  147.48470
 5882.00000   96.03500   91.37080  149.28490
 5882.50000   96.08470   91.95650  151.10160
 5883.00000   93.08670   92.54220  153.08830
 5883.50000   90.71250   93.02470  154.69080
 5884.00000   88.60340   93.48450  156.80200
 5884.50000   88.19130   92.85370  156.66740
 5885.00000   87.20690   90.78940  151.67090
 5885.50000   83.38560   86.65940  146.60460
 5886.00000   76.84040   84.09250  141.55100
 5886.50000   66.89940   80.23180  134.43960
 5887.00000   60.16610   79.49850  127.93270
 5887.50000   65.36650   81.43560  126.73230
 5888.00000   76.84100   85.37970  131.19120
 5888.50000   88.12550   88.08690  138.76060
 5889.00000   93.02710   89.68680  145.62680
 5889.50000   92.07090   89.28440  150.57330
 5890.00000   84.94650   88.80430  150.15390
 5890.50000   78.56080   88.30010  149.15810
 5891.00000   75.75320   87.27600  151.54330
 5891.50000   78.94320   86.38520  156.80830
 5892.00000   82.58080   86.69490  157.33510
 5892.50000   85.35000   88.12340  156.64640
 5893.00000   89.67440   90.62150  155.47550
 5893.50000   94.12840   92.46620  154.30460
 5894.00000   95.62290   92.89560  151.01750
 5894.50000   93.54830   92.27240  150.81720
 5895.00000   85.33810   91.72890  155.27580
 5895.50000   82.43130   91.61280  158.30720
 5896.00000   82.91260   92.03910  159.27890
 5896.50000   90.03540   93.16910  156.81120
 5897.00000   95.49540   92.76570  155.14840
 5897.50000   95.62790   90.85770  154.03290
 5898.00000   90.84730   89.82090  154.17210
 5898.50000   88.71910   89.33080  154.71750
 5899.00000   92.25120   90.62290  155.53070
 5899.50000   98.72680   92.31090  156.38460
 5900.00000  104.77300   93.33710  154.72260
 5900.50000  101.72810   92.89300  151.40870
 5901.00000   92.53450   89.79980  147.41370
 5901.50000   82.29170   86.68230  144.98070
 5902.00000   77.29980   84.60540  141.24310
 5902.50000   83.27540   83.93120  135.64290
 5903.00000   88.63060   85.07970  133.20350
 5903.50000   91.91450   86.01330  132.20970
 5904.00000   89.29800   86.18440  131.54610
 5904.50000   88.64900   86.73500  131.95590
 5905.00000   91.45030   88.09070  139.50810
 5905.50000   94.64080   91.53940  147.47520
 5906.00000   95.48580   93.11930  149.87040
 5906.50000   93.83830   91.36290  148.39670
 5907.00000   94.02000   89.86170  141.62580
 5907.50000   94.93660   90.29090  141.48890
 5908.00000   95.84630   90.84970  148.76860
 5908.50000   96.81310   90.72990  152.45220
 5909.00000   94.20350   89.57530  155.88970
 5909.50000   91.12510   88.16160  156.88160
 5910.00000   87.89900   88.25650  157.56110
 5910.50000   87.44900   89.48270  158.12050
 5911.00000   88.72440   90.69450  158.67980
 5911.50000   90.45240   90.93610  158.38030
 5912.00000   90.02020   90.85600  155.28870
 5912.50000   87.17110   89.60080  147.91810
 5913.00000   76.76420   88.20170  141.67760
 5913.50000   63.16050   88.89580  139.88030
 5914.00000   53.55360   89.50630  140.46060
 5914.50000   57.74080   89.44780  147.62240
 5915.00000   69.56190   88.25860  154.06950
 5915.50000   80.65390   86.88810  155.72980
 5916.00000   83.97770   86.17690  152.61010
 5916.50000   81.73850   85.46580  149.77800
 5917.00000   78.99580   84.88790  147.29700
 5917.50000   79.76470   84.31980  148.84290
 5918.00000   84.23300   83.61130  151.29920
 5918.50000   91.66090   83.55000  153.68080
 5919.00000   98.44710   86.91360  156.89130
 5919.50000  101.77350   89.04700  158.99080
 5920.00000   99.71490   89.61740  159.09810
 5920.50000   95.42770   89.45530  157.90560
 5921.00000   89.64720   87.76220  153.74360
 5921.50000   86.52540   86.75090  149.22790
 5922.00000   84.15360   84.97360  145.10290
 5922.50000   79.07530   82.64780  143.37410
 5923.00000   74.36760   80.89830  143.20760
 5923.50000   69.49390   80.66590  140.23370
 5924.00000   69.78340   81.86290  144.00630
 5924.50000   78.56630   83.22640  149.82560
 5925.00000   89.76560   86.01230  155.67090
 5925.50000   99.39330   87.85220  157.16880
 5926.00000   98.87850   89.75770  156.96370
 5926.50000   97.15160   90.35740  156.58480
 5927.00000   90.12660   87.54270  156.33210
 5927.50000   81.17680   83.37160  155.98350
 5928.00000   74.36200   80.17580  153.38830
 5928.50000   71.96570   80.01580  150.27780
 5929.00000   82.42770   82.77970  152.82940
 5929.50000   90.82620   86.61740  156.07710
 5930.00000   94.73850   89.34830  149.51740
 5930.50000   94.75360   91.07960  145.35580
 5931.00000   92.64120   90.93230  131.31290
 5931.50000   89.49130   90.43500  129.62910
 5932.00000   82.89490   89.93770  130.40400
 5932.50000   80.33320   89.48590  136.76160
 5933.00000   84.46100   89.33260  142.35370
 5933.50000   92.73410   89.50570  150.08670
 5934.00000   99.05690   87.48090  154.42460
 5934.50000   98.68710   84.86290  153.05970
 5935.00000   94.48050   84.26160  151.76640
 5935.50000   89.13900   83.71570  152.11740
 5936.00000   88.76260   83.38190  151.08290
 5936.50000   89.44900   82.54800  149.03760
 5937.00000   88.72970   81.31800  145.22220
 5937.50000   83.89360   79.77470  140.76640
 5938.00000   76.86550   79.51300  137.87990
 5938.50000   76.15640   80.60710  143.79170
 5939.00000   78.55100   84.15860  152.55980
 5939.50000   82.36660   87.18260  157.24320
 5940.00000   86.43710   88.64140  157.14480
 5940.50000   90.85160   89.67920  157.12010
 5941.00000   91.52050   90.75880  157.27970
 5941.50000   90.94720   90.77890  157.48550
 5942.00000   87.87670   89.28330  157.25820
 5942.50000   81.76960   85.21590  153.90810
 5943.00000   65.30450   76.36920  142.05210
 5943.50000   49.97550   70.50900  129.57100
 5944.00000   39.11260   66.18370  122.14930
 5944.50000   29.21130   63.66420  116.27990
 5945.00000   24.22300   61.17030  114.45530
 5945.50000   21.38820   59.54010  112.61030
 5946.00000   20.70690   59.21080  111.89520
 5946.50000   23.09840   59.67060  113.20210
 5947.00000   31.28640   60.76550  116.73250
 5947.50000   43.97740   64.77720  122.70210
 5948.00000   52.43840   70.00210  132.27770
 5948.50000   66.85490   73.86210  139.59050
 5949.00000   74.04250   79.65100  150.92860
 5949.50000   79.67140   84.26890  156.28720
 5950.00000   82.53710   85.42560  157.36090
 5950.50000   84.93510   86.58670  151.83130
