~Version ---------------------------------------------------
VERS.   2.0 : CWLS log ASCII Standard -VERSION 2.0
WRAP.    NO : One line per depth step
DLM . SPACE : Column Data Section Delimiter
~Well ------------------------------------------------------
STRT .F                 2480.0 : START DEPTH
STOP .F                10248.0 : STOP DEPTH
STEP .F                    0.5 : STEP
NULL .                -9999.25 : NULL VALUE
COMP .                         : COMPANY
WELL .                         : WELL
FLD  .                         : FIELD
LOC  .                         : LOCATION
PROV .                         : PROVINCE
CNTY .                         : COUNTY
STAT .                         : STATE
CTRY .                         : COUNTRY
SRVC .                         : SERVICE COMPANY
DATE .                         : DATE
UWI  .                         : UNIQUE WELL ID
API  .                         : API NUMBER
SLAT .WGS84 0.7754116781778997 : SURFACE LATITUDE
SLON .WGS84  5.853024298999998 : SURFACE LONGITUDE
DATUM.F                 2404.6 : DEPTH DATUM ELEV
~Curve Information -----------------------------------------
DEPT.F     : 
GRS .GAPI  : GAMMA RAY FROM SONIC LOG
DTCO.US/F  : COMPRESSIONAL-WAVE INTERVAL TRANSIT TIME ACOUSTIC SLOWNESS
DTSM.US/F  : SHEAR-WAVE INTERVAL TRANSIT TIME DELTA-T
~Params ----------------------------------------------------
~Other -----------------------------------------------------
~ASCII -----------------------------------------------------
# ...
 2836.00000   87.93420   78.86530  134.88820
 2836.50000   90.60410   79.14640  136.63190
 2837.00000   94.34630   80.25740  138.28570
 2837.50000  101.79540   82.21280  139.77260
 2838.00000  109.75370   83.61360  141.37720
 2838.50000  111.23620   84.30880  142.76180
 2839.00000  106.07820   83.79750  141.75110
 2839.50000   98.06220   82.21930  139.77860
 2840.00000   91.62670   80.28740  138.16690
 2840.50000   87.80930   79.30250  134.56670
 2841.00000   86.21730   78.78500  135.63420
 2841.50000   85.46210   78.53620  136.58330
 2842.00000   85.33420   78.06070  137.41530
 2842.50000   84.85730   77.44380  138.27860
 2843.00000   83.60990   77.95450  137.69860
 2843.50000   82.35400   78.70410  136.96140
 2844.00000   81.97290   79.71660  138.02270
 2844.50000   83.74830   80.01740  139.39440
 2845.00000   87.59850   80.87160  141.50050
 2845.50000   92.87450   82.13120  143.66120
 2846.00000  100.24120   82.93000  145.77880
 2846.50000  103.74880   82.79820  144.56130
 2847.00000  101.43920   82.43450  141.26100
 2847.50000   99.00160   81.71160  139.17720
 2848.00000   98.55950   81.16580  139.05050
 2848.50000  100.86760   81.44340  141.30340
 2849.00000  101.74210   82.30470  143.10130
 2849.50000  103.38760   83.21610  145.06460
 2850.00000  105.35700   83.15210  144.33240
 2850.50000  105.93680   82.25960  141.72130
 2851.00000  103.32370   81.53650  139.27210
 2851.50000  101.48220   80.52310  137.30950
 2852.00000  100.90910   81.13250  139.29740
 2852.50000  100.39900   82.14520  139.80140
 2853.00000   99.86860   82.74040  139.25920
 2853.50000   98.22740   82.60820  136.87110
 2854.00000   96.08350   81.10940  133.52520
 2854.50000   93.28760   78.98820  130.27190
 2855.00000   88.45480   76.53370  127.69390
 2855.50000   82.91040   74.68990  127.85620
 2856.00000   78.10810   74.58510  131.30990
 2856.50000   76.00740   74.79920  131.94490
 2857.00000   77.08570   75.87580  134.21960
 2857.50000   80.71960   75.81610  134.29630
 2858.00000   89.00590   75.59060  135.18180
 2858.50000   96.99220   77.78510  137.43860
 2859.00000  103.58240   80.81780  140.41020
 2859.50000  104.81460   82.73410  142.63080
 2860.00000  101.21220   82.51740  140.01190
 2860.50000   96.25270   82.40140  137.50360
 2861.00000   92.06390   82.53020  139.38690
 2861.50000   88.52230   82.53150  140.09520
 2862.00000   89.37450   82.31440  139.88800
 2862.50000   91.72490   81.93690  138.10260
 2863.00000   93.83550   80.82560  136.86530
 2863.50000   91.13690   79.82720  134.77560
 2864.00000   85.11550   78.64370  131.03580
 2864.50000   78.68740   77.51920  129.55150
 2865.00000   76.92590   77.61710  130.90320
 2865.50000   79.51620   79.98200  134.41950
 2866.00000   84.26390   80.28030  134.06540
 2866.50000   86.97660   79.97140  132.34710
 2867.00000   82.68870   78.67860  130.70040
 2867.50000   76.07310   77.23650  130.99870
 2868.00000   73.50490   77.15070  133.92610
 2868.50000   78.97930   78.94520  138.29170
 2869.00000   87.31160   80.89940  139.96440
 2869.50000   97.28330   82.73900  139.46600
 2870.00000   99.23200   83.20470  139.20250
 2870.50000   99.07910   83.31420  139.58020
 2871.00000   94.63340   83.93250  139.91450
 2871.50000   90.15930   84.16720  140.21120
 2872.00000   89.28480   83.97760  140.60230
 2872.50000   90.45600   83.32770  139.43480
 2873.00000   92.11170   82.51220  140.19620
 2873.50000   91.89730   81.81060  139.76850
 2874.00000   90.60090   81.40740  139.07700
 2874.50000   90.85310   82.06010  139.59500
 2875.00000   94.69670   83.03540  141.57910
 2875.50000  100.68620   83.73090  143.59970
 2876.00000  102.64840   84.26760  143.29210
 2876.50000  101.51770   85.07260  139.63840
 2877.00000   97.33340   85.79520  140.56520
 2877.50000   93.15250   85.73740  143.23720
 2878.00000   92.58800   85.02810  143.45650
 2878.50000   95.73890   83.18820  142.88200
 2879.00000   96.02560   82.07750  145.04000
 2879.50000   92.38770   81.49080  147.47340
 2880.00000   89.73100   80.51160  146.59890
 2880.50000   90.41810   79.42190  146.20120
 2881.00000   92.42150   77.50080  147.49720
 2881.50000   92.00170   76.40340  146.02900
 2882.00000   88.66110   78.07620  145.12640
 2882.50000   82.61520   80.07150  144.24260
 2883.00000   78.14930   81.45420  145.75510
 2883.50000   78.23040   82.29310  147.15750
 2884.00000   83.86620   83.26080  148.55990
 2884.50000   90.58980   84.15480  149.96230
 2885.00000   95.46800   85.16390  151.86220
 2885.50000   98.90240   85.33290  151.83630
 2886.00000  100.93160   84.93430  150.32610
 2886.50000  102.86720   84.75450  151.07410
 2887.00000  103.30040   84.76600  152.42220
 2887.50000  101.43540   84.87540  151.86900
 2888.00000  100.10920   85.06950  151.73360
 2888.50000  100.00270   85.44800  153.26450
 2889.00000   99.71310   86.78750  155.17830
 2889.50000   99.09000   87.23130  155.93900
 2890.00000   92.77500   86.86860  149.25930
 2890.50000   80.49340   80.34610  145.55000
 2891.00000   73.39260   77.86630  142.72800
 2891.50000   69.97010   76.58790  144.09500
 2892.00000   78.35740   76.41380  145.23380
 2892.50000   89.43460   78.28650  146.24350
 2893.00000   95.87850   81.04750  147.25330
 2893.50000   99.63370   84.79700  150.19800
 2894.00000  101.27760   87.74850  149.74780
 2894.50000  101.33140   87.99930  148.59600
 2895.00000  100.28040   87.52530  146.69230
 2895.50000   99.37220   85.90470  147.00250
 2896.00000  100.41910   84.36800  149.32950
 2896.50000  101.14980   84.38930  148.10950
 2897.00000   98.17320   84.38320  144.32370
 2897.50000   95.19760   83.66110  143.59170
 2898.00000   95.69600   83.48470  144.54620
 2898.50000   98.22120   83.58750  144.62990
 2899.00000  100.03640   83.60800  144.90460
 2899.50000  100.19970   83.35130  143.73880
 2900.00000   99.54420   82.66750  142.85480
 2900.50000   97.13280   81.17150  140.94840
 2901.00000   87.27000   77.92660  139.73500
 2901.50000   67.44010   77.89660  140.44290
 2902.00000   55.50180   79.99860  141.85180
 2902.50000   56.12040   82.10560  143.40880
 2903.00000   68.71660   84.29200  144.27450
 2903.50000   79.21200   85.98630  147.91000
 2904.00000   83.29800   86.42450  150.49340
 2904.50000   81.88820   85.59970  151.53630
 2905.00000   81.31380   83.81800  151.80660
 2905.50000   85.16590   83.10780  152.48360
 2906.00000   92.07550   83.60380  153.14420
 2906.50000  103.52120   84.65500  153.35290
 2907.00000  109.43570   85.99650  153.22070
 2907.50000  110.57180   86.63070  153.08840
 2908.00000  108.50210   86.52520  154.20800
 2908.50000  105.72820   86.18510  155.54820
 2909.00000  101.23950   85.84500  155.24700
 2909.50000   98.72460   84.68550  154.33000
 2910.00000   99.47180   83.60330  154.37110
 2910.50000  100.19200   85.25780  155.23450
 2911.00000   99.65710   86.71900  155.38900
 2911.50000   97.76100   86.40530  155.40090
 2912.00000   95.50110   85.99320  155.41280
 2912.50000   94.70430   86.92130  155.55090
 2913.00000   95.81980   88.37060  156.10630
 2913.50000   98.17190   89.86290  156.66170
 2914.00000  101.13030   90.40330  157.21700
 2914.50000  103.64120   88.33830  157.76130
 2915.00000  103.52960   84.86310  158.33190
 2915.50000  101.90690   84.98920  157.69510
 2916.00000  102.19040   87.21830  154.74620
 2916.50000  102.51460   87.02980  151.30340
 2917.00000   99.96850   86.55530  148.95110
 2917.50000   97.25840   85.65010  148.17960
 2918.00000   97.52130   84.19040  142.60190
 2918.50000   98.13800   81.72250  140.27810
 2919.00000   98.63860   81.09360  141.86890
 2919.50000   97.24110   81.19380  146.34820
 2920.00000   96.13530   82.68550  150.42220
 2920.50000   94.56970   82.98510  151.84660
 2921.00000   86.80070   81.15460  149.32440
 2921.50000   77.00180   78.24610  147.69840
 2922.00000   71.38150   76.40990  147.27520
 2922.50000   77.11080   77.68360  147.31460
 2923.00000   87.34430   80.53470  148.48030
 2923.50000   89.57450   82.17330  150.08760
 2924.00000   73.17610   80.34010  153.92120
 2924.50000   55.07640   76.43740  153.64920
