~Version ---------------------------------------------------
VERS.   2.0 : CWLS log ASCII Standard -VERSION 2.0
WRAP.    NO : One line per depth step
DLM . SPACE : Column Data Section Delimiter
~Well ------------------------------------------------------
STRT .F                 2480.0 : START DEPTH
STOP .F                10248.0 : STOP DEPTH
STEP .F                    0.5 : STEP
NULL .                -9999.25 : NULL VALUE
COMP .                         : COMPANY
WELL .                         : WELL
FLD  .                         : FIELD
LOC  .                         : LOCATION
PROV .                         : PROVINCE
CNTY .                         : COUNTY
STAT .                         : STATE
CTRY .                         : COUNTRY
SRVC .                         : SERVICE COMPANY
DATE .                         : DATE
UWI  .                         : UNIQUE WELL ID
API  .                         : API NUMBER
SLAT .WGS84 0.7754116781778997 : SURFACE LATITUDE
SLON .WGS84  5.853024298999998 : SURFACE LONGITUDE
DATUM.F                 2404.6 : DEPTH DATUM ELEV
~Curve Information -----------------------------------------
DEPT.F     : 
GRS .GAPI  : GAMMA RAY FROM SONIC LOG
DTCO.US/F  : COMPRESSIONAL-WAVE INTERVAL TRANSIT TIME ACOUSTIC SLOWNESS
DTSM.US/F  : SHEAR-WAVE INTERVAL TRANSIT TIME DELTA-T
~Params ----------------------------------------------------
~Other -----------------------------------------------------
~ASCII -----------------------------------------------------
# ...
 9600.00000   88.71660   72.87780  123.39680
 9600.50000   87.81200   72.92440  122.88410
 9601.00000   86.90190   73.02280  122.78780
 9601.50000   85.99180   72.82220  122.77330
 9602.00000   85.08170   72.65590  122.75870
 9602.50000   84.07350   72.66620  122.88320
 9603.00000   82.57940   72.70390  123.23090
 9603.50000   82.32530   72.79390  123.58460
 9604.00000   83.84500   73.00910  123.65180
 9604.50000   84.21140   73.22400  124.45500
 9605.00000   84.74090   73.51860  125.25110
 9605.50000   87.12450   73.81950  126.02180
 9606.00000   90.17460   73.85040  127.57800
 9606.50000   92.02800   73.70950  128.16840
 9607.00000   92.99180   73.56540  127.60590
 9607.50000   93.07040   73.73290  126.79450
 9608.00000   93.14900   73.94660  125.46430
 9608.50000   92.04920   73.92970  125.22690
 9609.00000   90.71930   73.82290  124.91590
 9609.50000   90.43730   73.58650  124.38310
 9610.00000   91.83280   73.46270  123.85040
 9610.50000   92.62900   73.33890  123.67370
 9611.00000   91.27950   73.22160  123.54620
 9611.50000   90.39880   73.11670  123.41860
 9612.00000   90.08930   73.00950  123.29100
 9612.50000   88.54990   72.88720  123.16340
 9613.00000   85.84700   72.55950  123.03590
 9613.50000   85.65720   72.49820  122.90830
 9614.00000   87.89660   72.49180  122.78070
 9614.50000   89.98860   72.82320  122.67650
 9615.00000   90.28550   72.87470  122.77000
 9615.50000   90.78170   72.96290  122.86360
 9616.00000   91.94860   73.40790  123.54290
 9616.50000   94.86240   74.01580  125.20540
 9617.00000   94.98650   74.87450  126.75180
 9617.50000   94.98650   75.43990  127.29240
 9618.00000   95.67810   75.37990  127.36730
 9618.50000   99.38470   75.28140  127.22400
 9619.00000  100.35890   75.25690  126.71070
 9619.50000   96.12590   75.22070  126.19740
 9620.00000   88.45890   75.10030  125.59760
 9620.50000   86.99280   74.58490  124.70220
 9621.00000   88.83570   74.04490  124.30620
 9621.50000   91.15480   73.40990  123.19410
 9622.00000   90.96870   73.15970  122.79950
 9622.50000   88.87560   73.18700  122.40600
 9623.00000   86.14310   73.34730  122.05150
 9623.50000   86.66150   73.40680  122.17190
 9624.00000   86.94540   73.41310  122.48330
 9624.50000   86.35730   73.90710  122.79460
 9625.00000   81.30370   73.92500  122.96280
 9625.50000   79.49320   73.88240  122.85030
 9626.00000   80.36120   74.18970  123.48370
 9626.50000   83.05440   74.66180  124.46550
 9627.00000   85.53220   75.09640  125.53520
 9627.50000   84.54460   75.49340  126.61900
 9628.00000   83.99120   76.03760  127.70290
 9628.50000   84.49660   76.62330  127.81500
 9629.00000   85.92910   76.67880  127.81500
 9629.50000   87.36160   76.02420  127.81500
 9630.00000   88.39420   76.04010  127.48450
 9630.50000   89.77160   76.15440  127.09000
 9631.00000   92.30700   76.26880  126.69540
 9631.50000   95.20960   76.38310  126.81100
 9632.00000   95.48630   76.59530  127.60070
 9632.50000   95.28360   76.87950  127.61160
 9633.00000   93.19430   77.32780  127.93110
 9633.50000   92.50230   78.22250  128.79500
 9634.00000   95.01100   79.18720  129.33410
 9634.50000   97.55430   79.46380  129.66920
 9635.00000   99.54200   78.11540  129.63600
 9635.50000   99.42950   77.11570  129.56560
 9636.00000  102.21930   77.11380  129.49510
 9636.50000  105.68870   78.92400  130.12910
 9637.00000  107.96840   79.48190  130.67670
 9637.50000  109.48020   79.49940  130.74620
 9638.00000  108.10810   78.95880  130.38400
 9638.50000  103.77680   78.45650  128.73090
 9639.00000   97.27140   78.27100  127.70010
 9639.50000   92.47490   78.73270  127.69610
 9640.00000   95.58930   79.35480  128.66460
 9640.50000  103.48330   79.51050  129.42050
 9641.00000  109.37170   79.51050  129.99900
 9641.50000  114.34640   79.40140  130.57740
 9642.00000  121.10280   79.36000  130.88000
 9642.50000  128.36880   79.64210  131.07640
 9643.00000  132.48820   79.85940  132.21190
 9643.50000  134.30280   79.76890  132.21260
 9644.00000  132.20450   78.82810  131.42460
 9644.50000  125.35970   78.12690  130.78050
 9645.00000  114.19590   76.54190  129.30920
 9645.50000  101.27320   75.19200  128.74320
 9646.00000   93.15070   74.81970  128.23480
 9646.50000   89.65550   74.35840  128.01470
 9647.00000   89.69760   74.26090  127.79460
 9647.50000   91.34930   74.17580  127.57440
 9648.00000   94.76600   74.09080  127.58350
 9648.50000   98.45130   74.04400  128.03050
 9649.00000  102.15440   74.21540  130.05250
 9649.50000  105.82040   74.78770  131.95830
 9650.00000  109.87400   74.97350  132.71490
 9650.50000  110.47980   75.14240  133.21850
 9651.00000  109.49090   75.46640  133.82730
 9651.50000  110.35500   75.95590  134.34430
 9652.00000  113.66970   76.50870  138.35130
 9652.50000  116.68570   77.39530  139.23120
 9653.00000  118.14310   78.32160  139.10740
 9653.50000  117.75070   78.54430  138.44540
 9654.00000  115.79100   78.32190  137.57620
 9654.50000  115.65230   77.99210  137.44040
 9655.00000  116.74040   77.58380  137.88810
 9655.50000  120.22190   77.01270  137.88810
 9656.00000  120.15100   76.99500  137.25980
 9656.50000  115.61890   77.24490  135.89660
 9657.00000  108.18050   76.70650  134.22370
 9657.50000  102.55400   75.89280  131.91100
 9658.00000   95.63140   74.97480  129.59830
 9658.50000   92.07760   74.11040  127.28560
 9659.00000   90.48820   72.61240  124.86690
 9659.50000   90.91180   71.58380  122.91210
 9660.00000   92.99120   71.37710  122.66290
 9660.50000   95.37110   71.43520  123.69500
 9661.00000  100.38220   71.80290  124.96460
 9661.50000  108.86910   72.66630  127.08350
 9662.00000  113.17380   73.89680  129.20250
 9662.50000  112.70670   75.23730  131.32140
 9663.00000  109.92010   75.86930  133.44040
 9663.50000  109.89430   76.56130  134.26150
 9664.00000  112.60310   77.16110  135.11670
 9664.50000  115.95280   77.74390  135.47820
 9665.00000  117.88780   78.01620  135.47820
 9665.50000  118.14300   78.07120  134.86860
 9666.00000  113.99050   77.70150  132.20110
 9666.50000  107.80550   75.64740  128.83770
 9667.00000  101.61550   74.38950  126.14070
 9667.50000   99.98410   73.63170  123.44370
 9668.00000  100.99140   72.69450  121.95150
 9668.50000  101.98330   71.73580  120.88660
 9669.00000  100.37730   70.84760  119.70950
 9669.50000   96.92530   70.67880  118.71470
 9670.00000   93.60210   70.87430  118.67100
 9670.50000   88.14440   71.12660  118.68570
 9671.00000   87.69770   71.31940  119.19530
 9671.50000   89.85840   71.66500  119.92360
 9672.00000   92.10530   71.95530  120.91350
 9672.50000   93.32050   71.94840  121.54400
 9673.00000   94.07570   72.03460  122.17460
 9673.50000   96.60530   72.24560  122.80520
 9674.00000  100.09220   72.63250  123.16700
 9674.50000  101.70670   73.19670  123.74980
 9675.00000  102.27760   73.68590  124.39880
 9675.50000  102.43110   73.53800  124.35750
 9676.00000  100.03050   73.07200  124.24070
 9676.50000   96.43500   72.73970  122.89600
 9677.00000   91.74530   72.59460  121.51830
 9677.50000   87.05570   71.99750  120.14070
 9678.00000   82.69860   71.10040  119.26080
 9678.50000   82.05590   70.07580  119.26080
 9679.00000   84.62240   70.52740  120.01130
 9679.50000   89.90750   71.24450  121.75620
 9680.00000   95.23210   72.44800  124.72520
 9680.50000   98.56310   74.05300  126.71910
 9681.00000   99.46900   74.55110  127.44770
 9681.50000   98.96180   74.53670  127.56710
 9682.00000   98.74160   74.35730  127.08670
 9682.50000   99.53580   74.13420  125.88110
 9683.00000   99.69260   73.81160  125.23810
 9683.50000   98.34980   73.64280  125.56040
 9684.00000   97.69170   73.94730  125.88270
 9684.50000   98.78340   74.34940  126.04100
 9685.00000  100.08000   74.48760  126.01740
 9685.50000   99.65920   74.36710  125.96180
 9686.00000   98.15180   74.11670  125.90630
 9686.50000   98.98960   74.24820  125.98860
 9687.00000   99.31790   74.31880  125.87800
 9687.50000   98.61340   73.58940  124.30310
 9688.00000   95.81980   72.45270  122.29080
 9688.50000   93.17710   71.93240  121.62920
