~Version ---------------------------------------------------
VERS.   2.0 : CWLS log ASCII Standard -VERSION 2.0
WRAP.    NO : One line per depth step
DLM . SPACE : Column Data Section Delimiter
~Well ------------------------------------------------------
STRT .F                 2480.0 : START DEPTH
STOP .F                10248.0 : STOP DEPTH
STEP .F                    0.5 : STEP
NULL .                -9999.25 : NULL VALUE
COMP .                         : COMPANY
WELL .                         : WELL
FLD  .                         : FIELD
LOC  .                         : LOCATION
PROV .                         : PROVINCE
CNTY .                         : COUNTY
STAT .                         : STATE
CTRY .                         : COUNTRY
SRVC .                         : SERVICE COMPANY
DATE .                         : DATE
UWI  .                         : UNIQUE WELL ID
API  .                         : API NUMBER
SLAT .WGS84 0.7754116781778997 : SURFACE LATITUDE
SLON .WGS84  5.853024298999998 : SURFACE LONGITUDE
DATUM.F                 2404.6 : DEPTH DATUM ELEV
~Curve Information -----------------------------------------
DEPT.F     : 
GRS .GAPI  : GAMMA RAY FROM SONIC LOG
DTCO.US/F  : COMPRESSIONAL-WAVE INTERVAL TRANSIT TIME ACOUSTIC SLOWNESS
DTSM.US/F  : SHEAR-WAVE INTERVAL TRANSIT TIME DELTA-T
~Params ----------------------------------------------------
~Other -----------------------------------------------------
~ASCII -----------------------------------------------------
# ...
 2658.00000  101.69590   87.40010  149.55660
 2658.50000   95.01200   85.76480  149.43820
 2659.00000   96.27020   85.58130  149.81290
 2659.50000  101.78170   86.44050  150.75320
 2660.00000  107.74390   87.19670  151.88100
 2660.50000  111.65020   87.23020  150.55640
 2661.00000  111.83670   86.69250  148.46480
 2661.50000  111.26080   86.67050  149.03010
 2662.00000  108.32930   86.63280  148.40050
 2662.50000  104.26900   85.78940  145.72250
 2663.00000   93.92490   82.02530  138.72820
 2663.50000   79.66400   77.99170  132.66820
 2664.00000   71.82860   75.53910  131.78440
 2664.50000   73.01450   76.40140  135.59760
 2665.00000   81.79860   78.38820  138.61410
 2665.50000   90.15490   79.22280  139.81680
 2666.00000   97.14720   78.86490  139.97460
 2666.50000  102.03630   78.21010  139.95460
 2667.00000  102.66530   77.66920  139.80350
 2667.50000  101.64470   77.71320  139.52280
 2668.00000  101.54640   78.50330  139.16120
 2668.50000  104.77310   79.44220  139.61490
 2669.00000  109.66750   80.81600  141.24820
 2669.50000  114.20110   82.80520  142.49230
 2670.00000  116.97340   84.37050  143.73640
 2670.50000  116.55050   84.44940  144.70940
 2671.00000  115.27050   84.29020  144.46580
 2671.50000  114.14280   83.61800  142.38440
 2672.00000  116.39670   82.49450  141.47920
 2672.50000  120.00270   81.03540  140.57410
 2673.00000  121.80930   80.37350  139.66890
 2673.50000  121.36950   80.75090  138.85660
 2674.00000  113.65980   80.43860  136.89510
 2674.50000   96.51240   78.63500  132.47550
 2675.00000   73.74370   74.50890  125.11990
 2675.50000   51.98270   70.18650  116.34290
 2676.00000   36.00430   65.44760  107.76440
 2676.50000   25.76050   59.91380   99.51770
 2677.00000   24.21220   57.75900   99.05630
 2677.50000   24.87780   58.97290   99.77740
 2678.00000   26.53590   61.61610  104.93710
 2678.50000   28.34260   64.64580  112.47670
 2679.00000   32.15950   68.69760  119.52520
 2679.50000   36.61360   71.94910  123.91950
 2680.00000   40.43010   73.98260  126.23690
 2680.50000   42.46750   73.71970  125.59230
 2681.00000   42.37190   71.26680  121.72430
 2681.50000   39.11000   68.88490  118.34460
 2682.00000   35.37800   66.06120  115.35760
 2682.50000   34.41320   64.60810  114.54520
 2683.00000   43.65240   65.38330  115.65340
 2683.50000   56.42170   67.65870  118.19980
 2684.00000   75.05560   71.79010  124.18970
 2684.50000   90.23660   74.78680  128.37870
 2685.00000   93.29560   75.55110  129.15650
 2685.50000   92.75700   75.84350  129.64220
 2686.00000   86.41540   75.78430  129.16660
 2686.50000   80.28060   74.93510  126.95240
 2687.00000   69.59970   73.05710  124.85430
 2687.50000   62.76930   71.83570  123.75700
 2688.00000   63.85450   72.53290  128.54750
 2688.50000   74.49630   79.14140  134.67630
 2689.00000   86.42770   80.81990  139.25530
 2689.50000   97.88530   80.99490  141.57430
 2690.00000  104.01380   81.11390  142.11530
 2690.50000  104.27820   81.32900  141.61190
 2691.00000  104.40080   82.40570  139.30150
 2691.50000  104.86180   82.40570  139.80540
 2692.00000  104.61780   82.55550  141.25820
 2692.50000  103.67630   82.79070  142.50270
 2693.00000  102.68910   82.67040  141.56110
 2693.50000  102.40420   82.26660  140.46030
 2694.00000  102.27160   81.57940  139.35950
 2694.50000  100.99080   80.89760  138.25870
 2695.00000  100.11710   80.20760  137.14310
 2695.50000  100.45990   80.06450  136.58070
 2696.00000  101.15560   80.30780  136.87490
 2696.50000  101.38610   80.26940  137.16910
 2697.00000  100.23670   79.13670  135.42020
 2697.50000   95.64750   77.71190  134.17000
 2698.00000   89.66080   76.53890  133.85190
 2698.50000   84.22600   76.47670  134.39100
 2699.00000   83.49050   76.77610  134.84200
 2699.50000   85.66220   77.85470  136.65770
 2700.00000   90.57360   79.33470  136.49700
 2700.50000   94.47770   79.92550  136.20370
 2701.00000   95.39650   80.21870  137.12270
 2701.50000   95.17970   80.22110  138.41190
 2702.00000   94.06400   80.02880  138.93620
 2702.50000   92.82580   79.32410  138.01980
 2703.00000   92.50070   78.40690  136.87120
 2703.50000   92.64140   79.77360  136.25130
 2704.00000   90.80410   80.20210  136.90680
 2704.50000   87.91760   79.91420  139.33890
 2705.00000   86.12880   79.97930  138.59820
 2705.50000   86.95960   80.63670  138.16130
 2706.00000   93.13380   81.42850  142.73620
 2706.50000   98.21960   82.65280  143.43820
 2707.00000  103.97980   83.58420  143.38530
 2707.50000  104.09840   83.92480  142.46800
 2708.00000  101.85060   83.96180  143.76060
 2708.50000  100.62360   83.82680  143.48190
 2709.00000  100.92850   84.03370  144.22690
 2709.50000  104.37590   84.37730  143.89700
 2710.00000  106.92750   84.74860  143.94690
 2710.50000  108.03730   85.03100  144.01050
 2711.00000  107.40530   84.90930  143.62450
 2711.50000  102.72770   83.36810  141.92980
 2712.00000   96.15650   81.80040  140.19060
 2712.50000   90.68140   80.18190  139.37460
 2713.00000   89.13380   79.94480  140.37970
 2713.50000   94.40790   80.98590  141.47270
 2714.00000  100.44040   82.30080  142.74390
 2714.50000  100.90850   82.98350  142.31230
 2715.00000   99.93280   82.77240  141.49360
 2715.50000   97.93160   82.37740  140.52010
 2716.00000   97.88040   81.61730  139.54670
 2716.50000   98.75400   80.73420  138.57320
 2717.00000   97.50130   80.60480  137.59980
 2717.50000   95.94550   81.92990  137.20470
 2718.00000   95.70350   83.08330  138.85820
 2718.50000   97.15040   83.68740  140.89380
 2719.00000   98.80670   83.70230  140.60600
 2719.50000  101.25540   81.51410  140.28180
 2720.00000  104.02500   82.34730  143.46320
 2720.50000  106.45640   84.01720  143.96230
 2721.00000  107.17810   85.67740  147.10260
 2721.50000  105.78510   84.58320  146.03460
 2722.00000  102.61810   82.45590  143.58440
 2722.50000   99.05090   82.07830  142.33230
 2723.00000   97.21160   83.34640  143.99070
 2723.50000   97.70290   83.72130  144.92710
 2724.00000  102.20460   84.19560  144.02020
 2724.50000  106.97290   87.21980  143.90580
 2725.00000  107.17810   88.95470  142.21720
 2725.50000  102.65590   85.35980  139.53170
 2726.00000   91.04570   78.50390  133.30520
 2726.50000   76.59050   75.09210  128.49890
 2727.00000   70.36310   72.86760  128.92310
 2727.50000   69.78910   72.03620  130.59110
 2728.00000   74.11160   72.99010  131.00890
 2728.50000   78.48110   74.19780  130.57300
 2729.00000   82.82740   74.72710  130.16210
 2729.50000   87.01440   74.48400  130.41820
 2730.00000   89.71660   76.39170  133.17230
 2730.50000   89.58790   79.18050  136.34360
 2731.00000   89.21470   81.56750  138.98250
 2731.50000   89.50980   81.91390  139.19990
 2732.00000   90.55480   82.17710  138.38920
 2732.50000   92.50290   82.44040  138.58240
 2733.00000   92.29270   82.54230  139.11050
 2733.50000   91.66330   82.14090  139.38670
 2734.00000   92.24800   81.97990  139.48610
 2734.50000   96.06530   82.04800  139.56430
 2735.00000   99.99170   82.17350  139.47570
 2735.50000  100.48130   82.20960  139.14450
 2736.00000   95.16940   81.65520  138.30360
 2736.50000   86.57230   80.75200  137.46270
 2737.00000   79.62620   79.72490  136.50620
 2737.50000   76.90780   78.32700  135.15020
 2738.00000   73.34440   73.59330  130.28510
 2738.50000   65.04690   68.61380  125.02980
 2739.00000   52.45170   66.17720  122.96710
 2739.50000   47.14830   66.55780  126.95850
 2740.00000   55.47580   70.82140  136.24860
 2740.50000   75.87270   76.16780  145.53870
 2741.00000   86.14570   82.10360  149.66800
 2741.50000   96.74700   83.81540  150.28310
 2742.00000   99.36620   84.84150  150.25600
 2742.50000  100.71130   85.41420  149.46550
 2743.00000   97.17310   85.16040  148.67520
 2743.50000   93.50960   84.27230  147.88480
 2744.00000   95.62800   83.85230  147.09440
 2744.50000  100.08400   84.46000  146.30400
 2745.00000  107.35530   85.54190  146.83060
 2745.50000  110.72270   86.36880  147.02640
 2746.00000  109.54550   86.32610  146.96890
 2746.50000  105.08910   85.75980  146.43530
