~Version ---------------------------------------------------
VERS.   2.0 : CWLS log ASCII Standard -VERSION 2.0
WRAP.    NO : One line per depth step
DLM . SPACE : Column Data Section Delimiter
~Well ------------------------------------------------------
STRT .F                 2480.0 : START DEPTH
STOP .F                10248.0 : STOP DEPTH
STEP .F                    0.5 : STEP
NULL .                -9999.25 : NULL VALUE
COMP .                         : COMPANY
WELL .                         : WELL
FLD  .                         : FIELD
LOC  .                         : LOCATION
PROV .                         : PROVINCE
CNTY .                         : COUNTY
STAT .                         : STATE
CTRY .                         : COUNTRY
SRVC .                         : SERVICE COMPANY
DATE .                         : DATE
UWI  .                         : UNIQUE WELL ID
API  .                         : API NUMBER
SLAT .WGS84 0.7754116781778997 : SURFACE LATITUDE
SLON .WGS84  5.853024298999998 : SURFACE LONGITUDE
DATUM.F                 2404.6 : DEPTH DATUM ELEV
~Curve Information -----------------------------------------
DEPT.F     : 
GRS .GAPI  : GAMMA RAY FROM SONIC LOG
DTCO.US/F  : COMPRESSIONAL-WAVE INTERVAL TRANSIT TIME ACOUSTIC SLOWNESS
DTSM.US/F  : SHEAR-WAVE INTERVAL TRANSIT TIME DELTA-T
~Params ----------------------------------------------------
~Other -----------------------------------------------------
~ASCII -----------------------------------------------------
# ...
 3192.00000   91.43880   81.33240  147.87540
 3192.50000   92.90770   82.97860  150.24440
 3193.00000   95.84720   83.92090  152.75340
 3193.50000   99.94640   84.85770  153.54600
 3194.00000  100.31630   86.04390  153.49520
 3194.50000  100.25870   87.21180  153.22820
 3195.00000  100.87440   87.33940  152.96110
 3195.50000  102.67630   87.42710  152.69410
 3196.00000  103.13080   87.51990  152.42700
 3196.50000  101.29130   87.47390  152.15990
 3197.00000   99.20240   86.95370  152.07290
 3197.50000   99.24700   86.44420  152.06030
 3198.00000  100.85540   86.57490  152.03500
 3198.50000  102.78310   86.99730  152.04430
 3199.00000  102.89630   87.29170  152.42600
 3199.50000  101.84400   87.03970  152.80780
 3200.00000  101.19500   86.95730  152.53560
 3200.50000  100.83770   87.22170  152.25240
 3201.00000  100.24420   87.41760  151.96920
 3201.50000   97.22160   87.36210  151.68600
 3202.00000   93.47920   86.87920  151.40280
 3202.50000   91.57630   86.37820  151.11970
 3203.00000   91.82480   86.41140  152.19710
 3203.50000   92.57190   87.27290  153.74340
 3204.00000   94.29200   88.56900  155.03680
 3204.50000   96.63460   89.86500  155.00400
 3205.00000   99.92480   90.44980  153.85150
 3205.50000  104.17550   89.79580  152.44070
 3206.00000  101.78400   88.46200  149.99250
 3206.50000   95.76590   86.99010  146.15010
 3207.00000   89.11960   85.07180  145.32390
 3207.50000   89.37650   84.09880  146.88120
 3208.00000   93.47680   84.44110  148.43680
 3208.50000   96.41110   84.95540  148.91940
 3209.00000   96.82570   85.57430  149.16060
 3209.50000   93.41980   86.19120  149.83930
 3210.00000   90.20430   86.72950  151.24180
 3210.50000   91.52340   87.26770  152.40860
 3211.00000   96.27200   87.87150  152.92930
 3211.50000  101.92450   88.31210  152.84180
 3212.00000  103.81770   88.33940  152.60090
 3212.50000  101.50770   88.05140  151.32410
 3213.00000   95.91400   87.69520  149.99520
 3213.50000   92.42710   87.36500  149.18500
 3214.00000   92.41230   87.43690  150.41230
 3214.50000   95.84520   87.47570  150.91140
 3215.00000   99.31990   86.84920  148.09760
 3215.50000  100.50580   85.29350  144.84700
 3216.00000   98.12640   84.45120  144.19810
 3216.50000   95.41090   84.10070  144.30370
 3217.00000   92.62650   83.36890  144.22940
 3217.50000   90.88050   82.36700  143.95430
 3218.00000   90.20430   82.53400  143.67940
 3218.50000   90.43740   83.54930  144.28680
 3219.00000   91.06860   84.05220  144.22160
 3219.50000   93.01780   83.50600  142.85430
 3220.00000   94.14860   82.48540  141.60840
 3220.50000   92.54090   81.50520  140.58470
 3221.00000   88.43450   80.74530  139.56100
 3221.50000   86.70120   80.24270  138.53720
 3222.00000   85.64510   80.31120  140.89600
 3222.50000   84.64020   82.89510  144.34170
 3223.00000   84.36360   84.83260  147.78730
 3223.50000   87.19230   86.35650  149.38100
 3224.00000   90.39570   86.76040  147.23950
 3224.50000   90.86240   85.26430  143.58390
 3225.00000   88.51540   82.68220  140.06070
 3225.50000   84.95680   80.30100  139.41520
 3226.00000   82.83280   79.79990  139.62720
 3226.50000   82.81790   81.31000  141.89920
 3227.00000   84.03530   83.61850  146.14820
 3227.50000   87.56860   85.39060  149.29210
 3228.00000   93.58170   86.37620  149.39960
 3228.50000  100.50410   86.64210  147.71250
 3229.00000  101.38590   85.40410  146.53990
 3229.50000   96.31540   84.29300  145.60290
 3230.00000   89.68570   83.19740  144.66590
 3230.50000   82.36550   82.27940  143.94570
 3231.00000   80.98120   82.33730  144.53640
 3231.50000   85.54630   83.64740  146.20290
 3232.00000   90.20730   84.86470  147.50820
 3232.50000   95.74720   86.04080  148.52270
 3233.00000   97.57840   86.98000  148.46560
 3233.50000   96.63490   86.86880  147.44200
 3234.00000   91.46330   85.43020  146.53930
 3234.50000   86.31460   83.47450  146.71680
 3235.00000   85.93550   83.41450  146.89430
 3235.50000   91.09370   84.00960  146.93940
 3236.00000   97.05870   84.99240  146.75030
 3236.50000  102.84750   85.92270  146.94970
 3237.00000  103.84950   85.98490  148.68620
 3237.50000  103.10130   85.62930  148.73910
 3238.00000   99.60940   85.02270  146.31950
 3238.50000   95.85770   84.37370  143.86850
 3239.00000   94.66940   83.82550  143.80550
 3239.50000   96.22440   84.35380  143.79500
 3240.00000   99.24320   84.55700  143.78450
 3240.50000  100.13580   83.87160  142.34740
 3241.00000   97.96020   82.16770  138.84190
 3241.50000   88.33150   81.36200  137.19760
 3242.00000   81.24560   80.73120  136.88910
 3242.50000   77.07980   79.95150  137.35100
 3243.00000   78.23050   79.78010  138.17390
 3243.50000   82.35310   79.81690  138.86060
 3244.00000   84.70030   79.94650  139.37750
 3244.50000   85.29580   80.27370  139.90900
 3245.00000   84.51230   80.54060  140.50790
 3245.50000   81.74460   81.17380  141.10690
 3246.00000   80.52700   81.77950  141.30860
 3246.50000   81.99650   82.40110  141.19960
 3247.00000   84.88500   82.50420  140.65030
 3247.50000   85.90410   81.93140  139.87930
 3248.00000   84.07940   81.03960  137.96640
 3248.50000   81.35760   80.03310  136.42250
 3249.00000   78.47560   79.17400  136.13030
 3249.50000   76.26120   78.53530  137.00230
 3250.00000   75.14980   79.13450  138.80550
 3250.50000   78.38260   80.28360  141.37400
 3251.00000   82.41460   81.12480  142.93410
 3251.50000   88.52260   82.71930  144.20600
 3252.00000   96.19540   84.15200  145.62840
 3252.50000   97.13940   85.15860  147.19580
 3253.00000   93.09180   84.98610  147.09480
 3253.50000   88.34860   84.43940  146.32580
 3254.00000   88.37800   84.22100  147.10410
 3254.50000   90.84700   84.60090  148.57060
 3255.00000   94.43330   85.28000  148.82350
 3255.50000   97.20900   86.71490  149.40050
 3256.00000   99.97550   87.60280  150.13400
 3256.50000  102.10970   87.69990  150.61740
 3257.00000  101.71970   87.33780  150.64380
 3257.50000  100.32490   86.96960  150.43510
 3258.00000  100.67170   86.60150  149.93060
 3258.50000  103.73580   86.30340  149.58870
 3259.00000  107.93960   86.66790  149.76270
 3259.50000  110.57800   87.29780  149.99490
 3260.00000  111.60710   87.43760  150.20560
 3260.50000  110.89370   86.90760  149.44850
 3261.00000  107.16000   85.55660  148.14980
 3261.50000  100.87580   84.17170  146.87520
 3262.00000   95.68720   83.98990  145.74260
 3262.50000   95.76030   84.16340  145.99470
 3263.00000   98.27910   84.69700  146.97970
 3263.50000   97.54540   84.48890  147.16070
 3264.00000   93.69450   84.06520  146.74460
 3264.50000   91.45030   84.03440  146.38770
 3265.00000   92.29030   84.72260  148.32820
 3265.50000   95.03410   85.81340  150.09640
 3266.00000   98.35040   86.69170  151.34170
 3266.50000  100.25420   86.54450  150.73160
 3267.00000   99.53980   86.01220  149.55690
 3267.50000   96.11230   85.76970  148.38220
 3268.00000   93.62730   85.46170  147.01280
 3268.50000   93.72700   83.76370  145.71260
 3269.00000   96.01170   82.35650  144.48080
 3269.50000   99.25060   82.13760  145.23050
 3270.00000  101.24020   82.98240  146.31490
 3270.50000  102.59230   84.19030  147.39940
 3271.00000  103.82240   85.92210  148.48380
 3271.50000  104.63580   86.16740  148.92890
 3272.00000  105.03180   85.39400  148.46400
 3272.50000  105.12400   85.29550  147.99910
 3273.00000  104.91450   85.57050  147.35690
 3273.50000  104.57260   85.55730  146.48280
 3274.00000  103.80110   84.84460  145.66350
 3274.50000  101.41330   83.82310  144.25210
 3275.00000  100.08030   82.49710  141.51640
 3275.50000   98.59770   82.09790  139.87950
 3276.00000   96.38320   82.06640  138.34110
 3276.50000   93.44810   82.05660  136.80270
 3277.00000   89.79960   81.74970  135.26430
 3277.50000   84.13870   79.72080  133.72580
 3278.00000   69.15970   77.17830  130.36060
 3278.50000   53.99130   74.03780  122.46040
 3279.00000   46.76060   68.58920  115.94130
 3279.50000   45.23470   66.10350  117.87590
 3280.00000   54.88070   67.10690  122.67910
 3280.50000   64.31110   70.49150  127.55270
