~Version ---------------------------------------------------
VERS.   2.0 : CWLS log ASCII Standard -VERSION 2.0
WRAP.    NO : One line per depth step
DLM . SPACE : Column Data Section Delimiter
~Well ------------------------------------------------------
STRT .F                 2480.0 : START DEPTH
STOP .F                10248.0 : STOP DEPTH
STEP .F                    0.5 : STEP
NULL .                -9999.25 : NULL VALUE
COMP .                         : COMPANY
WELL .                         : WELL
FLD  .                         : FIELD
LOC  .                         : LOCATION
PROV .                         : PROVINCE
CNTY .                         : COUNTY
STAT .                         : STATE
CTRY .                         : COUNTRY
SRVC .                         : SERVICE COMPANY
DATE .                         : DATE
UWI  .                         : UNIQUE WELL ID
API  .                         : API NUMBER
SLAT .WGS84 0.7754116781778997 : SURFACE LATITUDE
SLON .WGS84  5.853024298999998 : SURFACE LONGITUDE
DATUM.F                 2404.6 : DEPTH DATUM ELEV
~Curve Information -----------------------------------------
DEPT.F     : 
GRS .GAPI  : GAMMA RAY FROM SONIC LOG
DTCO.US/F  : COMPRESSIONAL-WAVE INTERVAL TRANSIT TIME ACOUSTIC SLOWNESS
DTSM.US/F  : SHEAR-WAVE INTERVAL TRANSIT TIME DELTA-T
~Params ----------------------------------------------------
~Other -----------------------------------------------------
~ASCII -----------------------------------------------------
# ...
 9956.00000  106.52250   70.74540  122.73350
 9956.50000  101.46410   68.76690  118.50810
 9957.00000   95.28870   67.36620  115.83550
 9957.50000   93.30650   69.88870  113.74090
 9958.00000   94.84130   74.93510  111.25190
 9958.50000   97.26700   75.77840  105.93880
 9959.00000   98.99100   70.17230   98.53240
 9959.50000   98.80210   61.88300   85.03890
 9960.00000   97.06210   56.71650   83.44600
 9960.50000   78.84650   52.75820   86.13350
 9961.00000   64.58360   52.22240   90.22370
 9961.50000   56.57140   52.31420   92.29210
 9962.00000   74.91260   50.55010   91.82770
 9962.50000  131.19080   48.61880   90.86650
 9963.00000  169.90410   48.40580   93.22400
 9963.50000  190.71260   50.15060   97.28190
 9964.00000  177.96380   51.34960   99.42550
 9964.50000  142.62740   52.37710  101.65620
 9965.00000  111.00220   55.90790  106.59390
 9965.50000   97.63030   61.43370  113.01970
 9966.00000   91.61450   67.64390  125.34300
 9966.50000   87.60030   74.53590  136.75790
 9967.00000   83.66410   78.16410  145.59840
 9967.50000   75.99650   78.65950  146.73430
 9968.00000   66.24260   76.91730  145.34820
 9968.50000   60.19440   73.37980  143.82120
 9969.00000   58.68250   66.68300  133.55480
 9969.50000   62.91290   60.10480  113.88500
 9970.00000   68.25200   54.77130  103.07670
 9970.50000   70.86430   51.69240   97.13850
 9971.00000   64.62640   51.14320   96.33760
 9971.50000   53.62510   52.41680   96.83230
 9972.00000   43.87780   54.10520   99.41490
 9972.50000   35.75880   54.36820  102.51580
 9973.00000   30.15410   53.06120  104.19800
 9973.50000   27.29620   51.78670  103.72050
 9974.00000   26.97350   50.36170  100.98970
 9974.50000   28.08230   48.34210   92.02440
 9975.00000   34.22320   46.03820   82.82210
 9975.50000   44.66300   44.19370   78.26350
 9976.00000   59.77010   43.70320   77.79740
 9976.50000   77.36550   45.85060   80.80700
 9977.00000   90.06690   50.67070   84.94140
 9977.50000  100.06480   54.42610   92.17400
 9978.00000  103.44110   61.26210  101.58800
 9978.50000  103.56520   68.20640  110.24960
 9979.00000  103.54520   75.06950  115.84760
 9979.50000  106.93050   77.82380  118.19230
 9980.00000  112.10680   77.79790  118.51160
 9980.50000  115.19210   70.77530  116.76870
 9981.00000  113.71950   62.80710  111.87850
 9981.50000  108.22430   59.26610  103.79270
 9982.00000  102.13400   56.81860  102.12020
 9982.50000   97.88080   63.97500  102.50770
 9983.00000   97.12050   76.18180  104.93170
 9983.50000   97.99960   84.28060  111.25080
 9984.00000   98.20030   85.06520  116.30830
 9984.50000   95.12500   82.94080  117.05350
 9985.00000   90.66290   79.78670  115.66470
 9985.50000   86.19770   75.40740  113.79480
 9986.00000   85.68440   68.00460  109.94720
 9986.50000   87.26750   60.57090  106.35170
 9987.00000   88.31860   58.17330  104.45030
 9987.50000   85.19630   57.04540  103.10950
 9988.00000   78.94050   56.04340  101.49810
 9988.50000   71.83230   55.68360   99.39100
 9989.00000   65.02990   55.69250   97.25720
 9989.50000   60.27980   56.53330   96.27680
 9990.00000   63.27640   55.65660   92.92340
 9990.50000   77.01300   52.70070   91.11070
 9991.00000   92.89750   51.29700   91.65890
 9991.50000  107.10370   53.50610   99.56480
 9992.00000  115.74120   65.64170  112.50200
 9992.50000  116.03670   76.96350  124.14020
 9993.00000  111.77040   88.28530  129.47170
 9993.50000  109.96490   97.39440  132.51940
 9994.00000  108.18720   96.35270  132.83170
 9994.50000  104.08060   86.72270  131.79450
 9995.00000  100.28340   78.30520  123.17890
 9995.50000   98.23740   73.58190  113.94820
 9996.00000   96.19150   66.47930  107.07740
 9996.50000   94.84480   62.01830  100.73680
 9997.00000   95.97160   59.14780   95.57040
 9997.50000   98.77520   58.57390   93.52890
 9998.00000  101.31440   59.25530   91.47230
 9998.50000  103.06940   60.25880   89.41580
 9999.00000  105.01730   61.07460   87.74600
 9999.50000  105.68810   60.08580   88.59630
 10000.00000  104.64660   58.42260   88.60680
 10000.50000  104.61720   55.26120   87.88950
 10001.00000  104.89900   53.42770   85.64340
 10001.50000  105.84840   52.69550   84.91180
 10002.00000  107.00300   52.66100   87.14020
 10002.50000  109.32600   60.93400  108.65910
 10003.00000  113.20800   66.80880  115.69550
 10003.50000  116.73710   67.09910  117.73730
 10004.00000  117.46850   66.71450  117.26070
 10004.50000  117.44620   65.74950  118.84470
 10005.00000  117.33460   65.25830  122.73460
 10005.50000  117.30350   65.34300  126.62450
 10006.00000  116.56700   67.88800  130.56810
 10006.50000  115.59280   69.34490  134.20830
 10007.00000  116.41670   68.54510  134.67730
 10007.50000  119.81200   67.09910  135.82940
 10008.00000  123.90900   67.83080  139.40090
 10008.50000  123.89010   69.17020  141.88510
 10009.00000  115.70800   69.79690  140.16300
 10009.50000  104.06070   69.88390  132.75580
 10010.00000   77.70640   67.84550  122.96940
 10010.50000   49.68040   63.82740  112.74810
 10011.00000   29.76480   58.56480  101.79370
 10011.50000   19.28410   54.08120   95.92130
 10012.00000   13.15890   52.18030   94.56890
 10012.50000   10.12810   50.32260   94.19830
 10013.00000    9.21800   49.56520   93.82760
 10013.50000    8.85120   49.18810   93.45700
 10014.00000    8.60640   49.13310   93.58820
 10014.50000    8.42510   49.13310   93.75400
 10015.00000    9.48660   49.13310   93.91980
 10015.50000   12.26020   49.24040   94.00010
 10016.00000   16.26730   49.58550   94.58510
 10016.50000   20.50060   50.18830   95.24000
 10017.00000   24.26010   50.35830   95.82940
 10017.50000   26.62690   50.38430   95.55010
 10018.00000   26.97080   50.36570   95.49830
 10018.50000   20.92670   50.32210   94.95460
 10019.00000   15.88540   50.04810   94.41090
 10019.50000   13.56920   49.76430   94.01670
 10020.00000   14.18100   49.81270   94.01590
 10020.50000   17.76610   49.84170   94.02920
 10021.00000   21.03060   49.78780   94.54320
 10021.50000   23.19440   49.68390   95.07170
 10022.00000   24.71460   49.82190   95.42130
 10022.50000   24.42260   49.79710   95.57740
 10023.00000   23.52830   49.74210   95.59910
 10023.50000   23.34290   49.68720   95.62070
 10024.00000   23.89420   49.62830   95.84910
 10024.50000   24.88030   49.60520   96.14080
 10025.00000   24.88610   49.71410   96.42370
 10025.50000   23.46450   49.95300   96.27020
 10026.00000   21.34830   49.53400   95.85940
 10026.50000   17.14630   49.37950   95.44860
 10027.00000   12.55810   49.52280   95.03780
 10027.50000    9.56650   49.67840   94.63850
 10028.00000    7.31800   49.52290   94.26030
 10028.50000    7.04070   49.28220   94.04200
 10029.00000    7.21290   49.04420   94.07140
 10029.50000    7.85420   48.88150   94.22870
 10030.00000    8.51040   48.88050   94.71330
 10030.50000    9.67000   49.05110   95.19800
 10031.00000   11.20580   49.69820   95.98980
 10031.50000   12.29170   50.22520   97.13400
 10032.00000   12.29170   50.49890   97.65340
 10032.50000   12.13020   50.64880   98.15950
 10033.00000   11.12390   50.48800   97.46180
 10033.50000   10.48270   50.43850   97.24510
 10034.00000   12.79060   50.52100   97.23470
 10034.50000   15.84550   50.53080   97.26250
 10035.00000   16.48410   50.46550   97.24920
 10035.50000   14.66960   50.34610   97.12460
 10036.00000   10.22420   50.17770   96.99990
 10036.50000    8.05130   49.97330   96.87520
 10037.00000    6.60940   49.70430   96.75050
 10037.50000    6.02460   49.44520   96.62580
 10038.00000    6.67580   49.32940   96.56170
 10038.50000    8.54200   49.38680   96.16550
 10039.00000   10.73270   49.33760   95.63580
 10039.50000   11.34010   49.31720   95.43430
 10040.00000   10.52120   49.32410   95.62480
 10040.50000   10.13980   49.39550   95.91100
 10041.00000   13.92810   49.88380   96.47070
 10041.50000   19.17750   50.50490   97.03030
 10042.00000   19.74200   50.57380   97.26990
 10042.50000   17.96720   50.49160   97.24630
 10043.00000   13.99820   50.36540   96.92620
 10043.50000   10.01410   49.95010   96.25590
