~Version ---------------------------------------------------
VERS.   2.0 : CWLS log ASCII Standard -VERSION 2.0
WRAP.    NO : One line per depth step
DLM . SPACE : Column Data Section Delimiter
~Well ------------------------------------------------------
STRT .F                 2480.0 : START DEPTH
STOP .F                10248.0 : STOP DEPTH
STEP .F                    0.5 : STEP
NULL .                -9999.25 : NULL VALUE
COMP .                         : COMPANY
WELL .                         : WELL
FLD  .                         : FIELD
LOC  .                         : LOCATION
PROV .                         : PROVINCE
CNTY .                         : COUNTY
STAT .                         : STATE
CTRY .                         : COUNTRY
SRVC .                         : SERVICE COMPANY
DATE .                         : DATE
UWI  .                         : UNIQUE WELL ID
API  .                         : API NUMBER
SLAT .WGS84 0.7754116781778997 : SURFACE LATITUDE
SLON .WGS84  5.853024298999998 : SURFACE LONGITUDE
DATUM.F                 2404.6 : DEPTH DATUM ELEV
~Curve Information -----------------------------------------
DEPT.F     : 
GRS .GAPI  : GAMMA RAY FROM SONIC LOG
DTCO.US/F  : COMPRESSIONAL-WAVE INTERVAL TRANSIT TIME ACOUSTIC SLOWNESS
DTSM.US/F  : SHEAR-WAVE INTERVAL TRANSIT TIME DELTA-T
~Params ----------------------------------------------------
~Other -----------------------------------------------------
~ASCII -----------------------------------------------------
# ...
 6040.00000   88.18900   87.77680  153.87560
 6040.50000   89.81830   87.96390  154.62560
 6041.00000   91.46150   89.67410  155.73620
 6041.50000   92.74630   91.13010  156.83060
 6042.00000   95.54580   91.36000  157.31960
 6042.50000   99.01580   90.27770  155.78400
 6043.00000   99.30750   88.65410  153.02820
 6043.50000   97.22530   87.80580  152.20690
 6044.00000   93.79590   88.10810  152.42960
 6044.50000   94.05820   89.74770  153.64030
 6045.00000   97.13570   89.98060  154.50700
 6045.50000  103.13580   89.54530  154.87710
 6046.00000  106.64120   89.77580  154.97640
 6046.50000  111.97780   90.06010  152.87670
 6047.00000  115.85920   89.38200  149.31340
 6047.50000  115.60410   87.95110  148.28480
 6048.00000  104.08990   87.13760  147.90010
 6048.50000   95.35450   86.32600  147.85480
 6049.00000   89.75570   85.25770  146.95660
 6049.50000   87.01240   84.41080  147.98080
 6050.00000   87.73350   84.70030  146.64450
 6050.50000   89.82380   86.27290  141.31020
 6051.00000   92.58220   88.06240  135.46480
 6051.50000   94.01120   89.95530  129.61680
 6052.00000   94.23550   88.97580  131.65880
 6052.50000   92.11340   87.16130  138.53520
 6053.00000   87.92770   84.74660  143.56110
 6053.50000   81.69910   83.06630  144.47710
 6054.00000   72.75190   82.82110  144.45120
 6054.50000   67.65630   82.74220  142.28170
 6055.00000   65.92230   82.71210  140.03760
 6055.50000   70.78060   82.74050  143.18960
 6056.00000   80.21740   82.78080  148.33100
 6056.50000   90.26500   84.10380  152.32240
 6057.00000   96.71200   87.07330  154.52830
 6057.50000  102.13380   88.72530  156.57610
 6058.00000  103.71020   89.30100  156.61060
 6058.50000   99.98790   87.95310  155.63720
 6059.00000   95.20010   84.59430  153.81410
 6059.50000   91.98210   81.94230  153.33870
 6060.00000   96.08100   82.24210  153.24660
 6060.50000  103.21410   84.51340  153.56690
 6061.00000  109.60940   86.33520  154.41000
 6061.50000  111.75360   86.93610  155.28830
 6062.00000  106.04130   85.68180  154.84300
 6062.50000   98.76050   84.01250  152.66110
 6063.00000   93.28660   81.66700  149.01770
 6063.50000   82.30650   78.45800  142.30020
 6064.00000   68.06510   76.17040  138.58190
 6064.50000   58.37350   74.19540  135.03220
 6065.00000   59.28740   75.25940  132.17000
 6065.50000   68.08670   76.61540  131.06420
 6066.00000   77.32660   77.35700  132.54630
 6066.50000   81.18270   78.65880  139.64840
 6067.00000   84.62030   82.08950  144.53340
 6067.50000   87.59450   84.17290  150.21370
 6068.00000   88.42980   84.43160  154.03290
 6068.50000   84.60140   82.59440  153.56950
 6069.00000   74.08360   79.29900  146.88480
 6069.50000   66.65790   76.52830  144.12610
 6070.00000   68.21110   76.12840  143.97280
 6070.50000   70.68610   75.77610  142.22760
 6071.00000   71.25280   74.82960  139.86750
 6071.50000   65.67110   72.19270  137.92860
 6072.00000   58.45150   70.66400  136.26360
 6072.50000   57.26740   71.03150  137.58190
 6073.00000   63.32550   73.50650  141.73860
 6073.50000   71.33800   77.36030  145.98240
 6074.00000   80.15430   82.47050  149.53200
 6074.50000   86.17680   83.18600  148.91450
 6075.00000   84.87480   82.47900  148.29690
 6075.50000   83.65020   82.41230  147.53690
 6076.00000   86.53370   84.73520  144.07780
 6076.50000   91.59060   86.61140  140.44350
 6077.00000   97.12040   87.77280  136.15430
 6077.50000   98.58290   87.66980  134.87360
 6078.00000   94.91190   86.22850  135.90270
 6078.50000   88.85850   84.62860  138.81940
 6079.00000   85.02380   82.44070  144.64770
 6079.50000   90.12760   81.76070  152.72320
 6080.00000   97.77910   83.18050  158.53610
 6080.50000  103.13730   84.17210  158.96980
 6081.00000  100.84760   85.70520  157.44150
 6081.50000   95.84110   86.95480  155.55160
 6082.00000   94.79360   87.39140  153.96290
 6082.50000   94.55240   88.09850  154.49020
 6083.00000   97.13500   88.61630  155.18320
 6083.50000   97.37370   87.81110  152.12450
 6084.00000   91.78390   85.87890  147.49660
 6084.50000   82.42080   83.16320  144.75510
 6085.00000   73.40630   80.68540  146.38870
 6085.50000   76.62580   79.72570  148.94560
 6086.00000   85.52410   81.92250  151.11690
 6086.50000   93.71170   86.30540  153.21420
 6087.00000   96.73270   86.60780  154.61330
 6087.50000   97.96080   84.94810  153.24220
 6088.00000   98.83250   84.60610  151.20270
 6088.50000   99.09990   84.30310  148.88430
 6089.00000   97.01480   83.82610  149.27210
 6089.50000   94.03490   83.10410  150.45710
 6090.00000   95.40740   82.67900  151.10080
 6090.50000   95.79480   82.26650  151.20520
 6091.00000   95.81130   83.08180  150.37930
 6091.50000   96.08590   84.41270  149.30190
 6092.00000   97.99190   85.64640  149.47000
 6092.50000  102.24610   86.89530  150.75300
 6093.00000  103.90980   87.29430  152.57510
 6093.50000  103.16750   85.17460  152.55610
 6094.00000   99.80720   82.83100  148.99330
 6094.50000   95.46270   81.02830  146.03340
 6095.00000   90.08190   80.40430  143.92540
 6095.50000   84.03940   79.63300  142.22070
 6096.00000   77.75970   78.80050  140.22650
 6096.50000   70.23970   70.28290  138.30590
 6097.00000   67.94350   70.21000  136.89290
 6097.50000   72.53500   70.31570  135.94910
 6098.00000   81.00940   72.36150  136.03280
 6098.50000   88.77610   74.75010  136.58770
 6099.00000   91.16890   76.06610  137.73050
 6099.50000   91.99180   77.19030  139.09410
 6100.00000   92.85570   78.29940  139.38850
 6100.50000   93.61290   79.18870  139.69350
 6101.00000   93.94390   79.57590  139.44860
 6101.50000   93.93860   79.67090  138.30230
 6102.00000   92.04890   79.01150  137.09590
 6102.50000   87.32260   78.26710  135.92930
 6103.00000   77.16020   76.82990  136.14640
 6103.50000   66.12840   73.36880  129.67900
 6104.00000   52.60510   68.95520  113.65680
 6104.50000   37.53930   64.54150  103.93270
 6105.00000   32.09110   62.83610  102.26030
 6105.50000   30.85330   64.20820  103.58470
 6106.00000   29.41520   67.22540  105.58200
 6106.50000   27.97710   66.48930  105.30370
 6107.00000   25.49870   63.16760  100.37650
 6107.50000   23.82850   59.74010   96.85190
 6108.00000   23.24530   58.29630   94.89100
 6108.50000   23.10820   59.00950   94.15770
 6109.00000   22.42620   59.85800   94.18620
 6109.50000   22.38200   60.21080   94.89720
 6110.00000   22.33770   60.41680   96.82980
 6110.50000   22.29350   60.50570   99.21760
 6111.00000   23.76910   60.54700   99.55730
 6111.50000   26.31050   61.52960   96.51110
 6112.00000   29.07320   65.38170   95.24090
 6112.50000   31.96180   69.48390   97.87300
 6113.00000   34.20290   72.10020   99.89630
 6113.50000   35.29600   71.64170   99.54940
 6114.00000   35.50110   73.40840  106.73500
 6114.50000   37.74070   79.95080  114.84710
 6115.00000   46.68520   85.64910  127.20380
 6115.50000   59.95310   85.79190  132.91150
 6116.00000   67.17010   81.44310  135.06770
 6116.50000   66.66500   77.14810  136.59850
 6117.00000   60.92340   71.81410  137.81640
 6117.50000   56.04550   69.45560  142.06000
 6118.00000   64.75000   71.59480  146.56700
 6118.50000   75.51230   75.73240  151.01770
 6119.00000   85.80370   79.89180  153.08240
 6119.50000   93.17970   82.09610  153.87670
 6120.00000   98.54610   84.94090  154.25870
 6120.50000  103.63370   88.20670  154.56490
 6121.00000  106.40780   90.00730  154.61980
 6121.50000  109.29380   91.22070  153.16790
 6122.00000  111.97560   92.55330  151.54400
 6122.50000  115.18620   92.81790  149.64860
 6123.00000  116.36810   92.74800  147.75130
 6123.50000  113.97110   92.47480  146.94160
 6124.00000  111.86280   91.37200  146.70780
 6124.50000  109.46200   90.03740  146.63380
 6125.00000  103.74920   88.34890  145.43010
 6125.50000   94.50430   84.75300  142.50130
 6126.00000   78.01200   80.83350  141.08760
 6126.50000   64.72470   77.63190  140.95870
 6127.00000   56.68950   74.28420  144.01750
 6127.50000   54.64950   71.96070  146.36920
 6128.00000   58.05640   72.94720  145.66740
 6128.50000   63.86080   75.11460  145.41050
