~Version ---------------------------------------------------
VERS.   2.0 : CWLS log ASCII Standard -VERSION 2.0
WRAP.    NO : One line per depth step
DLM . SPACE : Column Data Section Delimiter
~Well ------------------------------------------------------
STRT .F                 2480.0 : START DEPTH
STOP .F                10248.0 : STOP DEPTH
STEP .F                    0.5 : STEP
NULL .                -9999.25 : NULL VALUE
COMP .                         : COMPANY
WELL .                         : WELL
FLD  .                         : FIELD
LOC  .                         : LOCATION
PROV .                         : PROVINCE
CNTY .                         : COUNTY
STAT .                         : STATE
CTRY .                         : COUNTRY
SRVC .                         : SERVICE COMPANY
DATE .                         : DATE
UWI  .                         : UNIQUE WELL ID
API  .                         : API NUMBER
SLAT .WGS84 0.7754116781778997 : SURFACE LATITUDE
SLON .WGS84  5.853024298999998 : SURFACE LONGITUDE
DATUM.F                 2404.6 : DEPTH DATUM ELEV
~Curve Information -----------------------------------------
DEPT.F     : 
GRS .GAPI  : GAMMA RAY FROM SONIC LOG
DTCO.US/F  : COMPRESSIONAL-WAVE INTERVAL TRANSIT TIME ACOUSTIC SLOWNESS
DTSM.US/F  : SHEAR-WAVE INTERVAL TRANSIT TIME DELTA-T
~Params ----------------------------------------------------
~Other -----------------------------------------------------
~ASCII -----------------------------------------------------
# ...
 3370.00000   88.22670   83.42490  147.28680
 3370.50000   91.84600   83.48340  147.62290
 3371.00000   97.43710   85.43540  146.54770
 3371.50000   99.46480   85.92660  145.37970
 3372.00000   96.98930   85.14400  145.08550
 3372.50000   93.38740   84.98400  145.75020
 3373.00000   91.79020   85.03140  146.47170
 3373.50000   91.77520   85.92810  147.41930
 3374.00000   93.62600   86.00280  146.46160
 3374.50000   96.27970   86.18260  145.60800
 3375.00000  101.63950   87.04250  146.59860
 3375.50000  105.81130   87.63860  146.83980
 3376.00000  105.91410   87.12380  142.95420
 3376.50000  101.94530   84.28570  139.21830
 3377.00000   95.39030   82.89320  137.30280
 3377.50000   91.97530   83.11360  139.83760
 3378.00000   91.02150   83.20300  140.03350
 3378.50000   90.24910   81.58490  136.24770
 3379.00000   85.81670   79.39270  133.56400
 3379.50000   80.05920   78.41660  133.22550
 3380.00000   78.02850   77.85040  133.66550
 3380.50000   80.24230   77.35550  134.56390
 3381.00000   84.33760   77.40010  135.54980
 3381.50000   84.01710   78.47940  136.98630
 3382.00000   81.63310   80.81110  138.44490
 3382.50000   78.79490   80.97910  137.42200
 3383.00000   77.35790   79.68930  134.05130
 3383.50000   77.46170   79.33080  134.52010
 3384.00000   79.90670   80.35440  138.10330
 3384.50000   83.98370   81.53500  139.05390
 3385.00000   88.08150   82.93220  139.99450
 3385.50000   91.40480   83.65890  140.82510
 3386.00000   89.11950   83.38210  139.54240
 3386.50000   84.88320   81.44250  136.68760
 3387.00000   78.68800   79.05260  133.45550
 3387.50000   74.63960   77.63160  133.45730
 3388.00000   71.32320   77.08520  135.61580
 3388.50000   71.43720   77.81730  138.28120
 3389.00000   74.54110   79.86830  142.15310
 3389.50000   80.48000   81.87400  146.23280
 3390.00000   87.94190   84.49050  150.30760
 3390.50000   94.15190   86.62230  151.54970
 3391.00000   98.77320   88.30760  151.92520
 3391.50000   99.87810   88.47100  151.78590
 3392.00000   97.67720   87.99930  150.25920
 3392.50000   93.54990   87.14530  148.72880
 3393.00000   89.73100   86.16750  146.44860
 3393.50000   86.85230   85.22170  142.64870
 3394.00000   88.14280   84.33210  141.83150
 3394.50000   90.15210   84.07220  142.39300
 3395.00000   91.85370   84.39000  145.49020
 3395.50000   92.18200   85.36800  147.17190
 3396.00000   92.51030   86.00460  147.61260
 3396.50000   92.83860   85.94740  147.27040
 3397.00000   92.92450   85.55380  146.84810
 3397.50000   93.03690   85.15260  146.37290
 3398.00000   93.35470   84.80190  145.84210
 3398.50000   93.94650   84.46180  145.30720
 3399.00000   94.72510   84.11750  144.88660
 3399.50000   94.32050   83.44690  144.10410
 3400.00000   92.08250   82.64370  142.60510
 3400.50000   87.56210   81.91900  141.10620
 3401.00000   82.88770   81.48030  140.10350
 3401.50000   80.88690   81.85350  139.18760
 3402.00000   80.89440   82.41040  138.27170
 3402.50000   81.67920   82.06510  137.35590
 3403.00000   72.75340   79.08950  132.49100
 3403.50000   64.46610   75.16730  127.52380
 3404.00000   61.39390   72.05170  126.74280
 3404.50000   64.06360   72.44790  126.72770
 3405.00000   71.13150   74.51040  127.66090
 3405.50000   75.98230   77.84530  135.88110
 3406.00000   82.08810   82.06010  142.34270
 3406.50000   87.69770   83.93300  144.02300
 3407.00000   92.30710   83.54060  142.10920
 3407.50000   92.17880   81.98600  138.03950
 3408.00000   89.09960   80.12500  134.77550
 3408.50000   87.10330   79.39710  135.21490
 3409.00000   86.70010   79.78290  135.60100
 3409.50000   85.40970   79.51350  135.30240
 3410.00000   78.81420   79.40800  134.96790
 3410.50000   -9999.25   79.42370  135.25660
 3411.00000   -9999.25   79.50870  136.19000
 3411.50000   -9999.25   79.70370  137.18410
 3412.00000   -9999.25   80.62410  140.73730
 3412.50000   -9999.25   81.66620  141.31620
 3413.00000   -9999.25   82.42990  139.25620
 3413.50000   -9999.25   81.91090  135.52380
 3414.00000   -9999.25   80.62850  134.28680
 3414.50000   -9999.25   78.84930  134.07260
 3415.00000   -9999.25   78.85710  135.38090
 3415.50000   -9999.25   79.81420  138.37960
 3416.00000   -9999.25   80.84880  140.61520
 3416.50000   -9999.25   81.94340  140.37140
 3417.00000   -9999.25   81.02080  136.40630
 3417.50000   -9999.25   79.50540  132.66490
 3418.00000   -9999.25   78.24850  133.35860
 3418.50000   -9999.25   77.19860  134.27490
 3419.00000   -9999.25   76.40000  134.31000
 3419.50000   -9999.25   76.05270  133.07680
 3420.00000   -9999.25   75.80980  128.49930
 3420.50000   -9999.25   75.75070  128.23530
 3421.00000   -9999.25   75.77040  129.13920
 3421.50000   -9999.25   75.94070  130.66230
 3422.00000   -9999.25   76.26970  132.25080
 3422.50000   -9999.25   77.48090  133.83930
 3423.00000   -9999.25   78.60210  135.33450
 3423.50000   -9999.25   79.36840  136.39720
 3424.00000   -9999.25   80.34420  136.92950
 3424.50000   -9999.25   80.75000  137.11040
 3425.00000   -9999.25   80.78600  137.80530
 3425.50000   -9999.25   80.69140  138.55360
 3426.00000   -9999.25   80.13980  139.34680
 3426.50000   -9999.25   79.96340  140.08980
 3427.00000   -9999.25   79.95360  139.68950
 3427.50000   -9999.25   79.86390  138.17540
 3428.00000   -9999.25   78.07580  133.53280
 3428.50000   -9999.25   73.73160  123.25940
 3429.00000   -9999.25   69.43980  113.48780
 3429.50000   -9999.25   66.14070  111.03600
 3430.00000   -9999.25   66.61770  114.77900
 3430.50000   -9999.25   68.05270  119.21420
 3431.00000   -9999.25   69.58250  123.20400
 3431.50000   -9999.25   70.81230  125.73110
 3432.00000   -9999.25   72.32880  127.64220
 3432.50000   -9999.25   -9999.25   -9999.25
 3433.00000   -9999.25   -9999.25   -9999.25
 3433.50000   -9999.25   -9999.25   -9999.25
 3434.00000   -9999.25   -9999.25   -9999.25
 3434.50000   -9999.25   -9999.25   -9999.25
 3435.00000   -9999.25   -9999.25   -9999.25
 3435.50000   -9999.25   -9999.25   -9999.25
 3436.00000   -9999.25   -9999.25   -9999.25
 3436.50000   -9999.25   -9999.25   -9999.25
 3437.00000   -9999.25   -9999.25   -9999.25
 3437.50000   -9999.25   -9999.25   -9999.25
 3438.00000   -9999.25   -9999.25   -9999.25
 3438.50000   -9999.25   -9999.25   -9999.25
 3439.00000   -9999.25   -9999.25   -9999.25
 3439.50000   -9999.25   -9999.25   -9999.25
 3440.00000   -9999.25   -9999.25   -9999.25
 3440.50000   -9999.25   -9999.25   -9999.25
 3441.00000   -9999.25   -9999.25   -9999.25
 3441.50000   -9999.25   -9999.25   -9999.25
 3442.00000   -9999.25   -9999.25   -9999.25
 3442.50000   -9999.25   -9999.25   -9999.25
 3443.00000   -9999.25   -9999.25   -9999.25
 3443.50000   -9999.25   -9999.25   -9999.25
 3444.00000   -9999.25   -9999.25   -9999.25
 3444.50000   -9999.25   -9999.25   -9999.25
 3445.00000   -9999.25   -9999.25   -9999.25
 3445.50000   -9999.25   -9999.25   -9999.25
 3446.00000   -9999.25   -9999.25   -9999.25
 3446.50000   -9999.25   -9999.25   -9999.25
 3447.00000   -9999.25   -9999.25   -9999.25
 3447.50000   -9999.25   -9999.25   -9999.25
 3448.00000   -9999.25   -9999.25   -9999.25
 3448.50000   -9999.25   -9999.25   -9999.25
 3449.00000   -9999.25   -9999.25   -9999.25
 3449.50000   -9999.25   -9999.25   -9999.25
 3450.00000   -9999.25   -9999.25   -9999.25
 3450.50000   -9999.25   -9999.25   -9999.25
 3451.00000   -9999.25   -9999.25   -9999.25
 3451.50000   -9999.25   -9999.25   -9999.25
 3452.00000   -9999.25   -9999.25   -9999.25
 3452.50000   -9999.25   -9999.25   -9999.25
 3453.00000   -9999.25   -9999.25   -9999.25
 3453.50000   -9999.25   -9999.25   -9999.25
 3454.00000   -9999.25   -9999.25   -9999.25
 3454.50000   -9999.25   -9999.25   -9999.25
 3455.00000   -9999.25   -9999.25   -9999.25
 3455.50000   -9999.25   -9999.25   -9999.25
 3456.00000   -9999.25   -9999.25   -9999.25
 3456.50000   -9999.25   -9999.25   -9999.25
 3457.00000   -9999.25   -9999.25   -9999.25
 3457.50000   -9999.25   -9999.25   -9999.25
 3458.00000   -9999.25   -9999.25   -9999.25
 3458.50000   -9999.25   -9999.25   -9999.25
