~Version ---------------------------------------------------
VERS.   2.0 : CWLS log ASCII Standard -VERSION 2.0
WRAP.    NO : One line per depth step
DLM . SPACE : Column Data Section Delimiter
~Well ------------------------------------------------------
STRT .F                 2480.0 : START DEPTH
STOP .F                10248.0 : STOP DEPTH
STEP .F                    0.5 : STEP
NULL .                -9999.25 : NULL VALUE
COMP .                         : COMPANY
WELL .                         : WELL
FLD  .                         : FIELD
LOC  .                         : LOCATION
PROV .                         : PROVINCE
CNTY .                         : COUNTY
STAT .                         : STATE
CTRY .                         : COUNTRY
SRVC .                         : SERVICE COMPANY
DATE .                         : DATE
UWI  .                         : UNIQUE WELL ID
API  .                         : API NUMBER
SLAT .WGS84 0.7754116781778997 : SURFACE LATITUDE
SLON .WGS84  5.853024298999998 : SURFACE LONGITUDE
DATUM.F                 2404.6 : DEPTH DATUM ELEV
~Curve Information -----------------------------------------
DEPT.F     : 
GRS .GAPI  : GAMMA RAY FROM SONIC LOG
DTCO.US/F  : COMPRESSIONAL-WAVE INTERVAL TRANSIT TIME ACOUSTIC SLOWNESS
DTSM.US/F  : SHEAR-WAVE INTERVAL TRANSIT TIME DELTA-T
~Params ----------------------------------------------------
~Other -----------------------------------------------------
~ASCII -----------------------------------------------------
# ...
 10131.00000    5.45500   49.79930   95.68900
 10131.50000    6.23800   49.75170   95.81500
 10132.00000    6.36690   49.77580   95.77960
 10132.50000    6.07390   49.98260   95.75850
 10133.00000    5.65580   50.18220   96.39550
 10133.50000    5.35630   50.29080   96.44520
 10134.00000    5.19060   50.31670   96.46030
 10134.50000    5.19060   50.36020   96.50820
 10135.00000    5.08690   50.39570   96.49180
 10135.50000    5.07910   50.43120   96.47530
 10136.00000    5.53080   50.40600   96.45880
 10136.50000    6.09050   50.32140   96.43650
 10137.00000    6.41710   50.29570   96.26300
 10137.50000    6.37280   50.27050   96.08960
 10138.00000    5.95320   50.28840   95.91610
 10138.50000    5.57150   50.30620   95.74260
 10139.00000    5.30500   50.32920   95.67930
 10139.50000    4.54690   50.32310   95.59080
 10140.00000    4.26990   50.24280   95.37260
 10140.50000    4.07550   50.16250   94.90250
 10141.00000    4.07550   50.08220   94.91780
 10141.50000    4.65170   50.00190   94.95160
 10142.00000    5.19650   50.01220   94.98240
 10142.50000    5.30210   50.04870   94.99490
 10143.00000    5.22100   50.07920   95.00740
 10143.50000    5.06180   50.13890   95.02000
 10144.00000    4.96760   50.22290   95.00950
 10144.50000    4.96760   50.20190   94.91000
 10145.00000    5.06130   50.09670   94.63020
 10145.50000    5.47370   49.97380   94.32350
 10146.00000    5.73570   49.95030   94.36220
 10146.50000    5.97260   49.96850   94.37350
 10147.00000    6.23550   50.11110   94.37820
 10147.50000    6.38070   49.99560   94.38280
 10148.00000    6.37580   49.70160   94.38820
 10148.50000    6.37090   49.42770   94.39420
 10149.00000    7.11060   49.23770   94.40000
 10149.50000    8.32210   49.02600   94.40000
 10150.00000    8.78860   48.89090   93.75060
 10150.50000    8.64660   48.82090   92.56820
 10151.00000    7.85570   49.12860   91.99760
 10151.50000    7.53210   49.98610   91.52910
 10152.00000    8.26080   49.91590   91.45580
 10152.50000    8.60260   48.85700   91.38240
 10153.00000    8.64720   48.59980   91.30910
 10153.50000    8.64720   48.38810   91.25630
 10154.00000    8.65260   48.31440   91.46650
 10154.50000    8.86560   48.35030   91.67670
 10155.00000   11.47200   48.55760   91.76350
 10155.50000   14.61400   48.91540   91.06480
 10156.00000   18.14690   49.51950   90.96890
 10156.50000   22.02200   50.12350   90.93300
 10157.00000   26.46750   50.45590   90.89710
 10157.50000   28.61040   50.50330   90.82450
 10158.00000   30.45270   50.55610   90.83740
 10158.50000   31.19600   50.48760   90.88870
 10159.00000   29.23410   50.39860   90.94000
 10159.50000   27.75680   49.63110   90.99130
 10160.00000   26.94810   49.36420   91.04260
 10160.50000   29.40230   50.28410   91.09390
 10161.00000   32.69580   50.88050   90.92610
 10161.50000   33.62380   51.43190   90.77150
 10162.00000   33.53820   51.47550   90.73960
 10162.50000   29.26770   51.44240   90.92470
 10163.00000   22.31770   50.86540   91.76230
 10163.50000   15.05220   49.38190   91.85900
 10164.00000    8.55040   48.80740   91.95570
 10164.50000    7.49250   48.80100   92.05230
 10165.00000    7.53880   48.84080   91.81460
 10165.50000    8.67770   48.85350   91.21850
 10166.00000    8.77120   48.76090   91.06680
 10166.50000    8.74820   48.52160   91.10130
 10167.00000    8.65320   48.22670   91.14930
 10167.50000    8.98400   47.94050   91.20830
 10168.00000   10.45340   47.97100   91.84680
 10168.50000   11.99220   48.25680   92.75420
 10169.00000   11.75000   48.54260   92.73510
 10169.50000    9.45540   48.82030   92.21770
 10170.00000    8.22990   49.16250   91.68740
 10170.50000    7.55170   49.36990   91.19200
 10171.00000    8.33720   49.13510   91.09840
 10171.50000    9.41020   48.56670   91.00490
 10172.00000   10.22540   49.26530   90.45370
 10172.50000   10.75900   49.94060   89.58180
 10173.00000   10.29950   50.43810   88.60250
 10173.50000   10.21260   50.65740   87.98270
 10174.00000   10.58730   50.69460   87.85310
 10174.50000   11.37180   50.48320   87.76950
 10175.00000   11.30110   50.32500   87.06950
 10175.50000    9.74260   50.73720   86.27780
 10176.00000    8.69280   50.92880   86.16480
 10176.50000    8.64720   50.75930   86.70780
 10177.00000    8.77470   50.36640   87.35190
 10177.50000    8.80430   50.28280   87.44550
 10178.00000    8.56190   50.38580   87.05380
 10178.50000    7.88110   50.37090   86.62800
 10179.00000    7.45260   50.24580   86.21710
 10179.50000    6.95130   50.06720   85.92510
 10180.00000    7.11920   49.94010   86.08130
 10180.50000    7.56300   50.34430   86.10370
 10181.00000    8.55000   51.12790   86.12610
 10181.50000    9.53690   51.49690   86.14840
 10182.00000   10.09670   51.38150   86.16910
 10182.50000    9.58270   51.26460   86.18590
 10183.00000    8.69090   50.96720   86.13580
 10183.50000    8.53560   50.73920   86.06290
 10184.00000    8.86300   50.69230   86.21690
 10184.50000    9.63200   50.69590   86.29750
 10185.00000    9.86230   50.83860   86.41790
 10185.50000    9.42320   50.84220   86.77200
 10186.00000    8.21790   50.77840   87.13080
 10186.50000    7.13950   50.65710   87.49160
 10187.00000    6.41710   50.61280   87.85240
 10187.50000    6.69610   50.52710   88.10900
 10188.00000    7.55830   50.44060   88.11840
 10188.50000    8.66670   50.38560   88.09960
 10189.00000    9.77520   50.51430   88.07950
 10189.50000   10.04880   51.06600   88.07350
 10190.00000    9.55400   51.46550   88.03890
 10190.50000    9.42770   51.71310   88.01470
 10191.00000   10.01670   51.89770   88.02480
 10191.50000   11.12100   52.17940   88.02950
 10192.00000   11.76920   51.61120   88.00820
 10192.50000   11.13830   51.19740   87.98680
 10193.00000   10.54550   50.86780   87.96550
 10193.50000   10.11660   50.45400   87.96030
 10194.00000    9.92970   49.90080   87.40270
 10194.50000    9.87370   49.65350   87.05600
 10195.00000   10.09620   50.36570   86.70920
 10195.50000   10.27680   50.79380   86.51760
 10196.00000   10.11120   50.43150   87.14500
 10196.50000    8.77730   49.79370   87.74680
 10197.00000    7.64360   49.18950   87.87620
 10197.50000    8.31530   49.06180   87.91340
 10198.00000   10.01840   49.29600   87.95060
 10198.50000   11.00270   49.88030   87.98790
 10199.00000   11.24870   49.75780   88.01250
 10199.50000   11.26350   48.99730   87.33190
 10200.00000   10.98870   49.51540   86.74600
 10200.50000   11.13870   50.53630   86.63710
 10201.00000   10.72660   50.47370   87.46340
 10201.50000   10.37310   49.51320   88.41990
 10202.00000   10.09670   50.07620   89.09670
 10202.50000   10.43950   51.22410   89.48220
 10203.00000   11.58780   51.63820   89.21150
 10203.50000   13.15170   51.38940   88.69190
 10204.00000   14.53110   51.37130   88.17230
 10204.50000   14.77870   51.13970   87.72960
 10205.00000   14.32080   50.70040   86.69940
 10205.50000   12.35880   50.31210   85.98090
 10206.00000   10.88990   49.78830   85.49270
 10206.50000    9.70280   49.56080   85.47400
 10207.00000    9.42770   50.11180   85.94850
 10207.50000    9.66240   50.65870   86.54660
 10208.00000   10.74550   50.36550   87.61480
 10208.50000   11.98240   49.94340   89.10840
 10209.00000   13.21930   50.18430   89.88380
 10209.50000   14.11080   51.27230   90.55670
 10210.00000   13.69550   51.31100   90.69340
 10210.50000   13.66420   50.89480   90.46940
 10211.00000   14.44260   50.48320   90.04750
 10211.50000   15.08220   50.34660   89.14760
 10212.00000   15.33730   50.24300   87.78800
 10212.50000   14.52920   50.17610   86.70430
 10213.00000   12.45450   50.64120   86.46410
 10213.50000   10.99040   51.77870   86.31430
 10214.00000   10.15910   51.57600   86.29070
 10214.50000   10.00470   51.27960   86.25440
 10215.00000    9.98050   51.66090   86.21800
 10215.50000    9.87370   51.90090   86.18170
 10216.00000    9.87370   51.38560   86.19880
 10216.50000    9.98080   50.99330   86.33430
 10217.00000   11.21740   51.06440   86.37510
 10217.50000   11.43470   51.47280   86.13740
