~Version ---------------------------------------------------
VERS.   2.0 : CWLS log ASCII Standard -VERSION 2.0
WRAP.    NO : One line per depth step
DLM . SPACE : Column Data Section Delimiter
~Well ------------------------------------------------------
STRT .F                  45.0 : START DEPTH
STOP .F               16421.0 : STOP DEPTH
STEP .F                   0.5 : STEP
NULL .               -9999.25 : NULL VALUE
COMP .                        : COMPANY
WELL .                        : WELL
FLD  .                        : FIELD
LOC  .                        : LOCATION
PROV .                        : PROVINCE
CNTY .                        : COUNTY
STAT .                        : STATE
CTRY .                        : COUNTRY
SRVC .                        : SERVICE COMPANY
DATE .                        : DATE
UWI  .                        : UNIQUE WELL ID
API  .                        : API NUMBER
SLAT .WGS84   2.3895984381668 : SURFACE LATITUDE
SLON .WGS84 8.490619107749993 : SURFACE LONGITUDE
DATUM.F                   nan : DEPTH DATUM ELEV
~Curve Information -----------------------------------------
DEPT   .F     : 1 MEASURED DEPTH
RXOZ   .OHMM  : INVADED FORMATION RESISTIVITY FILTERED AT 18 INCHES
RT_HRLT.OHMM  : HRLT TRUE FORMATION RESISTIVITY
RLA3   .OHMM  : APPARENT RESISTIVITY FROM COMPUTED FOCUSING MODE 3
DTCO   .US/F  : DELTA-T COMPRESSIONAL
DTSM   .US/F  : DELTA-T SHEAR
SGRDD  .GAPI  : SPECTROSCOPY GAMMA RAY FROM DENSITY LOG
TNPH_LS.DEC   : THERMAL NEUTRON POROSITY [LIMESTONE]
HDRA   .G/C3  : HRDD SPINE AND RIBS DENSITY CORRECTION
PEFZ   .B/E   : HRDD STANDARD RESOLUTION FORMATION PHOTOELECTRIC FACTOR
~Params ----------------------------------------------------
~Other -----------------------------------------------------
~ASCII -----------------------------------------------------
# ...
 14617.00000   11.89770   35.82580   27.72800   73.96520  133.81570   71.22320    0.11210   -0.00540    2.76410
 14617.50000   10.05000   23.52150   19.51160   74.50150  133.85780   76.83380    0.11210   -0.00360    2.77400
 14618.00000    9.67510   16.58760   12.79400   72.77100  134.17090   81.20090    0.11340    0.00110    2.80580
 14618.50000    8.53040   12.39950   12.28450   70.85550  135.33410   84.85750    0.13170    0.00200    2.83760
 14619.00000    7.24750   11.47640   12.28450   69.21080  138.26740   87.28540    0.14280   -0.00090    2.84810
 14619.50000    6.23370   10.66060   12.02060   65.77760  135.43560   90.46790    0.14780   -0.00110    2.86230
 14620.00000    5.78130   10.65500   11.32010   62.92120  130.85120   90.22480    0.15160   -0.00110    2.86750
 14620.50000    8.47330   10.91480   10.14150   63.25760  123.22630   88.59890    0.12890   -0.00120    2.94120
 14621.00000   16.35850  391.92230  202.85750   62.98400  120.44230   85.14250    0.07770   -0.00120    3.07130
 14621.50000   51.52570  289.78220  169.95630   61.16070  115.11900   85.08320    0.03830   -0.00120    3.14800
 14622.00000   63.54450  434.33140  197.08680   59.86740   94.97770   85.98630    0.01610   -0.00200    3.19080
 14622.50000   51.96400  421.47800  231.56400   66.48270   89.48070   84.89210    0.00270   -0.00290    3.26110
 14623.00000   50.55210  425.69670  229.04070   60.29070   86.88810   71.89500   -0.00020   -0.00370    3.56770
 14623.50000   48.83120  383.36120  195.79740   57.37790   87.03750   54.89060   -0.00240   -0.00360    3.86310
 14624.00000   38.37870  264.02680  136.46240   55.93440   86.95800   38.88330   -0.00340   -0.00050    4.04730
 14624.50000   21.19630  214.05910  124.65470   56.95200   84.89220   33.60450   -0.00270    0.00480    4.01770
 14625.00000   11.28060  223.79640  139.69680   56.03100   84.90570   34.11650   -0.00130    0.01000    3.92570
 14625.50000    7.33440  219.77180  148.62420   61.73810   84.93390   35.73560   -0.00050    0.01530    3.78250
 14626.00000    6.07240  190.43870  138.65580   64.97990   84.96200   35.59100    0.00030    0.01690    3.51330
 14626.50000    5.38470  170.87910  119.90760   65.11230   85.27150   35.25420    0.00130    0.01280    3.24420
 14627.00000    5.98040  171.52280  131.16110   66.57110   87.10480   35.54320    0.00460    0.00860    3.05940
 14627.50000    8.79320  156.04070  107.88130   63.66380   89.09280   36.31940    0.00760    0.00440    2.98560
 14628.00000   15.38550  163.66820  107.42110   60.72150   90.63310   36.10330    0.01040    0.00030    2.98950
 14628.50000   30.81470  183.27140  107.41970   60.12670   90.60570   35.61850    0.01280   -0.00120    3.05250
 14629.00000   36.83240  192.87570  107.41820   57.95680   90.54920   35.83250    0.01520   -0.00570    3.39680
 14629.50000   41.38740  195.21340  107.41670   56.14260   90.53800   35.94690    0.01760   -0.00830    3.65840
 14630.00000   37.27080  197.73090  107.41530   54.91500   90.47470   35.41610    0.01760   -0.01080    3.76770
 14630.50000   45.17350  204.63250  107.41380   54.26690   90.43260   35.06330    0.01780   -0.00690    3.50350
 14631.00000   60.33420  228.48050  104.98530   54.49560   90.50040   33.58190    0.01590   -0.00420    2.98820
 14631.50000   67.67190  213.32110   99.41290   55.52480   90.53480   31.07190    0.01290   -0.00240    2.62730
 14632.00000   62.85560  196.39470   98.72040   53.93200   90.44350   25.56950    0.00770   -0.00070    2.46110
 14632.50000   73.50220  250.49780  105.30750   53.87600   91.67280   23.25200    0.00690    0.00190    2.43020
 14633.00000   75.73790  214.34330  100.31070   53.77320   92.11790   24.05940    0.00690    0.00530    2.41160
 14633.50000   59.36530  216.67400   95.55090   53.80690   91.50730   27.13840    0.00870    0.00870    2.35070
 14634.00000   64.81110  219.02090   94.18570   53.94950   90.89670   29.35460    0.01010    0.01210    2.28590
 14634.50000   61.29220  217.69650   93.52920   54.12370   90.28620   28.12980    0.00970    0.01550    2.22350
 14635.00000   66.01440  215.43310   92.82850   53.27300   89.99390   27.23120    0.00520    0.01720    2.19050
 14635.50000   53.50280  214.41090   92.12280   52.82730   89.56700   27.73110    0.00570    0.01240    2.25550
 14636.00000   45.87830  213.39250   91.42260   52.45350   89.43510   29.97550    0.00710    0.00820    2.41130
 14636.50000   53.01130  213.25680   90.72760   52.56720   89.44970   31.69100    0.00870    0.00410    2.54930
 14637.00000   64.47300  211.87790   90.03790   53.82450   89.52530   32.48050    0.01140    0.00080    2.59900
 14637.50000   78.18140  204.07630   91.06480   55.46150   89.71770   33.21420    0.01550    0.00070    2.51070
 14638.00000   69.37260  212.00040   95.69980   56.92100   89.46190   33.23910    0.01650    0.00070    2.44130
 14638.50000   63.14700  219.68380  100.57060   57.09640   89.33680   34.55200    0.01660    0.00060    2.48120
 14639.00000   58.71860  214.05250  101.68850   57.31370   91.14560   35.55500    0.01680    0.00050    2.56460
 14639.50000   56.94190  210.85110  101.81370   58.18840   95.54900   37.30180    0.01780    0.00040    2.60040
 14640.00000   60.69030  215.06080  102.11100   59.05310  103.42570   37.12770    0.02020    0.00040    2.52570
 14640.50000   61.97780  203.87560  100.88580   58.34740  103.39840   36.45560    0.02560    0.00040    2.45970
 14641.00000   46.27400   93.70340   74.15330   57.55610  103.37120   34.88630    0.02840    0.00040    2.49770
 14641.50000   34.22200  140.45860   82.19710   57.51390  103.34400   33.37020    0.02950    0.00040    2.60040
 14642.00000   28.21740  146.64290   94.77200   57.58910  103.32390   30.76340    0.02790    0.00040    2.62550
 14642.50000   24.90600  139.38840   98.82160   57.48390  103.31210   29.75170    0.02640    0.00180    2.64190
 14643.00000   20.10250  135.40400   99.20670   57.22880  103.23850   29.48730    0.02510    0.00350    2.69330
 14643.50000   14.83350  129.34750  100.32240   57.08700  103.22620   30.68860    0.02380    0.00370    2.78850
 14644.00000   11.56290  123.71670  104.03810   57.62960  103.17600   32.06340    0.02290    0.00400    2.92390
 14644.50000    9.85470  152.38180   95.24690   57.72470  102.99840   33.01850    0.02230    0.00430    3.02410
 14645.00000   10.05960  118.20050   79.66610   58.11500  102.98010   33.92780    0.02170    0.00450    3.17390
 14645.50000   14.46980   90.52560   68.25390   58.15560  102.91380   33.00450    0.02310    0.00480    3.29390
 14646.00000   26.16610   84.62690   70.97200   58.11440  102.84750   33.27820    0.02720    0.00410    3.25910
 14646.50000   41.18050   75.72800   64.71990   59.82940  102.81600   37.20480    0.03740    0.00290    3.04150
 14647.00000   48.62510   67.15330   60.80970   58.59320  102.80450   40.85090    0.05300    0.00160    2.79960
 14647.50000   67.03070   61.92560   66.40750   57.88810  102.60120   42.87970    0.06300    0.00040    2.57970
 14648.00000   38.14600   59.69880   69.00180   58.01250  101.31350   45.39280    0.05860   -0.00070    2.51080
 14648.50000   32.91660   56.33760   61.39970   59.20620  100.12270   48.79500    0.05000   -0.00110    2.44950
 14649.00000   39.36860  176.40590  100.50300   58.06360  100.06590   51.96760    0.03300   -0.00020    2.45120
 14649.50000   61.64050  119.88480   89.51400   60.04570   99.76800   52.18750    0.02280    0.00160    2.53190
 14650.00000   39.00380   56.36960   45.45540   59.37970   99.23690   52.35140    0.02610    0.00950    2.77200
 14650.50000   29.01210   54.61040   44.30570   57.45010   95.97610   52.45400    0.03120    0.02030    3.05530
 14651.00000   25.29430   55.26780   44.57400   57.72220  106.42170   52.53450    0.03140    0.03190    3.27760
 14651.50000   24.96500   56.31530   44.87160   84.10780  114.40110   52.80640    0.02910    0.04400    3.37730
 14652.00000   22.35720   59.79390   46.89970   84.30520  115.41930   53.51740    0.02790    0.05610    3.41800
 14652.50000   17.12700   72.54550   55.89480   64.34800  115.85660   53.78570    0.02760    0.06320    3.42520
