~Version ---------------------------------------------------
VERS.   2.0 : CWLS log ASCII Standard -VERSION 2.0
WRAP.    NO : One line per depth step
DLM . SPACE : Column Data Section Delimiter
~Well ------------------------------------------------------
STRT .F                  45.0 : START DEPTH
STOP .F               16421.0 : STOP DEPTH
STEP .F                   0.5 : STEP
NULL .               -9999.25 : NULL VALUE
COMP .                        : COMPANY
WELL .                        : WELL
FLD  .                        : FIELD
LOC  .                        : LOCATION
PROV .                        : PROVINCE
CNTY .                        : COUNTY
STAT .                        : STATE
CTRY .                        : COUNTRY
SRVC .                        : SERVICE COMPANY
DATE .                        : DATE
UWI  .                        : UNIQUE WELL ID
API  .                        : API NUMBER
SLAT .WGS84   2.3895984381668 : SURFACE LATITUDE
SLON .WGS84 8.490619107749993 : SURFACE LONGITUDE
DATUM.F                   nan : DEPTH DATUM ELEV
~Curve Information -----------------------------------------
DEPT   .F     : 1 MEASURED DEPTH
RXOZ   .OHMM  : INVADED FORMATION RESISTIVITY FILTERED AT 18 INCHES
RT_HRLT.OHMM  : HRLT TRUE FORMATION RESISTIVITY
RLA3   .OHMM  : APPARENT RESISTIVITY FROM COMPUTED FOCUSING MODE 3
DTCO   .US/F  : DELTA-T COMPRESSIONAL
DTSM   .US/F  : DELTA-T SHEAR
SGRDD  .GAPI  : SPECTROSCOPY GAMMA RAY FROM DENSITY LOG
TNPH_LS.DEC   : THERMAL NEUTRON POROSITY [LIMESTONE]
HDRA   .G/C3  : HRDD SPINE AND RIBS DENSITY CORRECTION
PEFZ   .B/E   : HRDD STANDARD RESOLUTION FORMATION PHOTOELECTRIC FACTOR
~Params ----------------------------------------------------
~Other -----------------------------------------------------
~ASCII -----------------------------------------------------
# ...
 15193.00000    8.12320   11.13490   11.57970   76.29320  140.77540  109.90570    0.29070    0.00800    3.52790
 15193.50000    7.75590   10.96490   11.55890   76.15760  141.28790  110.97980    0.27250    0.00560    3.50000
 15194.00000    7.87690   11.08480   11.53810   76.09510  141.27350  109.64180    0.28030    0.00340    3.51220
 15194.50000    8.48870   11.23760   11.42490   76.13940  141.78440  108.32600    0.28100    0.01980    3.54890
 15195.00000    9.59000   11.44060   11.13060   76.36660  142.56420  110.73590    0.28870    0.04020    3.62910
 15195.50000   11.09580   11.70210   10.74650   77.35960  143.44680  113.39600    0.28590    0.05550    3.71260
 15196.00000   12.68900   11.96950   10.46820   78.73490  145.02130  115.74470    0.19800    0.06270    3.79620
 15196.50000   13.29160   12.06230   12.17760   79.98050  147.26870  117.41950    0.13530    0.06170    3.88130
 15197.00000   12.18790   11.70900   10.64720   80.23000  147.85900  117.44970    0.09960    0.04710    4.01600
 15197.50000   10.40120   10.89320    9.88940   80.24380  148.82150  115.62790    0.10050    0.02420    4.17940
 15198.00000    8.66110   10.29350    9.89100   79.54400  149.13060  113.53470    0.10580    0.00930    4.36310
 15198.50000    8.44480   10.28670   10.07230   79.28210  149.51340  113.19360    0.10930    0.00680    4.49700
 15199.00000    8.71050   10.49860   10.25690   78.78240  149.61160  115.67270    0.11110    0.00590    4.61820
 15199.50000    8.93280   10.57280   10.39700   78.21360  151.57260  117.22790    0.11120    0.00510    4.75950
 15200.00000    8.28500   10.81070   10.49910   77.95960  156.01260  118.20650    0.11020    0.00650    4.97940
 15200.50000    7.17390   10.95010   10.51910   77.51730  154.42180  118.07310    0.10890    0.03910    5.24060
 15201.00000    5.81980   10.95040   10.41700   75.67690  142.80730  116.77240    0.10820    0.08510    5.64550
 15201.50000    1.62010   11.30170    9.54420   73.36570  132.68130  115.14640    0.10820    0.13620    6.25630
 15202.00000    0.71820   29.88900   16.59730   73.19870  132.70540  108.92720    0.11020    0.16790    6.54980
 15202.50000    0.49910   39.77390   28.91410   73.14720  134.83900  104.37310    0.11340    0.19910    6.41480
 15203.00000    0.56260   34.51670   28.98080   71.96720  135.17050  100.53550    0.11380    0.23020    6.04050
 15203.50000    0.73610   33.29910   27.63230   70.36860  130.91510  101.19320    0.11410    0.24090    5.85640
 15204.00000    1.50870   30.41100   25.03730   68.30620  123.35360   97.73760    0.11400    0.22580    5.80900
 15204.50000    2.96250   27.81480   22.68600   66.50730  118.69470   94.87260    0.11430    0.19430    5.80720
 15205.00000    7.07130   25.92100   21.48270   66.17170  118.77380   89.07430    0.11730    0.15780    5.85050
 15205.50000    6.88930   25.47870   20.92760   66.14240  119.50070   86.92230    0.11900    0.11990    6.01460
 15206.00000    6.11240   25.10370   20.15110   64.56500  120.04400   80.40300    0.11890    0.09900    6.26440
 15206.50000    5.42830   22.01280   19.51610   63.54330  120.79190   77.98320    0.11880    0.08440    6.56330
 15207.00000    5.13330   36.87190   19.61750   64.97390  122.75570   73.70390    0.11750    0.07350    7.07450
 15207.50000    4.97010   24.64960   19.14200   67.31950  126.14880   74.18980    0.11730    0.06760    7.49450
 15208.00000    5.08450   28.85280   17.77860   69.72760  129.88310   73.51480    0.11960    0.05350    7.73450
 15208.50000    5.92760   18.78480   16.51830   72.04680  135.95570   76.91960    0.12120    0.02830    7.13950
 15209.00000    7.57660   17.83310   15.82510   73.42540  136.63550   90.62640    0.12080    0.01280    5.93950
 15209.50000    9.31510   17.49460   15.37890   72.83230  133.75070   98.41050    0.11780   -0.00180    4.18740
 15210.00000    9.36500   17.55940   15.39440   71.67720  133.46900  106.19450    0.12080   -0.00090    3.30120
 15210.50000    9.36610   17.84710   15.48920   70.56960  133.48930  106.64580    0.12520   -0.00010    2.74200
 15211.00000    9.36720   18.00340   15.58450   70.32560  134.07790  106.83300    0.12320    0.00080    2.68070
 15211.50000    9.36940   17.89950   15.67610   71.16330  136.03360  108.71150    0.12360    0.00180    2.68380
 15212.00000    9.54360   17.72820   15.76620   72.94330  138.75520  109.71680    0.12170    0.00290    2.68980
 15212.50000    9.71170   15.03480   15.85680   75.54090  141.72230  110.17980    0.12030    0.00400    2.68610
 15213.00000    9.78090   17.90010   16.65740   76.08670  142.47800  113.17260    0.11950    0.00430    2.67910
 15213.50000    9.85060   41.79460   17.66560   74.83510  142.23360  119.66550    0.12010    0.00430    2.65270
 15214.00000    9.87810   22.01410   18.36490   74.10190  142.01150  119.98690    0.12410    0.00390    2.63360
 15214.50000    9.85050   20.79080   18.22180   74.89570  140.77550  109.60460    0.12520    0.00300    2.63640
 15215.00000    9.80420   20.20530   17.79770   73.82980  137.42830   95.81580    0.12670    0.00210    2.63270
 15215.50000    9.67540   20.01700   17.38340   71.21940  131.12780   94.04170    0.12700    0.00120    2.63760
 15216.00000    9.53220   19.84970   16.97870   66.95250  121.95480   97.42370    0.12830    0.00050    2.64440
 15216.50000    9.39100   18.92910   16.58350   62.51550  112.82750  100.80570    0.12630    0.00110    2.65260
 15217.00000    9.30430   17.12670   16.04290   61.83070  111.11890  104.74690    0.12510    0.00170    2.67110
 15217.50000    9.14200   16.95130   15.50170   64.82530  115.42880  112.93910    0.12590    0.00270    2.68290
 15218.00000    9.11890   16.75210   15.17610   66.55130  116.12000  119.42810    0.12930    0.00370    2.69000
 15218.50000    9.13840   16.53680   15.07520   67.76610  116.65770  117.30980    0.14110    0.00530    2.70780
 15219.00000    9.17640   16.34350   14.82370   68.98630  117.77120  112.35430    0.16820    0.00880    2.71520
 15219.50000    9.22410   16.09080   14.60190   70.30310  126.16100  108.25080    0.20070    0.01610    2.73300
 15220.00000    9.31410   15.63570   14.41290   72.79000  136.06580  107.66220    0.21940    0.02510    2.74030
 15220.50000    9.36250   15.20790   14.08760   74.05980  138.92640  106.73580    0.21700    0.03120    2.71720
 15221.00000    9.45980   14.85630   13.82370   73.16310  137.68310  103.91910    0.21560    0.01910    2.71150
 15221.50000    9.63100   14.51270   13.81960   72.62690  137.33740  101.82380    0.22740    0.00480    2.72730
 15222.00000    9.77000   14.38490   13.81560   73.50170  137.29990  101.68220    0.23480    0.00550    2.75550
 15222.50000    9.77000   14.32730   13.74690   73.59770  136.57520  103.20020    0.24880    0.01080    2.78380
 15223.00000    9.77000   14.35690   13.50380   73.69130  136.18900  103.95580    0.24980    0.01330    2.81200
 15223.50000    9.74580   14.31380   14.13980   73.26920  136.88050  104.47430    0.26140    0.01110    2.81360
 15224.00000    9.58810   20.10020   13.66690   74.20080  137.44100  106.71050    0.25370    0.00650    2.84050
 15224.50000    9.42790   12.04640   12.08330   75.74360  141.81090  108.30920    0.26950    0.00190    2.87620
 15225.00000    9.25650   11.47640   12.08330   77.06590  146.09060  109.69650    0.29260   -0.00280    2.90390
 15225.50000    9.05290   12.69890   12.08330   77.57300  148.46350  111.82510    0.33360   -0.00630    2.93840
 15226.00000    8.82920   12.65350   12.08330   78.30360  150.58450  114.81940    0.29750   -0.00690    2.92840
 15226.50000    8.61110   12.60820   12.08330   80.24570  150.10000  116.01860    0.29070   -0.00440    2.99080
 15227.00000    8.44420   12.56320   12.08330   80.73200  151.64740  115.48390    0.28870   -0.00170    3.04660
 15227.50000    8.26220   12.54000   12.01800   79.44410  151.09340  114.31320    0.28660   -0.00290    3.12570
 15228.00000    8.17340   12.51700   11.68320   78.30070  150.38870  114.61600    0.28510   -0.00510    3.16650
 15228.50000    8.09440   10.95170   10.64410   76.37830  148.98210  115.08610    0.28220   -0.00740    3.17130
