~Version ---------------------------------------------------
VERS.   2.0 : CWLS log ASCII Standard -VERSION 2.0
WRAP.    NO : One line per depth step
DLM . SPACE : Column Data Section Delimiter
~Well ------------------------------------------------------
STRT .F                  45.0 : START DEPTH
STOP .F               16421.0 : STOP DEPTH
STEP .F                   0.5 : STEP
NULL .               -9999.25 : NULL VALUE
COMP .                        : COMPANY
WELL .                        : WELL
FLD  .                        : FIELD
LOC  .                        : LOCATION
PROV .                        : PROVINCE
CNTY .                        : COUNTY
STAT .                        : STATE
CTRY .                        : COUNTRY
SRVC .                        : SERVICE COMPANY
DATE .                        : DATE
UWI  .                        : UNIQUE WELL ID
API  .                        : API NUMBER
SLAT .WGS84   2.3895984381668 : SURFACE LATITUDE
SLON .WGS84 8.490619107749993 : SURFACE LONGITUDE
DATUM.F                   nan : DEPTH DATUM ELEV
~Curve Information -----------------------------------------
DEPT   .F     : 1 MEASURED DEPTH
RXOZ   .OHMM  : INVADED FORMATION RESISTIVITY FILTERED AT 18 INCHES
RT_HRLT.OHMM  : HRLT TRUE FORMATION RESISTIVITY
RLA3   .OHMM  : APPARENT RESISTIVITY FROM COMPUTED FOCUSING MODE 3
DTCO   .US/F  : DELTA-T COMPRESSIONAL
DTSM   .US/F  : DELTA-T SHEAR
SGRDD  .GAPI  : SPECTROSCOPY GAMMA RAY FROM DENSITY LOG
TNPH_LS.DEC   : THERMAL NEUTRON POROSITY [LIMESTONE]
HDRA   .G/C3  : HRDD SPINE AND RIBS DENSITY CORRECTION
PEFZ   .B/E   : HRDD STANDARD RESOLUTION FORMATION PHOTOELECTRIC FACTOR
~Params ----------------------------------------------------
~Other -----------------------------------------------------
~ASCII -----------------------------------------------------
# ...
 15913.00000    0.27480  609.69870  656.55630   67.59490  110.82650   83.65350    0.09870    0.28840    0.32490
 15913.50000    0.27550  676.38020  691.78830   66.68950  110.13500   85.09230    0.09820    0.30420    0.15450
 15914.00000    0.27630  678.97770  733.29340   66.25600  109.97480   83.18630    0.09930    0.31190    0.12930
 15914.50000    0.27170  862.97260  782.84290   65.73900  109.94440   79.77650    0.10030    0.31480    0.15580
 15915.00000    0.26670  897.56640  840.24480   64.81130  109.99730   75.13740    0.10060    0.31780    0.24030
 15915.50000    0.26600  645.08730  886.80730   64.32300  109.92740   82.88670    0.10060    0.31740    0.34180
 15916.00000    0.26620  928.54820  846.21310   64.37210  110.03150   95.79260    0.10290    0.31660    0.40720
 15916.50000    0.26680  792.84020  801.68650   65.86200  111.01090  104.54560    0.10660    0.31580    0.47260
 15917.00000    0.26650  959.74960  758.07200   68.74950  112.82840  113.50850    0.10950    0.31490    0.53040
 15917.50000    0.26680  931.67970  735.66110   69.50590  110.41070  119.43610    0.10990    0.31330    0.56440
 15918.00000    0.26840  928.24690  762.20990   67.45440  107.56400  122.68610    0.10630    0.30950    0.60890
 15918.50000    0.25310  967.67490  774.35030   65.17720  106.90670  123.89470    0.10580    0.30570    0.65640
 15919.00000    0.24030  976.63550  786.68410   63.44060  106.98400  124.99970    0.10370    0.30720    0.68840
 15919.50000    0.31890  987.01980  799.21430   62.72420  106.99210  122.13210    0.10020    0.31700    0.72180
 15920.00000    0.44810 1002.92760  811.94360   62.36940  106.99490  110.02900    0.09390    0.32340    0.79380
 15920.50000    0.56210 1018.81040  822.79480   62.67060  106.86470   97.35010    0.08700    0.31540    0.88130
 15921.00000    0.38040 1030.90950  826.91330   63.33740  108.39700   93.11050    0.07650    0.29630    0.86690
 15921.50000    0.31850 1031.64950  791.04030   64.44720  111.90120   97.18930    0.06720    0.29480    0.74870
 15922.00000    0.26930 1037.31430  775.90650   64.58360  112.45150   98.83790    0.06560    0.30250    0.64470
 15922.50000    0.26340 1047.30100  786.10940   64.89750  112.85360  100.48640    0.07450    0.30740    0.61660
 15923.00000    0.26610 1063.84390  838.85420   66.62040  115.62640  100.09820    0.09120    0.30670    0.64800
 15923.50000    0.26620 1079.75730  856.11820   69.03460  117.81340  101.64700    0.10730    0.30600    0.71520
 15924.00000    0.26690 1092.34570  871.48740   70.10400  119.40470  104.13990    0.12000    0.30530    0.81660
 15924.50000    0.26660 1104.33370  881.99920   71.17330  120.81490  111.19630    0.13060    0.30620    0.93600
 15925.00000    0.26650 1116.45280  881.99920   71.99580  124.07510  115.24430    0.13780    0.30760    1.06580
 15925.50000    0.26730 1128.70530  888.35920   73.08180  126.71500  118.45440    0.14300    0.30900    1.15870
 15926.00000    0.26710 1154.34080  903.00350   72.40340  126.35250  118.94880    0.14790    0.31000    1.23350
 15926.50000    0.26750 1185.10990  930.48720   72.33840  121.86230  117.20190    0.14450    0.31100    1.30940
 15927.00000    0.26770 1216.35170  966.29410   71.90530  119.99770  117.46110    0.14310    0.31190    1.39040
 15927.50000    0.26880 1242.90140 1003.47890   71.19680  119.51500  116.85610    0.14650    0.30890    1.47390
 15928.00000    0.27120 1270.03040 1036.52990   70.37190  118.92640  115.76920    0.13760    0.30530    1.61900
 15928.50000    0.27240 1297.75100 1018.98820   69.40120  117.33360  111.19390    0.11840    0.30090    1.75960
 15929.00000    0.27280 1327.77690 1008.07780   67.08020  111.94170   98.97710    0.09980    0.29660    1.94100
 15929.50000    0.27560 1358.55700 1009.59140   63.06270  106.29780   86.18310    0.08230    0.29540    2.12160
 15930.00000    0.27720 1390.05150 1059.73560   61.22460  104.69940   73.76120    0.07170    0.29600    2.27180
 15930.50000    0.27780 1422.27530 1124.12260   61.44540  104.94970   71.29170    0.06610    0.29650    2.41510
 15931.00000    0.27810 1466.41990 1131.79280   61.86760  105.26710   72.57700    0.04020    0.29540    2.56990
 15931.50000    0.27930 1515.84330 1176.56140   61.91910  105.55410   73.21520    0.02160    0.29220    2.74300
 15932.00000    0.28170 1567.42700 1232.42700   61.88490  105.28890   73.71950    0.00950    0.28910    2.91440
 15932.50000    0.28930 1625.75660 1294.66910   62.06440  105.41470   72.75060    0.01110    0.28770    3.07210
 15933.00000    0.29890 1681.09080 1222.46150   62.10020  105.41850   72.45670    0.01670    0.29140    3.23440
 15933.50000    0.32760 1754.93590 1357.61760   62.16620  105.10460   69.44360    0.01910    0.29500    3.39700
 15934.00000    0.37420 1824.04960 1357.61760   61.80110  104.48140   64.06830    0.01920    0.29870    3.55670
 15934.50000    0.42980 1895.03170 1458.09060   61.51370  104.31770   58.73550    0.01930    0.29950    3.71190
 15935.00000    0.47580 1955.52590 2369.15110   60.01100  104.06890   57.57730    0.01910    0.29100    3.84360
 15935.50000    0.51340 1971.79630 2331.18040   58.53180  104.02430   60.60850    0.01910    0.27700    3.97110
 15936.00000    0.58680 1971.79630 2906.65940   58.01720  103.99930   70.76500    0.01910    0.26140    4.10420
 15936.50000    0.63130  866.54070  336.11200   58.01040  104.83440   79.89270    0.01920    0.24640    4.24290
 15937.00000    0.58020  160.29530  139.94800   58.68850  105.77040   77.04250    0.01950    0.23450    4.38690
 15937.50000    0.47070  185.89520  178.42800   62.20410  105.96610   71.35890    0.02010    0.22260    4.50080
 15938.00000    0.40360  200.68630  183.21220   64.56500  103.67540   73.28360    0.02080    0.22430    4.53100
 15938.50000    0.41210  220.83460  197.05830   64.24930  106.46980   75.73770    0.02110    0.22850    4.54470
 15939.00000    0.44600  383.11800  326.28900   63.09630  107.51420   72.85050    0.02080    0.23260    4.54670
 15939.50000    0.51630  383.51800  312.66350   61.91400  107.60610   56.80990    0.01990    0.23500    4.55440
 15940.00000    0.58190  213.43030  154.84820   61.99330  107.64360   50.42300    0.01970    0.23410    4.60990
 15940.50000    0.65240  156.40650  136.72680   62.11020  107.71440   53.30340    0.02090    0.22880    4.68810
 15941.00000    0.75990  162.20030  137.60210   62.14380  107.78530   59.97760    0.02170    0.22360    4.76420
 15941.50000    0.90210  165.18380  139.22740   62.92080  108.31720   67.25020    0.02110    0.21870    4.87070
 15942.00000    1.02750  177.05140  139.63200   64.51900  110.90690   76.63590    0.01970    0.21460    4.97920
 15942.50000    0.95100  131.19740  106.00190   66.25260  113.33480   85.35780    0.01840    0.21150    5.08700
 15943.00000    0.69590   72.65190   63.48710   68.00660  114.50250   91.76730    0.01850    0.20840    5.20490
 15943.50000    0.53770   51.54600   49.54130   69.09320  115.85060   95.74600    0.01970    0.20530    5.29130
 15944.00000    0.49320   48.89860   46.64410   70.05770  116.37030   95.35050    0.01980    0.18710    5.34560
 15944.50000    0.57470   48.64750   46.29970   68.12110  110.80330   93.82080    0.01980    0.16910    5.38130
 15945.00000    0.70380   49.25180   46.30830   65.88960  105.83670   88.60460    0.01980    0.14760    5.39270
 15945.50000    0.76350   73.47710   47.06230   63.26140  104.71100   77.27360    0.01910    0.12050    5.38810
 15946.00000    1.10720  208.95260   93.36670   61.30580  104.79530   61.76080    0.01870    0.08650    5.24070
 15946.50000    2.21550 1040.61960  895.39750   59.53490  102.74430   49.47470    0.01850    0.05160    4.97380
 15947.00000   14.91170  933.06940 1122.62400   58.61190  100.38200   44.38150    0.01860    0.01560    4.54870
 15947.50000   40.52790  838.32570  865.11950   57.77060   97.62980   44.14720    0.01890   -0.01290    4.22820
 15948.00000   42.15130  674.11080  632.30100   58.27510   95.75960   43.38200    0.01950   -0.02940    4.05950
 15948.50000   43.09000  509.55630  492.02220   59.19740   96.07640   46.79530    0.02010   -0.03900    4.06140
