~Version ---------------------------------------------------
VERS.   2.0 : CWLS log ASCII Standard -VERSION 2.0
WRAP.    NO : One line per depth step
DLM . SPACE : Column Data Section Delimiter
~Well ------------------------------------------------------
STRT .F                  45.0 : START DEPTH
STOP .F               16421.0 : STOP DEPTH
STEP .F                   0.5 : STEP
NULL .               -9999.25 : NULL VALUE
COMP .                        : COMPANY
WELL .                        : WELL
FLD  .                        : FIELD
LOC  .                        : LOCATION
PROV .                        : PROVINCE
CNTY .                        : COUNTY
STAT .                        : STATE
CTRY .                        : COUNTRY
SRVC .                        : SERVICE COMPANY
DATE .                        : DATE
UWI  .                        : UNIQUE WELL ID
API  .                        : API NUMBER
SLAT .WGS84   2.3895984381668 : SURFACE LATITUDE
SLON .WGS84 8.490619107749993 : SURFACE LONGITUDE
DATUM.F                   nan : DEPTH DATUM ELEV
~Curve Information -----------------------------------------
DEPT   .F     : 1 MEASURED DEPTH
RXOZ   .OHMM  : INVADED FORMATION RESISTIVITY FILTERED AT 18 INCHES
RT_HRLT.OHMM  : HRLT TRUE FORMATION RESISTIVITY
RLA3   .OHMM  : APPARENT RESISTIVITY FROM COMPUTED FOCUSING MODE 3
DTCO   .US/F  : DELTA-T COMPRESSIONAL
DTSM   .US/F  : DELTA-T SHEAR
SGRDD  .GAPI  : SPECTROSCOPY GAMMA RAY FROM DENSITY LOG
TNPH_LS.DEC   : THERMAL NEUTRON POROSITY [LIMESTONE]
HDRA   .G/C3  : HRDD SPINE AND RIBS DENSITY CORRECTION
PEFZ   .B/E   : HRDD STANDARD RESOLUTION FORMATION PHOTOELECTRIC FACTOR
~Params ----------------------------------------------------
~Other -----------------------------------------------------
~ASCII -----------------------------------------------------
# ...
 16201.00000   80.92860  401.66170   58.64480   51.38190   96.69300   11.00200   -0.00230    0.05660    3.13650
 16201.50000   72.51680  392.16610   57.82600   51.67600   96.38980   10.18180   -0.00020    0.03670    2.85640
 16202.00000   65.89290  404.53290   57.67810   52.01750   96.51760    8.91440   -0.00020    0.01680    2.94670
 16202.50000   78.21710  420.13010   57.98140   51.06740   94.44060    8.32570   -0.00140    0.00880    3.14790
 16203.00000   78.68200  443.88570   61.03460   50.58550   90.76500    8.16660   -0.00290    0.00400    3.45580
 16203.50000   51.68470  450.51540   64.23220   50.78270   90.87700    9.12720   -0.00360   -0.00050    3.76580
 16204.00000   34.91650  413.58470   57.24610   50.47800   91.75410   11.63720   -0.00170   -0.00130    3.97710
 16204.50000   30.03730  355.47290   57.00550   50.48630   92.07280   15.20700   -0.00100    0.00040    4.22150
 16205.00000   34.36880  406.61740   65.10080   50.63390   91.90730   15.85480   -0.00120    0.00200    4.51970
 16205.50000   43.08420  466.32560   68.23760   51.05300   88.92810   14.98640   -0.00140    0.00140    5.01120
 16206.00000   45.12190  485.42320   71.19440   51.45520   90.50260   10.53560   -0.00150   -0.00100    5.41250
 16206.50000   28.25340  372.16700   68.53260   51.54050   93.35910   10.55560   -0.00150   -0.00340    5.68750
 16207.00000    9.94570  238.10540   60.79660   50.95050   92.59230   14.12190   -0.00140   -0.00580    5.79830
 16207.50000    2.99790  130.90460   53.24160   51.18880   88.53780   18.09900   -0.00140   -0.00360    5.88560
 16208.00000    1.89390  102.73490   51.35100   51.21070   88.43890   18.08200   -0.00150   -0.00060    5.97380
 16208.50000    1.81440  106.95630   55.31030   51.44190   88.34590   15.54180   -0.00170    0.00240    6.06380
 16209.00000    2.32700  122.51540   53.81120   51.74690   88.12860   14.15080   -0.00190    0.00810    6.04970
 16209.50000    1.81800  121.48090   53.23050   51.80930   87.99890   14.56740   -0.00110    0.01920    5.95980
 16210.00000    1.19830  112.31230   58.95010   51.45770   87.38560   15.23130   -0.00020    0.03720    5.99280
 16210.50000    0.83960  106.30650   57.71930   50.71500   86.53600   15.46280    0.00080    0.06700    6.31730
 16211.00000    0.69290   98.31710   53.21300   49.86220   90.24080   14.79880    0.00090    0.07430    6.79680
 16211.50000    0.60710   89.29590   51.26870   50.49630   90.85850   14.93520    0.00090    0.09030    7.23030
 16212.00000    0.60830   96.10690   49.98360   50.79990   91.08010   15.15480    0.00090    0.09610    7.44890
 16212.50000    0.62590   90.74710   47.89670   51.13150   91.15870   15.56730    0.00090    0.09420    7.66270
 16213.00000    0.63560   95.53080   48.69340   51.29270   91.23730   15.40600    0.00090    0.09240    8.00480
 16213.50000    0.78940   86.57360   43.91480   51.52050   91.31490   14.63460    0.00100    0.09380    8.10040
 16214.00000    1.50110  110.67980   46.63480   51.78730   92.70000   13.98000    0.00100    0.10020    7.63610
 16214.50000    2.73160  142.23940   49.52330   52.00060   94.59700   13.31920    0.00100    0.10670    6.89740
 16215.00000    4.83440  179.85910   54.12780   51.90710   91.73330   13.08810    0.00120    0.11310    6.15990
 16215.50000    5.59540  238.31050   64.15570   52.09940   98.25650   13.97380    0.00140    0.11620    5.80580
 16216.00000   11.15880  298.53590   68.57250   51.99440   99.64680   15.43170    0.00160    0.10110    5.54510
 16216.50000   18.29610  365.24570   55.48710   51.48950   99.74000   15.35870    0.00190    0.08090    5.29720
 16217.00000   18.15820  350.03480   53.90440   51.39760   99.49180   13.26970    0.00180    0.06250    5.18380
 16217.50000   16.82370  382.79040   49.17300   51.08200   99.80920   11.40270    0.00140    0.05420    5.28620
 16218.00000   10.78660  366.70860   63.37740   50.71990   99.98750   11.34770    0.00110    0.04810    5.44650
 16218.50000    8.98130  363.53870   72.48350   50.47150  100.02580   12.30640    0.00070    0.04350    5.56570
 16219.00000   10.42920  415.24050   82.81840   50.09540   99.52850   14.70810   -0.00120    0.04020    5.45340
 16219.50000   19.07800  485.31930   75.40030   51.81660   98.97880   16.70620   -0.00190    0.03690    5.10680
 16220.00000   26.45350  475.92590   61.91980   52.72700   99.23920   16.59230    0.00160    0.03350    4.86900
 16220.50000   23.13040  438.15090   62.97010   52.30820  101.23910   15.56330    0.00480    0.02970    4.77560
 16221.00000   21.91540  473.26340   73.92990   52.43940  100.32160   14.18260    0.00500    0.02450    4.84390
 16221.50000   24.74340  519.15440   81.13190   53.25640   99.35670   16.28540    0.00530    0.01740    4.84570
 16222.00000   32.01760  568.36710   89.03560   52.53030   98.75200   19.48450    0.00330    0.00740    4.64530
 16222.50000   49.02450  637.45540   89.25840   51.52740   98.74290   20.79980    0.00190    0.00340    4.38310
 16223.00000   69.36460  645.94310   89.23780   51.43020   98.59620   21.11690    0.00070    0.00740    4.11740
 16223.50000   75.02440  622.24380   90.30040   51.04200   97.49000   21.38760   -0.00040    0.01090    3.91630
 16224.00000   74.28970  518.28840   91.11020   51.68480   96.66110   20.80810   -0.00040    0.01120    3.70100
 16224.50000   75.90350  502.41590  100.92080   50.50720   96.33910   19.39430    0.00140    0.00850    3.41410
 16225.00000   76.35650  502.10930  105.97450   51.73320   96.23820   15.47410    0.00540    0.00570    3.23030
 16225.50000   74.02320  507.19830  108.23030   51.40290   95.69700   12.64600    0.00540    0.00300    3.21400
 16226.00000   64.55660  513.51310  109.94810   51.75140   93.61450   13.57020    0.00370    0.00060    3.37680
 16226.50000   72.56250  540.17250  115.92780   52.11860   91.77270   18.73610    0.00250    0.00000    3.57720
 16227.00000   76.74100  564.30010  132.04630   51.86170   91.54210   22.27390    0.00170    0.00130    3.83990
 16227.50000   72.42290  589.58530  148.06880   52.33400   91.78630   23.64830    0.00020    0.00970    3.99090
 16228.00000   59.32860  666.39750  189.77230   52.56380   92.18760   22.98370   -0.00240    0.02590    3.95080
 16228.50000   50.51270  665.86540  222.48500   52.81570   92.41140   26.26790   -0.00270    0.05060    3.75790
 16229.00000   50.22550  694.20450  264.65280   52.59580   92.35300   30.87650   -0.00260    0.08650    3.51310
 16229.50000   53.82430  715.51700  268.71310   53.22040   92.52810   31.85450   -0.00170    0.09590    3.31880
 16230.00000   63.51790  755.24270  270.60930   52.77720   95.15830   28.73990    0.00330    0.05740    3.21810
 16230.50000   79.21980  829.45390  278.77730   52.37900   92.72970   24.81850    0.00950    0.02740    3.25630
 16231.00000   88.57020 1002.95400  379.17740   52.41890   90.57250   23.59190    0.01370    0.00890    3.37870
 16231.50000   91.86200 1522.03300  703.54360   52.89850   90.84580   24.24890    0.01320    0.00390    3.62460
 16232.00000   91.95130 1482.41060 1055.35630   53.42490   92.17390   23.83710    0.00920    0.00190    3.81140
 16232.50000   91.77210 1952.28330 1588.96450   52.97550   90.75140   22.36980    0.00340    0.00160    3.90810
 16233.00000   91.60790 1961.29080 2997.13650   52.94250   90.81990   20.47060    0.00340    0.00120    3.99790
 16233.50000   91.44400 1972.45450 4973.59080   52.39790   90.75480   19.96290    0.00280    0.00090    4.03170
 16234.00000   91.28030 1983.68180 4012.00850   52.24540   90.71350   24.72010    0.00120    0.00050    4.11720
 16234.50000   90.32440 1994.97290 3985.10300   53.63030   90.38580   29.02270   -0.00140    0.00190    4.24710
 16235.00000   89.15690 2006.32840 3840.92190   53.23990   91.39460   31.04560   -0.00230    0.00620    4.31130
 16235.50000   85.52990 2000.89900 4398.85010   52.31180   91.42340   29.26060    0.00150    0.01050    4.20450
 16236.00000   80.38130 1899.94540 1630.42660   51.87710   91.45220   27.13120    0.00620    0.01310    3.89620
 16236.50000   75.89890 2008.09470 1423.79160   51.37640   91.45180   27.24470    0.01510    0.00820    3.59900
