~Version ---------------------------------------------------
VERS.   2.0 : CWLS log ASCII Standard -VERSION 2.0
WRAP.    NO : One line per depth step
DLM . SPACE : Column Data Section Delimiter
~Well ------------------------------------------------------
STRT .F                  45.0 : START DEPTH
STOP .F               16421.0 : STOP DEPTH
STEP .F                   0.5 : STEP
NULL .               -9999.25 : NULL VALUE
COMP .                        : COMPANY
WELL .                        : WELL
FLD  .                        : FIELD
LOC  .                        : LOCATION
PROV .                        : PROVINCE
CNTY .                        : COUNTY
STAT .                        : STATE
CTRY .                        : COUNTRY
SRVC .                        : SERVICE COMPANY
DATE .                        : DATE
UWI  .                        : UNIQUE WELL ID
API  .                        : API NUMBER
SLAT .WGS84   2.3895984381668 : SURFACE LATITUDE
SLON .WGS84 8.490619107749993 : SURFACE LONGITUDE
DATUM.F                   nan : DEPTH DATUM ELEV
~Curve Information -----------------------------------------
DEPT   .F     : 1 MEASURED DEPTH
RXOZ   .OHMM  : INVADED FORMATION RESISTIVITY FILTERED AT 18 INCHES
RT_HRLT.OHMM  : HRLT TRUE FORMATION RESISTIVITY
RLA3   .OHMM  : APPARENT RESISTIVITY FROM COMPUTED FOCUSING MODE 3
DTCO   .US/F  : DELTA-T COMPRESSIONAL
DTSM   .US/F  : DELTA-T SHEAR
SGRDD  .GAPI  : SPECTROSCOPY GAMMA RAY FROM DENSITY LOG
TNPH_LS.DEC   : THERMAL NEUTRON POROSITY [LIMESTONE]
HDRA   .G/C3  : HRDD SPINE AND RIBS DENSITY CORRECTION
PEFZ   .B/E   : HRDD STANDARD RESOLUTION FORMATION PHOTOELECTRIC FACTOR
~Params ----------------------------------------------------
~Other -----------------------------------------------------
~ASCII -----------------------------------------------------
# ...
 14473.00000   53.12700  117.12650   83.72100   54.28810  105.66470   24.58170    0.01300    0.00560    2.49200
 14473.50000   54.15650  118.46970   83.44960   53.82370   99.83450   25.76680    0.01590    0.00670    2.54530
 14474.00000   52.61840  114.75550   83.19020   53.66460   82.96720   26.08430    0.01890    0.00490    2.59370
 14474.50000   46.43290   93.83670   71.32330   54.53640   88.68480   25.18720    0.01850    0.00290    2.63760
 14475.00000   46.51580   68.11860   60.80410   54.94560   90.04340   25.15300    0.01600    0.00220    2.62680
 14475.50000   49.24410  194.24570  125.87440   55.15220   90.27690   26.36360    0.01610    0.00220    2.61500
 14476.00000   51.39010  136.78420  121.92950   55.17950   90.51040   26.90020    0.01620    0.00220    2.61280
 14476.50000   56.07680  127.61990  132.04250   54.96820   90.74380   27.24690    0.01570    0.00220    2.60520
 14477.00000   65.48100  123.76280  129.25830   54.85670   92.21970   27.77520    0.01430    0.00220    2.58130
 14477.50000   74.57140  133.68290  113.64600   54.28960   92.55870   28.88690    0.01350    0.00220    2.57270
 14478.00000   51.09990  121.84190  108.61110   54.30840   91.39970   29.27930    0.01270    0.00220    2.57980
 14478.50000   48.59590  118.62910  102.11330   54.01550   91.26710   27.87500    0.01150    0.00220    2.59310
 14479.00000   49.19970  104.66210   98.36250   54.04030   91.20320   26.02330    0.01020    0.00220    2.60250
 14479.50000   51.79050   55.72880   70.81890   54.06830   91.12200   25.43640    0.01100    0.00330    2.61200
 14480.00000   43.25860   44.23730   51.80130   54.10640   91.55390   27.03990    0.01490    0.00440    2.61730
 14480.50000   42.94920   43.68950   44.68120   55.14750   91.96660   31.24630    0.01960    0.00560    2.59920
 14481.00000   47.95950   43.37720   42.76340   55.48420   92.42100   35.30920    0.02560    0.00580    2.55510
 14481.50000   57.86430   40.49860   51.58480   55.90910   92.87540   38.81430    0.03080    0.00350    2.50080
 14482.00000   66.10770   59.41110   69.69140   56.08230   92.26970   40.45080    0.02820    0.00120    2.49650
 14482.50000   61.30210  119.43790   94.30360   55.92300   91.81020   41.10530    0.02450   -0.00050    2.50610
 14483.00000   52.96890  133.93150  109.80150   55.85450   91.25950   39.03900    0.02060    0.00070    2.53290
 14483.50000   46.33640  109.18970   91.47400   55.55250   90.80590   36.42210    0.01740    0.00180    2.57570
 14484.00000   47.47680  107.67770   89.79190   54.84810   90.97340   34.20240    0.01700    0.00290    2.60670
 14484.50000   46.75670  123.19640   97.28380   54.82310   92.39510   33.79870    0.01670    0.00300    2.62020
 14485.00000   50.05040  119.96260  101.03070   54.46920   96.23610   33.40500    0.01390    0.00200    2.63360
 14485.50000   53.09280  239.34380  144.13200   54.48810  102.77780   33.16510    0.01290    0.00100    2.54410
 14486.00000   60.07530  114.93790  111.00910   54.11720  100.33070   33.01420    0.01250   -0.00000    2.45030
 14486.50000   66.89010  114.27980  110.69850   53.94540  100.11590   33.04110    0.01220   -0.00100    2.46370
 14487.00000   66.65970  140.37450  133.21740   53.86050   99.76440   34.00130    0.00960   -0.00200    2.55810
 14487.50000   68.72570  171.69620  167.99670   53.51420   99.41300   34.70130    0.00690   -0.00300    2.68370
 14488.00000   66.74690  190.15000  173.36440   53.35230   98.93790   36.41780    0.00500   -0.00310    2.84890
 14488.50000   58.50830  226.35150  205.52170   52.91670   98.13240   36.47160    0.00310   -0.00180    3.07350
 14489.00000   48.82210  341.42540  334.27720   52.85220   96.83780   37.18190    0.00230   -0.00060    3.27340
 14489.50000   42.29990  502.00130  614.93960   52.59610   96.52130   35.24480    0.00250    0.00070    3.41960
 14490.00000   42.22430  258.68770  523.99880   52.48300   96.24110   38.33170    0.00390   -0.00190    3.51470
 14490.50000   50.04890  503.60420 1211.89330   51.98740   96.20880   46.17280    0.01400    0.00350    3.61470
 14491.00000   50.18400 2036.94820 1551.14920   53.03960   96.44120   56.16080    0.02700    0.01250    3.65540
 14491.50000   49.63330 1351.78630  487.62590   54.20800   97.37170   60.66870    0.04630    0.03820    3.52700
 14492.00000   18.32600  231.04980  161.46940   54.82360  100.17960   62.25720    0.03940    0.06530    3.25200
 14492.50000   13.71840   42.69370   16.27760   57.32180  105.22020   62.26170    0.03240    0.08790    2.90800
 14493.00000   11.96480    9.40590   11.59790   60.96340  111.28670   61.04230    0.04910    0.06440    2.73870
 14493.50000   13.78920   14.20820   13.70620   62.39190  116.37440   60.54300    0.06850    0.03280    2.74830
 14494.00000   17.47330   27.59020   20.01390   62.81100  118.40580   61.33270    0.06560    0.01670    2.84190
 14494.50000   23.46090   30.27580   27.38660   62.82220  117.02800   61.44140    0.05490    0.00330    2.94350
 14495.00000   37.15340   66.64820   44.87660   62.17200  114.35700   58.57360    0.05520    0.01190    3.06280
 14495.50000   49.69830  530.03810  370.28860   60.79120  111.77550   52.00950    0.06260    0.02250    3.06970
 14496.00000   42.63850  591.16370  485.17380   57.45660  101.96390   43.87780    0.06510    0.03130    3.06140
 14496.50000   48.89110 1419.30660 1166.83310   54.20820   94.17340   36.22870    0.06300    0.03810    3.05640
 14497.00000   42.00660 1504.93550 1137.46240   52.41060   91.98470   27.72550    0.04290    0.04490    3.23560
 14497.50000   35.09620 1469.45560 1037.60250   51.94950   91.94370   19.93360    0.03690    0.05110    3.72310
 14498.00000   14.79550 1074.76710  706.43460   52.33100   93.32540   18.63500    0.05260    0.05740    4.05410
 14498.50000    9.44940   56.16590   33.98900   53.71390   96.66580   20.91730    0.14270    0.06370    4.36200
 14499.00000    8.26110   42.16640   14.64720   56.66020  100.61170   32.39450    0.15880    0.06290    4.33450
 14499.50000   10.93840   24.44210   14.21300   59.95460  107.92170   48.44890    0.11890    0.05650    4.17190
 14500.00000   12.45130   31.43120   25.06230   60.72310  112.79190   61.98630    0.11450    0.04040    3.84250
 14500.50000   11.52100   33.05430   29.26380   62.48410  115.94940   66.95970    0.11250    0.02470    3.54470
 14501.00000   10.82990   33.87040   29.60660   64.76050  117.41370   64.73260    0.11010    0.01040    3.26010
 14501.50000   11.69000   34.32810   25.46850   66.45910  122.04640   64.04870    0.10760    0.00260    3.07560
 14502.00000   11.68730   20.92430   17.08500   67.49760  122.53920   66.45140    0.10760    0.00190    3.00210
 14502.50000   13.12250   13.07020   12.43320   69.21550  127.00660   68.90230    0.10830    0.00120    2.92860
 14503.00000   19.83340   11.35040   12.66850   70.31810  135.41740   73.65930    0.10520    0.00040    2.86380
 14503.50000   48.65270   11.64590   17.01690   71.67980  139.27280   75.19220    0.10090    0.00010    2.76720
 14504.00000   88.13200   12.53230   25.02180   70.61030  138.40180   70.86360    0.09530    0.00020    2.73230
 14504.50000   45.74780   22.33870   28.98780   71.02290  136.17630   63.47640    0.08260    0.00020    2.71290
 14505.00000   34.05390   67.60300   42.32610   68.07780  128.02400   56.51740    0.06480    0.00020    2.75910
 14505.50000   34.38680   35.65830   65.72890   64.00850  117.01010   54.46460    0.04430    0.00390    2.97140
 14506.00000   68.23360  120.68790  282.54440   59.60100  109.55140   48.65820    0.02810    0.00800    3.30640
 14506.50000  117.64180 1920.99480 1440.08830   57.60070  103.94530   40.50000    0.01670    0.01220    3.67980
 14507.00000  124.56330 2003.04000 1882.35310   55.68300  101.25330   30.84650    0.01100    0.02740    3.86320
 14507.50000  117.52740 1925.55180 1151.74560   54.25850   99.14260   25.08230    0.01330    0.04990    3.82830
 14508.00000  115.98720  778.35400  341.76730   53.86370   99.87210   24.94990    0.02180    0.06960    3.79260
 14508.50000  114.70530  131.26950  106.58290   54.02770  100.20100   28.46750    0.03050    0.07370    3.77930
