~Version ---------------------------------------------------
VERS.   2.0 : CWLS log ASCII Standard -VERSION 2.0
WRAP.    NO : One line per depth step
DLM . SPACE : Column Data Section Delimiter
~Well ------------------------------------------------------
STRT .F                  45.0 : START DEPTH
STOP .F               16421.0 : STOP DEPTH
STEP .F                   0.5 : STEP
NULL .               -9999.25 : NULL VALUE
COMP .                        : COMPANY
WELL .                        : WELL
FLD  .                        : FIELD
LOC  .                        : LOCATION
PROV .                        : PROVINCE
CNTY .                        : COUNTY
STAT .                        : STATE
CTRY .                        : COUNTRY
SRVC .                        : SERVICE COMPANY
DATE .                        : DATE
UWI  .                        : UNIQUE WELL ID
API  .                        : API NUMBER
SLAT .WGS84   2.3895984381668 : SURFACE LATITUDE
SLON .WGS84 8.490619107749993 : SURFACE LONGITUDE
DATUM.F                   nan : DEPTH DATUM ELEV
~Curve Information -----------------------------------------
DEPT   .F     : 1 MEASURED DEPTH
RXOZ   .OHMM  : INVADED FORMATION RESISTIVITY FILTERED AT 18 INCHES
RT_HRLT.OHMM  : HRLT TRUE FORMATION RESISTIVITY
RLA3   .OHMM  : APPARENT RESISTIVITY FROM COMPUTED FOCUSING MODE 3
DTCO   .US/F  : DELTA-T COMPRESSIONAL
DTSM   .US/F  : DELTA-T SHEAR
SGRDD  .GAPI  : SPECTROSCOPY GAMMA RAY FROM DENSITY LOG
TNPH_LS.DEC   : THERMAL NEUTRON POROSITY [LIMESTONE]
HDRA   .G/C3  : HRDD SPINE AND RIBS DENSITY CORRECTION
PEFZ   .B/E   : HRDD STANDARD RESOLUTION FORMATION PHOTOELECTRIC FACTOR
~Params ----------------------------------------------------
~Other -----------------------------------------------------
~ASCII -----------------------------------------------------
# ...
 16057.00000   85.31300 2007.63290 1838.65450   53.68990   91.02450   27.69950    0.00710    0.00530    3.28070
 16057.50000   89.11780 1473.56490  932.54970   53.68010   91.30380   30.01360    0.00910   -0.00030    3.34180
 16058.00000   85.91420 1677.23950 1281.62410   53.27150   91.48580   32.09080    0.01060   -0.00330    3.35750
 16058.50000   82.33620  447.07280  587.58650   53.05320   91.61090   34.00430    0.01110   -0.00260    3.38640
 16059.00000   79.91170 1894.56880 1038.06350   53.16800   91.53970   34.54330    0.01060   -0.00190    3.63790
 16059.50000   81.26480 1986.20760 4412.18360   52.74630   91.74160   30.57270    0.00670    0.00150    3.94920
 16060.00000   84.53780 1976.16240 4092.61550   52.22160   92.04460   25.58400    0.00330    0.00580    4.10060
 16060.50000   81.78600 1966.16780 2184.77510   52.85230   92.23850   24.75070    0.00530    0.01010    3.91840
 16061.00000   74.58260  884.09000 1581.56020   52.69360   92.33700   31.77700    0.01290    0.00800    3.59950
 16061.50000   72.06650  436.56750  597.08510   54.06810   92.34510   39.67050    0.01880    0.00530    3.31280
 16062.00000   65.15570  421.83800  480.31050   55.57230   92.38650   45.03230    0.02140    0.00260    3.13970
 16062.50000   59.99010  378.36470  532.76400   55.74040   92.23720   47.75920    0.02080    0.00300    3.05580
 16063.00000   62.39740  547.61920  534.84400   56.07140   92.12840   49.32960    0.01880    0.00600    3.01280
 16063.50000   72.93860  540.44070  504.45470   55.85130   91.96530   48.92880    0.01690    0.00900    2.96460
 16064.00000   78.84070  591.34190  711.03230   55.56860   91.74970   46.47660    0.01500    0.01210    2.90710
 16064.50000   77.97650 1848.62390 1281.67970   55.07230   91.49100   44.64500    0.01290    0.00930    2.98380
 16065.00000   81.57810 1030.85400  702.52810   53.52810   91.48820   42.13670    0.00990    0.00360    3.20730
 16065.50000   87.63580  924.95420  605.00570   52.04310   91.65270   34.75480    0.00530   -0.00220    3.58700
 16066.00000   92.86150 1958.29440 4484.36770   50.91500   91.84610   24.90950    0.00140    0.00350    4.00180
 16066.50000   93.21640 1989.42470 8363.72950   51.66780   91.81970   18.13390   -0.00430    0.01130    4.10810
 16067.00000   91.21340 1994.99270 6721.21680   51.75630   91.84400   19.69280   -0.00270    0.01900    4.00060
 16067.50000   85.81790 1970.83850 2543.91330   52.64870   92.49440   25.85760    0.00200    0.01420    3.68740
 16068.00000   85.98890  687.32970 1552.02050   53.29200   92.28650   32.72470    0.00690    0.00540    3.43180
 16068.50000   91.75070 1252.68400  928.41000   53.96610   91.70310   35.41800    0.01190    0.00080    3.25560
 16069.00000   97.39540  816.80060  630.68190   54.34550   91.52320   35.06300    0.01680    0.00060    3.29450
 16069.50000   94.33510 1309.55030  742.29150   54.30930   91.66730   33.52690    0.01490    0.00050    3.45570
 16070.00000   80.63080 1627.31740 1927.41420   52.39750   91.94550   30.53490    0.01150    0.00040    3.70610
 16070.50000   70.86690 1062.12000 2058.98190   52.13770   92.11140   27.48920    0.00800    0.00200    4.03250
 16071.00000   69.22090 1205.49210 2027.69460   51.99240   91.99010   23.87690    0.00420    0.00520    4.33350
 16071.50000   83.87080 1999.36950 5334.40620   51.81620   92.28950   20.41350    0.00020    0.00840    4.46320
 16072.00000   92.11630 1999.29820 5392.48100   51.51300   92.18940   19.79420   -0.00090    0.01160    4.42040
 16072.50000   97.66310 1505.72300  788.42820   51.35800   92.02320   21.52260   -0.00030    0.01120    4.25110
 16073.00000   93.82550 1108.82130  956.48060   51.82490   92.18600   22.93480    0.00010    0.00790    4.17740
 16073.50000  105.68600 2011.74270 3322.45510   52.72480   92.47300   21.67730    0.00040    0.00450    4.10680
 16074.00000   99.88410 2005.50130 4771.19870   53.54670   92.75580   23.34400    0.00310    0.00120    4.03490
 16074.50000   90.42950 1999.27950 1633.36870   53.62610   92.90810   27.84430    0.00790   -0.00130    3.94040
 16075.00000   87.83090  418.00520  349.76530   53.06260   93.06050   35.87880    0.01520   -0.00220    3.89160
 16075.50000   96.15620  301.63270  363.22490   53.47610   93.16020   38.59470    0.01370   -0.00300    3.99190
 16076.00000   97.50240 1083.04860 2003.40730   52.97860   93.22810   33.16450    0.00590    0.00020    4.26250
 16076.50000   90.07900 1998.65840 3505.91380   52.33760   93.29590   25.07090    0.00220    0.00280    4.44320
 16077.00000   83.43020 1997.36960 2747.36400   51.63740   93.37610   22.17910    0.00570    0.00640    4.45260
 16077.50000   77.16450 1989.52200  936.67480   51.89640   93.55640   28.47030    0.01020    0.00680    4.30760
 16078.00000   69.25940  886.87300  441.97670   53.22050   94.98510   37.58170    0.01620    0.00520    4.03250
 16078.50000   63.15640  492.67380  472.66160   54.68130   95.17990   46.00320    0.02210    0.00370    3.76220
 16079.00000   62.46830  607.73440  555.73470   55.64450   95.29190   52.01890    0.02670    0.00320    3.62730
 16079.50000   69.37220  471.49820  506.33700   55.65690   95.40400   53.51190    0.02930    0.00180    3.59390
 16080.00000   78.17700  360.64970  423.16860   55.60130   95.43870   53.26650    0.03090    0.00040    3.59160
 16080.50000   86.48060  374.22370  415.45010   55.47460   95.02610   51.38940    0.02990   -0.00050    3.59250
 16081.00000   94.41100  611.72200  704.70900   54.95990   94.57240   45.61490    0.02360   -0.00080    3.69100
 16081.50000  100.53300  803.97700  848.76080   54.16490   94.15280   37.03560    0.01230   -0.00110    3.84610
 16082.00000   98.00940  876.99040 1321.32120   53.41820   93.74680   29.23260    0.00460   -0.00140    3.99650
 16082.50000   89.25600 2015.26100 10941.31840   53.65570   93.87790   27.19760    0.00420   -0.00170    3.97090
 16083.00000   79.55650 2027.34510 3954.97630   54.58110   94.59630   36.29140    0.00800   -0.00110    3.86600
 16083.50000   72.75360 1446.67370 1080.38050   55.28160   95.81910   46.09870    0.01240   -0.00050    3.71640
 16084.00000   73.21800  489.88190  597.20380   55.94080   96.31450   49.44270    0.01660    0.00010    3.73090
 16084.50000   75.31290  404.71190  435.48480   56.14610   96.67410   47.99910    0.02170    0.00110    3.80810
 16085.00000   82.87770  268.02040  382.47770   55.84300   97.02330   39.66060    0.02600    0.00250    3.97510
 16085.50000   91.09050  284.40880  373.57080   55.80070   97.16090   31.80680    0.02280    0.00380    4.09360
 16086.00000   77.39560 1938.25420  735.40470   56.16580   97.48720   29.66130    0.01870    0.00520    3.97860
 16086.50000   61.97640  360.52810  469.69160   57.07010   97.56860   38.05860    0.02190    0.00580    3.76370
 16087.00000   54.10390  123.33930  154.07890   57.81390   97.33290   49.07130    0.02940    0.00500    3.51920
 16087.50000   62.56400  259.28520  344.06060   58.39420   97.09730   52.08180    0.03710    0.00350    3.39400
 16088.00000   86.15600 1848.59850 1317.45910   58.28440   96.34760   50.15810    0.04300    0.00200    3.33460
 16088.50000  100.65190 1975.43570 1677.15380   57.19780   95.34900   47.74380    0.03840    0.00060    3.38590
 16089.00000  117.81990 1980.73710 1684.19920   55.86890   94.32350   48.20360    0.02920   -0.00090    3.45090
 16089.50000  123.36230 1684.95100 1206.92970   54.86780   93.58460   47.41390    0.02530   -0.00210    3.53650
 16090.00000  106.37950  930.52810  483.79470   54.51080   93.45720   42.52510    0.02320   -0.00260    3.63760
 16090.50000   88.62210 1590.77990 1171.42020   54.13420   93.33630   36.39130    0.01980   -0.00260    3.81750
 16091.00000   83.90320 1832.16860  959.24660   53.62680   93.45690   31.55380    0.01300   -0.00160    3.96830
 16091.50000   84.87240 1087.97630  731.83510   53.37850   93.48370   31.99070    0.01080    0.00210    4.02430
 16092.00000   91.12550 2006.41210 1654.23750   53.32360   93.38570   34.92610    0.01120    0.00580    3.98990
 16092.50000   97.21430 2015.85190 1602.53150   53.35220   93.28770   36.77900    0.01330    0.00690    3.82300
