~Version ---------------------------------------------------
VERS.   2.0 : CWLS log ASCII Standard -VERSION 2.0
WRAP.    NO : One line per depth step
DLM . SPACE : Column Data Section Delimiter
~Well ------------------------------------------------------
STRT .F                  45.0 : START DEPTH
STOP .F               16421.0 : STOP DEPTH
STEP .F                   0.5 : STEP
NULL .               -9999.25 : NULL VALUE
COMP .                        : COMPANY
WELL .                        : WELL
FLD  .                        : FIELD
LOC  .                        : LOCATION
PROV .                        : PROVINCE
CNTY .                        : COUNTY
STAT .                        : STATE
CTRY .                        : COUNTRY
SRVC .                        : SERVICE COMPANY
DATE .                        : DATE
UWI  .                        : UNIQUE WELL ID
API  .                        : API NUMBER
SLAT .WGS84   2.3895984381668 : SURFACE LATITUDE
SLON .WGS84 8.490619107749993 : SURFACE LONGITUDE
DATUM.F                   nan : DEPTH DATUM ELEV
~Curve Information -----------------------------------------
DEPT   .F     : 1 MEASURED DEPTH
RXOZ   .OHMM  : INVADED FORMATION RESISTIVITY FILTERED AT 18 INCHES
RT_HRLT.OHMM  : HRLT TRUE FORMATION RESISTIVITY
RLA3   .OHMM  : APPARENT RESISTIVITY FROM COMPUTED FOCUSING MODE 3
DTCO   .US/F  : DELTA-T COMPRESSIONAL
DTSM   .US/F  : DELTA-T SHEAR
SGRDD  .GAPI  : SPECTROSCOPY GAMMA RAY FROM DENSITY LOG
TNPH_LS.DEC   : THERMAL NEUTRON POROSITY [LIMESTONE]
HDRA   .G/C3  : HRDD SPINE AND RIBS DENSITY CORRECTION
PEFZ   .B/E   : HRDD STANDARD RESOLUTION FORMATION PHOTOELECTRIC FACTOR
~Params ----------------------------------------------------
~Other -----------------------------------------------------
~ASCII -----------------------------------------------------
# ...
 14185.00000   -9999.25   -9999.25   -9999.25   51.02010   82.77800   12.83980   -0.00590   -9999.25   -9999.25
 14185.50000   -9999.25   -9999.25   -9999.25   50.99080   84.48990   12.82150   -0.00800   -9999.25   -9999.25
 14186.00000   -9999.25   -9999.25   -9999.25   51.05970   87.51340   12.63630   -0.01060   -9999.25   -9999.25
 14186.50000   -9999.25   -9999.25   -9999.25   48.83120   90.62350   15.42500   -0.01120   -9999.25   -9999.25
 14187.00000   -9999.25   -9999.25   -9999.25   55.53200   94.85710   19.44860   -0.00980   -9999.25   -9999.25
 14187.50000   -9999.25   -9999.25   -9999.25   54.40320   97.26990   22.96340   -0.00570   -9999.25   -9999.25
 14188.00000   -9999.25   -9999.25   -9999.25   54.72910  102.52760   24.73480    0.00140   -9999.25   -9999.25
 14188.50000   -9999.25   -9999.25   -9999.25   55.91640  104.38960   25.22890    0.01300   -9999.25   -9999.25
 14189.00000   -9999.25   -9999.25   -9999.25   49.18070  102.10210   25.48350    0.02830   -9999.25   -9999.25
 14189.50000   -9999.25   -9999.25   -9999.25   50.84520  100.57870   25.10790    0.05680   -9999.25   -9999.25
 14190.00000   -9999.25   -9999.25   -9999.25   62.80640  100.76850   24.15640    0.04850   -9999.25   -9999.25
 14190.50000   -9999.25   -9999.25   -9999.25   64.90950  101.10690   23.26790    0.03080   -9999.25   -9999.25
 14191.00000   -9999.25   -9999.25   -9999.25   65.59020   99.31750   22.84290    0.01670   -9999.25   -9999.25
 14191.50000   -9999.25   -9999.25   -9999.25   64.14830   85.42590   22.43670    0.02040   -9999.25   -9999.25
 14192.00000   -9999.25   -9999.25   -9999.25   58.75640   93.56050   22.19290    0.02320   -9999.25   -9999.25
 14192.50000   -9999.25   -9999.25   -9999.25   58.60410   95.93400   22.76410    0.02190   -9999.25   -9999.25
 14193.00000   -9999.25   -9999.25   -9999.25   55.59370   96.13770   23.02380    0.01740   -9999.25   -9999.25
 14193.50000   -9999.25   -9999.25   -9999.25   54.32710   96.26000   23.47770    0.00950   -9999.25   -9999.25
 14194.00000   -9999.25   -9999.25   -9999.25   53.18980   96.54130   22.66140    0.01800   -9999.25   -9999.25
 14194.50000   -9999.25   -9999.25   -9999.25   52.63630   99.31200   22.18740    0.06710   -9999.25   -9999.25
 14195.00000   -9999.25   -9999.25   -9999.25   52.81540  103.02860   22.74560    0.22320   -9999.25   -9999.25
 14195.50000   -9999.25   -9999.25   -9999.25   53.29700  108.02080   29.79380    0.23690   -9999.25   -9999.25
 14196.00000   -9999.25   -9999.25   -9999.25   54.00220  116.20050   34.60430    0.18200   -9999.25   -9999.25
 14196.50000   -9999.25   -9999.25   -9999.25   55.21810  125.60640   38.30950    0.16730   -9999.25   -9999.25
 14197.00000   -9999.25   -9999.25   -9999.25   57.93280  139.14500   42.83830    0.17270   -9999.25   -9999.25
 14197.50000   -9999.25   -9999.25   -9999.25   59.81600  143.29420   48.65170    0.17050   -9999.25   -9999.25
 14198.00000   -9999.25   -9999.25   -9999.25   60.92960  146.85300   53.46820    0.17410   -9999.25   -9999.25
 14198.50000   -9999.25   -9999.25   -9999.25   61.97400  146.82880   53.31410    0.17350   -9999.25   -9999.25
 14199.00000   -9999.25   -9999.25   -9999.25   63.33810  146.66020   51.32580    0.17100   -9999.25   -9999.25
 14199.50000   -9999.25   -9999.25   -9999.25   66.55850  143.19470   49.49910    0.16890   -9999.25   -9999.25
 14200.00000   -9999.25   -9999.25   -9999.25   65.96810  141.62190   48.65080    0.16680   -9999.25   -9999.25
 14200.50000   -9999.25   -9999.25   -9999.25   64.66900  150.17430   48.67890    0.16360   -9999.25   -9999.25
 14201.00000   -9999.25   -9999.25   -9999.25   63.40960  151.30920   48.69160    0.15940   -9999.25   -9999.25
 14201.50000   -9999.25   -9999.25   -9999.25   63.01010  151.63140   51.02290    0.16710   -9999.25   -9999.25
 14202.00000   -9999.25   -9999.25   -9999.25   61.76990  154.02080   56.01560    0.21150    0.10440    7.02250
 14202.50000   -9999.25   -9999.25   -9999.25   62.37070  154.16090   61.66320    0.20790    0.09840    6.55140
 14203.00000    4.36130    5.94830    5.59520   64.33120  152.87900   67.91950    0.19170    0.09840    6.19320
 14203.50000    5.78330    6.76000    6.30220   65.86350  147.50270   70.45820    0.18810    0.10030    5.92540
 14204.00000    5.90750    7.68250    7.16420   66.05090  142.16540   72.74090    0.18530    0.10370    5.84500
 14204.50000    5.98110    8.80630    8.26840   66.27290  137.09660   71.25130    0.18330    0.10720    5.84840
 14205.00000    5.89540   10.28860    9.51260   64.43320  136.02180   69.11120    0.17890    0.11040    5.84400
 14205.50000    4.26430   27.35500   15.93110   63.85010  131.69890   65.98200    0.16430    0.11370    5.83180
 14206.00000    3.79710  112.90780   42.74090   63.38820  127.57390   64.83300    0.12310    0.11690    5.78260
 14206.50000    4.62760   48.55390   38.97910   62.71230  123.47560   63.36080    0.09450    0.11570    5.60840
 14207.00000   11.46480   42.38730   35.62610   62.49050  120.33960   63.52170    0.09560    0.09180    5.38480
 14207.50000   63.98470   38.77850   32.93270   64.19430  119.39610   65.53870    0.11850    0.06350    5.20240
 14208.00000   48.51080   34.32480   24.15900   66.45280  122.86160   66.07350    0.14010    0.03520    5.16490
 14208.50000    8.88190   34.07070   14.79370   71.53100  127.21690   64.18760    0.15930    0.00690    5.17170
 14209.00000    5.26340    5.47970    9.92540   75.01740  138.91370   60.21180    0.18240    0.00270    5.17710
 14209.50000   11.76980   16.53020    9.10180   77.99370  143.05870   48.40310    0.20340    0.00260    5.20230
 14210.00000   20.45650    1.16730    8.90270   76.69930  141.21290   36.47320    0.20990    0.00310    5.23920
 14210.50000   47.07990    1.34920    9.06630   74.46080  138.87030   24.36650    0.18510    0.00250    5.30630
 14211.00000   62.21140    5.54750   18.97680   70.57500  134.47060   13.65410    0.12980    0.00020    5.24640
 14211.50000   29.68710  120.14310  123.51630   66.08680  125.69790   13.72120    0.07470   -0.00220    5.19540
 14212.00000   27.79560  116.82950   95.43990   60.50910  110.54490   13.83950    0.04790   -0.00450    5.14140
 14212.50000   30.12970  229.32480   95.77550   56.53660  100.42880   13.48480    0.04080   -0.00540    5.11740
 14213.00000   65.43510  287.14970  121.81290   55.36060   99.18250   13.61240    0.02690   -0.00530    5.12880
 14213.50000   58.76940  285.42960  123.73380   52.43910   99.00950   13.49790    0.00930   -0.00510    5.22340
 14214.00000   24.23820  355.66420  149.77810   50.84370   97.80600   13.37470    0.00000   -0.00490    5.42230
 14214.50000   17.98400  452.52240  163.58800   50.29480   97.41050   14.10820   -0.00680   -0.00470    5.71240
 14215.00000   19.65130  438.52900  159.32030   49.65610   97.01500   14.95770   -0.00790   -0.00460    5.98640
 14215.50000   30.43370  462.67480  155.62750   49.02550   96.40420   15.32880   -0.00550   -0.00440    6.11660
 14216.00000   19.43080  414.46710  152.02010   48.19140   95.87170   14.92520   -0.00460   -0.00420    6.17510
 14216.50000   12.42690  375.82340  148.49630   48.53630   95.61430   14.89600   -0.00560   -0.00400    6.24690
 14217.00000   11.55060  369.03380  146.23000   48.75020   95.80260   16.03190   -0.00750   -0.00390    6.23470
 14217.50000   12.96830  383.75770  145.89730   48.87090   95.48130   17.17660   -0.00760   -0.00370    6.22250
 14218.00000   13.96860  352.10430  136.17610   48.81490   95.51770   18.11580   -0.00740   -0.00370    6.17390
 14218.50000   14.84710  321.11600  126.36330   48.88210   95.60110   17.41550   -0.00720   -0.00370    6.10550
 14219.00000   15.89850  327.47270  113.65720   48.99440   95.72140   15.99900   -0.00580   -0.00370    6.06630
 14219.50000   18.43340  203.19270   87.10330   48.99250   95.77270   13.90720   -0.00490   -0.00210    6.07050
 14220.00000   17.15060  409.82810  133.32950   49.31700   95.31790   13.44290   -0.00430    0.00050    6.10940
 14220.50000   14.14140  421.37650  147.62280   49.89380   94.67460   14.35700   -0.00380    0.00300    6.14570
