~Version ---------------------------------------------------
VERS.   2.0 : CWLS log ASCII Standard -VERSION 2.0
WRAP.    NO : One line per depth step
DLM . SPACE : Column Data Section Delimiter
~Well ------------------------------------------------------
STRT .F                  45.0 : START DEPTH
STOP .F               16421.0 : STOP DEPTH
STEP .F                   0.5 : STEP
NULL .               -9999.25 : NULL VALUE
COMP .                        : COMPANY
WELL .                        : WELL
FLD  .                        : FIELD
LOC  .                        : LOCATION
PROV .                        : PROVINCE
CNTY .                        : COUNTY
STAT .                        : STATE
CTRY .                        : COUNTRY
SRVC .                        : SERVICE COMPANY
DATE .                        : DATE
UWI  .                        : UNIQUE WELL ID
API  .                        : API NUMBER
SLAT .WGS84   2.3895984381668 : SURFACE LATITUDE
SLON .WGS84 8.490619107749993 : SURFACE LONGITUDE
DATUM.F                   nan : DEPTH DATUM ELEV
~Curve Information -----------------------------------------
DEPT   .F     : 1 MEASURED DEPTH
RXOZ   .OHMM  : INVADED FORMATION RESISTIVITY FILTERED AT 18 INCHES
RT_HRLT.OHMM  : HRLT TRUE FORMATION RESISTIVITY
RLA3   .OHMM  : APPARENT RESISTIVITY FROM COMPUTED FOCUSING MODE 3
DTCO   .US/F  : DELTA-T COMPRESSIONAL
DTSM   .US/F  : DELTA-T SHEAR
SGRDD  .GAPI  : SPECTROSCOPY GAMMA RAY FROM DENSITY LOG
TNPH_LS.DEC   : THERMAL NEUTRON POROSITY [LIMESTONE]
HDRA   .G/C3  : HRDD SPINE AND RIBS DENSITY CORRECTION
PEFZ   .B/E   : HRDD STANDARD RESOLUTION FORMATION PHOTOELECTRIC FACTOR
~Params ----------------------------------------------------
~Other -----------------------------------------------------
~ASCII -----------------------------------------------------
# ...
 14761.00000   21.20940   67.63910   47.78720   60.30740  114.94120   25.23890    0.07320    0.04650    2.51750
 14761.50000   15.46860   64.11110   45.96990   60.91910  114.19290   20.19410    0.27080    0.03010    2.50900
 14762.00000   14.03290   62.61370   44.75510   61.08600  114.03610   16.26370    0.41470    0.01950    2.50860
 14762.50000   16.82300   65.52190   43.92590   60.56020  114.05850   16.29710    0.29170    0.01640    2.54650
 14763.00000   31.37590   69.41080   43.19680   59.89970  114.08080   17.05050    0.23320    0.01580    2.55620
 14763.50000   43.97780   62.63360   42.47980   59.26680  114.10550   17.39210    0.23110    0.01550    2.53820
 14764.00000   45.68500   58.80320   42.42480   58.76500  114.11530   17.35720    0.22630    0.01520    2.48820
 14764.50000   33.06780   64.63020   42.43460   58.84140  114.16460   17.03960    0.22890    0.01480    2.46020
 14765.00000   31.44490   66.58920   42.59840   58.99550  114.33420   16.51290    0.22280    0.01450    2.50680
 14765.50000   36.16520   63.85130   42.99330   59.11670  114.48830   16.08390    0.22610    0.01790    2.55340
 14766.00000   51.49750   38.41480   92.53010   58.94180  115.02480   15.09370    0.22680    0.01970    2.58860
 14766.50000   70.46650   42.48840   61.13940   57.94330  115.29290   14.26040    0.22740    0.01600    2.61230
 14767.00000   52.35330   40.05180   38.96610   56.97090  115.49690   14.18170    0.23010    0.01170    2.64220
 14767.50000   40.51070   14.00540   17.56980   56.72180  116.88940   14.54950    0.23670    0.00300    2.76230
 14768.00000   34.74580   13.72830   16.40530   56.46960  117.36910   20.52170    0.24050   -0.00160    2.92530
 14768.50000   33.85850   13.76990   15.52710   56.31180  117.84890   42.12590    0.23900   -0.00520    2.99370
 14769.00000   33.80340   14.49690   15.08800   57.05030  118.14510   75.05130    0.23330   -0.00520    3.02390
 14769.50000   33.63750   12.84180   14.66130   57.03500  118.21010   95.58580    0.23320   -0.00610    3.05410
 14770.00000   33.43740   16.32200   14.21220   56.38340  118.26310  116.12020    0.23470   -0.00720    3.09120
 14770.50000   33.45640    9.44600   13.61420   56.64840  119.80400  122.52970    0.23370   -0.00830    3.13030
 14771.00000   33.40470   17.76290   14.43590   62.73740  134.09680  122.82360    0.22650   -0.00780    3.13010
 14771.50000   32.82320   18.12680   18.90760   76.22960  144.30060  122.55350    0.22610    0.00100    3.13480
 14772.00000   23.76130   20.63940   20.01450   67.06500  149.74230  121.78640    0.22670    0.00990    3.15870
 14772.50000   11.67790   23.19680   19.88890   68.27430  149.88180  119.92020    0.23390    0.01870    3.21950
 14773.00000   10.09280   23.77380   19.37600   69.21090  149.69980  112.97300    0.23390    0.02900    3.41920
 14773.50000   12.23510   23.66150   18.68010   69.40970  149.39230  104.22130    0.23590    0.04090    3.84600
 14774.00000   28.37820   18.76110   15.40480   69.47320  149.16420  100.50210    0.22660    0.04600    4.17140
 14774.50000   30.74350   24.92920   12.70380   69.52270  149.07490  106.20650    0.22350    0.03060    4.20740
 14775.00000   28.30250    8.97680   11.83700   69.63550  149.09790  116.50110    0.22310    0.01370    4.14240
 14775.50000   26.15720   67.83230   51.53350   69.63230  149.12840  120.87630    0.23030    0.00380    4.06130
 14776.00000   25.00840   89.61930   71.79210   69.28000  143.72710  121.17500    0.23020    0.00370    4.07420
 14776.50000   24.35940   99.44060   81.10100   67.35700  128.28000  117.32530    0.22730    0.00370    4.10500
 14777.00000   24.43180  105.99040   84.38270   66.09320  123.24930  110.10310    0.23090    0.00340    4.14530
 14777.50000   24.63610  110.88970   90.94430   66.08570  122.91980  105.50410    0.23500    0.00010    4.17690
 14778.00000   24.80110  114.54360   98.12230   66.10560  123.34650  105.60220    0.23830   -0.00090    4.18460
 14778.50000   24.86100  117.42220   98.12230   66.11750  123.91680  111.63480    0.23670   -0.00090    4.17490
 14779.00000   24.95960   23.40230   15.51850   66.22680  125.63600  115.55140    0.23380   -0.00090    4.16580
 14779.50000   25.56700    7.88460    9.00070   66.36240  138.15670  115.58250    0.23440   -0.00050    4.19720
 14780.00000   26.92220   11.43940   15.54700   68.27960  145.47240  113.55320    0.23770    0.00190    4.26500
 14780.50000   28.90400   11.58790   15.98880   68.01420  145.20350  112.13220    0.23710    0.00490    4.32850
 14781.00000   31.52660   10.53760   15.47750   68.21670  145.05650  110.52140    0.23450    0.00800    4.34290
 14781.50000   35.07180    9.75030   14.98250   71.93590  144.90960  111.56430    0.23600    0.01110    4.34110
 14782.00000   38.68500    8.80850   14.63140   77.61640  144.76260  113.80140    0.22560    0.01110    4.34110
 14782.50000   43.97090    7.51080   14.34620   79.13130  144.61520  114.91160    0.13940    0.01750    4.34510
 14783.00000   46.78250    7.01820   13.60950   78.34340  144.63510  115.09010    0.07640    0.02580    4.36430
 14783.50000   48.38970    2.79290    9.71040   76.64760  145.51400  112.79750    0.04890    0.03400    4.38250
 14784.00000   49.20890    2.42120   42.40480   71.56740  142.17390  111.00340    0.05340    0.02950    4.38610
 14784.50000   50.04190   89.31890   47.92310   74.62900  115.32940  108.32100    0.06770    0.01820    4.38920
 14785.00000   50.41790   97.11880   47.44690   82.81630   95.55470  107.14970    0.07560    0.01130    4.41960
 14785.50000   49.92290   98.16740   49.71550   82.40500   95.62850  106.23020    0.07580    0.01990    4.45770
 14786.00000   48.12380   99.72210   50.29600   79.34450   95.75710  104.67580    0.07460    0.03070    4.50640
 14786.50000   46.22460  101.09530   50.03840   78.60100   95.94640  103.84320    0.07330    0.03970    4.55440
 14787.00000   44.68360  101.91350   49.78210   77.55840   96.40560  105.43570    0.07140    0.03780    4.56850
 14787.50000   42.94510  102.87140   49.52710   77.87460   96.85610  106.40340    0.07010    0.03340    4.59070
 14788.00000   40.28700  111.83340   48.94120   77.50420   97.01920  108.01240    0.06870    0.02890    4.59750
 14788.50000   37.04830   91.25100   44.25620   74.88670   97.40570  107.69640    0.06640    0.02910    4.59770
 14789.00000   34.17400   70.62730   38.28750   59.81980   97.46360  107.95600    0.06300    0.03100    4.55810
 14789.50000   33.10110   40.23760   35.14100   63.78990   97.32600  107.99430    0.05650    0.03300    4.51260
 14790.00000   39.30350   28.12420   32.96890   65.16970   97.96900  107.77310    0.05380    0.04390    4.36340
 14790.50000   51.57290   26.63150   32.20490   68.13440   99.56930  108.28960    0.05280    0.05620    4.28980
 14791.00000   53.48770   27.03330   31.45860   65.36540   96.82800  109.50070    0.05710    0.06170    4.16070
 14791.50000   51.70170   26.20800   30.87110   65.74100   96.01960  110.62210    0.05620    0.04950    4.04320
 14792.00000   49.37000   25.67560   30.61990   65.77570   96.28680  109.32820    0.05460    0.02970    3.94160
 14792.50000   47.23680   37.72210   30.37090   65.53970   96.48080  107.50670    0.05310    0.01080    3.85690
 14793.00000   45.18590   38.45660   30.12380   65.52450   96.62020  105.37690    0.06290    0.00030    3.82060
 14793.50000   42.75830   39.17270   29.87880   65.49200   96.75950  105.27280    0.07870   -0.00230    3.83200
 14794.00000   35.05460   43.83280   29.63580   64.78620   96.93260  106.46490    0.09590    0.00290    3.88790
 14794.50000   25.50790   49.54770   29.50180   64.12200   96.91920  106.68360    0.09720    0.00840    3.95030
 14795.00000   20.07180   49.79440   29.50180   69.06200   97.10260  106.56790    0.08910    0.01540    4.00370
 14795.50000   17.41770   50.04240   29.57020   74.09920  102.26320  107.43140    0.09040    0.02240    3.94950
 14796.00000   16.22280   50.03260   29.69840   74.27250  104.41210  108.19390    0.09090    0.02000    3.83230
 14796.50000   15.15190   49.84920   29.69840   54.17450  102.76620  109.54530    0.09050    0.01370    3.69860
