~Version ---------------------------------------------------
VERS.   2.0 : CWLS log ASCII Standard -VERSION 2.0
WRAP.    NO : One line per depth step
DLM . SPACE : Column Data Section Delimiter
~Well ------------------------------------------------------
STRT .F                  45.0 : START DEPTH
STOP .F               16421.0 : STOP DEPTH
STEP .F                   0.5 : STEP
NULL .               -9999.25 : NULL VALUE
COMP .                        : COMPANY
WELL .                        : WELL
FLD  .                        : FIELD
LOC  .                        : LOCATION
PROV .                        : PROVINCE
CNTY .                        : COUNTY
STAT .                        : STATE
CTRY .                        : COUNTRY
SRVC .                        : SERVICE COMPANY
DATE .                        : DATE
UWI  .                        : UNIQUE WELL ID
API  .                        : API NUMBER
SLAT .WGS84   2.3895984381668 : SURFACE LATITUDE
SLON .WGS84 8.490619107749993 : SURFACE LONGITUDE
DATUM.F                   nan : DEPTH DATUM ELEV
~Curve Information -----------------------------------------
DEPT   .F     : 1 MEASURED DEPTH
RXOZ   .OHMM  : INVADED FORMATION RESISTIVITY FILTERED AT 18 INCHES
RT_HRLT.OHMM  : HRLT TRUE FORMATION RESISTIVITY
RLA3   .OHMM  : APPARENT RESISTIVITY FROM COMPUTED FOCUSING MODE 3
DTCO   .US/F  : DELTA-T COMPRESSIONAL
DTSM   .US/F  : DELTA-T SHEAR
SGRDD  .GAPI  : SPECTROSCOPY GAMMA RAY FROM DENSITY LOG
TNPH_LS.DEC   : THERMAL NEUTRON POROSITY [LIMESTONE]
HDRA   .G/C3  : HRDD SPINE AND RIBS DENSITY CORRECTION
PEFZ   .B/E   : HRDD STANDARD RESOLUTION FORMATION PHOTOELECTRIC FACTOR
~Params ----------------------------------------------------
~Other -----------------------------------------------------
~ASCII -----------------------------------------------------
# ...
 15481.00000    9.43310   12.54920   11.94980   81.19700  155.16690  104.73490    0.26640   -0.00910    3.74120
 15481.50000    9.89290   12.31010   11.74690   81.80390  155.08560  107.39670    0.26780   -0.00520    3.53770
 15482.00000    9.39560   12.47620   11.82650   82.38050  155.01740  107.80660    0.26750   -0.00130    3.36510
 15482.50000    8.65490   12.71540   12.28580   82.62880  155.15390  106.42790    0.27180    0.00140    3.23550
 15483.00000    8.09110   14.33880   12.67300   82.52940  155.35280  103.90390    0.27540    0.00180    3.24420
 15483.50000    8.07440   13.05850   12.61470   82.44900  155.31270  103.79090    0.28300    0.00220    3.26800
 15484.00000    8.28980   13.27390   12.48200   82.35520  155.08620  105.90640    0.28630    0.00260    3.34380
 15484.50000    8.66580   13.26560   12.35070   82.11260  155.04640  109.60200    0.28720    0.00300    3.43020
 15485.00000    8.95670   13.08310   12.22070   81.70350  155.33320  110.22690    0.27600    0.00340    3.51820
 15485.50000    9.12150   12.87300   12.09210   81.76280  155.61020  110.19760    0.27530    0.00340    3.62060
 15486.00000    9.26520   12.80930   12.05710   82.02480  155.87700  108.42840    0.27940    0.00340    3.67720
 15486.50000    9.33200   12.77410   12.05560   81.97610  157.12240  107.36400    0.28350    0.00340    3.66840
 15487.00000    9.29480   12.73890   12.05410   82.04890  157.08160  107.35660    0.29080    0.00340    3.55210
 15487.50000    9.11550   12.76480   12.05260   82.07960  154.94850  108.32210    0.28090    0.00460    3.40840
 15488.00000    8.89960   12.85420   12.05110   82.11490  155.11690  108.99360    0.27320    0.01070    3.36420
 15488.50000    8.78550   12.99190   12.04970   82.22850  154.72300  108.80900    0.26500    0.01700    3.43190
 15489.00000    8.49970   12.48250   12.00180   82.24830  151.93550  109.01380    0.26940    0.02340    3.47690
 15489.50000    8.22760   12.67360   11.51650   82.04940  156.16000  109.87300    0.27190    0.02630    3.46630
 15490.00000    8.27720   13.08090   11.89850   81.97820  155.87550  111.18460    0.27290    0.02320    3.43680
 15490.50000    8.63590   12.96450   12.89240   81.85960  157.49520  110.84470    0.27760    0.02020    3.38480
 15491.00000    9.19950   12.84920   12.99360   81.77210  157.81430  110.01370    0.27780    0.02420    3.33800
 15491.50000    9.74760   12.72970   12.71990   81.77890  157.63760  109.96030    0.27900    0.02830    3.33280
 15492.00000    9.75490   12.66240   12.45190   81.64320  157.46090  110.17450    0.26650    0.03230    3.33810
 15492.50000    9.77400   12.64840   12.20930   81.46410  157.07570  108.42630    0.25620    0.03320    3.34170
 15493.00000    9.79310   12.63440   12.10240   81.31050  155.33010  106.44730    0.24700    0.03010    3.34750
 15493.50000    9.81220   12.62040   12.05610   81.26850  154.72950  104.85120    0.25510    0.02980    3.36230
 15494.00000    9.60930   12.60650   12.07650   81.15750  154.39820  104.58240    0.27240    0.03490    3.39100
 15494.50000    9.28670   12.59250   12.10280   80.97310  153.45910  105.11860    0.28640    0.04560    3.42280
 15495.00000    9.04700   12.62690   12.12910   80.53150  154.33380  108.78370    0.29440    0.04980    3.45460
 15495.50000    9.68300   12.55640   12.15540   80.93980  154.63790  109.39180    0.28630    0.03990    3.44520
 15496.00000    9.15090   12.33650   12.18180   81.12250  155.01310  107.94390    0.28080    0.02080    3.34740
 15496.50000    8.19570   13.37090   12.20830   81.18250  155.31130  104.52510    0.27700    0.00440    3.22000
 15497.00000    7.21640   11.69460   12.28520   81.30160  155.59410  104.95650    0.27180    0.00330    3.12550
 15497.50000    6.94020   15.28160   13.26360   81.55930  155.45220  106.29410    0.26680    0.00210    3.09910
 15498.00000    6.98950   15.72560   14.19860   81.69410  156.22790  108.27200    0.26850    0.00080    3.18350
 15498.50000    7.16170   15.19850   13.73890   81.00870  152.95050  109.78440    0.26970   -0.00050    3.28890
 15499.00000    7.33220   14.95600   13.37250   80.03430  151.92050  110.02280    0.26630   -0.00120    3.36370
 15499.50000    7.42120   14.91520   13.40000   79.51020  152.13490  107.99620    0.25550    0.00060    3.39250
 15500.00000    7.30690   14.78120   13.42760   79.55300  152.34930  102.77060    0.26570    0.00220    3.42120
 15500.50000    7.35470   14.51210   13.45520   79.60140  152.51150   96.97290    0.27170    0.00300    3.46730
 15501.00000    7.68200   13.09230   12.58100   79.80090  152.55750   94.11280    0.27530    0.00330    3.54550
 15501.50000    8.08080   11.13480   11.78680   80.12640  152.60700   94.43420    0.27690    0.00240    3.65150
 15502.00000    8.12920   13.14270   12.21210   80.51770  152.61340   97.45160    0.27810    0.00040    3.65950
 15502.50000    7.96570   15.35700   13.43830   80.56120  152.63600   97.96410    0.27020   -0.00160    3.62290
 15503.00000    8.02140   15.35280   16.06640   80.39810  152.92490   99.09340    0.26870   -0.00360    3.50840
 15503.50000    8.31320   11.86030   13.02680   79.86190  151.75440  100.22270    0.25680   -0.00540    3.41740
 15504.00000    8.86570   11.84310   12.06490   76.81020  142.30790  101.97550    0.25750   -0.00610    3.40590
 15504.50000    8.95310   11.86880   11.69900   75.89870  139.28170  103.17630    0.27190   -0.00660    3.40520
 15505.00000    8.82530   12.03930   11.68040   72.78180  135.06280  103.11790    0.28660   -0.00630    3.40440
 15505.50000    8.77480   12.21220   11.93980   72.40420  134.22330  103.05470    0.26810   -0.00470    3.43610
 15506.00000    9.10900   12.87760   12.63800   72.86810  133.83740  103.08130    0.25190   -0.00300    3.43330
 15506.50000   10.88500   13.77140   13.46410   73.47770  133.17690  105.42650    0.22090   -0.00140    3.41440
 15507.00000   11.42130   14.22700   13.64370   73.41820  133.19100  104.47810    0.22380    0.00030    3.34610
 15507.50000   16.80060   11.12630   13.62520   73.04220  134.69390  101.64070    0.23530    0.00270    3.34580
 15508.00000   19.82310   10.65780   13.57050   73.09310  135.13810  100.82070    0.28260    0.02290    3.38360
 15508.50000   51.95810    9.76740   13.54930   72.69560  135.42670  103.61990    0.33000    0.05310    3.42740
 15509.00000   68.96070    9.70240   13.54590   72.84940  135.85700  108.98480    0.29360    0.09230    3.50710
 15509.50000   20.64910   11.23370   13.54250   73.64430  139.27080  109.96220    0.29300    0.10960    3.55460
 15510.00000   11.02750   29.54280   13.53900   76.70900  149.32960  108.25830    0.30420    0.08510    3.56770
 15510.50000    8.51050   14.97230   13.53560   79.02770  152.37040  107.43630    0.29390    0.04720    3.58090
 15511.00000    8.95640   16.59950   13.53220   78.79700  152.80910  106.17990    0.29370    0.03410    3.55690
 15511.50000    9.38920   15.04580   13.52880   78.82980  152.96870  103.93700    0.27770    0.02450    3.51190
 15512.00000    9.34450   14.95880   13.52540   79.38930  153.00760  104.90730    0.26010    0.01480    3.46990
 15512.50000    9.75060   14.86900   13.52200   80.01520  152.85090  107.77850    0.24450    0.00770    3.40710
 15513.00000    9.37300   14.86820   13.51860   79.93660  152.74970  107.73560    0.24020    0.00370    3.36000
 15513.50000    9.34100   14.87100   13.51520   80.28750  153.22500  106.22890    0.23600    0.00360    3.34140
 15514.00000    9.43010   14.84160   13.51180   79.48460  153.65290  104.46630    0.22920    0.00360    3.32380
 15514.50000   10.24620   14.63190   13.50840   78.87520  151.94140  105.58730    0.22460    0.00140    3.30670
 15515.00000   10.25920   14.54650   13.50500   78.66010  148.76670  103.84920    0.22000   -0.00150    3.30640
 15515.50000   10.26140   14.54870   13.50160   78.26770  148.53290  102.48470    0.21770   -0.00440    3.32710
 15516.00000    9.92470   14.74270   13.49820   77.75080  148.71040  101.60790    0.22610   -0.00730    3.39920
 15516.50000    9.20960   15.02520   13.51190   76.81750  149.04420  101.37850    0.22860   -0.00780    3.51950
