~Version ---------------------------------------------------
VERS.   2.0 : CWLS log ASCII Standard -VERSION 2.0
WRAP.    NO : One line per depth step
DLM . SPACE : Column Data Section Delimiter
~Well ------------------------------------------------------
STRT .F                  45.0 : START DEPTH
STOP .F               16421.0 : STOP DEPTH
STEP .F                   0.5 : STEP
NULL .               -9999.25 : NULL VALUE
COMP .                        : COMPANY
WELL .                        : WELL
FLD  .                        : FIELD
LOC  .                        : LOCATION
PROV .                        : PROVINCE
CNTY .                        : COUNTY
STAT .                        : STATE
CTRY .                        : COUNTRY
SRVC .                        : SERVICE COMPANY
DATE .                        : DATE
UWI  .                        : UNIQUE WELL ID
API  .                        : API NUMBER
SLAT .WGS84   2.3895984381668 : SURFACE LATITUDE
SLON .WGS84 8.490619107749993 : SURFACE LONGITUDE
DATUM.F                   nan : DEPTH DATUM ELEV
~Curve Information -----------------------------------------
DEPT   .F     : 1 MEASURED DEPTH
RXOZ   .OHMM  : INVADED FORMATION RESISTIVITY FILTERED AT 18 INCHES
RT_HRLT.OHMM  : HRLT TRUE FORMATION RESISTIVITY
RLA3   .OHMM  : APPARENT RESISTIVITY FROM COMPUTED FOCUSING MODE 3
DTCO   .US/F  : DELTA-T COMPRESSIONAL
DTSM   .US/F  : DELTA-T SHEAR
SGRDD  .GAPI  : SPECTROSCOPY GAMMA RAY FROM DENSITY LOG
TNPH_LS.DEC   : THERMAL NEUTRON POROSITY [LIMESTONE]
HDRA   .G/C3  : HRDD SPINE AND RIBS DENSITY CORRECTION
PEFZ   .B/E   : HRDD STANDARD RESOLUTION FORMATION PHOTOELECTRIC FACTOR
~Params ----------------------------------------------------
~Other -----------------------------------------------------
~ASCII -----------------------------------------------------
# ...
 15049.00000   81.41940  236.89520  172.31030   80.87570  145.53950  101.96230    0.15870    0.17190    3.69790
 15049.50000   81.04210  202.72620  152.22540   79.06810  154.14750  117.31900    0.30960    0.21850    3.60970
 15050.00000   80.64970  234.11400   91.47980   77.16380  154.43180  120.27290    0.25340    0.26170    3.51750
 15050.50000   80.48850    4.02920   24.13090   75.93150  154.91380  119.95750    0.20340    0.29460    3.42820
 15051.00000   80.70980    4.59890    8.61220   75.98640  155.58230  118.89100    0.18410    0.29960    3.32500
 15051.50000   80.86950    5.89420    8.46800   75.29690  156.12000  118.00190    0.18860    0.29730    3.34070
 15052.00000   63.46510    5.89420    8.43220   76.57710  156.27850  117.33160    0.19210    0.26910    3.53160
 15052.50000   14.85450    6.24090    8.39670   78.04600  156.66030  117.14040    0.19730    0.22570    3.72700
 15053.00000    8.44730    9.97910    8.36120   82.19050  157.89490  115.15820    0.19950    0.15870    3.88670
 15053.50000    6.31860    9.88720    8.63490   87.76540  166.61010  114.01880    0.20190    0.09620    3.91800
 15054.00000    6.90450    9.73100   10.15030   90.26950  160.88900  114.43780    0.20670    0.05400    3.79130
 15054.50000    6.78590    9.74320   10.12130   82.62790  158.96360  117.52430    0.20870    0.01540    3.66190
 15055.00000    6.60480    9.92140    9.81870   82.02370  158.78970  117.61950    0.20850    0.00780    3.58720
 15055.50000    6.51570   10.00140    9.52500   80.86730  158.91440  114.86240    0.22230    0.00020    3.51260
 15056.00000    6.45630    9.94380    9.21390   77.00000  158.97680  112.93330    0.24950   -0.00730    3.44460
 15056.50000    6.59900    9.84350    8.88290   75.08180  159.00920  112.80620    0.27670   -0.00880    3.38120
 15057.00000    7.16230    9.74420    9.31230   74.99170  158.80080  114.30760    0.30040   -0.00870    3.34200
 15057.50000    7.73310    9.42620    9.60120   75.58040  159.57480  114.09220    0.31500   -0.00780    3.33480
 15058.00000    7.94780    9.29090    9.60120   75.22530  160.78500  112.41430    0.29560   -0.00680    3.34920
 15058.50000    7.89200    9.38200    9.45510   71.20190  159.99760  112.32850    0.28340   -0.00590    3.41110
 15059.00000    7.80390    9.37010    9.29940   71.42030  159.06230  114.86620    0.28960   -0.00500    3.52960
 15059.50000    7.80680    9.34190    9.14620   76.65700  159.04300  116.12030    0.30680   -0.00400    3.58320
 15060.00000    7.80860    9.16640    8.99560   80.88730  157.98510  116.95280    0.31240   -0.00310    3.51480
 15060.50000    7.79050   10.07280    8.91000   79.77340  158.98370  115.36280    0.29930   -0.00210    3.41040
 15061.00000    7.77000    9.50390    8.84910   81.06710  161.87530  113.21030    0.29410   -0.00120    3.30600
 15061.50000    7.81690    8.73890    8.78020   81.09940  163.33830  113.14550    0.29010   -0.00040    3.29410
 15062.00000    8.06940    8.31830    8.70820   81.71780  163.85230  114.96160    0.29180   -0.00040    3.27350
 15062.50000    8.34860    8.03590    8.63690   82.45680  164.10080  116.38480    0.29380   -0.00040    3.25060
 15063.00000    8.45660    8.00560    8.56610   82.23340  164.11600  116.16450    0.29930   -0.00040    3.24270
 15063.50000    8.41250    8.00690    8.49590   81.69820  164.13120  115.29280    0.30470    0.00010    3.21650
 15064.00000    8.50150    8.00860    8.42630   81.54060  164.14640  114.24120    0.30350    0.00080    3.20750
 15064.50000    8.72700    8.01030    8.35730   81.52510  163.62080  113.64490    0.30600    0.00290    3.23260
 15065.00000    8.84280    8.01210    8.35850   81.56940  162.04140  113.70100    0.31250    0.00510    3.27740
 15065.50000    8.84510    8.01380    8.39720   81.72460  161.43550  115.46600    0.31770    0.00730    3.28880
 15066.00000    8.84740    7.97900    8.51550   82.68810  163.95030  116.31770    0.31300    0.00860    3.28910
 15066.50000    8.84970    7.44210    8.67170   82.67970  164.51310  117.24210    0.28930    0.00970    3.28830
 15067.00000    8.85200    9.29030    8.83070   82.67130  164.45470  118.98470    0.27990    0.01440    3.28750
 15067.50000    8.67610    9.68630    8.99270   82.57090  164.41400  120.70460    0.28500    0.01890    3.33170
 15068.00000    8.00520   10.00210    9.27600   82.44500  164.28440  117.59780    0.30100    0.02280    3.39850
 15068.50000    8.46880   10.09590    9.70170   82.32670  164.01670  112.93760    0.31700    0.02670    3.47580
 15069.00000   10.18590   10.01090    9.93800   82.33120  163.74900  109.79700    0.31400    0.02790    3.49890
 15069.50000   12.05130    7.37970    9.53670   82.60240  163.48130  113.11340    0.30050    0.01930    3.45670
 15070.00000   10.64150    5.84130    6.94440   82.78740  163.32980  118.02470    0.29440    0.01070    3.36780
 15070.50000    9.80620    8.76450    6.94900   82.83750  163.24750  121.23650    0.29930    0.00310    3.30550
 15071.00000    9.62370    6.96550    6.95080   82.83290  163.11790  118.94790    0.30270    0.00250    3.29100
 15071.50000    9.39740    6.60250    6.95230   82.60040  163.00880  113.96500    0.30620    0.00190    3.30230
 15072.00000    8.95030    6.47170    6.89640   81.89130  162.99600  111.72680    0.30780    0.00110    3.31580
 15072.50000    8.38500    6.50620    6.79800   81.50570  162.97490  113.95800    0.30020    0.00040    3.32930
 15073.00000    7.65100    6.70230    6.76570   81.41640  161.78350  114.04190    0.26260   -0.00030    3.28810
 15073.50000    7.05940    6.94860    6.74480   80.05850  152.66600  102.72540    0.21550   -0.00100    3.25350
 15074.00000    6.80940    7.17130    6.74840   75.20090  129.79820   91.40900    0.18830   -0.00180    3.23540
 15074.50000    6.40290   18.79010   11.52510   73.23640  131.07660   91.22950    0.17530   -0.00280    3.23160
 15075.00000    6.01620   18.51970   15.71200   73.34360  127.30130   97.34840    0.17470   -0.00110    3.21310
 15075.50000    5.61290   23.54990   18.60530   71.76390  127.08980  104.75280    0.17640    0.00070    3.20330
 15076.00000    5.22840   26.16890   21.98550   71.28710  126.96660  107.58930    0.18120    0.00240    3.15720
 15076.50000    4.89550   26.89530   22.55680   71.84150  126.80040  106.37970    0.18590    0.00280    3.13020
 15077.00000    4.87030   27.38460   22.50550   72.77000  126.52960  102.99610    0.19050    0.00160    3.13030
 15077.50000    5.08090   27.68120   22.45440   74.73680  126.25690  100.11300    0.18920    0.00050    3.14910
 15078.00000    5.74680   31.81740   24.22060   76.39260  125.85170   99.99500    0.19840    0.00020    3.15560
 15078.50000    6.83760   37.17850   29.49820   75.60590  125.68490  101.53430    0.19630    0.00080    3.16220
 15079.00000    8.41860   37.07660   29.71540   75.40200  125.56080  103.44050    0.18720    0.00130    3.15590
 15079.50000   10.74550   36.16680   29.55470   75.26710  125.07820  102.70740    0.16110    0.00180    3.15520
 15080.00000   12.96540   35.47980   29.46270   75.14010  124.91670  100.76040    0.14670    0.00160    3.15830
 15080.50000   13.68840   35.16690   29.46210   75.09060  124.93820  100.00120    0.14890    0.00040    3.17060
 15081.00000   13.98420   28.21770   29.06010   75.14500  125.08390  100.40280    0.16360    0.00020    3.19220
 15081.50000   13.91650   16.87260   18.67230   75.18400  123.39380  102.46230    0.17010    0.00160    3.20140
 15082.00000   18.54530   30.63790   19.96490   74.83380  123.53590  104.28110    0.16030    0.00210    3.20870
 15082.50000   25.34860   34.27990   27.87980   74.88640  130.68750  104.37050    0.16000    0.00210    3.20930
 15083.00000   50.01990   22.45990   30.28950   75.38180  134.15730  103.81470    0.15960    0.00230    3.20690
 15083.50000   62.62300   18.49870   29.72190   72.19710  134.52020  102.48980    0.15920    0.00270    3.18890
 15084.00000   40.47480   19.79740   28.50420   72.82260  134.48820  102.03300    0.16660    0.00320    3.15930
 15084.50000   23.75210   25.67650   27.33630   73.16740  134.46060  101.50260    0.19890    0.00330    3.12970
