~Version ---------------------------------------------------
VERS.   2.0 : CWLS log ASCII Standard -VERSION 2.0
WRAP.    NO : One line per depth step
DLM . SPACE : Column Data Section Delimiter
~Well ------------------------------------------------------
STRT .F                  45.0 : START DEPTH
STOP .F               16421.0 : STOP DEPTH
STEP .F                   0.5 : STEP
NULL .               -9999.25 : NULL VALUE
COMP .                        : COMPANY
WELL .                        : WELL
FLD  .                        : FIELD
LOC  .                        : LOCATION
PROV .                        : PROVINCE
CNTY .                        : COUNTY
STAT .                        : STATE
CTRY .                        : COUNTRY
SRVC .                        : SERVICE COMPANY
DATE .                        : DATE
UWI  .                        : UNIQUE WELL ID
API  .                        : API NUMBER
SLAT .WGS84   2.3895984381668 : SURFACE LATITUDE
SLON .WGS84 8.490619107749993 : SURFACE LONGITUDE
DATUM.F                   nan : DEPTH DATUM ELEV
~Curve Information -----------------------------------------
DEPT   .F     : 1 MEASURED DEPTH
RXOZ   .OHMM  : INVADED FORMATION RESISTIVITY FILTERED AT 18 INCHES
RT_HRLT.OHMM  : HRLT TRUE FORMATION RESISTIVITY
RLA3   .OHMM  : APPARENT RESISTIVITY FROM COMPUTED FOCUSING MODE 3
DTCO   .US/F  : DELTA-T COMPRESSIONAL
DTSM   .US/F  : DELTA-T SHEAR
SGRDD  .GAPI  : SPECTROSCOPY GAMMA RAY FROM DENSITY LOG
TNPH_LS.DEC   : THERMAL NEUTRON POROSITY [LIMESTONE]
HDRA   .G/C3  : HRDD SPINE AND RIBS DENSITY CORRECTION
PEFZ   .B/E   : HRDD STANDARD RESOLUTION FORMATION PHOTOELECTRIC FACTOR
~Params ----------------------------------------------------
~Other -----------------------------------------------------
~ASCII -----------------------------------------------------
# ...
 15625.00000   11.05620   20.17720   15.21680   77.40640  155.83550  110.59790    0.18460    0.00600    3.77410
 15625.50000    9.68410   15.24340   14.47110   76.68250  156.31390  110.51970    0.20270    0.00480    3.67840
 15626.00000    8.60860   15.11430   13.76560   76.00780  157.50250  108.82340    0.22850    0.00360    3.63790
 15626.50000    8.35040   15.10870   13.48000   75.92770  155.68140  107.05580    0.23940    0.00240    3.65630
 15627.00000    8.31970   15.10290   13.38210   75.98150  159.84180  107.80320    0.24080    0.00210    3.69970
 15627.50000    8.38280   15.09700   13.38000   75.17420  163.54470  107.52030    0.23980    0.00180    3.72510
 15628.00000    8.61070   15.10220   13.35220   75.98590  167.30920  106.17590    0.24320    0.00160    3.69400
 15628.50000    9.47170   14.70880   13.31720   76.18290  170.75450  104.24180    0.24600    0.00140    3.67980
 15629.00000   10.75280   14.08880   13.28230   77.28450  177.43490  103.58910    0.24740    0.00140    3.72130
 15629.50000   11.54440   13.79250   13.51810   79.91580  204.51540  104.50280    0.25440    0.00140    3.76290
 15630.00000    9.95790   20.80250   13.72940   79.46840  170.76050  105.90250    0.25960    0.00140    3.72290
 15630.50000    9.36780   19.15540   25.01120   79.14410  171.15920  107.29970    0.26460    0.00140    3.56910
 15631.00000    9.44280   30.03030   37.49430   80.01300  171.49220  107.06140    0.25380    0.00140    3.40570
 15631.50000    9.57350   20.80590   23.75790   80.65050  171.35860  105.48470    0.24510    0.00140    3.31320
 15632.00000    9.25440   20.01750   21.26660   81.04670  171.36730  104.79810    0.23560    0.00140    3.30340
 15632.50000    9.04720   19.86390   20.74800   81.53260  171.37700  104.80630    0.22950    0.00040    3.31830
 15633.00000    9.00650   17.18860   18.99320   81.90610  171.53120  105.88890    0.22940   -0.00130    3.32530
 15633.50000    9.00320   16.52670   17.73000   82.20430  171.61460  104.96760    0.23610   -0.00300    3.32070
 15634.00000    9.11700   16.47700   17.55030   82.36320  171.69360  103.32600    0.24040   -0.00320    3.31610
 15634.50000    9.62110   16.42360   17.38790   82.58790  171.74310  102.23770    0.24010   -0.00090    3.32050
 15635.00000   11.70190   17.24240   17.22700   82.68890  171.95880  102.97750    0.23010    0.00130    3.35590
 15635.50000   13.17480   17.60470   17.06750   82.66420  172.12530  102.35400    0.20540    0.00310    3.45340
 15636.00000   12.12350   17.29190   17.14520   82.72820  171.87180  100.60870    0.19570    0.00370    3.53420
 15636.50000   10.26420   16.77140   17.34690   84.65640  171.76500  100.43740    0.21070    0.00300    3.60910
 15637.00000    9.14960   16.50960   17.56590   86.69390  171.72780  103.02350    0.24240    0.00260    3.71230
 15637.50000    8.52090   16.49200   17.80040   87.93790  171.68500  103.11920    0.23390   -0.00090    3.81670
 15638.00000    7.93610   18.09740   31.28660   85.60680  171.43870  103.44610    0.21880   -0.00510    3.91300
 15638.50000    7.62780   23.03250   18.22250   70.94890  171.52620  103.45830    0.23170   -0.00760    3.99660
 15639.00000    7.49620   13.64050   15.87000   72.22930  171.57310  107.05530    0.24900   -0.01000    4.08020
 15639.50000    7.48650   15.22230   16.64650   80.73580  171.69090  109.49740    0.25810   -0.01070    4.14470
 15640.00000    7.50740   11.40380   11.13460   86.82640  171.80870  108.32620    0.25870   -0.00910    4.15540
 15640.50000    7.40330   13.40540   12.50340   87.15370  171.91650  106.44210    0.25460   -0.00600    4.14090
 15641.00000    7.20840   13.41850   12.50420   86.53600  171.84270  102.12470    0.25960   -0.00300    4.12960
 15641.50000    6.90090   13.43330   12.52500   83.68150  171.83360  100.92040    0.25290   -0.00310    4.11340
 15642.00000    6.69460   13.44800   12.54590   83.85370  171.41410  101.59160    0.23620   -0.00440    4.08140
 15642.50000    6.52920   13.46290   12.56670   83.92500  171.15790  103.03300    0.22270   -0.00560    4.06840
 15643.00000    6.49170   13.47770   12.58760   83.96820  171.85370  104.04400    0.21570   -0.00960    4.03230
 15643.50000    6.57730   13.49250   12.60850   83.97340  172.50820  105.24020    0.24040   -0.01000    3.99620
 15644.00000    6.73320   13.50740   12.62950   83.95710  172.43080  106.72060    0.24450   -0.01050    3.95080
 15644.50000    6.88430   13.52230   12.65050   83.95480  172.41400  108.25000    0.23230   -0.01050    3.90020
 15645.00000    7.01740   13.53720   12.67150   83.97870  172.41860  107.24580    0.21570   -0.00980    3.82400
 15645.50000    7.08370   13.45920   12.68780   84.08560  172.36090  104.96490    0.21390   -0.00910    3.74420
 15646.00000    7.13550   13.47670   12.68780   84.09120  171.99890  103.18050    0.21630   -0.00830    3.69790
 15646.50000    7.19980   13.50290   12.68780   84.18830  178.41490  104.20780    0.23850   -0.00760    3.65160
 15647.00000    7.29260   13.46400   12.68780   85.24140  207.91070  106.69600    0.25310   -0.00670    3.62650
 15647.50000    7.87480   13.42540   12.68780   85.11820  176.34030  109.00620    0.27860   -0.00450    3.57570
 15648.00000    7.95090   13.33480   12.68780   85.23890  176.14180  107.83720    0.29280   -0.00250    3.49900
 15648.50000    7.65440   13.51610   12.68780   85.27400  175.94320  108.53830    0.28700   -0.00080    3.43030
 15649.00000    6.48750   13.74430   12.68780   85.16800  175.62550  108.57900    0.27640    0.00090    3.42550
 15649.50000    6.71240   13.69620   12.71260   85.07310  174.64480  108.84100    0.27760    0.00260    3.51990
 15650.00000    7.72230   13.61120   12.74390   85.31480  174.81560  106.47410    0.29040    0.00380    3.62610
 15650.50000    8.91210   13.52670   12.77530   85.65490  177.21830  105.34530    0.28790    0.00380    3.72570
 15651.00000    8.98650   13.45160   13.04970   84.70510  163.47140  105.91740    0.28090    0.00370    3.80160
 15651.50000    8.85620   13.56180   13.33400   81.96580  157.12360  106.49370    0.28030    0.00250    3.87190
 15652.00000    8.58470   13.72980   13.44150   82.16140  157.70720  108.70980    0.29220    0.00330    3.92030
 15652.50000    8.50200   12.22390   11.53010   82.21330  160.65680  109.39950    0.28650    0.00490    3.94760
 15653.00000    8.50870   13.03620   12.15050   82.26870  159.46530  110.12120    0.28180    0.00650    3.90700
 15653.50000    8.63520   12.19230   11.11430   82.27420  159.32260  108.67490    0.26560    0.00670    3.81550
 15654.00000    8.94410   14.17270   13.10400   82.29630  159.10360  109.34690    0.26360    0.00580    3.72670
 15654.50000    9.12630   15.15850   12.96210   82.37550  157.59510  110.34390    0.26400    0.00500    3.65110
 15655.00000    8.70950   12.35170   11.48340   82.15430  156.92250  110.54690    0.25940    0.00410    3.57550
 15655.50000    8.27370   12.60380   11.52970   81.98180  159.64570  110.56300    0.25770    0.00370    3.50540
 15656.00000    7.85320   12.67180   11.66760   82.40720  159.72450  109.44680    0.25700    0.00370    3.43020
 15656.50000    7.59220   12.63530   11.48590   82.48330  160.68420  107.85010    0.26520    0.00470    3.39830
 15657.00000    7.75250   11.68060   10.78290   82.53870  160.39770  106.58050    0.27540    0.00490    3.46470
 15657.50000    8.00300   11.24840   10.10140   82.74630  160.14260  107.27930    0.28670    0.00400    3.50160
 15658.00000    8.10880   10.36090    9.46250   82.82770  160.11160  109.36070    0.28950    0.00270    3.49370
 15658.50000    7.99770    9.91440    8.89210   82.88320  160.12320  111.52360    0.28190    0.00350    3.47230
 15659.00000    7.52080   10.08780    8.93390   83.14890  160.13470  116.49970    0.27650    0.01090    3.51060
 15659.50000    6.54650   10.26610    9.02100   84.21770  160.35110  118.54040    0.27290    0.02000    3.60930
 15660.00000    6.78130   10.15610    9.24280   85.15030  160.26740  118.92120    0.26920    0.02900    3.74720
 15660.50000    7.65660    9.79610    9.59690   84.74290  159.79650  113.40000    0.26780    0.03810    3.83140
