~Version ---------------------------------------------------
VERS.   2.0 : CWLS log ASCII Standard -VERSION 2.0
WRAP.    NO : One line per depth step
DLM . SPACE : Column Data Section Delimiter
~Well ------------------------------------------------------
STRT .F                  45.0 : START DEPTH
STOP .F               16421.0 : STOP DEPTH
STEP .F                   0.5 : STEP
NULL .               -9999.25 : NULL VALUE
COMP .                        : COMPANY
WELL .                        : WELL
FLD  .                        : FIELD
LOC  .                        : LOCATION
PROV .                        : PROVINCE
CNTY .                        : COUNTY
STAT .                        : STATE
CTRY .                        : COUNTRY
SRVC .                        : SERVICE COMPANY
DATE .                        : DATE
UWI  .                        : UNIQUE WELL ID
API  .                        : API NUMBER
SLAT .WGS84   2.3895984381668 : SURFACE LATITUDE
SLON .WGS84 8.490619107749993 : SURFACE LONGITUDE
DATUM.F                   nan : DEPTH DATUM ELEV
~Curve Information -----------------------------------------
DEPT   .F     : 1 MEASURED DEPTH
RXOZ   .OHMM  : INVADED FORMATION RESISTIVITY FILTERED AT 18 INCHES
RT_HRLT.OHMM  : HRLT TRUE FORMATION RESISTIVITY
RLA3   .OHMM  : APPARENT RESISTIVITY FROM COMPUTED FOCUSING MODE 3
DTCO   .US/F  : DELTA-T COMPRESSIONAL
DTSM   .US/F  : DELTA-T SHEAR
SGRDD  .GAPI  : SPECTROSCOPY GAMMA RAY FROM DENSITY LOG
TNPH_LS.DEC   : THERMAL NEUTRON POROSITY [LIMESTONE]
HDRA   .G/C3  : HRDD SPINE AND RIBS DENSITY CORRECTION
PEFZ   .B/E   : HRDD STANDARD RESOLUTION FORMATION PHOTOELECTRIC FACTOR
~Params ----------------------------------------------------
~Other -----------------------------------------------------
~ASCII -----------------------------------------------------
# ...
 16345.00000   49.77250  185.64360  242.36660   69.79270  117.86680   -9999.25    0.15380    0.00470    3.95350
 16345.50000   49.54880  119.79160  158.51280   69.77330  117.82710   -9999.25    0.14710    0.00220    3.91570
 16346.00000   49.44630  122.61170  151.38020   69.76740  117.78740   -9999.25    0.14150    0.00100    3.90650
 16346.50000   50.12600  127.11520  153.53290   69.75760  117.75080   -9999.25    0.14290    0.00040    3.90440
 16347.00000   53.65620  131.78420  157.33930   69.74830  117.68900   -9999.25    0.14550    0.00190    3.88420
 16347.50000   59.99850  135.11400  161.26590   69.73900  117.60470   -9999.25    0.14280    0.00410    3.86400
 16348.00000   65.44940  138.88790  167.06950   69.72970  117.51860   -9999.25    0.13810    0.00620    3.81700
 16348.50000   69.02670  155.26340  245.02290   -9999.25   -9999.25   -9999.25    0.13620    0.00830    3.78480
 16349.00000   69.75610  500.89130  645.55560   -9999.25   -9999.25   -9999.25    0.13810    0.00430    3.78600
 16349.50000   71.02270  235.87420  314.89330   -9999.25   -9999.25   -9999.25    0.13990   -0.00020    3.78530
 16350.00000   73.02370  202.04380  351.77900   -9999.25   -9999.25   -9999.25    0.14100   -0.00390    3.78500
 16350.50000   66.87100  785.15330  938.12860   -9999.25   -9999.25   -9999.25    0.14160   -0.00480    3.77760
 16351.00000   58.20290  838.79580  987.76510   -9999.25   -9999.25   -9999.25    0.14080   -0.00420    3.75620
 16351.50000   59.51740  840.25810  981.51810   -9999.25   -9999.25   -9999.25    0.13590   -0.00350    3.73360
 16352.00000   68.82260  838.12700  974.56170   -9999.25   -9999.25   -9999.25    0.13000   -0.00240    3.71720
 16352.50000   79.33460  838.90670  967.14060   -9999.25   -9999.25   -9999.25    0.12530   -0.00070    3.71680
 16353.00000   78.24700  839.68680  968.67190   -9999.25   -9999.25   -9999.25    0.12300    0.00100    3.71640
 16353.50000   77.02880  840.46810  973.94450   -9999.25   -9999.25   -9999.25    0.12530    0.00190    3.71600
 16354.00000   74.98560  841.25000  979.24520   -9999.25   -9999.25   -9999.25    0.12710    0.00020    3.75930
 16354.50000   74.08280  842.03230  984.06790   -9999.25   -9999.25   -9999.25    0.13140   -0.00150    3.81080
 16355.00000   72.21730  842.81570  986.98950   -9999.25   -9999.25   -9999.25    0.13890   -0.00320    3.89730
 16355.50000   72.01160  843.59940  977.70030   -9999.25   -9999.25   -9999.25    0.14620   -0.00480    3.95730
 16356.00000   72.10750  844.38430  974.63870   -9999.25   -9999.25   -9999.25    0.15110   -0.00550    3.92390
 16356.50000   72.01520  845.16940  975.76460   -9999.25   -9999.25   -9999.25    0.15020   -0.00510    3.83860
 16357.00000   70.07430  845.95570  976.89130   -9999.25   -9999.25   -9999.25    0.14610   -0.00470    3.76840
 16357.50000   70.02570  846.74240  971.60010   -9999.25   -9999.25   -9999.25    0.14160   -0.00440    3.71810
 16358.00000   70.28940  843.94450  966.01140   -9999.25   -9999.25   -9999.25    0.13900   -0.00410    3.72690
 16358.50000   70.33910  771.92340  960.45430   -9999.25   -9999.25   -9999.25    0.13930   -0.00390    3.73570
 16359.00000   69.51640 1271.18070  981.80420   -9999.25   -9999.25   -9999.25    0.14060   -0.00370    3.71030
 16359.50000   68.07610 1267.36910 1007.05880   -9999.25   -9999.25   -9999.25    0.14230   -0.00340    3.65070
 16360.00000   63.58330 1231.94190  968.55440   -9999.25   -9999.25   -9999.25    0.14410   -0.00320    3.58090
 16360.50000   59.83010 1232.25920  951.75340   -9999.25   -9999.25   -9999.25    0.14480   -0.00300    3.52780
 16361.00000   61.80860 1218.13720  942.05710   -9999.25   -9999.25   -9999.25    0.14160   -0.00280    3.48250
 16361.50000   66.25040 1199.42030  934.00010   -9999.25   -9999.25   -9999.25    0.14160   -0.00260    3.42440
 16362.00000   70.29090 1184.50430  924.90190   -9999.25   -9999.25   -9999.25    0.14040   -0.00240    3.40950
 16362.50000   73.00560 1169.93750  912.88900   -9999.25   -9999.25   -9999.25    0.13850   -0.00280    3.40940
 16363.00000   72.94890 1154.53420  901.03170   -9999.25   -9999.25   -9999.25    0.13790   -0.00320    3.43070
 16363.50000   70.69450 1138.92760  888.97200   -9999.25   -9999.25   -9999.25    0.13780   -0.00350    3.42200
 16364.00000   59.12170 1121.53190  847.87740   -9999.25   -9999.25   -9999.25    0.13740   -0.00380    3.39910
 16364.50000   51.67710 1103.19340  815.93650   -9999.25   -9999.25   -9999.25    0.13590   -0.00380    3.37810
 16365.00000   51.10280  885.42720  791.07720   -9999.25   -9999.25   -9999.25    0.13810   -0.00350    3.35500
 16365.50000   58.78570  611.92350  766.97530   -9999.25   -9999.25   -9999.25    0.14130   -0.00320    3.39090
 16366.00000   62.24660  595.39750  747.59690   -9999.25   -9999.25   -9999.25    0.14350   -0.00290    3.49570
 16366.50000   49.45900  581.25200  737.49690   -9999.25   -9999.25   -9999.25    0.14530   -0.00350    3.59420
 16367.00000   48.37250  581.40550  727.53330   -9999.25   -9999.25   -9999.25    0.14760   -0.00460    3.59730
 16367.50000   48.66230  571.52880  717.70430   -9999.25   -9999.25   -9999.25    0.15090   -0.00560    3.53960
 16368.00000   57.34680  560.30720  702.26250   -9999.25   -9999.25   -9999.25    0.15090   -0.00450    3.44350
 16368.50000   57.01220  543.88400  686.81600   -9999.25   -9999.25   -9999.25    0.14870   -0.00240    3.37760
 16369.00000   59.35700  537.99760  672.48440   -9999.25   -9999.25   -9999.25    0.15150   -0.00030    3.36160
 16369.50000   63.56660  536.04100  670.75850   -9999.25   -9999.25   -9999.25    0.15140    0.00190    3.34560
 16370.00000   63.27070  528.65890  666.79560   -9999.25   -9999.25   -9999.25    0.15080    0.00410    3.39080
 16370.50000   59.68790  522.31670  657.61680   -9999.25   -9999.25   -9999.25    0.14780    0.00630    3.44880
 16371.00000   51.69320  518.45290  649.33950   -9999.25   -9999.25   -9999.25    0.14490    0.00850    3.42210
 16371.50000   50.06270  512.95940  641.09650   -9999.25   -9999.25   -9999.25    0.12870    0.00790    3.36200
 16372.00000   52.28640  510.52990  632.95800   -9999.25   -9999.25   -9999.25    0.07170    0.00390    3.34930
 16372.50000   53.72730  508.11160  627.39920   -9999.25   -9999.25   -9999.25    0.05980   -0.00020    3.38460
 16373.00000   53.42570  505.70500  622.69240   -9999.25   -9999.25   -9999.25    0.07530   -0.00360    3.54850
 16373.50000   54.49350  503.30980  618.02100   -9999.25   -9999.25   -9999.25    0.17700   -0.00360    3.69320
 16374.00000   57.55380  500.92600  613.38490   -9999.25   -9999.25   -9999.25    0.19530   -0.00360    3.81610
 16374.50000   60.78110  498.55340  608.78330   -9999.25   -9999.25   -9999.25    0.16610   -0.00310    3.83620
 16375.00000   62.36150  496.09490  604.21610   -9999.25   -9999.25   -9999.25    0.16330   -0.00250    3.73170
 16375.50000   62.93280  493.17090  599.68320   -9999.25   -9999.25   -9999.25    0.16640   -0.00180    3.60060
 16376.00000   61.78550  490.26420  598.65240   -9999.25   -9999.25   -9999.25    0.17450   -0.00110    3.51510
 16376.50000   63.87260  489.50770  598.65240   -9999.25   -9999.25   -9999.25    0.17280   -0.00140    3.43590
 16377.00000   64.22410  487.08920  598.65240   -9999.25   -9999.25   -9999.25    0.16410   -0.00200    3.42320
 16377.50000   65.11580  447.51750  601.38070   -9999.25   -9999.25   -9999.25    0.16010   -0.00240    3.45830
 16378.00000   66.91240  586.04340  657.09500   -9999.25   -9999.25   -9999.25    0.16110   -0.00280    3.48890
 16378.50000   69.61020 1028.78490  811.62010   -9999.25   -9999.25   -9999.25    0.16400   -0.00180    3.51400
 16379.00000   67.73530 1109.46000  889.33120   -9999.25   -9999.25   -9999.25    0.16850   -0.00130    3.53910
 16379.50000   64.06490 1153.06840  901.84520   -9999.25   -9999.25   -9999.25    0.17080   -0.00140    3.55630
 16380.00000   60.01550 1157.61410  876.64330   -9999.25   -9999.25   -9999.25    0.16980   -0.00040    3.59260
 16380.50000   56.05490  702.90080  717.03690   -9999.25   -9999.25   -9999.25    0.16640    0.00100    3.61810
