~Version ---------------------------------------------------
VERS.   2.0 : CWLS log ASCII Standard -VERSION 2.0
WRAP.    NO : One line per depth step
DLM . SPACE : Column Data Section Delimiter
~Well ------------------------------------------------------
STRT .F                  45.0 : START DEPTH
STOP .F               16421.0 : STOP DEPTH
STEP .F                   0.5 : STEP
NULL .               -9999.25 : NULL VALUE
COMP .                        : COMPANY
WELL .                        : WELL
FLD  .                        : FIELD
LOC  .                        : LOCATION
PROV .                        : PROVINCE
CNTY .                        : COUNTY
STAT .                        : STATE
CTRY .                        : COUNTRY
SRVC .                        : SERVICE COMPANY
DATE .                        : DATE
UWI  .                        : UNIQUE WELL ID
API  .                        : API NUMBER
SLAT .WGS84   2.3895984381668 : SURFACE LATITUDE
SLON .WGS84 8.490619107749993 : SURFACE LONGITUDE
DATUM.F                   nan : DEPTH DATUM ELEV
~Curve Information -----------------------------------------
DEPT   .F     : 1 MEASURED DEPTH
RXOZ   .OHMM  : INVADED FORMATION RESISTIVITY FILTERED AT 18 INCHES
RT_HRLT.OHMM  : HRLT TRUE FORMATION RESISTIVITY
RLA3   .OHMM  : APPARENT RESISTIVITY FROM COMPUTED FOCUSING MODE 3
DTCO   .US/F  : DELTA-T COMPRESSIONAL
DTSM   .US/F  : DELTA-T SHEAR
SGRDD  .GAPI  : SPECTROSCOPY GAMMA RAY FROM DENSITY LOG
TNPH_LS.DEC   : THERMAL NEUTRON POROSITY [LIMESTONE]
HDRA   .G/C3  : HRDD SPINE AND RIBS DENSITY CORRECTION
PEFZ   .B/E   : HRDD STANDARD RESOLUTION FORMATION PHOTOELECTRIC FACTOR
~Params ----------------------------------------------------
~Other -----------------------------------------------------
~ASCII -----------------------------------------------------
# ...
 15769.00000   15.13160   43.05670   49.13820   83.98520  155.45810  140.35720    0.21050   -0.00500    3.50030
 15769.50000   15.93450   24.95110   23.18030   86.01490  157.03970  140.09730    0.21750   -0.00650    3.47270
 15770.00000   15.16710   29.60940   25.36910   85.85590  158.51370  140.14090    0.22380   -0.00330    3.45100
 15770.50000   14.90170   26.12880   24.37910   85.28970  159.42370  141.18870    0.23380   -0.00010    3.45350
 15771.00000   14.29620   22.89900   20.64150   85.70950  158.53120  144.29430    0.25130    0.00320    3.46510
 15771.50000   14.45450   29.21170   26.08180   85.54530  159.41590  143.14580    0.25690    0.00380    3.48200
 15772.00000   14.22250   35.55430   33.65830   85.08400  158.48340  139.16260    0.25210    0.00170    3.46790
 15772.50000   14.28570   35.64850   35.14030   84.91890  161.47950  136.39750    0.24000    0.00070    3.41950
 15773.00000   14.30440   35.52100   35.14030   85.38580  161.80360  137.66810    0.24100    0.00120    3.35470
 15773.50000   14.27380   35.95080   35.14030   85.69870  161.95280  139.17950    0.24270    0.00520    3.31740
 15774.00000   13.95280   30.98960   26.34030   85.56420  159.83590  138.74680    0.24220    0.00910    3.30660
 15774.50000   13.99660   23.49830   21.42040   85.50020  158.34860  138.30440    0.23440    0.01300    3.32050
 15775.00000   14.91330   26.84080   28.17150   86.30820  158.56120  139.21940    0.22780    0.01480    3.33440
 15775.50000   16.56200   29.46560   26.93080   88.25640  157.96010  139.05890    0.23090    0.01270    3.30530
 15776.00000   18.41550   28.72100   32.77940   88.40900  158.14230  137.47880    0.23340    0.00620    3.27210
 15776.50000   20.30670   21.58430   20.84680   88.08840  158.37330  138.89760    0.23420    0.00200    3.21260
 15777.00000   22.31730   21.94360   21.20430   88.13420  158.24210  142.04210    0.23040    0.00290    3.14890
 15777.50000   22.31660   22.42670   21.86000   88.24900  157.62620  146.31320    0.23240    0.00300    3.14990
 15778.00000   21.02730   22.92040   22.62330   88.41480  158.42450  148.65050    0.23120    0.00300    3.16570
 15778.50000   19.56800   23.49210   22.61660   88.61290  156.73190  145.88280    0.22590    0.00300    3.16530
 15779.00000   17.81370   24.14170   22.36010   88.49740  156.40150  142.63750    0.22710    0.00300    3.13280
 15779.50000   16.85590   24.66650   22.47200   87.93440  159.82540  140.30410    0.22860    0.00310    3.10190
 15780.00000   17.07070   24.85770   23.53020   89.26610  160.41920  139.69440    0.23130    0.00540    3.08770
 15780.50000   17.51580   27.63150   25.84920   89.89450  160.31230  138.97040    0.23820    0.00880    3.07360
 15781.00000   17.53740   28.42650   26.24450   89.89640  160.27650  133.70450    0.24700    0.01130    3.05950
 15781.50000   18.40040   21.46830   20.47520   89.90620  159.66000  128.58080    0.24420    0.01370    3.07990
 15782.00000   19.70740   25.07350   21.33620   88.77220  157.63260  124.69270    0.24000    0.02020    3.11500
 15782.50000   20.28790   33.25140   33.16360   87.34930  152.28190  122.29770    0.23620    0.01870    3.15350
 15783.00000   19.71050  138.81070   39.73750   85.68980  149.45280  122.15640    0.24400    0.01710    3.13060
 15783.50000   19.69490   34.61650   35.79540   85.84770  148.04510  124.11260    0.26110    0.01120    3.13060
 15784.00000   20.50670   20.97440   25.11050   87.29240  150.70470  126.04090    0.27570    0.01020    3.13100
 15784.50000   20.71340   20.01770   20.18820   90.24300  152.74080  119.73630    0.27290    0.00980    3.14150
 15785.00000   20.85410   22.13520   21.26230   94.19400  163.40190  109.09950    0.25070    0.00700    3.17890
 15785.50000   20.55730   30.35430   25.02050   95.93500  164.50950  108.45690    0.24270    0.00410    3.22280
 15786.00000   19.24710   30.82810   28.86670   94.92270  164.86580  123.12800    0.25590    0.00120    3.25280
 15786.50000   18.47250   29.94050   27.69070   93.98510  165.20580  147.48530    0.27180   -0.00150    3.15820
 15787.00000   18.13620   31.10750   28.14540   93.75700  165.54370  151.28960    0.22940   -0.00150    3.05620
 15787.50000   19.71250   38.82420   33.01710   94.23900  164.89060  151.48700    0.20890   -0.00140    3.03570
 15788.00000   21.33090   49.53980   42.72880   95.04930  163.72680  151.33080    0.21440   -0.00130    3.04650
 15788.50000   23.15340   59.71660   50.59300   95.46330  161.33620  151.44810    0.22290   -0.00110    3.05730
 15789.00000   25.62690   62.20340   49.33160   94.67960  156.30800  153.47960    0.22130   -0.00090    3.08590
 15789.50000   26.24610   59.81200   50.81740   91.18440  150.97000  150.98030    0.22000   -0.00080    3.11710
 15790.00000   27.26110   58.85930   52.57890   89.92130  146.04360  151.00150    0.22340   -0.00060    3.18310
 15790.50000   30.45470   60.61170   53.77950   89.19340  149.62750  151.24920    0.23050   -0.00050    3.27650
 15791.00000   35.02170   62.05300   54.73140   88.74600  148.33780  156.39360    0.22390   -0.00030    3.32130
 15791.50000   40.50970   60.77830   55.39370   88.42920  149.79840  167.33380    0.20880    0.00130    3.28880
 15792.00000   37.70820   62.12590   55.39370   88.89920  149.76560  177.20710    0.20000    0.00290    3.24500
 15792.50000   29.31790   64.38570   55.39370   89.10390  149.57380  164.18650    0.19970    0.00430    3.20390
 15793.00000   22.30200   66.75130   55.82240   87.02450  149.65590  127.56790    0.21960    0.00430    3.20280
 15793.50000   17.42880   95.88160   65.09060   84.58360  148.81960   82.66130    0.21960    0.00420    3.27000
 15794.00000   20.01040  142.74840   71.02390   84.47780  148.95170   63.73540    0.17750    0.00430    3.47280
 15794.50000   29.45880   73.82330   32.13960   85.11170  149.10850   56.83240    0.14240    0.00530    3.77170
 15795.00000   80.95770   22.96920   31.26010   81.08480  149.29570   57.74930    0.12640    0.01860    4.12410
 15795.50000   98.01850   17.53850   25.93940   82.15700  149.35220   60.67170    0.11290    0.03790    4.34470
 15796.00000   99.36920   22.25050   36.73300   85.74400  149.48230   62.78610    0.10020    0.05730    4.37290
 15796.50000   93.14890   20.08900   35.12350   88.58130  149.61120   64.48540    0.09130    0.06700    4.33200
 15797.00000   47.07480   31.25090   30.86680   90.14500  146.27580   73.50830    0.09680    0.05600    4.19720
 15797.50000   26.08390   40.86320   31.91390   96.57360  137.10430   99.50140    0.15260    0.02500    4.00700
 15798.00000   15.60110   44.65860   35.86270   98.43480  146.42890  125.49440    0.22520    0.03880    3.75580
 15798.50000   14.45190   45.39000   38.62740   97.64120  155.88460  149.72680    0.29540    0.04900    3.54600
 15799.00000   16.70770   45.40440   39.36630   96.19500  164.93220  153.20440    0.25820    0.04070    3.39640
 15799.50000   21.84980   44.76080   38.49350   99.67590  174.21160  154.80570    0.25680    0.03180    3.26540
 15800.00000   24.19200   44.15270   38.29460  101.52620  180.29120  155.25650    0.27160    0.02290    3.10630
 15800.50000   24.99160   44.48070   38.74420  101.83100  182.06350  158.52320    0.28870    0.01410    2.95920
 15801.00000   25.48270   45.02290   39.26220  101.10760  182.05970  165.16450    0.28010    0.01050    2.90080
 15801.50000   26.02730   45.57920   39.78710   99.67820  181.99550  175.52400    0.26610    0.01050    2.88780
 15802.00000   26.45880   45.83290   40.18860   96.56180  181.82260  177.92160    0.26570    0.01040    2.91950
 15802.50000   26.99550   46.04770   39.84600   95.79060  181.27790  177.88060    0.26700    0.01030    2.95120
 15803.00000   26.57890   46.19810   40.69530   95.03590  181.05860  175.89560    0.27630    0.00930    2.98680
 15803.50000   25.46630   63.36850   47.73070   94.58910  180.64050  175.74560    0.27350    0.00830    3.04980
 15804.00000   26.27680   60.00820   43.73180   94.40490  180.42610  172.51310    0.26720    0.00730    3.14010
 15804.50000   23.94370   36.52510   31.72960   94.30560  180.41450  165.20810    0.25440    0.00720    3.24980
