~Version ---------------------------------------------------
VERS.   2.0 : CWLS log ASCII Standard -VERSION 2.0
WRAP.    NO : One line per depth step
DLM . SPACE : Column Data Section Delimiter
~Well ------------------------------------------------------
STRT .F                  45.0 : START DEPTH
STOP .F               16421.0 : STOP DEPTH
STEP .F                   0.5 : STEP
NULL .               -9999.25 : NULL VALUE
COMP .                        : COMPANY
WELL .                        : WELL
FLD  .                        : FIELD
LOC  .                        : LOCATION
PROV .                        : PROVINCE
CNTY .                        : COUNTY
STAT .                        : STATE
CTRY .                        : COUNTRY
SRVC .                        : SERVICE COMPANY
DATE .                        : DATE
UWI  .                        : UNIQUE WELL ID
API  .                        : API NUMBER
SLAT .WGS84   2.3895984381668 : SURFACE LATITUDE
SLON .WGS84 8.490619107749993 : SURFACE LONGITUDE
DATUM.F                   nan : DEPTH DATUM ELEV
~Curve Information -----------------------------------------
DEPT   .F     : 1 MEASURED DEPTH
RXOZ   .OHMM  : INVADED FORMATION RESISTIVITY FILTERED AT 18 INCHES
RT_HRLT.OHMM  : HRLT TRUE FORMATION RESISTIVITY
RLA3   .OHMM  : APPARENT RESISTIVITY FROM COMPUTED FOCUSING MODE 3
DTCO   .US/F  : DELTA-T COMPRESSIONAL
DTSM   .US/F  : DELTA-T SHEAR
SGRDD  .GAPI  : SPECTROSCOPY GAMMA RAY FROM DENSITY LOG
TNPH_LS.DEC   : THERMAL NEUTRON POROSITY [LIMESTONE]
HDRA   .G/C3  : HRDD SPINE AND RIBS DENSITY CORRECTION
PEFZ   .B/E   : HRDD STANDARD RESOLUTION FORMATION PHOTOELECTRIC FACTOR
~Params ----------------------------------------------------
~Other -----------------------------------------------------
~ASCII -----------------------------------------------------
# ...
 14905.00000   19.69130   40.28560   39.41510   81.66210  157.54180   91.24100    0.15330    0.00010    3.74590
 14905.50000   18.26990   40.58100   37.90830   81.91790  157.53490  103.83930    0.27330   -0.00040    3.70780
 14906.00000   16.73750   40.87860   36.83570   82.17000  157.49800  118.30850    0.42120   -0.00080    3.68550
 14906.50000   15.89850   39.96300   36.83570   81.83670  157.40640  123.21540    0.38090   -0.00130    3.63580
 14907.00000   16.24660   39.49870   36.84240   81.36540  157.47820  123.70960    0.35120   -0.00170    3.58730
 14907.50000   18.29860   41.39470   37.07270   81.34780  159.76680  121.82910    0.35570   -0.00220    3.54400
 14908.00000   21.52050   41.06860   37.30450   81.20510  161.51980  119.28250    0.36140   -0.00240    3.49960
 14908.50000   26.00990   40.27880   37.53780   80.15340  161.65800  116.90210    0.36830   -0.00180    3.47600
 14909.00000   30.30130   39.47040   37.77240   79.94680  161.91330  116.40370    0.36180   -0.00110    3.48540
 14909.50000   32.48700   38.83060   37.87530   80.44430  161.93560  116.63480    0.35200   -0.00050    3.46650
 14910.00000   32.36980   39.11220   37.87330   81.20280  161.13820  116.94800    0.29540    0.00020    3.42770
 14910.50000   32.60430   39.86530   37.87330   78.83650  147.09390  115.21110    0.23490    0.00080    3.38430
 14911.00000   28.64900   40.69940   37.87330   74.93310  128.22870  113.97320    0.16940    0.00150    3.36740
 14911.50000   21.69220   41.90230   37.87330   73.75290  119.09340  112.57450    0.15520    0.00210    3.40430
 14912.00000   15.53980   41.56310   39.21080   74.19170  118.77250  110.97320    0.16190    0.00280    3.48070
 14912.50000   15.18360   42.17990   40.13850   74.19910  118.78750  106.80230    0.16450    0.00340    3.55710
 14913.00000   17.92890   42.34370   37.06940   74.20800  118.87180   98.39970    0.15450    0.00410    3.56940
 14913.50000   21.14720   43.24800   39.48970   74.22350  119.24990   92.38570    0.15550    0.00470    3.51250
 14914.00000   17.11700   43.92530   39.50200   74.38540  119.59270   90.26990    0.15620    0.00530    3.44760
 14914.50000   14.10930   42.75620   39.61430   74.51590  119.79230   91.40110    0.15000    0.00600    3.38370
 14915.00000   13.64050   42.97200   39.72690   74.46130  119.81330   92.30980    0.14980    0.00620    3.32840
 14915.50000   14.78610   33.96270   39.83980   74.79030  119.82270   90.01510    0.15770    0.00620    3.24380
 14916.00000   14.55850   43.44940   39.95310   72.95270  119.68560   89.76590    0.17020    0.00610    3.16350
 14916.50000   15.70940   43.85070   40.06670   73.04940  119.82540   91.02660    0.17480    0.00560    3.13420
 14917.00000   18.04850   40.09260   40.18060   72.54690  119.98830   93.94730    0.17820    0.00470    3.20350
 14917.50000   19.45490   45.41060   40.29480   72.14490  120.22430   97.10840    0.17780    0.00380    3.30950
 14918.00000   18.52940   45.84970   40.30280   72.18570  120.32470   99.11370    0.17690    0.00290    3.36750
 14918.50000   18.20600   45.88790   40.30720   72.26340  120.27300  101.11890    0.17370    0.00200    3.39370
 14919.00000   20.37340   45.91710   41.01770   71.88050  120.15320  100.65000    0.16550    0.00110    3.39540
 14919.50000   22.33630   45.19710   40.15900   70.70560  120.11650  100.48450    0.16100    0.00020    3.39660
 14920.00000   22.56540   42.60110   38.57690   68.82150  120.14080  101.42150    0.15840   -0.00070    3.41810
 14920.50000   22.26770   41.67790   37.39920   65.86610  120.17320  103.58270    0.16290   -0.00140    3.43550
 14921.00000   21.05010   41.44040   36.83100   64.61700  120.76960  103.41010    0.16700   -0.00080    3.44000
 14921.50000   19.67270   41.50190   36.28540   64.89270  126.95690  103.64260    0.17120    0.00060    3.45110
 14922.00000   19.04690   41.96200   35.39560   66.50940  129.18430  104.91810    0.17300    0.00450    3.52290
 14922.50000   19.70290   41.90510   33.00130   67.43290  120.34090  105.30090    0.17620    0.01280    3.59130
 14923.00000   22.12740   25.19370   30.76890   68.23890  127.82350  106.08730    0.17410    0.01690    3.64330
 14923.50000   26.72260   36.52520   28.68760   68.32280  129.21260  105.88890    0.18290    0.01780    3.67730
 14924.00000   28.18580   22.43940   27.14210   68.51580  129.43320  104.00780    0.22770    0.01550    3.69870
 14924.50000   27.98690   28.61690   27.17560   69.02580  129.64040  101.39640    0.29780    0.01310    3.74930
 14925.00000   27.47160   28.28300   27.31710   68.81240  129.78400  103.56180    0.34100    0.01070    3.86380
 14925.50000   26.43650   28.15960   27.45940   69.20040  129.84390  113.13610    0.32600    0.00830    3.95340
 14926.00000   22.83220   29.63740   27.60240   69.82490  130.00030  119.71890    0.30050    0.00590    3.93340
 14926.50000   20.45520   30.55510   27.74610   70.15020  130.19150  122.55210    0.29620    0.00460    3.88050
 14927.00000   15.45080   30.38520   26.24460   70.19390  130.29280  125.34010    0.29830    0.01250    3.79520
 14927.50000    7.59650   27.07850   23.74660   69.83640  130.48070  128.28230    0.29330    0.02760    3.70640
 14928.00000    4.88540   26.15470   22.79760   69.52970  130.67210  128.00810    0.29550    0.04260    3.59960
 14928.50000    3.84100   26.44470   22.53830   69.03230  130.77780  127.18190    0.29050    0.05760    3.55000
 14929.00000    4.30240   36.85740   29.01840   68.34680  130.87290  125.04440    0.30050    0.07220    3.52880
 14929.50000    5.35510  115.67110   53.74250   68.21400  130.96800  126.22000    0.31040    0.07590    3.54880
 14930.00000    7.44760   12.31610   10.91400   68.24830  131.06640  127.06960    0.30450    0.06000    3.58620
 14930.50000    7.91370    9.88290    9.31980   68.49530  131.21460  128.72680    0.29570    0.02120    3.60270
 14931.00000    8.12140    9.87440    9.13540   69.43670  131.69650  127.66350    0.29060   -0.00550    3.59000
 14931.50000    8.34420    9.84880    9.14390   69.83310  135.09880  127.75450    0.30490   -0.00630    3.57510
 14932.00000    8.38750    9.82320    9.15240   72.56560  143.40930  129.74170    0.32160   -0.00540    3.54620
 14932.50000    8.40480    9.79770    9.16090   72.50320  144.44940  129.62810    0.31200   -0.00140    3.52350
 14933.00000    8.40310    9.77230    9.16940   69.90790  136.37190  124.86380    0.30360    0.00100    3.51530
 14933.50000    8.40130    9.74690    9.17790   69.20260  136.32690  119.45600    0.29530    0.00010    3.52800
 14934.00000    8.40230    9.77640    9.18650   69.35500  136.78290  118.38920    0.30500   -0.00130    3.54070
 14934.50000    8.40000    9.77350    9.17250   69.69490  138.09940  120.78380    0.31330   -0.00310    3.54960
 14935.00000    8.40490    9.63630    9.12750   70.81570  141.64190  122.89140    0.30030   -0.00490    3.56560
 14935.50000    8.51480   12.36070    9.29370   74.68140  149.49810  122.94820    0.29780   -0.00510    3.58880
 14936.00000   10.14950   10.73600    9.80290   74.89140  153.74180  122.21020    0.29530    0.00510    3.52740
 14936.50000   13.13840   10.67100    9.90310   75.03090  153.46550  121.96050    0.29420    0.05250    3.42840
 14937.00000   17.23640    7.82380    9.52570   75.01400  153.14960  119.92480    0.29870    0.09920    3.30660
 14937.50000   17.33580    7.34890    9.16280   74.99350  153.08250  119.82330    0.30680    0.14510    3.19890
 14938.00000   16.57150    7.82610    8.81360   74.96220  153.11260  117.52670    0.31670    0.14470    3.12220
 14938.50000   15.83240    7.91400    8.76530   74.88610  152.25660  116.20430    0.30770    0.14380    3.13490
 14939.00000   15.10250    7.42370    8.78540   74.46750  147.30160  116.30660    0.29160    0.14250    3.14760
 14939.50000   14.42670    7.59930    8.80550   74.75850  148.58060  116.72890    0.28930    0.14050    3.16030
 14940.00000   13.81290    7.77030    8.82570   76.29210  154.09010  117.64410    0.29390    0.14230    3.18100
 14940.50000   13.21340    7.94520    8.84600   77.17630  159.03980  117.45680    0.30090    0.14490    3.19660
