~Version ---------------------------------------------------
VERS.   2.0 : CWLS log ASCII Standard -VERSION 2.0
WRAP.    NO : One line per depth step
DLM . SPACE : Column Data Section Delimiter
~Well ------------------------------------------------------
STRT .F                  45.0 : START DEPTH
STOP .F               16421.0 : STOP DEPTH
STEP .F                   0.5 : STEP
NULL .               -9999.25 : NULL VALUE
COMP .                        : COMPANY
WELL .                        : WELL
FLD  .                        : FIELD
LOC  .                        : LOCATION
PROV .                        : PROVINCE
CNTY .                        : COUNTY
STAT .                        : STATE
CTRY .                        : COUNTRY
SRVC .                        : SERVICE COMPANY
DATE .                        : DATE
UWI  .                        : UNIQUE WELL ID
API  .                        : API NUMBER
SLAT .WGS84   2.3895984381668 : SURFACE LATITUDE
SLON .WGS84 8.490619107749993 : SURFACE LONGITUDE
DATUM.F                   nan : DEPTH DATUM ELEV
~Curve Information -----------------------------------------
DEPT   .F     : 1 MEASURED DEPTH
RXOZ   .OHMM  : INVADED FORMATION RESISTIVITY FILTERED AT 18 INCHES
RT_HRLT.OHMM  : HRLT TRUE FORMATION RESISTIVITY
RLA3   .OHMM  : APPARENT RESISTIVITY FROM COMPUTED FOCUSING MODE 3
DTCO   .US/F  : DELTA-T COMPRESSIONAL
DTSM   .US/F  : DELTA-T SHEAR
SGRDD  .GAPI  : SPECTROSCOPY GAMMA RAY FROM DENSITY LOG
TNPH_LS.DEC   : THERMAL NEUTRON POROSITY [LIMESTONE]
HDRA   .G/C3  : HRDD SPINE AND RIBS DENSITY CORRECTION
PEFZ   .B/E   : HRDD STANDARD RESOLUTION FORMATION PHOTOELECTRIC FACTOR
~Params ----------------------------------------------------
~Other -----------------------------------------------------
~ASCII -----------------------------------------------------
# ...
 14329.00000   21.98300   12.97420   14.82060   71.29530  137.26130   78.27280    0.14480   -0.00150    3.69310
 14329.50000   23.05070   12.26350   13.00130   71.61910  140.11780   78.70390    0.15880   -0.00170    3.64710
 14330.00000   23.43570   13.70390   12.44720   70.06020  142.49830   85.97290    0.17250   -0.00160    3.65160
 14330.50000   23.70390   19.72200   12.90070   70.07300  145.22280   97.17890    0.16890   -0.00040    3.66660
 14331.00000   24.16620   14.06540   13.35770   71.68390  150.05600  109.49860    0.17950    0.00070    3.68150
 14331.50000   18.44390    8.10830   11.25680   75.79590  157.60290  116.30450    0.20920    0.00180    3.66960
 14332.00000    6.61510   13.26600    7.84110   87.43400  163.96150  121.58410    0.24870    0.00310    3.70590
 14332.50000    4.70350    9.83860    5.86670   84.64770  164.70410  123.97080    0.25710    0.00720    3.70800
 14333.00000    4.08910   10.92620    6.90750   85.14030  165.26390  124.12180    0.25480    0.00500    3.58830
 14333.50000    4.65590   15.11970    8.73800   83.74950  169.05160  120.55470    0.26590    0.00140    3.37250
 14334.00000    4.61210   15.42050    8.88190   83.89850  169.55230  113.57180    0.26060   -0.00230    3.25910
 14334.50000    4.61870   14.63630    9.01920   82.82190  169.41880  102.37200    0.24170   -0.00610    3.18270
 14335.00000    4.54300   18.21340    9.67800   82.10180  167.06120   89.31670    0.21900   -0.00890    3.19550
 14335.50000    4.48800   15.97680    9.41500   80.16260  164.25980   79.06170    0.21020   -0.00880    3.21110
 14336.00000    5.56170   13.00480    7.65180   78.21960  155.65430   78.54350    0.20610   -0.00880    3.33230
 14336.50000    7.46810   12.52280    7.02560   76.24420  148.64750   79.13560    0.19510   -0.00270    3.48120
 14337.00000   13.48360   19.77980    9.27540   74.93660  144.59120   85.74130    0.18390    0.00480    3.60540
 14337.50000   11.27300   21.19520   10.18880   74.10260  142.24420   94.90020    0.18170    0.01230    3.64280
 14338.00000    9.39440   12.97640   10.55550   73.68990  140.98060   94.32680    0.18760    0.01170    3.57650
 14338.50000    5.96320   17.44650   10.22620   74.18140  143.04020   82.03770    0.18850    0.00560    3.47880
 14339.00000    4.88330   15.35460   10.03060   75.79040  143.57330   64.70010    0.18510   -0.00030    3.47040
 14339.50000    4.23310   16.45060    9.33640   75.12810  141.27580   49.95760    0.13120   -0.00570    3.72120
 14340.00000    4.11930   12.53110    8.30470   73.57100  139.84770   37.86210    0.04660   -0.00770    4.11340
 14340.50000    5.28920   12.04350    7.27860   70.99870  136.41080   22.82150    0.01740   -0.00830    4.45320
 14341.00000   10.38170   53.11060   19.95990   63.21900  122.11280   10.42160    0.00370   -0.00830    4.55600
 14341.50000  111.23540   49.35830   44.76990   53.76820  101.89590    8.61530    0.00800   -0.00410    4.59860
 14342.00000   94.94870   45.76820   40.42860   49.54580   98.46650    8.67530    0.00830    0.00010    4.63160
 14342.50000   92.31950   45.84440   42.96960   47.01970   97.90440    9.60780    0.00370    0.00430    4.68080
 14343.00000   86.34410   50.97590   47.49740   47.03700   96.75160    9.66330   -0.00090    0.00530    4.76990
 14343.50000   87.52860   54.48300   51.74070   48.60400   95.86960    9.21860   -0.00120    0.00530    4.84490
 14344.00000   97.13990   56.49740   52.81840   50.81800   95.91720    8.91230   -0.00120    0.00780    4.86760
 14344.50000  100.04210   49.03320   44.52380   52.45020   96.36630   10.64730    0.00110    0.01180    4.89000
 14345.00000   84.01470   41.91740   38.61900   50.65140   96.65810   24.63420    0.00400    0.02140    4.91240
 14345.50000   71.42080   44.18230   38.28640   49.20820   96.95010   67.18920    0.00670    0.03110    4.93480
 14346.00000   75.64950   48.07620   39.08270   49.64830   97.32810  106.61300    0.01420    0.03190    4.95720
 14346.50000   91.17590   45.37930   38.82850   49.37150   97.70220  136.47750    0.01440    0.02390    4.96670
 14347.00000   92.08360   40.21820   37.00280   50.27960  100.33120  146.72060    0.00800    0.01800    4.97540
 14347.50000   78.61020   45.95410   38.72470   51.96360  107.45190  146.11720    0.00900    0.01590    4.98680
 14348.00000   55.51700   62.60120   39.90270   53.91620  112.07080  142.27620    0.01090    0.01680    4.96620
 14348.50000   44.73170   67.29790   38.01730   54.82840  112.17840  143.26940    0.01550    0.01890    4.87460
 14349.00000   43.14020   68.11630   40.27500   56.47850  112.38030  145.88210    0.02900    0.02250    4.59100
 14349.50000   38.25200   44.32280   30.30490   58.46260  112.61220  136.14740    0.05020    0.02600    4.17600
 14350.00000   17.68360   23.14300   17.54890   59.96120  112.35200  124.24810    0.07450    0.04560    3.75530
 14350.50000    7.73180   43.80730   32.52720   61.04330  113.88900  114.76250    0.10170    0.08180    3.52230
 14351.00000    4.82910   45.51240   32.86570   63.76690  117.43020  112.03420    0.13540    0.10120    3.49910
 14351.50000    5.40650   45.97850   33.22670   64.99640  121.82640  120.14030    0.17760    0.10060    3.64460
 14352.00000    4.48090   46.77670   33.43660   67.18010  119.65150  123.59530    0.18890    0.06790    3.69080
 14352.50000    4.47610   47.48460   33.47780   68.08390  119.41310  128.11600    0.16410    0.02720    3.66600
 14353.00000    4.91710   38.01610   23.62360   68.50350  119.06270  130.08520    0.15510    0.01680    3.52400
 14353.50000    6.48960   11.08190    8.69620   68.00360  117.67220  131.23700    0.17550    0.01460    3.38130
 14354.00000    6.24450    9.05820    7.26850   67.00720  115.18180  131.08920    0.19680    0.01750    3.33770
 14354.50000    7.94490   10.16380    8.92870   66.02570  111.62460  128.89630    0.19730    0.02050    3.35290
 14355.00000   12.78610   15.38890   10.85130   65.41950  110.37690  117.89010    0.13370    0.01880    3.45460
 14355.50000   42.33750   50.19770   22.34610   63.92610  109.13690   96.96510    0.08580    0.01510    3.50440
 14356.00000   51.15960   61.71990   31.37880   59.98000  105.71600   76.04010    0.04410    0.01150    3.55260
 14356.50000   55.28610   69.54040   33.49770   54.66800   80.57550   42.86800    0.03200    0.01130    3.33710
 14357.00000   40.67710   84.99300   34.73230   55.68540   79.08650   28.31300    0.02040    0.01460    2.85970
 14357.50000   41.92290  103.48130   38.22000   56.11520   82.74580   29.34520    0.01470    0.01920    2.40470
 14358.00000   43.83750  128.90850   36.60780   55.81270   82.40490   31.68950    0.01350    0.01810    2.13460
 14358.50000   41.23100  117.54750   32.59560   55.20640   82.59930   34.12700    0.01310    0.01240    1.99310
 14359.00000   34.86430  120.52590   30.40380   54.73100   83.13950   35.79870    0.01570    0.00680    1.97180
 14359.50000   41.91320  109.52070   29.84070   55.92400   84.71590   37.57580    0.01890    0.00590    1.95950
 14360.00000   50.79730   83.56080   29.31080   58.78350   89.34210   37.22360    0.02190    0.00560    1.94610
 14360.50000   39.79930   79.58940   28.79030   59.96140   91.63920   36.48090    0.02470    0.00540    1.93280
 14361.00000   33.74490   73.52780   29.14070   68.67040   91.64350   33.66430    0.02810    0.00540    1.98750
 14361.50000   41.82310   43.99880   30.92110   69.04850   92.79330   32.07200    0.02810    0.00500    2.00590
 14362.00000   80.80530   41.72040   32.62700   66.70860   94.33740   32.18770    0.02460    0.00430    2.00670
 14362.50000   86.91800   36.93660   32.35140   69.76060   95.16050   32.58820    0.02100    0.00350    2.03610
 14363.00000   73.64010   34.26940   31.78540   69.65190   95.13890   32.72410    0.02190    0.00280    2.11520
 14363.50000   63.60870   37.06970   30.97810   59.73190   95.09000   30.91150    0.02690    0.00210    2.13990
 14364.00000   62.07620   32.93090   30.31550   60.49420   95.47180   25.31550    0.02980    0.00140    2.15390
 14364.50000   59.56160   38.87460   33.17370   60.57260   95.86780   20.86970    0.03030    0.00030    2.20640
