~Version ---------------------------------------------------
VERS.   2.0 : CWLS log ASCII Standard -VERSION 2.0
WRAP.    NO : One line per depth step
DLM . SPACE : Column Data Section Delimiter
~Well ------------------------------------------------------
STRT .F                  45.0 : START DEPTH
STOP .F               16421.0 : STOP DEPTH
STEP .F                   0.5 : STEP
NULL .               -9999.25 : NULL VALUE
COMP .                        : COMPANY
WELL .                        : WELL
FLD  .                        : FIELD
LOC  .                        : LOCATION
PROV .                        : PROVINCE
CNTY .                        : COUNTY
STAT .                        : STATE
CTRY .                        : COUNTRY
SRVC .                        : SERVICE COMPANY
DATE .                        : DATE
UWI  .                        : UNIQUE WELL ID
API  .                        : API NUMBER
SLAT .WGS84   2.3895984381668 : SURFACE LATITUDE
SLON .WGS84 8.490619107749993 : SURFACE LONGITUDE
DATUM.F                   nan : DEPTH DATUM ELEV
~Curve Information -----------------------------------------
DEPT   .F     : 1 MEASURED DEPTH
RXOZ   .OHMM  : INVADED FORMATION RESISTIVITY FILTERED AT 18 INCHES
RT_HRLT.OHMM  : HRLT TRUE FORMATION RESISTIVITY
RLA3   .OHMM  : APPARENT RESISTIVITY FROM COMPUTED FOCUSING MODE 3
DTCO   .US/F  : DELTA-T COMPRESSIONAL
DTSM   .US/F  : DELTA-T SHEAR
SGRDD  .GAPI  : SPECTROSCOPY GAMMA RAY FROM DENSITY LOG
TNPH_LS.DEC   : THERMAL NEUTRON POROSITY [LIMESTONE]
HDRA   .G/C3  : HRDD SPINE AND RIBS DENSITY CORRECTION
PEFZ   .B/E   : HRDD STANDARD RESOLUTION FORMATION PHOTOELECTRIC FACTOR
~Params ----------------------------------------------------
~Other -----------------------------------------------------
~ASCII -----------------------------------------------------
# ...
 15337.00000   44.37270  474.32360  614.76500   62.23820  103.18190   77.72160    0.10100    0.07310    2.79310
 15337.50000   43.10250  491.10380  621.74010   63.61060  103.07000   75.51210    0.09990    0.03470    2.90950
 15338.00000   55.08930   25.27270  243.77680   65.00410  102.93920   75.58330    0.10060    0.01370    2.96770
 15338.50000   61.47050  139.41580  164.42270   65.53270  102.98090   74.90300    0.10130    0.00680    3.02280
 15339.00000   61.54930  115.85980  143.22680   66.60930  104.94690   73.61420    0.10860    0.01220    2.98680
 15339.50000   61.62820  168.76660  206.19600   65.24750  109.01730   70.71590    0.15390    0.01810    2.94850
 15340.00000   47.28070  177.47880  224.39710   65.35640  121.90710   73.41740    0.24140    0.02390    2.90260
 15340.50000   23.99530  192.11140  198.39770   65.45310  123.14380   81.14670    0.37580    0.02390    2.84300
 15341.00000   14.85760  201.78070  197.40930   66.19470  123.46140   90.14690    0.30630    0.02180    2.79640
 15341.50000   13.51970  223.69930  257.15180   68.13380  123.62440   92.79570    0.24900    0.01970    2.75770
 15342.00000   20.65190   37.55050   27.01640   67.81330  123.63020   94.86600    0.23780    0.01920    2.71900
 15342.50000   33.34120   31.21970   20.90630   68.00670  123.49850   97.72320    0.22660    0.01890    2.68650
 15343.00000   47.00140   13.72990   18.71230   73.81610  123.81230  100.58050    0.22740    0.01710    2.73530
 15343.50000   35.87880    9.25940   15.85660   71.10990  126.76630  102.33160    0.22780    0.01550    2.81480
 15344.00000   20.23920   12.69580   15.66780   67.19650  131.53960  102.18220    0.23360    0.01530    2.97100
 15344.50000   12.37960   16.96200   16.28470   68.18200  138.42430  105.17260    0.23360    0.01570    3.12730
 15345.00000    9.68760   18.18690   16.49630   69.40450  140.04790  105.69530    0.23270    0.01780    3.27700
 15345.50000    8.74730   18.62390   16.49290   69.57700  141.27900  109.01990    0.23170    0.01980    3.39690
 15346.00000    8.45720   20.67750   18.80570   69.59110  141.36810  112.86070    0.23080    0.02690    3.51680
 15346.50000    8.08970   23.14230   17.38320   69.52310  141.39700  115.73900    0.23120    0.04320    3.57970
 15347.00000    7.68240   14.53820   14.27020   69.98590  144.18930  116.63850    0.24290    0.05700    3.56270
 15347.50000    7.54780   12.32610   13.95320   71.27620  147.76830  116.27850    0.25540    0.06950    3.46970
 15348.00000    6.80690   16.23960   15.67190   70.76960  146.33760  117.06500    0.24640    0.07060    3.35440
 15348.50000    5.92850   22.13010   19.54300   69.75480  142.09070  113.05270    0.21370    0.06550    3.24240
 15349.00000    5.09900   22.68450   19.66780   78.47300  140.13490  107.38850    0.19290    0.03690    3.11990
 15349.50000    4.92950   22.16060   20.64600   79.79820  139.65200  101.11090    0.20760    0.02520    3.06800
 15350.00000    4.89190   20.98710   22.86980   82.13110  139.64760   99.49870    0.21460    0.01340    3.05270
 15350.50000    4.89400   28.57140   23.15260   81.22250  139.61860   97.88660    0.21750    0.00840    3.03740
 15351.00000    4.97450   30.62870   24.04950   73.07130  139.24570   93.41350    0.20820    0.00880    3.04000
 15351.50000    5.19570   30.62870   24.48350   71.88300  130.67050   87.38860    0.17710    0.01970    3.10260
 15352.00000    5.50730   32.42910   24.81330   68.69570  121.17550   84.81610    0.16120    0.01940    3.32650
 15352.50000    5.74050   88.24900   42.72650   71.72680  127.39700   88.56450    0.16820    0.00970    3.60360
 15353.00000    5.76580   16.75040   14.21160   70.38560  129.22810   92.88540    0.20150   -0.00060    3.83400
 15353.50000    5.79180   26.04020   21.05020   69.94170  129.85600   97.14170    0.19110   -0.00800    3.95470
 15354.00000    5.84850   27.18290   22.42780   72.14140  129.93160   94.87010    0.16460   -0.00060    4.02520
 15354.50000    5.99220   26.75470   22.00550   71.97510  129.99440   92.76290    0.16650    0.00690    3.98860
 15355.00000    6.19440   26.47360   21.74360   72.01970  130.16030   90.40410    0.17420    0.01370    3.96260
 15355.50000    6.42090   25.61420   21.59690   72.15280  130.56290   91.40230    0.21630    0.01870    3.95650
 15356.00000    6.47530   18.88570   18.29450   72.72400  131.27720   97.33140    0.26360    0.01670    4.03220
 15356.50000    5.41860   12.69430   14.27870   75.38770  135.40420  105.21160    0.27450    0.00950    4.16820
 15357.00000    4.17690   11.03070   13.51450   75.14080  136.69420  110.67610    0.27170    0.00230    4.29380
 15357.50000    3.42630   10.37440   12.14650   73.69960  132.21300  111.74970    0.27250   -0.00490    4.51920
 15358.00000    3.31780   11.97230    8.88900   71.79700  131.31030  107.94770    0.21330   -0.01160    4.82340
 15358.50000    3.75920   12.34220    8.98760   70.84920  131.23280  103.44570    0.16400   -0.01490    4.98610
 15359.00000    5.77080   57.29630   34.04370   71.09750  130.60680   98.88610    0.12860   -0.01820    4.82520
 15359.50000   11.31260   18.95950   18.20070   71.24800  127.27330   94.96410    0.12590   -0.01950    4.31390
 15360.00000   14.58860   18.06790   19.28280   71.64220  122.18290   95.03030    0.12840   -0.01500    3.81830
 15360.50000   12.96280   20.76190   21.15690   72.21430  123.54860   95.27550    0.13410   -0.00890    3.40240
 15361.00000   11.96580   22.04290   22.15910   71.66810  127.14290   95.77120    0.14210   -0.00280    3.18180
 15361.50000   11.65810   28.32610   24.13490   71.83220  128.55080   92.31010    0.16960    0.01120    3.06470
 15362.00000   10.84060   62.82020   32.12600   71.55760  128.85440   91.30050    0.17870    0.02530    2.95030
 15362.50000   10.59950   18.69710   21.03020   71.33830  129.04340   90.35720    0.19100    0.02730    2.86700
 15363.00000   12.27550   20.30590   19.80070   71.36170  129.02280   89.99980    0.17480    0.02660    2.84860
 15363.50000   13.60130   48.46920   23.37230   71.05050  129.11530   94.88530    0.17850    0.02530    2.87590
 15364.00000   15.56450   13.13520   14.67060   70.24520  128.31470   95.20010    0.18390    0.02420    2.98150
 15364.50000   13.55670   13.48750   13.60000   70.15920  126.09970   95.45870    0.19120    0.02310    3.08860
 15365.00000   12.94230   14.26570   13.62990   71.39560  127.19850   95.42230    0.18940    0.01390    3.20800
 15365.50000   12.13820   14.37620   13.69740   72.88040  131.18350   94.65680    0.20130    0.00210    3.24280
 15366.00000   12.65810   14.46760   13.76520   74.06920  131.50850   95.03570    0.21600   -0.00080    3.27310
 15366.50000   12.28700   14.63580   13.83330   74.49300  132.37910   96.25960    0.24300    0.00720    3.31650
 15367.00000   11.10680   15.04260   13.89000   74.46710  132.46980  100.84920    0.23810    0.02210    3.35990
 15367.50000    9.73950   16.72080   15.05300   74.54730  132.52060  105.43880    0.23440    0.03330    3.40210
 15368.00000    9.06170   18.14290   15.06020   74.86510  132.52060  109.30440    0.21690    0.02300    3.46090
 15368.50000    8.67260   12.45360   12.07500   75.85510  132.55880  110.28240    0.21170    0.00350    3.48280
 15369.00000    8.18060   12.23110   11.83610   76.66320  136.78220  111.39350    0.22560   -0.01060    3.45070
 15369.50000    7.86990   12.22260   11.70230   78.25140  143.40310  112.49420    0.24670   -0.01240    3.48300
 15370.00000    8.03930   12.17500   11.51370   82.46890  149.60620  114.65100    0.25510   -0.01100    3.49070
 15370.50000    8.43260   12.12770   11.52000   82.15400  151.81610  116.14720    0.26420   -0.00700    3.48740
 15371.00000    8.76070   12.05370   11.52620   83.72750  152.35980  116.28190    0.26860   -0.00170    3.38390
 15371.50000    8.57550   12.04740   11.53240   83.95560  152.45470  115.10440    0.26720    0.00360    3.30730
 15372.00000    8.80220   11.98840   11.53870   80.70820  152.57450  114.98920    0.26130    0.00890    3.29910
 15372.50000    8.76770   12.02290   11.54490   80.11850  152.62850  114.83630    0.26370    0.01420    3.29100
