~Version ---------------------------------------------------
VERS.   2.0 : CWLS log ASCII Standard -VERSION 2.0
WRAP.    NO : One line per depth step
DLM . SPACE : Column Data Section Delimiter
~Well ------------------------------------------------------
STRT .F                  200.0 : START DEPTH
STOP .F                10059.0 : STOP DEPTH
STEP .F                    0.5 : STEP
NULL .                -9999.25 : NULL VALUE
COMP .                         : COMPANY
WELL .                         : WELL
FLD  .                         : FIELD
LOC  .                         : LOCATION
PROV .                         : PROVINCE
CNTY .                         : COUNTY
STAT .                         : STATE
CTRY .                         : COUNTRY
SRVC .                         : SERVICE COMPANY
DATE .                         : DATE
UWI  .                         : UNIQUE WELL ID
API  .                         : API NUMBER
SLAT .WGS84 0.7014593352653016 : SURFACE LATITUDE
SLON .WGS84  6.726548007735005 : SURFACE LONGITUDE
DATUM.F                2734.42 : DEPTH DATUM ELEV
~Curve Information -----------------------------------------
DEPT.F     : 
RHOB.G/C3  : BULK DENSITY
CALD.IN    : CALIPER FROM DENSITY LOG
DRHO.G/C3  : DENSITY CORRECTION
DPHI.DEC   : DENSITY POROSITY LIMESTONE
NPHI.DEC   : NEUTRON POROSITY LIMESTONE
GRS .GAPI  : GAMMA RAY FROM SONIC LOG
DTCO.US/F  : COMPRESSIONAL-WAVE INTERVAL TRANSIT TIME ACOUSTIC SLOWNESS
DTSM.US/F  : SHEAR-WAVE INTERVAL TRANSIT TIME DELTA-T
~Params ----------------------------------------------------
~Other -----------------------------------------------------
~ASCII -----------------------------------------------------
# ...
 8080.00000    2.63060    5.96370    0.02970    0.04950    0.18160  113.03050   78.32070  142.95260
 8080.50000    2.62490    5.96300    0.02360    0.05200    0.19600  110.98540   77.14820  142.25260
 8081.00000    2.62030    5.94720    0.02050    0.05590    0.19910  107.80910   76.15630  141.55250
 8081.50000    2.61740    5.93140    0.02040    0.05560    0.19550  103.27520   76.38330  140.85250
 8082.00000    2.62180    5.93060    0.02030    0.05350    0.18470   99.64640   76.79100  140.15240
 8082.50000    2.62540    5.89980    0.02030    0.05320    0.16960  101.44750   76.56660  137.59930
 8083.00000    2.62790    5.88400    0.02020    0.05290    0.16120  103.47480   76.29130  136.58400
 8083.50000    2.62930    5.86820    0.02010    0.05030    0.16670  103.01340   75.86250  134.28380
 8084.00000    2.63010    5.83730    0.02000    0.04910    0.17120   99.61080   74.90050  131.12790
 8084.50000    2.62330    5.82150    0.02290    0.05180    0.17000   95.27090   74.49550  128.49880
 8085.00000    2.62660    5.82080    0.01980    0.05310    0.16590   93.03170   73.54880  126.11630
 8085.50000    2.64060    5.82000    0.02270    0.04440    0.15650   92.98580   72.55690  123.65480
 8086.00000    2.64440    5.80410    0.02260    0.04020    0.14450   92.10690   71.29410  122.41770
 8086.50000    2.64580    5.80330    0.02560    0.04080    0.13280   94.13420   71.20480  121.81910
 8087.00000    2.64130    5.81760    0.02880    0.04290    0.11810   97.51890   71.43220  122.57710
 8087.50000    2.63220    5.83220    0.03440    0.04770    0.11630  103.61860   72.06560  124.01120
 8088.00000    2.62210    5.86150    0.04030    0.05500    0.13380  108.13680   73.33100  126.27300
 8088.50000    2.61420    5.89070    0.04320    0.05830    0.14820  103.82700   73.82900  128.76050
 8089.00000    2.61890    5.90520    0.04310    0.05410    0.16720   99.51950   73.51430  130.42030
 8089.50000    2.62770    5.90430    0.04000    0.05080    0.17230   98.15310   73.06410  131.40290
 8090.00000    2.63380    5.90360    0.03690    0.04780    0.16150   99.95420   72.74940  132.68650
 8090.50000    2.63530    5.90280    0.03680    0.04610    0.15220  104.24390   73.30170  134.94830
 8091.00000    2.63510    5.90210    0.03670    0.04820    0.15010  108.75990   74.18220  139.09120
 8091.50000    2.62830    5.88630    0.03970    0.05190    0.15170  109.20360   75.14650  141.72960
 8092.00000    2.62220    5.88550    0.03960    0.05430    0.15470  108.51580   75.87020  142.11020
 8092.50000    2.62030    5.88480    0.03650    0.05520    0.15740  109.43500   76.32300  142.34040
 8093.00000    2.61910    5.89910    0.03640    0.05580    0.16170  111.94350   76.86610  141.89340
 8093.50000    2.61700    5.89820    0.03630    0.05670    0.16560  113.01400   76.14510  140.54340
 8094.00000    2.61740    5.89750    0.03620    0.05700    0.17250  107.12050   74.20510  138.74200
 8094.50000    2.62050    5.89670    0.03610    0.05590    0.16640   98.96680   73.34870  126.63210
 8095.00000    2.63520    5.89600    0.03900    0.04780    0.15610   90.81310   72.98880  124.22870
 8095.50000    2.66030    5.91050    0.04830    0.03670    0.15120   86.50770   72.40320  125.39910
 8096.00000    2.66730    5.92460    0.06340    0.02830    0.15580   92.15270   71.59160  127.09350
 8096.50000    2.65610    5.95400    0.07480    0.03130    0.15970   98.93110   72.67680  129.81120
 8097.00000    2.64590    5.98340    0.07770    0.03970    0.16300  104.35210   73.67140  131.99780
 8097.50000    2.63570    6.02790    0.07460    0.03970    0.16160  105.92690   74.93680  135.61400
 8098.00000    2.63040    6.05720    0.07150    0.04140    0.15980  107.72790   76.29860  138.10150
 8098.50000    2.62730    6.08660    0.07140    0.04700    0.17180  106.36160   76.60990  137.50400
 8099.00000    2.62890    6.08580    0.07130    0.04970    0.17660  103.63770   75.84410  134.79960
 8099.50000    2.63740    6.08500    0.07130    0.04550    0.16670   95.93650   73.31720  129.31120
 8100.00000    2.64690    6.05670    0.07120    0.04030    0.15750   94.57010   70.38360  123.97260
 8100.50000    2.65210    5.96300    0.07110    0.03600    0.14660   95.66540   69.41530  119.53500
 8101.00000    2.64910    5.94720    0.07720    0.03780    0.12980   97.49440   69.80090  121.71260
 8101.50000    2.62640    5.94640    0.09220    0.04650    0.12590   99.29660   71.12900  125.78360
 8102.00000    2.61130    5.96090    0.10780    0.05590    0.13310  102.23000   72.39110  136.39450
 8102.50000    2.59800    5.97530    0.13660    0.06550    0.14940  106.52080   75.95060  140.98580
 8103.00000    2.59960    5.98960    0.15420    0.07030    0.17590  110.58540   78.06860  143.54560
 8103.50000    2.61370    6.00390    0.16040    0.05860    0.18730  113.97130   79.01540  144.45000
 8104.00000    2.62390    6.00300    0.14540    0.05380    0.19340  113.73730   79.51180  144.82770
 8104.50000    2.62810    6.00220    0.11750    0.05140    0.19670  112.14580   79.73790  144.67870
 8105.00000    2.62800    6.00150    0.05970    0.05050    0.19250  108.06560   79.01800  142.72380
 8105.50000    2.62010    6.00080    0.02440    0.05360    0.18570  106.68950   77.12700  140.08460
 8106.00000    2.61050    5.96990    0.01570    0.06170    0.17420  104.55200   75.17210  136.93310
 8106.50000    2.60520    5.93900    0.02150    0.06440    0.15850  101.09290   74.54610  131.21600
 8107.00000    2.60030    5.92320    0.03040    0.06590    0.15460   96.72020   74.11190  124.97220
 8107.50000    2.59710    5.90720    0.03930    0.07050    0.14530   93.77130   73.88730  122.11440
 8108.00000    2.59560    5.90650    0.03920    0.07160    0.13360   91.04860   73.57310  117.28580
 8108.50000    2.60250    5.89070    0.04510    0.05450    0.12790   88.55210   72.58300  116.72430
 8109.00000    2.63390    5.89000    0.04500    0.03380    0.12850   88.09180   71.68300  117.60450
 8109.50000    2.67150    5.88920    0.03280    0.02510    0.13070   87.17900   71.05320  119.03560
 8110.00000    2.66120    5.88850    0.02070    0.03170    0.13100   85.36130   70.64870  119.26280
 8110.50000    2.63240    5.88770    0.01460    0.04350    0.12800   83.54350   70.28920  120.39300
 8111.00000    2.62550    5.88700    0.02050    0.05070    0.12710   85.57190   70.19550  124.30720
 8111.50000    2.62060    5.88620    0.02340    0.05280    0.12950   88.95780   71.37820  126.18980
 8112.00000    2.61580    5.90070    0.02920    0.05530    0.13310   91.21250   72.03240  126.94370
 8112.50000    2.61330    5.89980    0.03810    0.05770    0.13620   92.78840   72.54520  127.02040
 8113.00000    2.61280    5.91420    0.05010    0.06010    0.13710   93.92250   71.10460  127.69910
 8113.50000    2.62050    5.91340    0.06490    0.05880    0.13710   95.57020   70.52000  128.82930
 8114.00000    2.63900    5.92770    0.07680    0.05320    0.13560  100.92300   70.92620  128.98120
 8114.50000    2.65510    5.94200    0.08870    0.03730    0.13750  111.53350   71.55770  131.24010
 8115.00000    2.67120    5.95640    0.09160    0.02230    0.14580  118.08680   72.36940  134.92850
 8115.50000    2.67560    6.00060    0.09150    0.01900    0.15830  120.56770   73.54150  138.55350
 8116.00000    2.64790    6.07520    0.08830    0.03160    0.17250  121.46490   74.48830  147.27170
 8116.50000    2.63080    6.11960    0.08520    0.04370    0.18470  122.36210   75.93060  152.01360
 8117.00000    2.62130    6.16400    0.08510    0.05180    0.18620  123.25930   77.75500  153.36950
 8117.50000    2.62020    6.17850    0.08500    0.05690    0.19050  123.47970   79.06790  154.19870
 8118.00000    2.62170    6.19290    0.09090    0.05780    0.19830  122.11250   79.89750  154.04460
 8118.50000    2.62080    6.20720    0.09670    0.05630    0.20460  119.84230   80.48390  152.97450
 8119.00000    2.61560    6.20630    0.09660    0.05790    0.20700  118.25070   81.29560  146.67900
 8119.50000    2.60630    6.20550    0.09650    0.06420    0.20100  119.37420   81.20640  144.27230
