~Version ---------------------------------------------------
VERS.   2.0 : CWLS log ASCII Standard -VERSION 2.0
WRAP.    NO : One line per depth step
DLM . SPACE : Column Data Section Delimiter
~Well ------------------------------------------------------
STRT .F                  200.0 : START DEPTH
STOP .F                10059.0 : STOP DEPTH
STEP .F                    0.5 : STEP
NULL .                -9999.25 : NULL VALUE
COMP .                         : COMPANY
WELL .                         : WELL
FLD  .                         : FIELD
LOC  .                         : LOCATION
PROV .                         : PROVINCE
CNTY .                         : COUNTY
STAT .                         : STATE
CTRY .                         : COUNTRY
SRVC .                         : SERVICE COMPANY
DATE .                         : DATE
UWI  .                         : UNIQUE WELL ID
API  .                         : API NUMBER
SLAT .WGS84 0.7014593352653016 : SURFACE LATITUDE
SLON .WGS84  6.726548007735005 : SURFACE LONGITUDE
DATUM.F                2734.42 : DEPTH DATUM ELEV
~Curve Information -----------------------------------------
DEPT.F     : 
RHOB.G/C3  : BULK DENSITY
CALD.IN    : CALIPER FROM DENSITY LOG
DRHO.G/C3  : DENSITY CORRECTION
DPHI.DEC   : DENSITY POROSITY LIMESTONE
NPHI.DEC   : NEUTRON POROSITY LIMESTONE
GRS .GAPI  : GAMMA RAY FROM SONIC LOG
DTCO.US/F  : COMPRESSIONAL-WAVE INTERVAL TRANSIT TIME ACOUSTIC SLOWNESS
DTSM.US/F  : SHEAR-WAVE INTERVAL TRANSIT TIME DELTA-T
~Params ----------------------------------------------------
~Other -----------------------------------------------------
~ASCII -----------------------------------------------------
# ...
 7400.00000   -9999.25   -9999.25   -9999.25   -9999.25    0.15260   72.17310   55.56880   79.77440
 7400.50000   -9999.25   -9999.25   -9999.25   -9999.25    0.14990   72.37790   54.71780   77.51880
 7401.00000   -9999.25   -9999.25   -9999.25   -9999.25    0.15060   72.55380   54.85330   77.66920
 7401.50000   -9999.25   -9999.25   -9999.25   -9999.25    0.15660   71.93870   54.62750   77.76510
 7402.00000   -9999.25   -9999.25   -9999.25   -9999.25    0.16530   71.03150   53.99550   76.91730
 7402.50000   -9999.25   -9999.25   -9999.25   -9999.25    0.17110   72.83920   53.76980   75.99980
 7403.00000   -9999.25   -9999.25   -9999.25   -9999.25    0.16870   75.77820   54.40180   75.93980
 7403.50000   -9999.25   -9999.25   -9999.25   -9999.25    0.16270   77.13340   55.21440   75.86470
 7404.00000   -9999.25   -9999.25   -9999.25   -9999.25    0.15940   76.22620   55.71110   75.71430
 7404.50000   -9999.25   -9999.25   -9999.25   -9999.25    0.16450   74.64030   55.93680   75.41350
 7405.00000   -9999.25   -9999.25   -9999.25   -9999.25    0.17510   75.31680   55.38590   75.33830
 7405.50000   -9999.25   -9999.25   -9999.25   -9999.25    0.19010   75.99330   54.97580   75.71430
 7406.00000   -9999.25   -9999.25   -9999.25   -9999.25    0.19860   74.63310   55.12420   76.31580
 7406.50000   -9999.25   -9999.25   -9999.25   -9999.25    0.19890   72.59470   55.71110   76.91730
 7407.00000   -9999.25   -9999.25   -9999.25   -9999.25    0.19500   71.68750   56.02710   77.21800
 7407.50000   -9999.25   -9999.25   -9999.25   -9999.25    0.19290   71.23270   56.38830   75.78950
 7408.00000   -9999.25   -9999.25   -9999.25   -9999.25    0.18990   72.13550   56.65910   75.93980
 7408.50000   -9999.25   -9999.25   -9999.25   -9999.25    0.18420   72.58630   56.83970   77.08860
 7409.00000   -9999.25   -9999.25   -9999.25   -9999.25    0.17060   72.80980   55.98190   81.08500
 7409.50000   -9999.25   -9999.25   -9999.25   -9999.25    0.15660   74.16500   55.21440   81.42860
 7410.00000   -9999.25   -9999.25   -9999.25   -9999.25    0.17520   75.29400   54.80810   80.45110
 7410.50000   -9999.25   -9999.25   -9999.25   -9999.25    0.21200   75.29180   55.03390   80.67670
 7411.00000   -9999.25   -9999.25   -9999.25   -9999.25    0.24240   71.87340   55.57560   83.38350
 7411.50000   -9999.25   -9999.25   -9999.25   -9999.25    0.25380   65.56870   56.20950   85.56390
 7412.00000   -9999.25   -9999.25   -9999.25   -9999.25    0.25650   54.68420   56.25280   90.97740
 7412.50000   -9999.25   -9999.25   -9999.25   -9999.25    0.22200   43.60820   56.30550   98.19550
 7413.00000   -9999.25   -9999.25   -9999.25   -9999.25    0.16330   42.92780   56.70430  105.03760
 7413.50000   -9999.25   -9999.25   -9999.25   -9999.25    0.10050   45.41370   56.47860  107.74440
 7414.00000   -9999.25   -9999.25   -9999.25   -9999.25    0.05390   44.73270   56.20770  108.19550
 7414.50000   -9999.25   -9999.25   -9999.25   -9999.25    0.04520   42.69430   55.98190  108.94740
 7415.00000   -9999.25   -9999.25   -9999.25   -9999.25    0.05210   39.29840   56.65910  109.70940
 7415.50000   -9999.25   -9999.25   -9999.25   -9999.25    0.06120   36.80750   57.11060  109.92480
 7416.00000   -9999.25   -9999.25   -9999.25   -9999.25    0.06450   35.22160   56.34310  109.02260
 7416.50000   -9999.25   -9999.25   -9999.25   -9999.25    0.05670   33.86190   56.70430  107.74440
 7417.00000   -9999.25   -9999.25   -9999.25   -9999.25    0.04980   34.53840   56.83970  106.31580
 7417.50000   -9999.25   -9999.25   -9999.25   -9999.25    0.04170   35.44840   56.52370  105.63910
 7418.00000   -9999.25   -9999.25   -9999.25   -9999.25    0.03630   37.53980   55.89160  105.41350
 7418.50000   -9999.25   -9999.25   -9999.25   -9999.25    0.03390   40.98280   55.11980  105.03760
 7419.00000   -9999.25   -9999.25   -9999.25   -9999.25    0.03150   44.25750   55.03390  104.58650
 7419.50000   -9999.25   -9999.25   -9999.25   -9999.25    0.03060   44.93460   55.57560  104.28570
 7420.00000   -9999.25   -9999.25   -9999.25   -9999.25    0.03310   44.47930   55.98190  104.81200
 7420.50000   -9999.25   -9999.25   -9999.25   -9999.25    0.04120   44.25140   56.61400  105.71430
 7421.00000   -9999.25   -9999.25   -9999.25   -9999.25    0.05170   47.64230   57.02030  107.83400
 7421.50000   -9999.25   -9999.25   -9999.25   -9999.25    0.05810   49.22380   57.06550  111.11730
 7422.00000   -9999.25   -9999.25   -9999.25   -9999.25    0.06200   49.90080   56.83970  115.33830
 7422.50000   -9999.25   -9999.25   -9999.25   -9999.25    0.07280   47.86190   56.56880  115.56390
 7423.00000   -9999.25   -9999.25   -9999.25   -9999.25    0.09300   46.27590   56.52370  114.28570
 7423.50000   -9999.25   -9999.25   -9999.25   -9999.25    0.09660   45.80690   56.65910  113.23310
 7424.00000   -9999.25   -9999.25   -9999.25   -9999.25    0.08340   47.86060   56.83970  112.18050
 7424.50000   -9999.25   -9999.25   -9999.25   -9999.25    0.06900   49.68270   57.02030  112.33080
 7425.00000   -9999.25   -9999.25   -9999.25   -9999.25    0.06270   51.81000   57.92330  112.48120
 7425.50000   -9999.25   -9999.25   -9999.25   -9999.25    0.06660   53.50410   58.41990  112.63160
 7426.00000   -9999.25   -9999.25   -9999.25   -9999.25    0.07840   52.59690   58.10380  112.70680
 7426.50000   -9999.25   -9999.25   -9999.25   -9999.25    0.08950   50.10600   58.37470  112.70680
 7427.00000   -9999.25   -9999.25   -9999.25   -9999.25    0.09600   47.38880   58.46500  112.55640
 7427.50000   -9999.25   -9999.25   -9999.25   -9999.25    0.09950   45.12420   57.87810  111.31970
 7428.00000   -9999.25   -9999.25   -9999.25   -9999.25    0.09110   43.31200   57.56210  108.40780
 7428.50000   -9999.25   -9999.25   -9999.25   -9999.25    0.08060   46.92970   56.61400  101.80450
 7429.00000   -9999.25   -9999.25   -9999.25   -9999.25    0.05950   55.07230   52.95710   94.58650
 7429.50000   -9999.25   -9999.25   -9999.25   -9999.25    0.05290   58.01120   47.99100   82.48120
 7430.00000   -9999.25   -9999.25   -9999.25   -9999.25    0.05520   59.59270   43.97290   79.92480
 7430.50000   -9999.25   -9999.25   -9999.25   -9999.25    0.07050   60.50090   46.72690   83.53380
 7431.00000   -9999.25   -9999.25   -9999.25   -9999.25    0.08680   62.11660   51.19640   85.18800
 7431.50000   -9999.25   -9999.25   -9999.25   -9999.25    0.09990   63.95850   55.21440   86.01500
 7432.00000   -9999.25   -9999.25   -9999.25   -9999.25    0.10840   66.14440   57.83300   86.39100
 7432.50000   -9999.25   -9999.25   -9999.25   -9999.25    0.11560   68.63080   60.00000   86.69170
 7433.00000   -9999.25   -9999.25   -9999.25   -9999.25    0.11860   70.66480   61.89620   87.21800
 7433.50000   -9999.25   -9999.25   -9999.25   -9999.25    0.12140   72.24630   62.48310   90.02300
 7434.00000   -9999.25   -9999.25   -9999.25   -9999.25    0.13130   72.47090   61.71560   93.78090
 7434.50000   -9999.25   -9999.25   -9999.25   -9999.25    0.15840   70.88440   60.25740  101.87970
 7435.00000   -9999.25   -9999.25   -9999.25   -9999.25    0.16440   69.75100   59.35610  107.21800
 7435.50000   -9999.25   -9999.25   -9999.25   -9999.25    0.15900   68.39130   59.59370  114.06020
 7436.00000   -9999.25   -9999.25   -9999.25   -9999.25    0.14220   68.12970   60.13540  123.75940
 7436.50000   -9999.25   -9999.25   -9999.25   -9999.25    0.12810   68.16060   60.45150  125.18800
 7437.00000   -9999.25   -9999.25   -9999.25   -9999.25    0.12240   68.15840   59.41310  123.15790
 7437.50000   -9999.25   -9999.25   -9999.25   -9999.25    0.11730   66.10110   57.74270  121.05260
 7438.00000   -9999.25   -9999.25   -9999.25   -9999.25    0.11370   65.66520   58.28440  121.27820
 7438.50000   -9999.25   -9999.25   -9999.25   -9999.25    0.11310   66.79370   58.73590  121.35340
 7439.00000   -9999.25   -9999.25   -9999.25   -9999.25    0.12190   68.82770   57.96840  119.77440
 7439.50000   -9999.25   -9999.25   -9999.25   -9999.25    0.13000   71.08790   56.61400  117.06770
