~Version ---------------------------------------------------
VERS.   2.0 : CWLS log ASCII Standard -VERSION 2.0
WRAP.    NO : One line per depth step
DLM . SPACE : Column Data Section Delimiter
~Well ------------------------------------------------------
STRT .F                  200.0 : START DEPTH
STOP .F                10059.0 : STOP DEPTH
STEP .F                    0.5 : STEP
NULL .                -9999.25 : NULL VALUE
COMP .                         : COMPANY
WELL .                         : WELL
FLD  .                         : FIELD
LOC  .                         : LOCATION
PROV .                         : PROVINCE
CNTY .                         : COUNTY
STAT .                         : STATE
CTRY .                         : COUNTRY
SRVC .                         : SERVICE COMPANY
DATE .                         : DATE
UWI  .                         : UNIQUE WELL ID
API  .                         : API NUMBER
SLAT .WGS84 0.7014593352653016 : SURFACE LATITUDE
SLON .WGS84  6.726548007735005 : SURFACE LONGITUDE
DATUM.F                2734.42 : DEPTH DATUM ELEV
~Curve Information -----------------------------------------
DEPT.F     : 
RHOB.G/C3  : BULK DENSITY
CALD.IN    : CALIPER FROM DENSITY LOG
DRHO.G/C3  : DENSITY CORRECTION
DPHI.DEC   : DENSITY POROSITY LIMESTONE
NPHI.DEC   : NEUTRON POROSITY LIMESTONE
GRS .GAPI  : GAMMA RAY FROM SONIC LOG
DTCO.US/F  : COMPRESSIONAL-WAVE INTERVAL TRANSIT TIME ACOUSTIC SLOWNESS
DTSM.US/F  : SHEAR-WAVE INTERVAL TRANSIT TIME DELTA-T
~Params ----------------------------------------------------
~Other -----------------------------------------------------
~ASCII -----------------------------------------------------
# ...
 8280.00000    2.60600    5.95470    0.00750    0.06620    0.19730  139.81900   77.59460  145.75050
 8280.50000    2.60370    5.95380    0.00740    0.06870    0.20210  133.03170   76.99240  143.73300
 8281.00000    2.60060    5.95290    0.01040    0.06980    0.20540  120.58820   76.47380  140.66210
 8281.50000    2.60000    5.93700    0.01350    0.06690    0.20420  107.85570   75.98160  137.13850
 8282.00000    2.60900    5.93610    0.01630    0.06240    0.19640  104.75110   75.21850  136.70110
 8282.50000    2.61860    5.93520    0.02220    0.05670    0.19310  110.40720   75.89680  137.44650
 8283.00000    2.62660    5.94940    0.02520    0.04980    0.19280  116.06330   76.89050  139.79490
 8283.50000    2.63470    5.94850    0.02510    0.04680    0.19280  119.90950   78.15440  141.33670
 8284.00000    2.63600    5.94760    0.02810    0.04860    0.19280  121.49320   78.65260  145.56450
 8284.50000    2.62170    5.94670    0.02200    0.05280    0.19320  122.39820   78.83540  148.66360
 8285.00000    2.61720    5.94580    0.02190    0.05830    0.19750  124.88690   79.46870  151.16080
 8285.50000    2.61570    5.94740    0.01890    0.05890    0.20300  129.41180   81.22810  152.90550
 8286.00000    2.61560    5.95910    0.01880    0.05860    0.21200  131.90050   81.59110  153.59670
 8286.50000    2.61710    5.95800    0.01870    0.05380    0.22330  130.54300   81.32350  153.23460
 8287.00000    2.62390    5.94200    0.01870    0.03160    0.22630  122.39820   80.65050  151.96950
 8287.50000    2.68720    5.94110    0.01860   -0.00630    0.22600  116.96830   79.79730  147.54410
 8288.00000    2.75370    5.94020    0.01860   -0.05110    0.21670  107.60180   78.19770  142.74260
 8288.50000    2.79960    5.93940    0.01850   -0.04630    0.20140  104.67870   76.71100  140.87550
 8289.00000    2.75940    5.93850    0.01540   -0.01110    0.18610  105.42990   76.11220  138.78390
 8289.50000    2.70540    5.93760    0.01240    0.02020    0.18130  105.88240   76.02420  137.66930
 8290.00000    2.66200    5.93670    0.00930    0.04130    0.18130  105.42990   76.25270  136.93100
 8290.50000    2.64270    5.93580    0.00920    0.05060    0.18070  106.10860   76.20960  136.79100
 8291.00000    2.62380    5.93490    0.01220    0.05310    0.17650  109.04980   76.03210  137.56110
 8291.50000    2.62010    5.93400    0.01510    0.05610    0.17470  113.12220   76.35080  139.00480
 8292.00000    2.61780    5.93310    0.01510    0.05820    0.18010  116.96830   77.07410  140.72130
 8292.50000    2.62000    5.93220    0.01500    0.05670    0.18940  120.13570   77.48220  141.92360
 8293.00000    2.62130    5.93130    0.01500    0.05490    0.19700  125.11310   77.71010  143.97200
 8293.50000    2.62450    5.93040    0.01490    0.05380    0.19970  127.14930   77.93800  145.72260
 8294.00000    2.62520    5.94460    0.01480    0.05290    0.20360  126.23540   78.34600  146.97930
 8294.50000    2.62300    5.94350    0.01480    0.05410    0.20670  125.76470   79.15950  148.04680
 8295.00000    2.61620    5.95790    0.01170    0.05680    0.20720  125.33940   79.38740  148.88510
 8295.50000    2.61110    5.94170    0.00860    0.06010    0.20070  120.58820   79.11410  147.09680
 8296.00000    2.60790    5.94090    0.01160    0.06410    0.18530  113.57470   78.65990  144.70310
 8296.50000    2.61400    5.94000    0.01450    0.05810    0.17030  111.53850   78.13480  144.18690
 8297.00000    2.65370    5.95440    0.02050    0.04670    0.16670  118.09950   78.00230  145.18270
 8297.50000    2.65470    5.95320    0.02940    0.03590    0.17690  128.95930   77.86910  145.87400
 8298.00000    2.64630    5.95240    0.03540    0.03680    0.19170  132.12670   77.82680  146.64050
 8298.50000    2.63190    5.95150    0.02930    0.04490    0.20670  129.63800   78.05530  148.15940
 8299.00000    2.62680    5.95060    0.02620    0.05030    0.20980  128.05430   78.23820  147.27060
 8299.50000    2.63680    5.94970    0.02620    0.04860    0.21160  126.01810   78.24080  146.08070
 8300.00000    2.64680    5.94880    0.02210    0.04260    0.21310  125.33940   78.23310  144.81560
 8300.50000    2.65210    5.94800    0.01700    0.03900    0.21580  126.01440   78.15460  142.80720
 8301.00000    2.63880    5.94730    0.01990    0.04680    0.21410  126.23620   77.84060  141.47430
 8301.50000    2.62490    5.94650    0.02280    0.05520    0.20510  125.77810   77.39150  140.51750
 8302.00000    2.62190    5.94560    0.02560    0.05490    0.19880  124.19000   77.33630  139.70330
 8302.50000    2.62760    5.94490    0.02850    0.05280    0.19930  121.92310   77.66440  139.13240
 8303.00000    2.63800    5.94420    0.02840    0.05040    0.20260  122.86660   77.65290  138.77760
 8303.50000    2.64570    5.97350    0.02830    0.04290    0.20380  126.30420   77.00610  138.49810
 8304.00000    2.64820    5.97280    0.02820    0.03960    0.20050  128.24460   76.22730  138.13880
 8304.50000    2.64670    5.97200    0.03110    0.04210    0.19540  125.07160   75.37280  139.14660
 8305.00000    2.64130    5.97130    0.03090    0.04330    0.19190  123.03090   76.22990  140.06900
 8305.50000    2.63340    5.97060    0.03380    0.04560    0.19250  122.57510   76.72680  140.69230
 8306.00000    2.62490    5.98510    0.03670    0.05140    0.19430  125.28450   77.31370  140.48800
 8306.50000    2.62110    5.98410    0.03960    0.05530    0.19550  128.22230   77.67540  140.05800
 8307.00000    2.62480    5.98340    0.03940    0.05240    0.19160  126.40680   78.35210  140.78680
 8307.50000    2.62780    5.98270    0.03930    0.05060    0.18470  123.68740   77.99340  141.45520
 8308.00000    2.62780    5.98190    0.03920    0.05240    0.17300  117.57440   77.67940  140.42850
 8308.50000    2.62780    5.98120    0.04210    0.05030    0.16460  115.76110   77.36540  139.09560
 8309.00000    2.63240    5.99550    0.04500    0.03950    0.16280  117.56550   76.24060  137.46160
 8309.50000    2.64570    5.99470    0.04790    0.03380    0.17270  117.57540   74.71040  133.64550
 8310.00000    2.66000    5.99400    0.04470    0.03230    0.17870  116.65160   74.21620  133.96790
 8310.50000    2.66080    5.99310    0.03560    0.03440    0.18000  115.50150   74.53930  135.34370
 8311.00000    2.65620    5.99230    0.03250    0.03680    0.17580  114.60650   74.72050  137.54720
 8311.50000    2.65230    5.99160    0.02940    0.03920    0.17040  116.63710   74.94130  138.77250
 8312.00000    2.64640    6.00610    0.02620    0.04310    0.16850  118.89510   75.52820  139.85440
 8312.50000    2.63810    6.00520    0.02010    0.04680    0.17040  122.05810   76.25020  140.54780
 8313.00000    2.63230    6.01970    0.01100    0.04980    0.17130  124.08980   77.28760  141.92360
 8313.50000    2.62550    6.01870    0.00790    0.05310    0.17130  126.12160   77.87450  143.67560
 8314.00000    2.61960    6.03320    0.01080    0.05610    0.17360  127.70080   78.37130  144.07320
 8314.50000    2.61780    6.04740    0.01360    0.05820    0.17880  128.37510   78.86810  143.56790
 8315.00000    2.61700    6.04660    0.01650    0.05730    0.18910  127.46570   78.64430  142.76170
 8315.50000    2.62930    6.04590    0.01940    0.04930    0.18550  124.74630   78.10500  141.10640
 8316.00000    2.65300    6.09030    0.02530    0.03650    0.17740  117.95450   77.34060  139.34500
 8316.50000    2.66310    6.13480    0.03120    0.02970    0.16570  113.87770   76.80140  136.95860
 8317.00000    2.66430    6.16420    0.04010    0.03300    0.16000  115.90940   76.25570  135.85130
 8317.50000    2.64750    6.11820    0.05210    0.04060    0.16600  121.56110   76.75900  136.70410
 8318.00000    2.64020    6.05660    0.05780    0.04480    0.17500  128.61320   78.03880  137.84030
 8318.50000    2.63940    5.96470    0.05470    0.04480    0.18650  132.53390   78.92380  139.84830
 8319.00000    2.63870    5.92020    0.04800    0.04600    0.20030  134.89610   78.79000  140.98190
 8319.50000    2.63650    5.91930    0.03040    0.04990    0.20660  131.27070   78.47640  140.47130
