~Version ---------------------------------------------------
VERS.   2.0 : CWLS log ASCII Standard -VERSION 2.0
WRAP.    NO : One line per depth step
DLM . SPACE : Column Data Section Delimiter
~Well ------------------------------------------------------
STRT .F                  200.0 : START DEPTH
STOP .F                10059.0 : STOP DEPTH
STEP .F                    0.5 : STEP
NULL .                -9999.25 : NULL VALUE
COMP .                         : COMPANY
WELL .                         : WELL
FLD  .                         : FIELD
LOC  .                         : LOCATION
PROV .                         : PROVINCE
CNTY .                         : COUNTY
STAT .                         : STATE
CTRY .                         : COUNTRY
SRVC .                         : SERVICE COMPANY
DATE .                         : DATE
UWI  .                         : UNIQUE WELL ID
API  .                         : API NUMBER
SLAT .WGS84 0.7014593352653016 : SURFACE LATITUDE
SLON .WGS84  6.726548007735005 : SURFACE LONGITUDE
DATUM.F                2734.42 : DEPTH DATUM ELEV
~Curve Information -----------------------------------------
DEPT.F     : 
RHOB.G/C3  : BULK DENSITY
CALD.IN    : CALIPER FROM DENSITY LOG
DRHO.G/C3  : DENSITY CORRECTION
DPHI.DEC   : DENSITY POROSITY LIMESTONE
NPHI.DEC   : NEUTRON POROSITY LIMESTONE
GRS .GAPI  : GAMMA RAY FROM SONIC LOG
DTCO.US/F  : COMPRESSIONAL-WAVE INTERVAL TRANSIT TIME ACOUSTIC SLOWNESS
DTSM.US/F  : SHEAR-WAVE INTERVAL TRANSIT TIME DELTA-T
~Params ----------------------------------------------------
~Other -----------------------------------------------------
~ASCII -----------------------------------------------------
# ...
 10000.00000    2.59530    5.46710    0.03210    0.07380    0.02570   -9999.25   -9999.25   -9999.25
 10000.50000    2.59580    5.46510    0.03800    0.07210    0.02700   -9999.25   -9999.25   -9999.25
 10001.00000    2.59200    5.46350    0.04380    0.07300    0.03340   -9999.25   -9999.25   -9999.25
 10001.50000    2.58390    5.46180    0.04000    0.07860    0.04030   -9999.25   -9999.25   -9999.25
 10002.00000    2.58680    5.46020    0.03670    0.08040    0.05240   -9999.25   -9999.25   -9999.25
 10002.50000    2.59570    5.45860    0.03350    0.07840    0.06480   -9999.25   -9999.25   -9999.25
 10003.00000    2.59510    5.45690    0.03630    0.07540    0.07410   -9999.25   -9999.25   -9999.25
 10003.50000    2.58960    5.45530    0.03900    0.07390    0.07020   -9999.25   -9999.25   -9999.25
 10004.00000    2.58660    5.45360    0.04180    0.07210    0.06030   -9999.25   -9999.25   -9999.25
 10004.50000    2.60080    5.45160    0.04160    0.06950    0.04770   -9999.25   -9999.25   -9999.25
 10005.00000    2.61330    5.45000    0.04430    0.06650    0.03750   -9999.25   -9999.25   -9999.25
 10005.50000    2.62400    5.44840    0.05010    0.06110    0.03270   -9999.25   -9999.25   -9999.25
 10006.00000    2.63470    5.44680    0.05280    0.05240    0.03390   -9999.25   -9999.25   -9999.25
 10006.50000    2.64140    5.44510    0.05560    0.04550    0.03930   -9999.25   -9999.25   -9999.25
 10007.00000    2.62910    5.44350    0.05830    0.04440    0.04030   -9999.25   -9999.25   -9999.25
 10007.50000    2.60940    5.44190    0.05800    0.05520    0.03640   -9999.25   -9999.25   -9999.25
 10008.00000    2.59580    5.44020    0.06380    0.06720    0.03220   -9999.25   -9999.25   -9999.25
 10008.50000    2.58340    5.43860    0.06660    0.07450    0.02950   -9999.25   -9999.25   -9999.25
 10009.00000    2.58000    5.43700    0.07540    0.07960    0.02890   -9999.25   -9999.25   -9999.25
 10009.50000    2.58090    5.43530    0.07510    0.07960    0.03610   -9999.25   -9999.25   -9999.25
 10010.00000    2.59380    5.43370    0.07480    0.07600    0.04670   -9999.25   -9999.25   -9999.25
 10010.50000    2.60500    5.43210    0.07460    0.06950    0.06350   -9999.25   -9999.25   -9999.25
 10011.00000    2.60810    5.44550    0.06840    0.06500    0.07430   -9999.25   -9999.25   -9999.25
 10011.50000    2.59790    5.44380    0.06220    0.06830    0.07190   -9999.25   -9999.25   -9999.25
 10012.00000    2.58750    5.44220    0.05590    0.07190    0.06430   -9999.25   -9999.25   -9999.25
 10012.50000    2.58170    5.44020    0.04940    0.07730    0.05800   -9999.25   -9999.25   -9999.25
 10013.00000    2.58670    5.43860    0.04350    0.07980    0.05450   -9999.25   -9999.25   -9999.25
 10013.50000    2.59640    5.43690    0.05220    0.07650    0.05370   -9999.25   -9999.25   -9999.25
 10014.00000    2.61120    5.43530    0.06990    0.07080    0.05400   -9999.25   -9999.25   -9999.25
 10014.50000    2.63120    5.44870    0.08460    0.06450    0.05400   -9999.25   -9999.25   -9999.25
 10015.00000    2.65110    5.44710    0.09340    0.05770    0.04950   -9999.25   -9999.25   -9999.25
 10015.50000    2.67250    5.46090    0.09910    0.03700    0.03960   -9999.25   -9999.25   -9999.25
 10016.00000    2.65960    5.47440    0.10490    0.02500    0.03570   -9999.25   -9999.25   -9999.25
 10016.50000    2.64000    5.47230    0.08970    0.03040    0.03390   -9999.25   -9999.25   -9999.25
 10017.00000    2.63180    5.48580    0.08050    0.03980    0.03300   -9999.25   -9999.25   -9999.25
 10017.50000    2.63240    5.48410    0.07120    0.04730    0.03250   -9999.25   -9999.25   -9999.25
 10018.00000    2.63630    5.48250    0.07100    0.04880    0.03190   -9999.25   -9999.25   -9999.25
 10018.50000    2.64070    5.48090    0.07080    0.04750    0.03160   -9999.25   -9999.25   -9999.25
 10019.00000    2.64320    5.47920    0.07050    0.04410    0.03400   -9999.25   -9999.25   -9999.25
 10019.50000    2.64220    5.47760    0.07030    0.04200    0.04660   -9999.25   -9999.25   -9999.25
 10020.00000    2.63680    5.47560    0.07010    0.04290    0.06500   -9999.25   -9999.25   -9999.25
 10020.50000    2.62400    5.47390    0.06680    0.04620    0.07130   -9999.25   -9999.25   -9999.25
 10021.00000    2.60690    5.47230    0.06060    0.05400    0.06740   -9999.25   -9999.25   -9999.25
 10021.50000    2.59790    5.47070    0.05130    0.06070    0.05690   -9999.25   -9999.25   -9999.25
 10022.00000    2.59250    5.46910    0.04510    0.07030    0.04220   -9999.25   -9999.25   -9999.25
 10022.50000    2.59470    5.46740    0.04490    0.07450    0.03810   -9999.25   -9999.25   -9999.25
 10023.00000    2.60350    5.46580    0.05060    0.07300    0.03650   -9999.25   -9999.25   -9999.25
 10023.50000    2.61350    5.46420    0.05940    0.06380    0.04290   -9999.25   -9999.25   -9999.25
 10024.00000    2.61890    5.47800    0.06520    0.05330    0.04800   -9999.25   -9999.25   -9999.25
 10024.50000    2.62570    5.47600    0.05890    0.05210    0.04920   -9999.25   -9999.25   -9999.25
 10025.00000    2.63250    5.48950    0.04970    0.05300    0.04710   -9999.25   -9999.25   -9999.25
 10025.50000    2.64580    5.50290    0.04050    0.04980    0.04440   -9999.25   -9999.25   -9999.25
 10026.00000    2.66100    5.50120    0.03130    0.04020    0.03930   -9999.25   -9999.25   -9999.25
 10026.50000    2.67080    5.49960    0.02790    0.03000    0.03240   -9999.25   -9999.25   -9999.25
 10027.00000    2.66850    5.52800    0.02480    0.02850    0.02640   -9999.25   -9999.25   -9999.25
 10027.50000    2.65990    5.54360    0.03050    0.03140    0.01980   -9999.25   -9999.25   -9999.25
 10028.00000    2.64880    5.56960    0.04220    0.04570    0.01830   -9999.25   -9999.25   -9999.25
 10028.50000    2.62980    5.61310    0.04200    0.05690    0.02200   -9999.25   -9999.25   -9999.25
 10029.00000    2.61410    5.65670    0.04180    0.07300    0.02750   -9999.25   -9999.25   -9999.25
 10029.50000    2.59030    5.70060    0.03860    0.07760    0.03290   -9999.25   -9999.25   -9999.25
 10030.00000    2.58690    5.72910    0.05030    0.07520    0.03780   -9999.25   -9999.25   -9999.25
 10030.50000    2.59690    5.75760    0.05310    0.06950    0.04140   -9999.25   -9999.25   -9999.25
 10031.00000    2.60420    5.77100    0.04080    0.06680    0.04250   -9999.25   -9999.25   -9999.25
 10031.50000    2.58460    5.73890    0.03160    0.07740    0.04160   -9999.25   -9999.25   -9999.25
 10032.00000    2.57650    5.69210    0.02840    0.08280    0.03890   -9999.25   -9999.25   -9999.25
 10032.50000    2.57250    5.66030    0.01920    0.08430    0.03290   -9999.25   -9999.25   -9999.25
 10033.00000    2.57370    5.65870    0.01890    0.08430    0.02630   -9999.25   -9999.25   -9999.25
 10033.50000    2.57420    5.64200    0.01870    0.08370    0.02210   -9999.25   -9999.25   -9999.25
 10034.00000    2.57550    5.62530    0.02140    0.08290    0.02780   -9999.25   -9999.25   -9999.25
 10034.50000    2.57830    5.60860    0.02720    0.08260    0.03000   -9999.25   -9999.25   -9999.25
 10035.00000    2.58400    5.60690    0.03000    0.08050    0.03150   -9999.25   -9999.25   -9999.25
 10035.50000    2.59270    5.60530    0.03870    0.07540    0.03330   -9999.25   -9999.25   -9999.25
 10036.00000    2.59690    5.60330    0.04440    0.07160    0.03600   -9999.25   -9999.25   -9999.25
 10036.50000    2.59640    5.60170    0.05020    0.07370    0.04140   -9999.25   -9999.25   -9999.25
 10037.00000    2.59170    5.61510    0.06190    0.07580    0.04840   -9999.25   -9999.25   -9999.25
 10037.50000    2.58810    5.61350    0.06460    0.07330    0.05230   -9999.25   -9999.25   -9999.25
 10038.00000    2.59930    5.62730    0.07040    0.06820    0.05260   -9999.25   -9999.25   -9999.25
 10038.50000    2.60650    5.64070    0.07020    0.06350    0.05080   -9999.25   -9999.25   -9999.25
 10039.00000    2.60830    5.66880    0.07300    0.06420    0.04840   -9999.25   -9999.25   -9999.25
 10039.50000    2.60260    5.68270    0.06670    0.06900    0.04840   -9999.25   -9999.25   -9999.25
