~Version ---------------------------------------------------
VERS.   2.0 : CWLS log ASCII Standard -VERSION 2.0
WRAP.    NO : One line per depth step
DLM . SPACE : Column Data Section Delimiter
~Well ------------------------------------------------------
STRT .F                  200.0 : START DEPTH
STOP .F                10059.0 : STOP DEPTH
STEP .F                    0.5 : STEP
NULL .                -9999.25 : NULL VALUE
COMP .                         : COMPANY
WELL .                         : WELL
FLD  .                         : FIELD
LOC  .                         : LOCATION
PROV .                         : PROVINCE
CNTY .                         : COUNTY
STAT .                         : STATE
CTRY .                         : COUNTRY
SRVC .                         : SERVICE COMPANY
DATE .                         : DATE
UWI  .                         : UNIQUE WELL ID
API  .                         : API NUMBER
SLAT .WGS84 0.7014593352653016 : SURFACE LATITUDE
SLON .WGS84  6.726548007735005 : SURFACE LONGITUDE
DATUM.F                2734.42 : DEPTH DATUM ELEV
~Curve Information -----------------------------------------
DEPT.F     : 
RHOB.G/C3  : BULK DENSITY
CALD.IN    : CALIPER FROM DENSITY LOG
DRHO.G/C3  : DENSITY CORRECTION
DPHI.DEC   : DENSITY POROSITY LIMESTONE
NPHI.DEC   : NEUTRON POROSITY LIMESTONE
GRS .GAPI  : GAMMA RAY FROM SONIC LOG
DTCO.US/F  : COMPRESSIONAL-WAVE INTERVAL TRANSIT TIME ACOUSTIC SLOWNESS
DTSM.US/F  : SHEAR-WAVE INTERVAL TRANSIT TIME DELTA-T
~Params ----------------------------------------------------
~Other -----------------------------------------------------
~ASCII -----------------------------------------------------
# ...
 7760.00000    2.74860    6.69580    0.07360   -0.02330    0.18720  117.05880   75.40410  141.98470
 7760.50000    2.71870    6.71060    0.07640   -0.00860    0.18600  117.74300   76.09690  141.84080
 7761.00000    2.68170    6.78550    0.07620    0.01100    0.18730  119.78360   76.62390  141.62040
 7761.50000    2.65900    6.87560    0.08200    0.04140    0.19470  121.14550   75.67640  141.40000
 7762.00000    2.63440    6.96570    0.09090    0.04560    0.19940  120.01870   75.04480  141.10440
 7762.50000    2.64740    6.95030    0.11470    0.04080    0.20200  119.34440   74.27770  138.55320
 7763.00000    2.66190    6.90480    0.12960    0.03110    0.20170  119.57510   73.55580  138.48190
 7763.50000    2.67560    6.75390    0.12340    0.02460    0.19910  121.16330   73.33040  138.18760
 7764.00000    2.65830    6.57210    0.09010    0.03420    0.19340  121.84650   72.87950  136.83930
 7764.50000    2.62700    6.49630    0.05690    0.04750    0.18800  122.07720   72.24790  133.68660
 7765.00000    2.62300    6.46690    0.01770    0.05590    0.18440  122.08160   73.19640  132.41360
 7765.50000    2.61720    6.46860    0.00550    0.05840    0.18380  121.85970   73.46780  132.03630
 7766.00000    2.61550    6.48130    0.00230    0.05930    0.18440  121.63440   73.64880  131.32650
 7766.50000    2.61660    6.48100    0.00220    0.05870    0.18500  120.71850   73.64920  131.00050
 7767.00000    2.62060    6.48070    0.00500    0.05570    0.18580  119.53900   73.64970  131.90920
 7767.50000    2.62520    6.48040    0.00480    0.05420    0.18830  118.25880   73.78560  134.39560
 7768.00000    2.62380    6.48010    0.01060    0.05450    0.19050  118.94190   74.43630  135.97970
 7768.50000    2.61980    6.47980    0.01650    0.05570    0.19470  119.85140   75.73740  138.57130
 7769.00000    2.61200    6.47950    0.01930    0.05730    0.19860  120.76080   76.94730  141.32790
 7769.50000    2.60020    6.47920    0.02510    0.06540    0.21250  121.67020   77.08320  143.73910
 7770.00000    2.57990    6.47890    0.02790    0.08320    0.23020  122.80590   77.30930  143.06760
 7770.50000    2.55960    6.47860    0.02770    0.09880    0.23690  127.10900   76.85830  142.75060
 7771.00000    2.55110    6.47830    0.02760    0.10210    0.23510  125.98220   75.77520  140.97390
 7771.50000    2.57990    6.43280    0.02740    0.08350    0.22550  123.27170   74.44600  136.31740
 7772.00000    2.59650    6.31200    0.02070    0.06970    0.21040  121.69240   74.28080  136.62340
 7772.50000    2.61200    6.20630    0.01200    0.06340    0.19690  121.44900   74.64360  136.17740
 7773.00000    2.62230    6.11560    0.00880    0.05650    0.18880  121.92760   75.23180  133.47580
 7773.50000    2.62880    6.08520    0.00860    0.05200    0.18700  122.68900   75.72980  133.17890
 7774.00000    2.63060    6.10000    0.00840    0.04930    0.18700  125.33120   76.45340  134.76430
 7774.50000    2.63020    6.11480    0.00830    0.04990    0.18950  127.59810   76.63500  135.67180
 7775.00000    2.62780    6.12950    0.00810    0.05260    0.19340  128.05500   75.95950  134.77460
 7775.50000    2.62380    6.12920    0.00790    0.05450    0.19790  126.02330   75.19330  133.27600
 7776.00000    2.63470    6.12890    0.00770    0.04750    0.20330  123.53900   74.24660  130.49930
 7776.50000    2.64960    6.12860    0.00750    0.03760    0.20550  121.05480   73.70610  129.90290
 7777.00000    2.66550    6.15840    0.01940    0.02440    0.20280  120.83190   73.43660  131.29310
 7777.50000    2.68140    6.18830    0.02530    0.01720    0.19530  121.74240   73.75700  132.84690
 7778.00000    2.67470    6.21880    0.02200    0.01360    0.18720  121.52060   74.14310  132.10020
 7778.50000    2.63120    6.24790    0.01890    0.02330    0.18350  119.71510   74.43380  131.42860
 7779.00000    2.61440    6.27970    0.01870    0.05030    0.18540  117.68330   73.44220  131.73450
 7779.50000    2.60660    6.32500    0.01850    0.06420    0.19080  117.23350   72.94690  131.81360
 7780.00000    2.63550    6.41260    0.02130    0.05970    0.19500  119.75900   72.81280  131.59450
 7780.50000    2.64590    6.47250    0.03010    0.04730    0.19570  121.80080   73.08500  132.12600
 7781.00000    2.64740    6.48740    0.04500    0.03950    0.19210  123.35830   73.58300  133.48450
 7781.50000    2.63720    6.41170    0.06890    0.04190    0.18790  121.77910   74.08090  134.99350
 7782.00000    2.63290    6.26050    0.10500    0.04740    0.18610  120.19980   74.44340  134.92340
 7782.50000    2.63530    6.21460    0.13490    0.04200    0.19480  119.07190   74.44470  134.62780
 7783.00000    2.65520    6.23010    0.16470    0.02940    0.19780  121.79240   74.49120  134.86310
 7783.50000    2.67630    6.26180    0.17320    0.02160    0.19390  121.11810   74.62800  134.93890
 7784.00000    2.66730    6.29220    0.16010    0.02430    0.18580  121.12260   74.57450  134.71980
 7784.50000    2.65470    6.30450    0.13230    0.02800    0.17920  122.25820   74.13440  134.34900
 7785.00000    2.63790    6.28910    0.08250    0.03310    0.17770  122.71520   73.36820  133.22640
 7785.50000    2.62250    6.28880    0.05230    0.04510    0.18080  122.26710   72.33110  131.80300
 7786.00000    2.60860    6.28850    0.03410    0.05420    0.18230  120.91410   71.56500  130.90590
 7786.50000    2.58770    6.30330    0.05500    0.06380    0.18070  118.85530   71.38540  130.08400
 7787.00000    2.53820    6.30300    0.07580    0.07590    0.17740  115.43100   72.15450  129.41250
 7787.50000    2.48870    6.34790    0.09970    0.10440    0.17470  115.83710   72.65250  129.11560
 7788.00000    2.50020    6.43790    0.12350    0.13420    0.17450  119.12300   73.37620  130.85130
 7788.50000    2.54220    6.49790    0.13840    0.12550    0.18180  118.22250   74.05470  132.20990
 7789.00000    2.58410    6.51270    0.14720    0.10300    0.18510  115.28580   73.87540  133.86920
 7789.50000    2.62110    6.43700    0.14400    0.07830    0.18270  112.57530   74.05730  134.63050
 7790.00000    2.67570    6.34640    0.13480    0.05220    0.17460  115.52090   74.41980  134.78180
 7790.50000    2.65480    6.25570    0.10760    0.02600    0.16710  117.33530   73.90460  134.56140
 7791.00000    2.63240    6.21020    0.08640    0.02450    0.16950  118.24470   73.06840  134.41750
 7791.50000    2.62330    6.22510    0.06220    0.03420    0.17430  118.47540   73.20520  134.19710
 7792.00000    2.63780    6.25490    0.04100    0.05140    0.18070  118.25340   74.24490  133.82630
 7792.50000    2.65200    6.28460    0.04680    0.05060    0.18010  117.57930   74.65250  133.38030
 7793.00000    2.66350    6.28430    0.06770    0.04330    0.17800  118.71500   74.47330  132.78400
 7793.50000    2.67710    6.28400    0.07950    0.03190    0.17590  121.66060   73.75230  132.18760
 7794.00000    2.67980    6.29880    0.08240    0.02420    0.17650  121.66520   73.16670  131.81690
 7794.50000    2.67930    6.28340    0.08210    0.01950    0.18190  120.99180   72.76140  131.59620
 7795.00000    2.66660    6.28310    0.08200    0.02110    0.18890  120.09020   73.53050  131.37610
 7795.50000    2.64370    6.29790    0.07280    0.03400    0.19190  121.22700   73.89300  130.85490
 7796.00000    2.62750    6.29760    0.04860    0.04210    0.19160  121.45770   73.43970  130.17930
 7796.50000    2.63160    6.31240    0.03640    0.05000    0.19070  119.42590   72.83790  130.11340
 7797.00000    2.63640    6.31200    0.03620    0.04580    0.18950  117.84660   72.18180  130.19500
 7797.50000    2.63580    6.29670    0.02400    0.04430    0.18710  116.94500   71.91190  130.42570
 7798.00000    2.63050    6.29350    0.01180    0.04880    0.18050  119.89170   72.54560  130.95720
 7798.50000    2.63260    6.28100    0.00860    0.04700    0.17000  122.61110   73.04350  131.78940
 7799.00000    2.64100    6.28070    0.01150    0.04190    0.16850  124.19930   72.54820  132.62170
 7799.50000    2.64540    6.28040    0.01130    0.04010    0.17190  123.75110   72.18840  134.05540
