~Version ---------------------------------------------------
VERS.   2.0 : CWLS log ASCII Standard -VERSION 2.0
WRAP.    NO : One line per depth step
DLM . SPACE : Column Data Section Delimiter
~Well ------------------------------------------------------
STRT .F                  200.0 : START DEPTH
STOP .F                10059.0 : STOP DEPTH
STEP .F                    0.5 : STEP
NULL .                -9999.25 : NULL VALUE
COMP .                         : COMPANY
WELL .                         : WELL
FLD  .                         : FIELD
LOC  .                         : LOCATION
PROV .                         : PROVINCE
CNTY .                         : COUNTY
STAT .                         : STATE
CTRY .                         : COUNTRY
SRVC .                         : SERVICE COMPANY
DATE .                         : DATE
UWI  .                         : UNIQUE WELL ID
API  .                         : API NUMBER
SLAT .WGS84 0.7014593352653016 : SURFACE LATITUDE
SLON .WGS84  6.726548007735005 : SURFACE LONGITUDE
DATUM.F                2734.42 : DEPTH DATUM ELEV
~Curve Information -----------------------------------------
DEPT.F     : 
RHOB.G/C3  : BULK DENSITY
CALD.IN    : CALIPER FROM DENSITY LOG
DRHO.G/C3  : DENSITY CORRECTION
DPHI.DEC   : DENSITY POROSITY LIMESTONE
NPHI.DEC   : NEUTRON POROSITY LIMESTONE
GRS .GAPI  : GAMMA RAY FROM SONIC LOG
DTCO.US/F  : COMPRESSIONAL-WAVE INTERVAL TRANSIT TIME ACOUSTIC SLOWNESS
DTSM.US/F  : SHEAR-WAVE INTERVAL TRANSIT TIME DELTA-T
~Params ----------------------------------------------------
~Other -----------------------------------------------------
~ASCII -----------------------------------------------------
# ...
 9120.00000    2.65260    5.94270    0.02010    0.03650    0.15340  113.66520   71.09250  134.36520
 9120.50000    2.64060    5.95650    0.01990    0.03540    0.16580  115.92990   72.43540  137.29900
 9121.00000    2.62700    5.96960    0.01980    0.04320    0.19680  125.48830   75.29120  140.08700
 9121.50000    2.62180    5.98300    0.01960    0.05260    0.21120  127.94870   75.59280  143.16710
 9122.00000    2.61890    5.98130    0.01650    0.05650    0.21240  128.38010   75.59500  141.81840
 9122.50000    2.61720    5.97970    0.01330    0.05770    0.20340  130.87150   75.50710  140.92050
 9123.00000    2.62190    5.97770    0.01620    0.05270    0.20040  131.77870   75.37420  140.92430
 9123.50000    2.62850    5.97610    0.01600    0.04940    0.20220  129.97100   75.19620  140.77770
 9124.00000    2.63070    5.98990    0.01590    0.04850    0.20610  125.22210   74.74800  140.33070
 9124.50000    2.63000    5.98790    0.01580    0.04910    0.20680  115.94830   74.61450  138.15560
 9125.00000    2.63100    5.98620    0.01560    0.04890    0.19860  113.91430   74.43710  136.73180
 9125.50000    2.64050    6.00010    0.01850    0.04470    0.19300  115.50020   73.94380  136.89170
 9126.00000    2.64730    6.01310    0.02440    0.04110    0.19330  116.40750   73.63020  137.34630
 9126.50000    2.65550    5.99650    0.02420    0.03870    0.19600  116.40970   74.12850  137.89670
 9127.00000    2.66040    5.99490    0.02400    0.03730    0.19720  117.09060   74.67120  138.87530
 9127.50000    2.66490    6.00840    0.02090    0.03280    0.19000  117.31910   74.67630  139.83170
 9128.00000    2.66980    6.02180    0.01470    0.02920    0.18610  116.19010   74.17590  138.85870
 9128.50000    2.67200    6.03520    0.01460    0.02520    0.18700  113.70370   73.35770  135.85720
 9129.00000    2.67500    6.03320    0.01140    0.02260    0.19010  104.88240   70.26510  131.12760
 9129.50000    2.67850    6.01650    0.01130    0.02050    0.18290   90.76840   65.04320  125.79700
 9130.00000    2.68530    5.99980    0.01110    0.01490    0.16030   72.71350   62.61280  118.81350
 9130.50000    2.69790    5.98320    0.01100    0.00290    0.11980   50.83830   56.80420  111.00350
 9131.00000    2.71040    5.96650    0.01380   -0.00520    0.06900   36.80440   52.16680  101.99150
 9131.50000    2.72300    5.91970    0.01670   -0.00010    0.03410   26.61360   50.45730   97.18680
 9132.00000    2.69210    5.88790    0.02250    0.00540    0.00940   26.84200   50.09920   97.79150
 9132.50000    2.64470    5.88630    0.02230    0.02830    0.00790   26.16550   49.87620   98.47150
 9133.00000    2.62910    5.90050    0.02820    0.04670    0.00800   25.26220   50.10360   99.60210
 9133.50000    2.62700    5.96030    0.02810    0.05210    0.00770   24.13380   50.56060  100.73280
 9134.00000    2.62610    6.07680    0.02490    0.05120    0.00680   22.55230   50.92250  101.93870
 9134.50000    2.63270    6.12030    0.01880    0.04850    0.00620   22.78080   52.14380  104.87250
 9135.00000    2.64830    6.11870    0.01560    0.04380    0.00590   24.81920   53.58100  107.05500
 9135.50000    2.66580    6.07190    0.01850    0.03330    0.00560   26.17890   52.36750  106.83340
 9136.00000    2.68320    6.01000    0.01830    0.01370    0.00510   26.85990   51.46880  104.95880
 9136.50000    2.70070    5.94820    0.02120   -0.00100    0.00480   27.08830   51.06570  103.08420
 9137.00000    2.71820    5.94660    0.02410   -0.00910    0.00510   29.12680   51.78860  102.03610
 9137.50000    2.72750    5.92990    0.02690   -0.00510    0.00600   37.72630   53.72780  103.31710
 9138.00000    2.72740    5.92820    0.02670    0.00940    0.00970   51.07690   57.51380  104.93410
 9138.50000    2.70600    5.92660    0.02360    0.03040    0.01930   67.92180   63.95740  113.57680
 9139.00000    2.65380    5.92500    0.02340    0.03620    0.03760   86.82840   67.47320  122.38980
 9139.50000    2.64150    5.92330    0.02330    0.03800    0.09580  112.62250   69.72760  125.19180
 9140.00000    2.65150    5.93680    0.02310    0.03110    0.17640  117.37530   70.67580  128.50560
 9140.50000    2.66390    5.93480    0.02300    0.02880    0.20800  103.12470   70.83240  129.18550
 9141.00000    2.66500    5.93310    0.02280    0.03180    0.22030   91.36220   68.60820  128.43790
 9141.50000    2.65900    5.93150    0.02560    0.03550    0.19830   80.95720   66.62840  127.01420
 9142.00000    2.65400    5.92990    0.02550    0.03850    0.17370   83.67430   66.08650  125.89090
 9142.50000    2.64840    5.94370    0.02530    0.03820    0.14760   95.21500   67.12840  126.79620
 9143.00000    2.64480    5.94170    0.02820    0.04100    0.13310  105.39830   69.95270  128.60310
 9143.50000    2.64130    5.94010    0.03110    0.04340    0.13010  105.40050   71.63730  129.43320
 9144.00000    2.63950    5.95390    0.03690    0.04190    0.12720  105.17650   70.01840  128.31000
 9144.50000    2.64790    5.95190    0.04280    0.03500    0.12210  103.55190   68.98460  125.08310
 9145.00000    2.66340    5.95030    0.05460    0.02630    0.11760   98.88710   68.53640  124.71020
 9145.50000    2.67470    5.94860    0.06350    0.01850    0.11850   90.34090   67.23230  125.01540
 9146.00000    2.67740    5.94700    0.06640    0.01920    0.12510   88.44390   64.48680  121.26250
 9146.50000    2.67920    5.94530    0.06020    0.01470    0.12660   85.50490   63.09260  117.20910
 9147.00000    2.68710    5.94340    0.05100    0.00330    0.11460   77.58860   64.13080  117.36310
 9147.50000    2.69980    5.94170    0.03890    0.00120    0.09690   75.78030   65.70960  119.84620
 9148.00000    2.71450    5.92500    0.02670    0.00880    0.10170   82.57040   68.27940  123.53130
 9148.50000    2.69570    5.92340    0.02060    0.02740    0.12220  106.32830   71.02940  131.27360
 9149.00000    2.66190    5.92180    0.01740    0.05150    0.16790  127.59750   74.31990  140.02920
 9149.50000    2.63280    5.92020    0.01730    0.05670    0.19860  138.23320   77.20500  141.64920
 9150.00000    2.61880    5.91890    0.01710    0.05820    0.21190  135.22860   78.70800  144.05710
 9150.50000    2.61760    5.92620    0.01530    0.05220    0.20560  131.65390   79.28210  148.94940
 9151.00000    2.62230    5.93250    0.01390    0.05100    0.19930  131.97200   79.69020  151.06120
 9151.50000    2.62810    5.93880    0.01380    0.04840    0.20020  136.41810   79.82800  153.92420
 9152.00000    2.63240    5.94420    0.01360    0.04380    0.22160  140.26210   80.59640  153.54580
 9152.50000    2.63590    5.94270    0.01350    0.04420    0.23810  138.22360   79.99910  150.99080
 9153.00000    2.63780    5.94150    0.01340    0.04510    0.23510  130.52910   78.44020  142.68080
 9153.50000    2.63790    5.92520    0.01930    0.04300    0.22200  116.72600   76.19060  136.75350
 9154.00000    2.63630    5.92410    0.02520    0.04270    0.17710  103.60160   75.02200  136.31080
 9154.50000    2.63770    5.93800    0.02810    0.04240    0.16430  107.21930   74.70870  136.76960
 9155.00000    2.64100    5.93670    0.03090    0.04700    0.17090  119.43430   76.06330  139.63100
 9155.50000    2.63930    5.95060    0.03080    0.04910    0.20280  131.87550   78.22810  142.04500
 9156.00000    2.63520    5.94940    0.02770    0.04940    0.21300  135.71950   79.17670  145.95990
 9156.50000    2.63080    5.94800    0.02460    0.05370    0.21960  136.62220   78.77400  146.64090
 9157.00000    2.62570    5.94680    0.01840    0.05670    0.22720  136.27960   78.28110  145.07450
 9157.50000    2.62210    5.94560    0.01530    0.05610    0.23590  129.37740   77.10680  142.43740
 9158.00000    2.61750    5.94440    0.01820    0.04440    0.21850  121.90910   73.66190  135.81640
 9158.50000    2.62930    5.94320    0.02410    0.01330    0.17400   92.72140   69.32580  125.71690
 9159.00000    2.65980    5.94200    0.02400   -0.00160    0.14270   92.26720   69.05750  125.27210
 9159.50000    2.69020    5.94080    0.02380    0.01030    0.14000  100.86180   70.50220  126.93510
