~Version ---------------------------------------------------
VERS.   2.0 : CWLS log ASCII Standard -VERSION 2.0
WRAP.    NO : One line per depth step
DLM . SPACE : Column Data Section Delimiter
~Well ------------------------------------------------------
STRT .F                  200.0 : START DEPTH
STOP .F                10059.0 : STOP DEPTH
STEP .F                    0.5 : STEP
NULL .                -9999.25 : NULL VALUE
COMP .                         : COMPANY
WELL .                         : WELL
FLD  .                         : FIELD
LOC  .                         : LOCATION
PROV .                         : PROVINCE
CNTY .                         : COUNTY
STAT .                         : STATE
CTRY .                         : COUNTRY
SRVC .                         : SERVICE COMPANY
DATE .                         : DATE
UWI  .                         : UNIQUE WELL ID
API  .                         : API NUMBER
SLAT .WGS84 0.7014593352653016 : SURFACE LATITUDE
SLON .WGS84  6.726548007735005 : SURFACE LONGITUDE
DATUM.F                2734.42 : DEPTH DATUM ELEV
~Curve Information -----------------------------------------
DEPT.F     : 
RHOB.G/C3  : BULK DENSITY
CALD.IN    : CALIPER FROM DENSITY LOG
DRHO.G/C3  : DENSITY CORRECTION
DPHI.DEC   : DENSITY POROSITY LIMESTONE
NPHI.DEC   : NEUTRON POROSITY LIMESTONE
GRS .GAPI  : GAMMA RAY FROM SONIC LOG
DTCO.US/F  : COMPRESSIONAL-WAVE INTERVAL TRANSIT TIME ACOUSTIC SLOWNESS
DTSM.US/F  : SHEAR-WAVE INTERVAL TRANSIT TIME DELTA-T
~Params ----------------------------------------------------
~Other -----------------------------------------------------
~ASCII -----------------------------------------------------
# ...
 9320.00000    2.66090    5.91570    0.02770    0.01160    0.02400   54.66490   61.54080  111.69080
 9320.50000    2.63840    5.92950    0.01550    0.02820    0.04570   70.81450   63.43400  114.69830
 9321.00000    2.63210    5.92830    0.00350    0.04180    0.07820   79.41180   66.18310  114.92590
 9321.50000    2.63140    5.92710    0.00340    0.04600    0.09920   86.19910   68.12130  116.43080
 9322.00000    2.63140    5.92590    0.00370    0.04870    0.10290   90.04520   69.11360  119.66360
 9322.50000    2.63130    5.93980    0.00900    0.04700    0.09600   87.55660   70.10600  124.62450
 9323.00000    2.63160    5.96870    0.01780    0.04190    0.09870   90.27150   72.31450  127.78230
 9323.50000    2.63660    5.99740    0.02670    0.02530    0.14050   97.28510   73.53210  130.11360
 9324.00000    2.64470    6.02630    0.02950    0.00520    0.18780  113.80090   73.73780  129.58990
 9324.50000    2.65420    6.04050    0.03230    0.00040    0.19860  118.09950   71.77790  114.64090
 9325.00000    2.66300    6.06910    0.02910   -0.00020    0.19930  110.40720   67.90540  106.75430
 9325.50000    2.67180    6.08320    0.02590    0.00350    0.15060   77.57260   62.35940   96.58880
 9326.00000    2.68050    6.08170    0.02570    0.00890    0.01520   58.92410   58.10790   91.63710
 9326.50000    2.68930    6.09590    0.02260    0.01350    0.01410   39.59280   56.37790   92.41140
 9327.00000    2.69240    6.09440    0.02240    0.01800    0.01800   40.95020   57.82100   96.69610
 9327.50000    2.68110    6.09320    0.02520    0.02340    0.02610   47.73760   58.63310  101.65700
 9328.00000    2.66380    6.09200    0.03400    0.02800    0.03940   51.58370   59.26510  103.31210
 9328.50000    2.65020    6.07580    0.04590    0.03310    0.05170   54.97740   59.53630  104.74130
 9329.00000    2.65380    6.07460    0.06070    0.03790    0.06110   58.14480   59.80830  104.44300
 9329.50000    2.68750    6.04320    0.07260    0.03190    0.06320   59.72850   60.57540  104.52090
 9330.00000    2.70340    6.01190    0.07540    0.01400    0.06020   58.82350   61.88300  105.04900
 9330.50000    2.70120    5.96560    0.06020    0.00270    0.05360   56.78730   61.47890  103.77400
 9331.00000    2.67400    5.93420    0.04800    0.00940    0.04650   51.75570   60.71450  102.04820
 9331.50000    2.66430    5.90290    0.04180    0.02050    0.03170   46.71770   59.58970  100.39750
 9332.00000    2.67330    5.87160    0.04160    0.02240    0.02090   39.81900   56.48290   98.37120
 9332.50000    2.68740    5.85530    0.04140    0.01220    0.01490   35.29410   54.59230   94.54170
 9333.00000    2.69800    5.85410    0.04130    0.01110    0.01440   34.38910   54.32340   90.98420
 9333.50000    2.69350    5.86800    0.04110    0.01590    0.01440   39.59280   55.36690   89.43720
 9334.00000    2.67290    5.88190    0.03790    0.02070    0.01650   44.57010   55.85790   92.44520
 9334.50000    2.66640    5.89570    0.03770    0.02440    0.02110   50.45250   56.80520   95.97860
 9335.00000    2.68070    5.90960    0.03750    0.02260    0.03310   54.29860   58.47320   99.13640
 9335.50000    2.68870    5.92350    0.03740    0.01390    0.03920   57.91860   59.46550  101.18590
 9336.00000    2.68510    5.93730    0.03720    0.01240    0.04280   67.19460   60.23260  103.04730
 9336.50000    2.65130    5.95120    0.03400    0.02030    0.04620   71.94570   61.27000  102.37380
 9337.00000    2.63910    5.96510    0.02480    0.03410    0.05090   71.90950   61.81180  101.47390
 9337.50000    2.63850    5.96390    0.02460    0.04350    0.05950   71.26700   63.16450  102.67880
 9338.00000    2.63820    5.97770    0.03050    0.04470    0.06940   75.79190   64.87760  105.61120
 9338.50000    2.63690    5.97650    0.03030    0.04530    0.07300   81.90050   67.22120  112.52550
 9339.00000    2.63250    5.97530    0.02710    0.04860    0.08080   88.00900   68.61900  119.43980
 9339.50000    2.62410    5.97240    0.02390    0.05440    0.09170   92.98640   71.00770  124.92660
 9340.00000    2.61370    5.95580    0.01730    0.05770    0.10790   93.66520   71.54960  125.22880
 9340.50000    2.60990    5.94160    0.00850    0.05950    0.12540   88.46150   71.26350  124.40510
 9341.00000    2.61750    5.94040    0.00530    0.05960    0.11430   75.56560   68.71590  122.07820
 9341.50000    2.63240    5.93890    0.00810    0.05660    0.09000   52.26240   63.67100  115.54400
 9342.00000    2.64000    5.93770    0.01100    0.04930    0.05810   47.05880   60.24890  107.35690
 9342.50000    2.63980    5.93650    0.01380    0.03350    0.05180   46.15380   59.48450  100.07140
 9343.00000    2.63000    5.93530    0.01960    0.02900    0.04970   44.99550   59.17050   98.26570
 9343.50000    2.64390    5.94950    0.01940    0.03550    0.04310   42.98640   58.90150   97.97210
 9344.00000    2.67640    5.94800    0.01930    0.02250    0.03410   43.43890   56.87580   98.12520
 9344.50000    2.71200    5.94680    0.01310    0.00140    0.03030   47.05880   55.52550   98.35280
 9345.00000    2.69820    5.94560    0.01590   -0.00070    0.02820   55.65610   56.60820   99.63220
 9345.50000    2.67290    5.94440    0.01880   -0.00070    0.02730   71.49320   58.99690  102.03860
 9346.00000    2.64470    5.94320    0.02450   -0.00030    0.03510   90.04520   62.55680  107.22490
 9346.50000    2.63610    5.94200    0.03940    0.00180    0.05260   93.21270   64.04460  111.73500
 9347.00000    2.64650    5.94080    0.05120    0.00990    0.09080   83.03170   65.84780  112.63830
 9347.50000    2.65530    5.92460    0.06000    0.02560    0.10890   71.71950   65.98420  110.16170
 9348.00000    2.66250    5.92340    0.06590    0.03100    0.08760   64.70590   63.46160  103.85290
 9348.50000    2.66840    5.93750    0.06270    0.02710    0.06440   62.86330   60.82750   99.57260
 9349.00000    2.66990    5.95110    0.05650    0.03800    0.04940   63.75420   60.26750   99.17880
 9349.50000    2.64230    5.96500    0.05030    0.04950    0.05040   68.77830   62.34120  100.62890
 9350.00000    2.58510    5.96660    0.04720    0.06320    0.05220   75.36950   63.82960  103.18560
 9350.50000    2.57140    5.99260    0.04940    0.06960    0.05440   82.12670   66.53360  105.21570
 9351.00000    2.59990    6.00640    0.04990    0.06430    0.06380   93.89140   69.10290  111.45310
 9351.50000    2.61930    6.02010    0.05270    0.05680    0.08100  109.50230   71.17680  118.36670
 9352.00000    2.62800    6.01840    0.06160    0.05190    0.10470  119.23080   74.01640  123.85280
 9352.50000    2.63140    6.01710    0.07040    0.05020    0.11900  122.85070   77.17130  127.27840
 9353.00000    2.63290    6.01580    0.07630    0.05290    0.13080  119.45700   78.11860  130.24190
 9353.50000    2.62760    6.01440    0.07290    0.06020    0.14940  111.53850   77.40010  128.89130
 9354.00000    2.59860    6.02850    0.06660    0.07130    0.17080   99.77380   75.01440  126.78910
 9354.50000    2.57730    6.02680    0.05430    0.08090    0.15820   84.61540   71.83820  120.55470
 9355.00000    2.55850    6.02550    0.04560    0.09270    0.12960   71.26700   69.30980  113.04300
 9355.50000    2.54920    6.03960    0.04250    0.09600    0.10260   63.09520   68.57830  110.64030
 9356.00000    2.55310    6.05300    0.03930    0.08910    0.07550   60.18100   68.98590  107.78680
 9356.50000    2.57500    6.05160    0.04220    0.08610    0.07130   64.46720   69.34800  108.38930
 9357.00000    2.56160    6.06540    0.04510    0.08680    0.07490   67.87330   69.16960  108.61610
 9357.50000    2.53890    6.09560    0.04790    0.09460    0.07980   67.42080   68.45070  107.56580
 9358.00000    2.53680    6.12550    0.05080    0.10210    0.08250   63.80090   67.46150  105.53880
 9358.50000    2.53470    6.16670    0.05360    0.11150    0.08010   60.18100   66.92270  103.66200
 9359.00000    2.53060    6.18040    0.05340    0.11510    0.07290   58.47520   66.65420  102.38630
 9359.50000    2.52160    6.17810    0.05030    0.11660    0.06630   55.65610   66.11540  101.63640
