~Version ---------------------------------------------------
VERS.   2.0 : CWLS log ASCII Standard -VERSION 2.0
WRAP.    NO : One line per depth step
DLM . SPACE : Column Data Section Delimiter
~Well ------------------------------------------------------
STRT .F                  200.0 : START DEPTH
STOP .F                10059.0 : STOP DEPTH
STEP .F                    0.5 : STEP
NULL .                -9999.25 : NULL VALUE
COMP .                         : COMPANY
WELL .                         : WELL
FLD  .                         : FIELD
LOC  .                         : LOCATION
PROV .                         : PROVINCE
CNTY .                         : COUNTY
STAT .                         : STATE
CTRY .                         : COUNTRY
SRVC .                         : SERVICE COMPANY
DATE .                         : DATE
UWI  .                         : UNIQUE WELL ID
API  .                         : API NUMBER
SLAT .WGS84 0.7014593352653016 : SURFACE LATITUDE
SLON .WGS84  6.726548007735005 : SURFACE LONGITUDE
DATUM.F                2734.42 : DEPTH DATUM ELEV
~Curve Information -----------------------------------------
DEPT.F     : 
RHOB.G/C3  : BULK DENSITY
CALD.IN    : CALIPER FROM DENSITY LOG
DRHO.G/C3  : DENSITY CORRECTION
DPHI.DEC   : DENSITY POROSITY LIMESTONE
NPHI.DEC   : NEUTRON POROSITY LIMESTONE
GRS .GAPI  : GAMMA RAY FROM SONIC LOG
DTCO.US/F  : COMPRESSIONAL-WAVE INTERVAL TRANSIT TIME ACOUSTIC SLOWNESS
DTSM.US/F  : SHEAR-WAVE INTERVAL TRANSIT TIME DELTA-T
~Params ----------------------------------------------------
~Other -----------------------------------------------------
~ASCII -----------------------------------------------------
# ...
 9640.00000    2.61740    6.17200    0.03270    0.05890    0.18480  128.75590   75.24340  135.46960
 9640.50000    2.60710    6.06510    0.02650    0.06070    0.18570  123.32460   74.43150  131.91630
 9641.00000    2.61040    5.92800    0.02340    0.06160    0.18180  109.74880   72.35850  119.90450
 9641.50000    2.63390    5.91170    0.02320    0.05590    0.16590   84.40840   68.34860  110.20910
 9642.00000    2.66100    5.92590    0.02300    0.04150    0.13640   60.93170   63.21260  102.50690
 9642.50000    2.68810    5.93980    0.02280    0.01950    0.10570   38.87750   59.02250   98.58610
 9643.00000    2.70850    5.95370    0.02560    0.00660    0.05280   39.27820   57.21980   97.68170
 9643.50000    2.69550    5.95220    0.02250    0.00240    0.03240   44.58460   57.86920   97.98430
 9644.00000    2.66600    5.95100    0.02230    0.00530    0.02640   48.88210   59.07270   99.49330
 9644.50000    2.64800    5.94980    0.01910    0.01290    0.02670   51.82220   62.30700  101.60570
 9645.00000    2.63230    5.94860    0.02190    0.02940    0.02820   57.92970   64.15300  102.43600
 9645.50000    2.62160    5.94740    0.02170    0.05000    0.02920   59.96480   63.29630  102.43670
 9646.00000    2.61950    5.94620    0.02150    0.05420    0.02980   58.83240   62.70980  101.98500
 9646.50000    2.63230    5.94480    0.02140    0.05600    0.02950   50.91280   62.03320  100.77910
 9647.00000    2.64190    5.94360    0.02120    0.05210    0.02860   45.25560   61.49180   99.27150
 9647.50000    2.64730    5.94170    0.02400    0.04430    0.02500   42.99200   61.13060   98.21640
 9648.00000    2.64460    5.93760    0.02380    0.03920    0.01970   44.80080   60.99450   97.60970
 9648.50000    2.64010    5.93360    0.02370    0.04070    0.01570   47.28840   60.94860   97.45480
 9649.00000    2.63530    5.92950    0.02350    0.04340    0.02090   44.79860   60.49730   97.31370
 9649.50000    2.64580    5.92550    0.02330    0.04190    0.02390   41.17760   59.82070   97.01300
 9650.00000    2.66380    5.92150    0.02010    0.03560    0.02450   37.55660   58.71870   96.56600
 9650.50000    2.67890    5.91600    0.01990    0.03140    0.01850   34.50920   56.98880   94.78800
 9651.00000    2.69680    5.91050    0.01980    0.02690    0.01340   32.55100   55.23810   92.48380
 9651.50000    2.71480    5.90510    0.01960    0.02130    0.01140   31.92730   53.83410   92.85870
 9652.00000    2.72690    5.88760    0.01940    0.00780    0.01050   33.06970   52.97300   93.98760
 9652.50000    2.72570    5.85640    0.01620   -0.00670    0.00990   37.15100   53.98860   95.04120
 9653.00000    2.70820    5.84040    0.01000   -0.00450    0.01110   46.43600   55.72070   97.15060
 9653.50000    2.67810    5.84850    0.00680    0.00570    0.01810   51.87480   56.98200   99.10910
 9654.00000    2.66120    5.85690    0.00670    0.02620    0.02920   55.27740   58.42340  100.91680
 9654.50000    2.67570    5.86540    0.01250    0.03160    0.03860   53.02380   58.91890  101.66930
 9655.00000    2.69300    5.87380    0.01230    0.02320    0.04280   51.22280   59.18920  101.51560
 9655.50000    2.68120    5.88220    0.01210    0.01420    0.03640   53.72050   59.63960  101.43800
 9656.00000    2.66210    5.89070    0.00890    0.01750    0.02980   57.12310   60.00000  101.43570
 9656.50000    2.64640    5.89910    0.00870    0.03170    0.03200   61.65690   60.54050  101.28270
 9657.00000    2.63130    5.90760    0.00860    0.04170    0.04380   62.34230   61.71170  100.97880
 9657.50000    2.63260    5.91600    0.00840    0.04710    0.04750   60.09110   61.21620  100.67490
 9658.00000    2.64120    5.92210    0.00820    0.04350    0.04360   59.19500   60.76580  100.37100
 9658.50000    2.64630    5.87480    0.01100    0.04140    0.04210   59.20400   61.03600  100.21790
 9659.00000    2.64140    5.84580    0.01080    0.04230    0.04300   58.76040   62.74770  100.29110
 9659.50000    2.63650    5.84880    0.01070    0.04330    0.04400   59.67430   62.74770  100.43970
 9660.00000    2.63630    5.85180    0.01650    0.04330    0.04250   62.85070   62.70270  101.56830
 9660.50000    2.64000    5.85480    0.01630    0.04090    0.04070   67.22250   62.83780  102.69720
 9661.00000    2.64700    5.85780    0.01920    0.03670    0.03950   73.84430   63.10810  103.22290
 9661.50000    2.66300    5.86080    0.02200    0.03160    0.04800   74.64220   63.87390  103.29660
 9662.00000    2.68230    5.86390    0.02180    0.02290    0.05430   70.35470   64.38530  103.06760
 9662.50000    2.67320    5.86690    0.02470    0.02050    0.05500   61.31390   63.19820  102.76370
 9663.00000    2.64910    5.86990    0.02750    0.02510    0.04540   55.66670   62.38740  101.85650
 9663.50000    2.64540    5.87290    0.03030    0.03380    0.03820   54.76840   62.34160  100.57220
 9664.00000    2.65210    5.87590    0.03310    0.03530    0.03550   55.91080   62.25120  100.41910
 9664.50000    2.66050    5.87890    0.02990    0.03250    0.03460   56.82250   62.02140   99.66270
 9665.00000    2.66650    5.88190    0.02970    0.02750    0.03400   56.15500   61.65390   98.90630
 9665.50000    2.67400    5.88500    0.02950    0.02420    0.03350   53.22270   61.15910   98.22530
 9666.00000    2.68300    5.88800    0.02940    0.02210    0.03110   47.12310   60.38800   97.54430
 9666.50000    2.67810    5.89140    0.02920    0.02130    0.02810   44.86730   59.81980   97.01420
 9667.00000    2.66720    5.87540    0.02600    0.02280    0.02330   45.78350   59.32430   96.33320
 9667.50000    2.64580    5.87450    0.02280    0.02470    0.02250   46.24490   59.14410   94.82270
 9668.00000    2.62410    5.87360    0.02260    0.03490    0.02280   46.70630   60.72070   95.27290
 9668.50000    2.60240    5.87270    0.02250    0.05690    0.02460   48.29900   62.29730   97.30690
 9669.00000    2.58060    5.87180    0.02230    0.07220    0.02800   50.34410   62.11710   98.36040
 9669.50000    2.55890    5.87090    0.02210    0.08340    0.03190   53.52050   62.56760   97.52860
 9670.00000    2.55010    5.87000    0.01890    0.09720    0.03500   55.11310   63.06310   97.60180
 9670.50000    2.58070    5.86910    0.02170    0.10060    0.04120   54.63760   63.33330   97.59950
 9671.00000    2.60250    5.88350    0.02760    0.09400    0.04520   51.21560   62.79280   97.60210
 9671.50000    2.62140    5.88240    0.03640    0.07080    0.04310   46.23840   63.46850   98.15380
 9672.00000    2.62680    5.89680    0.04220    0.05370    0.03680   39.54020   63.10810   99.71980
 9672.50000    2.60360    5.89570    0.04500    0.05070    0.03110   38.41570   62.02700  102.64340
 9673.00000    2.58410    5.89480    0.04190    0.05710    0.02760   44.76180   60.40540  103.31990
 9673.50000    2.57390    5.89390    0.03870    0.07090    0.03120   48.39060   60.09010  102.11040
 9674.00000    2.56370    5.89300    0.03550    0.08480    0.03900   51.11450   61.71170  102.86230
 9674.50000    2.55230    5.89210    0.03830    0.09230    0.04330   52.02840   64.27930  103.53880
 9675.00000    2.54300    5.87610    0.04170    0.10080    0.04960   51.35860   67.02700  103.61250
 9675.50000    2.53920    5.87520    0.04400    0.10440    0.05690   50.46260   67.88290  103.08180
 9676.00000    2.54790    5.88940    0.04980    0.10260    0.06230   49.34030   67.65770  102.92880
 9676.50000    2.55880    5.88850    0.05260    0.09540    0.06530   47.53920   67.25230  103.00250
 9677.00000    2.55950    5.88760    0.06140    0.09300    0.06240   44.83320   66.57660  102.69800
 9677.50000    2.55570    5.90180    0.07020    0.09640    0.05610   43.03220   64.90070  101.86620
 9678.00000    2.55380    5.91600    0.07610    0.09820    0.05280   42.58870   62.17740  100.65740
 9678.50000    2.55350    5.91510    0.07590    0.09430    0.05370   41.69260   61.48650   99.97690
 9679.00000    2.55340    5.91420    0.07870    0.09400    0.05530   41.24910   62.16820  100.57750
 9679.50000    2.55400    5.91330    0.07850    0.09430    0.05470   42.16300   64.78120  101.32940
