~Version ---------------------------------------------------
VERS.   2.0 : CWLS log ASCII Standard -VERSION 2.0
WRAP.    NO : One line per depth step
DLM . SPACE : Column Data Section Delimiter
~Well ------------------------------------------------------
STRT .F                  200.0 : START DEPTH
STOP .F                10059.0 : STOP DEPTH
STEP .F                    0.5 : STEP
NULL .                -9999.25 : NULL VALUE
COMP .                         : COMPANY
WELL .                         : WELL
FLD  .                         : FIELD
LOC  .                         : LOCATION
PROV .                         : PROVINCE
CNTY .                         : COUNTY
STAT .                         : STATE
CTRY .                         : COUNTRY
SRVC .                         : SERVICE COMPANY
DATE .                         : DATE
UWI  .                         : UNIQUE WELL ID
API  .                         : API NUMBER
SLAT .WGS84 0.7014593352653016 : SURFACE LATITUDE
SLON .WGS84  6.726548007735005 : SURFACE LONGITUDE
DATUM.F                2734.42 : DEPTH DATUM ELEV
~Curve Information -----------------------------------------
DEPT.F     : 
RHOB.G/C3  : BULK DENSITY
CALD.IN    : CALIPER FROM DENSITY LOG
DRHO.G/C3  : DENSITY CORRECTION
DPHI.DEC   : DENSITY POROSITY LIMESTONE
NPHI.DEC   : NEUTRON POROSITY LIMESTONE
GRS .GAPI  : GAMMA RAY FROM SONIC LOG
DTCO.US/F  : COMPRESSIONAL-WAVE INTERVAL TRANSIT TIME ACOUSTIC SLOWNESS
DTSM.US/F  : SHEAR-WAVE INTERVAL TRANSIT TIME DELTA-T
~Params ----------------------------------------------------
~Other -----------------------------------------------------
~ASCII -----------------------------------------------------
# ...
 8440.00000    2.61650    5.93660    0.01950    0.05720    0.12390   95.88210   71.18970  123.52220
 8440.50000    2.63170    5.93570    0.02240    0.05150    0.12940   99.71930   71.59870  123.67640
 8441.00000    2.63390    5.93480    0.02230    0.04910    0.13630  101.74660   71.69140  123.52960
 8441.50000    2.62800    5.93390    0.01610    0.05180    0.13930   99.44840   71.06520  122.47990
 8442.00000    2.61810    5.93300    0.01600    0.05900    0.12850   96.89120   70.57330  120.37680
 8442.50000    2.61360    5.93210    0.01590    0.06150    0.11800   93.82240   69.94530  117.97260
 8443.00000    2.61040    5.93130    0.01580    0.06220    0.11560   87.00270   69.81370  117.44960
 8443.50000    2.60760    5.93040    0.01270    0.06430    0.11180   84.05490   69.68290  117.30190
 8444.00000    2.60500    5.92950    0.01560    0.06520    0.10520   87.88990   69.91180  118.05900
 8444.50000    2.60830    5.92860    0.01540    0.05830    0.10400   92.40590   70.18560  118.89040
 8445.00000    2.61820    5.92770    0.01830    0.05230    0.11060   94.88780   70.23420  119.11990
 8445.50000    2.63010    5.92680    0.01820    0.04960    0.11770   92.61420   70.14770  119.87600
 8446.00000    2.62030    5.92590    0.01810    0.05350    0.12240   89.89040   70.39090  119.57870
 8446.50000    2.60880    5.92500    0.01500    0.06200    0.11370   87.84530   70.69620  119.80820
 8447.00000    2.59900    5.92390    0.01480    0.06800    0.10980   90.55130   70.38440  119.66140
 8447.50000    2.59550    5.93810    0.01470    0.07040    0.11310   91.90210   70.02760  119.28480
 8448.00000    2.59570    5.93720    0.01460    0.07050    0.11530   89.85470   69.53570  118.36630
 8448.50000    2.59700    5.93630    0.01450    0.07140    0.11560   85.99960   69.40320  118.01720
 8449.00000    2.59980    5.93540    0.01430    0.07050    0.11140   80.78710   69.81300  117.19410
 8449.50000    2.60340    5.93450    0.01420    0.06840    0.10810   79.86070   69.99670  116.29490
 8450.00000    2.60740    5.93390    0.01410    0.06660    0.10550   80.54300   69.93930  115.47000
 8450.50000    2.60610    5.93380    0.01400    0.06570    0.10210   80.53390   69.57290  116.14910
 8451.00000    2.60270    5.93370    0.01990    0.06970    0.10300   80.52450   69.59740  116.52680
 8451.50000    2.59690    5.93370    0.02280    0.07180    0.10540   81.19460   69.77890  116.82920
 8452.00000    2.59540    5.93360    0.02560    0.06970    0.10510   81.41180   70.00680  117.28340
 8452.50000    2.60360    5.93350    0.02550    0.06640    0.10490   81.17650   70.23200  117.82480
 8453.00000    2.61100    5.93340    0.02540    0.06310    0.10550   81.64860   70.05340  118.33890
 8453.50000    2.61490    5.93340    0.02830    0.06160    0.11210   82.06380   69.96430  118.64130
 8454.00000    2.61490    5.93330    0.02520    0.06100    0.11750   80.01650   70.14620  118.94380
 8454.50000    2.61270    5.93320    0.02200    0.06100    0.11810   78.87640   70.05740  119.09580
 8455.00000    2.61030    5.93310    0.02190    0.06230    0.10760   79.77250   70.01330  118.34480
 8455.50000    2.61110    5.93310    0.02480    0.06230    0.10130   81.34730   69.83480  117.44330
 8456.00000    2.61860    5.93300    0.02770    0.05690    0.10100   83.14840   69.79080  116.91810
 8456.50000    2.62530    5.93290    0.02760    0.05390    0.10700   82.68700   69.88250  116.69350
 8457.00000    2.61610    5.93280    0.02440    0.06150    0.11040   81.77320   70.01900  116.99630
 8457.50000    2.59830    5.93280    0.02130    0.07030    0.11100   83.12180   70.24550  117.14820
 8458.00000    2.59370    5.93270    0.01820    0.07290    0.11100   84.47030   70.38200  117.87290
 8458.50000    2.59750    5.93260    0.01810    0.07130    0.11280   85.36650   70.24170  119.93520
 8459.00000    2.60270    5.93250    0.01790    0.06890    0.12060   84.21550   70.02460  119.63610
 8459.50000    2.60100    5.93250    0.01480    0.06920    0.12810   83.28350   70.02590  119.41180
 8460.00000    2.59740    5.93240    0.01470    0.07440    0.13030   82.39640   69.80200  119.03710
 8460.50000    2.59220    5.93230    0.01160    0.07540    0.12270   82.61600   69.66790  118.21090
 8461.00000    2.58910    5.93230    0.01150    0.07690    0.11490   83.28360   69.66950  116.93320
 8461.50000    2.58460    5.93220    0.01430    0.08140    0.10740   81.91730   69.31050  116.33270
 8462.00000    2.57340    5.93210    0.01730    0.08500    0.10200   79.64600   69.26640  115.65700
 8462.50000    2.57700    5.93200    0.02010    0.08320    0.09930   77.14840   69.76360  115.05650
 8463.00000    2.59360    5.93200    0.02000    0.07480    0.09720   81.43820   69.99010  115.65990
 8463.50000    2.60630    5.93190    0.01990    0.06550    0.09910   88.66910   70.21670  116.49150
 8464.00000    2.61370    5.93180    0.01670    0.06130    0.10610   93.41130   70.49220  117.17500
 8464.50000    2.61610    5.93170    0.01660    0.05950    0.11280   92.04500   70.67770  117.33350
 8465.00000    2.60770    5.93170    0.01650    0.06380    0.11690   84.34380   70.62640  117.62250
 8465.50000    2.59380    5.93160    0.01640    0.07160    0.11800   78.82350   70.40250  117.84970
 8466.00000    2.57550    5.93150    0.01630    0.08030    0.11070   73.24010   70.31340  118.07700
 8466.50000    2.57250    5.93140    0.01610    0.08550    0.10150   78.43260   70.40510  118.45470
 8467.00000    2.57320    5.93140    0.01600    0.08490    0.09970   81.36490   70.36110  118.75710
 8467.50000    2.57730    5.93130    0.01590    0.08040    0.10690   83.39440   70.27260  118.68330
 8468.00000    2.58490    5.93120    0.01280    0.07620    0.10750   81.12090   69.91360  116.95420
 8468.50000    2.59450    5.93120    0.01270    0.07080    0.10790   78.84960   69.73470  116.42890
 8469.00000    2.60510    5.93110    0.01890    0.06690    0.11030   77.48320   69.73610  116.35520
 8469.50000    2.61300    5.93100    0.02740    0.06450    0.11150   77.02410   69.69230  116.05210
 8470.00000    2.61140    5.93090    0.03330    0.06330    0.10880   76.10800   69.59150  115.74650
 8470.50000    2.60700    5.93090    0.02420    0.06360    0.10160   74.06290   69.28990  115.68240
 8471.00000    2.60350    5.93080    0.02110    0.06600    0.09890   75.63780   69.24580  116.06050
 8471.50000    2.60020    5.93070    0.01800    0.06850    0.10490   79.02250   69.29250  116.36290
 8472.00000    2.59640    5.93060    0.01480    0.07150    0.11240   81.29410   69.47400  118.09500
 8472.50000    2.59320    5.93060    0.01470    0.07450    0.11790   80.53440   69.61050  118.47230
 8473.00000    2.59040    5.93050    0.01760    0.07660    0.11490   76.05250   69.74700  117.49600
 8473.50000    2.58840    5.93040    0.01750    0.07670    0.10640   70.84000   69.83800  116.89550
 8474.00000    2.59720    5.93030    0.02040    0.06970    0.10010   68.34240   69.29920  115.84360
 8474.50000    2.60950    5.93030    0.02020    0.06280    0.08750   70.14350   68.85000  115.61930
 8475.00000    2.61060    5.93020    0.02010    0.06230    0.09050   73.07580   69.03150  116.22270
 8475.50000    2.60840    5.93010    0.01700    0.06320    0.09530   76.23430   69.26600  116.99640
 8476.00000    2.60800    5.93010    0.01690    0.06280    0.10590   80.97660   69.70420  118.96440
 8476.50000    2.61350    5.93000    0.01710    0.05800    0.11280   92.05370   71.82860  123.37570
 8477.00000    2.62180    5.92990    0.02000    0.05160    0.12610  105.61950   74.21730  129.84830
 8477.50000    2.63010    5.92980    0.02550    0.04720    0.15340  120.76900   75.79520  135.38020
 8478.00000    2.63690    5.92980    0.02840    0.04610    0.18170  125.28500   76.78750  138.23380
 8478.50000    2.63380    5.92970    0.01930    0.04950    0.17450  119.53010   76.38350  138.48710
 8479.00000    2.62840    5.92960    0.01610    0.05190    0.16340  110.66160   74.80820  133.38660
 8479.50000    2.62560    5.92950    0.01900    0.05160    0.15680  101.72670   71.97170  128.43540
