~Version ---------------------------------------------------
VERS.   2.0 : CWLS log ASCII Standard -VERSION 2.0
WRAP.    NO : One line per depth step
DLM . SPACE : Column Data Section Delimiter
~Well ------------------------------------------------------
STRT .F                  200.0 : START DEPTH
STOP .F                10059.0 : STOP DEPTH
STEP .F                    0.5 : STEP
NULL .                -9999.25 : NULL VALUE
COMP .                         : COMPANY
WELL .                         : WELL
FLD  .                         : FIELD
LOC  .                         : LOCATION
PROV .                         : PROVINCE
CNTY .                         : COUNTY
STAT .                         : STATE
CTRY .                         : COUNTRY
SRVC .                         : SERVICE COMPANY
DATE .                         : DATE
UWI  .                         : UNIQUE WELL ID
API  .                         : API NUMBER
SLAT .WGS84 0.7014593352653016 : SURFACE LATITUDE
SLON .WGS84  6.726548007735005 : SURFACE LONGITUDE
DATUM.F                2734.42 : DEPTH DATUM ELEV
~Curve Information -----------------------------------------
DEPT.F     : 
RHOB.G/C3  : BULK DENSITY
CALD.IN    : CALIPER FROM DENSITY LOG
DRHO.G/C3  : DENSITY CORRECTION
DPHI.DEC   : DENSITY POROSITY LIMESTONE
NPHI.DEC   : NEUTRON POROSITY LIMESTONE
GRS .GAPI  : GAMMA RAY FROM SONIC LOG
DTCO.US/F  : COMPRESSIONAL-WAVE INTERVAL TRANSIT TIME ACOUSTIC SLOWNESS
DTSM.US/F  : SHEAR-WAVE INTERVAL TRANSIT TIME DELTA-T
~Params ----------------------------------------------------
~Other -----------------------------------------------------
~ASCII -----------------------------------------------------
# ...
 9840.00000    2.54380    5.80650    0.00810    0.10830    0.02280   38.66690   61.87410   93.62440
 9840.50000    2.53850    5.80540    0.00790    0.10920    0.02190   37.30970   61.64970   93.47630
 9841.00000    2.53440    5.78950    0.01080    0.11080    0.02110   37.98550   61.42540   93.32890
 9841.50000    2.53080    5.80360    0.01060    0.11320    0.02260   39.56500   61.24610   93.18150
 9842.00000    2.52650    5.80230    0.01350    0.11410    0.02410   39.78950   60.96960   92.95960
 9842.50000    2.53440    5.81660    0.01340    0.10870    0.02480   38.65760   60.29520   92.81220
 9843.00000    2.54150    5.83060    0.01320    0.10540    0.02330   37.75210   59.44070   92.81520
 9843.50000    2.53720    5.82930    0.01610    0.10510    0.02210   37.97620   59.30660   92.81820
 9844.00000    2.52730    5.82970    0.01590    0.10940    0.02270   38.20030   60.83970   92.89630
 9844.50000    2.51590    5.83080    0.01580    0.11630    0.02580   37.97250   62.91310   93.20010
 9845.00000    2.51030    5.83180    0.01560    0.12170    0.02760   38.42240   62.55410   94.25570
 9845.50000    2.50610    5.83290    0.01550    0.12540    0.02910   40.67960   62.19250   95.08570
 9846.00000    2.51140    5.83390    0.01530    0.12630    0.03120   42.71080   62.19640   96.14250
 9846.50000    2.51680    5.83500    0.01520    0.12060    0.03790   41.55280   61.92280   95.98680
 9847.00000    2.52040    5.83600    0.01500    0.11820    0.04210   36.45110   61.38860   95.38840
 9847.50000    2.51710    5.83610    0.01490    0.11730    0.04180   29.71480   61.29950   94.85190
 9848.00000    2.51140    5.83500    0.01470    0.12230    0.04190   25.64760   61.97680   94.33580
 9848.50000    2.50230    5.83400    0.01450    0.12630    0.04280   24.17740   62.33850   94.05100
 9849.00000    2.49650    5.83400    0.01440    0.12970    0.04460   24.62740   62.74520   94.05470
 9849.50000    2.49400    5.83520    0.01420    0.13130    0.04520   24.85140   62.47630   94.13290
 9850.00000    2.49270    5.83640    0.01440    0.13230    0.04410   24.36960   62.74790   94.41580
 9850.50000    2.49660    5.83750    0.01700    0.13370    0.04320   23.71990   63.42490   94.98050
 9851.00000    2.50370    5.83870    0.01390    0.13040    0.04230   25.07530   63.38110   95.73080
 9851.50000    2.50790    5.83990    0.01380    0.12740    0.04260   28.01200   62.25630   96.17740
 9852.00000    2.51060    5.84110    0.01360    0.12500    0.04330   30.94880   62.16400   96.63230
 9852.50000    2.51200    5.84220    0.01240    0.12500    0.04420   31.18900   63.25860   96.86150
 9853.00000    2.51270    5.81120    0.01040    0.12470    0.04420   29.36750   63.76040   96.94040
 9853.50000    2.51270    5.81030    0.00840    0.12350    0.04330   26.40380   64.19890   96.94410
 9854.00000    2.51270    5.81160    0.00710    0.12300    0.04210   23.67720   64.33500   96.79740
 9854.50000    2.51170    5.81410    0.01300    0.12360    0.04060   23.49400   63.25560   96.35000
 9855.00000    2.51120    5.81670    0.01290    0.12330    0.04010   25.75300   63.43710   95.75220
 9855.50000    2.51630    5.81920    0.01280    0.12210    0.04040   28.91570   63.84380   95.67980
 9856.00000    2.52260    5.82170    0.01270    0.11550    0.04010   34.33730   64.88120   96.28590
 9856.50000    2.52690    5.82420    0.01260    0.11490    0.03920   42.46990   65.10740   97.11670
 9857.00000    2.52840    5.82670    0.01540    0.11340    0.04440   47.66570   64.29790   97.57150
 9857.50000    2.53210    5.82930    0.01230    0.11070    0.04770   45.40660   65.56090   97.57880
 9858.00000    2.53610    5.83180    0.01520    0.10830    0.04950   39.98490   68.58020   96.82470
 9858.50000    2.54040    5.83320    0.01450    0.10650    0.04140   32.30420   67.26810   95.52560
 9859.00000    2.54710    5.84750    0.01500    0.10500    0.02910   27.10840   66.25560   94.06340
 9859.50000    2.56220    5.83150    0.01480    0.09520    0.01890   24.39760   64.66560   92.25260
 9860.00000    2.60040    5.83080    0.01470    0.07110    0.01350   22.81630   63.54080   91.05330
 9860.50000    2.63860    5.83000    0.01760    0.04430    0.00990   21.46080   62.32590   89.77880
 9861.00000    2.64860    5.79900    0.02050    0.03590    0.00780   21.19910   60.75060   88.42910
 9861.50000    2.63370    5.78320    0.02340    0.03830    0.00760   22.36450   59.17510   88.28150
 9862.00000    2.61650    5.73710    0.02020    0.04920    0.00790   24.39760   60.12270   88.81250
 9862.50000    2.59510    5.69110    0.02010    0.06630    0.00910   27.56020   62.37620   89.41770
 9863.00000    2.57820    5.69030    0.02000    0.07930    0.01220   30.99860   63.27810   90.62440
 9863.50000    2.55930    5.67450    0.02290    0.08800    0.01700   33.97880   61.65820   91.45520
 9864.00000    2.54250    5.67370    0.01980    0.09910    0.02010   39.07060   59.36220   93.33860
 9864.50000    2.53400    5.67300    0.01960    0.10610    0.02280   42.01810   56.56930   94.24450
 9865.00000    2.53120    5.67220    0.01350    0.10970    0.02510   38.40360   57.35210   94.84970
 9865.50000    2.53160    5.67130    0.01340    0.11090    0.02670   35.69280   59.34060   94.92860
 9866.00000    2.53450    5.67060    0.01330    0.11090    0.02610   36.14460   59.72790   94.85530
 9866.50000    2.54550    5.66980    0.01920    0.10820    0.02310   40.21080   58.96370   94.62820
 9867.00000    2.55060    5.66910    0.02510    0.10190    0.01950   44.50300   59.14520   94.40220
 9867.50000    2.55370    5.66830    0.03090    0.09770    0.02070   45.85840   60.94840   94.19250
 9868.00000    2.55400    5.66760    0.02780    0.09860    0.02320   43.82530   62.52630   93.89540
 9868.50000    2.55270    5.63660    0.02410    0.09980    0.02560   39.53310   62.61740   93.67350
 9869.00000    2.55140    5.62080    0.02150    0.09500    0.02320   35.24100   61.98840   93.30130
 9869.50000    2.55680    5.62000    0.01840    0.07930    0.01390   31.62650   60.90860   92.62830
 9870.00000    2.59580    5.63460    0.02130    0.06240    0.01030   28.46390   59.06310   90.75230
 9870.50000    2.64380    5.63360    0.02120    0.04760    0.00760   25.30120   56.31670   89.17710
 9871.00000    2.64230    5.63290    0.02110    0.04150    0.00490   23.49400   56.45750   87.90260
 9871.50000    2.64000    5.64730    0.02090    0.04190    0.00350   23.71990   57.49520   87.38000
 9872.00000    2.63700    5.66160    0.02680    0.04520    0.00410   26.21900   56.50120   87.15720
 9872.50000    2.63110    5.66090    0.02670    0.05000    0.00530   29.15590   55.51150   87.68810
 9873.00000    2.62050    5.67520    0.02660    0.05750    0.00650   29.59340   56.63900   88.44370
 9873.50000    2.60640    5.67450    0.02650    0.06630    0.00810   29.63280   58.08170   88.89850
 9874.00000    2.59020    5.67370    0.02940    0.07680    0.00900   31.85240   59.38940   89.89760
 9874.50000    2.57400    5.67300    0.02920    0.08500    0.01050   34.33730   59.97630   91.09420
 9875.00000    2.56330    5.67220    0.03210    0.09100    0.01380   37.27410   60.74340   91.56640
 9875.50000    2.55810    5.67130    0.03500    0.09520    0.01750   40.21080   61.33030   92.29770
 9876.00000    2.55650    5.65550    0.03490    0.09490    0.01990   42.46990   61.73700   92.97810
 9876.50000    2.56030    5.67000    0.03480    0.09280    0.02120   43.14760   62.59420   93.43290
 9877.00000    2.55840    5.66910    0.03470    0.09400    0.02170   42.92170   63.27120   93.51180
 9877.50000    2.55570    5.66830    0.03750    0.09550    0.02000   42.69580   62.78460   93.43940
 9878.00000    2.55720    5.66760    0.04340    0.09530    0.01910   41.79220   60.37240   93.14330
 9878.50000    2.56380    5.66680    0.04330    0.08560    0.01940   39.30720   57.87010   92.62070
 9879.00000    2.57380    5.66610    0.04020    0.07900    0.01880   34.11140   58.41190   91.94770
 9879.50000    2.58390    5.66530    0.03100    0.07760    0.01790   30.27110   59.53940   91.49930
