~Version ---------------------------------------------------
VERS.   2.0 : CWLS log ASCII Standard -VERSION 2.0
WRAP.    NO : One line per depth step
DLM . SPACE : Column Data Section Delimiter
~Well ------------------------------------------------------
STRT .F                  200.0 : START DEPTH
STOP .F                10059.0 : STOP DEPTH
STEP .F                    0.5 : STEP
NULL .                -9999.25 : NULL VALUE
COMP .                         : COMPANY
WELL .                         : WELL
FLD  .                         : FIELD
LOC  .                         : LOCATION
PROV .                         : PROVINCE
CNTY .                         : COUNTY
STAT .                         : STATE
CTRY .                         : COUNTRY
SRVC .                         : SERVICE COMPANY
DATE .                         : DATE
UWI  .                         : UNIQUE WELL ID
API  .                         : API NUMBER
SLAT .WGS84 0.7014593352653016 : SURFACE LATITUDE
SLON .WGS84  6.726548007735005 : SURFACE LONGITUDE
DATUM.F                2734.42 : DEPTH DATUM ELEV
~Curve Information -----------------------------------------
DEPT.F     : 
RHOB.G/C3  : BULK DENSITY
CALD.IN    : CALIPER FROM DENSITY LOG
DRHO.G/C3  : DENSITY CORRECTION
DPHI.DEC   : DENSITY POROSITY LIMESTONE
NPHI.DEC   : NEUTRON POROSITY LIMESTONE
GRS .GAPI  : GAMMA RAY FROM SONIC LOG
DTCO.US/F  : COMPRESSIONAL-WAVE INTERVAL TRANSIT TIME ACOUSTIC SLOWNESS
DTSM.US/F  : SHEAR-WAVE INTERVAL TRANSIT TIME DELTA-T
~Params ----------------------------------------------------
~Other -----------------------------------------------------
~ASCII -----------------------------------------------------
# ...
 9480.00000    2.69120    6.00890    0.01530    0.00890    0.01350   27.14930   52.48660   95.02620
 9480.50000    2.70720    5.91730    0.02110   -0.00070    0.01200   25.11310   51.40640   94.80000
 9481.00000    2.72260    5.91620    0.02100   -0.01120    0.01120   23.98190   52.26320   94.57390
 9481.50000    2.73310    5.93050    0.02380   -0.01450    0.01090   25.11310   52.75950   93.97210
 9482.00000    2.73770    5.97460    0.02060   -0.01600    0.01060   27.38270   52.58000   93.52080
 9482.50000    2.74060    6.00370    0.01440   -0.01680    0.01060   30.59290   53.12170   94.87220
 9483.00000    2.73980    6.03290    0.01420   -0.01380    0.01070   34.92000   54.87930   96.07360
 9483.50000    2.73790    6.03180    0.01710   -0.00870    0.01730   39.96150   56.86220   97.80080
 9484.00000    2.73230    6.01570    0.01990   -0.00380    0.01970   41.40270   58.07930   99.00220
 9484.50000    2.71900    5.96910    0.02270   -0.00110    0.02070   39.81900   58.66580  101.10510
 9485.00000    2.70460    5.90790    0.02250    0.00260    0.02250   41.40270   59.38740  101.70550
 9485.50000    2.69390    5.92190    0.02290    0.00620    0.02610   45.47510   59.88380  102.30580
 9486.00000    2.67580    5.93860    0.02520    0.01430    0.03280   49.54750   60.66040  102.22990
 9486.50000    2.65550    5.96520    0.02500    0.03030    0.04150   52.71490   62.16270  102.00380
 9487.00000    2.63530    5.96390    0.02180    0.04660    0.04610   53.39370   63.50180  101.46990
 9487.50000    2.61780    5.96280    0.01860    0.05470    0.04700   50.67870   64.69340  100.44760
 9488.00000    2.62620    5.97710    0.01540    0.05540    0.04340   49.09500   65.56390   98.03430
 9488.50000    2.63570    5.97580    0.01220    0.05240    0.03260   47.96380   63.53800   95.09520
 9489.00000    2.64500    5.95970    0.01200    0.05000    0.02060   48.41630   60.79110   93.58510
 9489.50000    2.62970    5.92840    0.01490    0.05100    0.01940   51.81000   60.61160   92.30720
 9490.00000    2.60500    5.89720    0.01770    0.05840    0.02310   56.56110   60.61270   92.83230
 9490.50000    2.58030    5.88100    0.01750    0.07880    0.02970   63.12220   60.88390   96.06220
 9491.00000    2.55560    5.89530    0.01730    0.09190    0.05350   70.36200   62.23610  100.64450
 9491.50000    2.54420    5.90940    0.01720    0.09440    0.06940   79.63800   67.50730  107.93150
 9492.00000    2.57970    5.89300    0.02000    0.06790    0.08140   82.57920   69.67030  114.24200
 9492.50000    2.61100    5.92220    0.02280    0.05410    0.08940   83.03170   68.90540  116.19460
 9493.00000    2.64240    5.95140    0.02260    0.03250    0.06560   76.92310   67.41620  113.41380
 9493.50000    2.67380    5.90500    0.02550    0.02290    0.04620   65.38460   63.50430  110.70840
 9494.00000    2.66190    5.90390    0.02530    0.02080    0.03200   54.75110   60.02350  105.52360
 9494.50000    2.63910    5.93440    0.02510    0.03050    0.04110   54.05640   59.67470  102.06680
 9495.00000    2.61620    5.96230    0.02790    0.04530    0.04800   56.56110   62.24340  102.29140
 9495.50000    2.59520    5.94610    0.03080    0.05130    0.05140   61.08600   65.03710  103.49280
 9496.00000    2.62140    5.96020    0.03060    0.05800    0.05630   69.98430   66.47940  105.52060
 9496.50000    2.63700    6.07970    0.03040    0.06430    0.06330   78.31620   68.19200  108.52510
 9497.00000    2.62150    6.13940    0.03020    0.07130    0.07090   79.41180   69.00370  110.17730
 9497.50000    2.60530    6.13810    0.03000    0.07730    0.07630   74.93320   67.24790  111.07810
 9498.00000    2.58920    6.09170    0.02680    0.07370    0.07820   65.77650   65.44700  109.72500
 9498.50000    2.58310    6.00000    0.02060    0.06110    0.06620   55.42990   63.37580  106.49360
 9499.00000    2.61120    5.93860    0.02040    0.05090    0.04820   51.81000   61.80010  102.28550
 9499.50000    2.64300    5.92240    0.02030    0.03800    0.03740   48.41630   60.08930   99.58000
 9500.00000    2.66360    5.92150    0.01990    0.02360    0.03320   43.92240   57.34220   96.19830
 9500.50000    2.68580    5.92060    0.01740    0.01340    0.02920   30.99550   56.80180   94.06780
 9501.00000    2.70150    5.91960    0.01330    0.00590    0.02070   28.28050   55.40540   92.77690
 9501.50000    2.70480    5.91870    0.01030    0.00320    0.01380   31.44800   54.86490   92.06610
 9502.00000    2.70470    5.91540    0.01010    0.00410    0.01170   37.55660   55.22520   94.01950
 9502.50000    2.69870    5.88650    0.01290    0.01050    0.01680   46.60630   55.94590   96.87450
 9503.00000    2.68350    5.90070    0.01260    0.02370    0.02560   50.00000   57.43240   99.42900
 9503.50000    2.65770    5.89980    0.01550    0.03830    0.04420   51.13120   59.72970  100.55600
 9504.00000    2.63780    5.91430    0.01820    0.05000    0.05090   52.03620   61.98200  101.90830
 9504.50000    2.62000    5.91310    0.01790    0.05240    0.05150   55.46790   65.37040  103.18560
 9505.00000    2.60220    5.91230    0.01770    0.05510    0.05390   62.97310   67.74090  105.43950
 9505.50000    2.58590    5.92650    0.01750    0.06140    0.05610   71.20950   68.51350  109.79710
 9506.00000    2.58030    5.92560    0.01420    0.07010    0.06680   85.74660   68.55860  113.17810
 9506.50000    2.58080    5.92470    0.01400    0.07860    0.08520   92.53390   69.23420  116.40870
 9507.00000    2.58960    5.92380    0.01680    0.07440    0.10160   95.47510   69.86490  117.54530
 9507.50000    2.59520    5.92290    0.01650    0.07080    0.13100   89.81900   71.39640  116.85950
 9508.00000    2.60160    5.92200    0.01630    0.06900    0.13860   83.03170   70.54050  115.77550
 9508.50000    2.60180    5.92110    0.01600    0.06990    0.12390   71.26700   68.96400  112.77020
 9509.00000    2.59200    5.93550    0.01580    0.07480    0.09860   54.29860   67.16220  105.74000
 9509.50000    2.57150    5.93440    0.01860    0.08710    0.08150   52.71490   64.81980  103.26070
 9510.00000    2.56270    5.94880    0.01830    0.09190    0.07910   59.04980   64.95500  105.81520
 9510.50000    2.55250    5.99310    0.01800    0.09560    0.08310   64.47960   67.70480  108.59500
 9511.00000    2.54220    6.05250    0.01780    0.09980    0.08850   66.52120   70.19570  110.24790
 9511.50000    2.53160    6.03650    0.01760    0.10550    0.09090   67.44240   69.59460  110.99930
 9512.00000    2.53080    6.00540    0.01730    0.10830    0.08850   68.36530   68.69370  111.37490
 9512.50000    2.53560    6.00450    0.02020    0.10770    0.08500   70.13570   67.43240  111.90080
 9513.00000    2.54660    6.00360    0.02590    0.10280    0.08410   73.30320   68.96400  112.35160
 9513.50000    2.55670    6.00270    0.03170    0.09060    0.08530   77.37560   70.94590  113.55370
 9514.00000    2.57040    6.00180    0.03750    0.07610    0.09260   92.76020   73.64870  117.98650
 9514.50000    2.58400    5.98580    0.04620    0.07230    0.11500  101.58370   74.14410  121.21710
 9515.00000    2.59610    5.98470    0.05490    0.07440    0.13290  105.65610   74.14410  121.89330
 9515.50000    2.60210    5.98380    0.06070    0.06960    0.14470   99.77380   73.55860  121.28160
 9516.00000    2.60130    5.98290    0.06950    0.06990    0.13330   94.34390   72.61260  119.97480
 9516.50000    2.58490    5.99740    0.07230    0.07170    0.12090   81.90050   70.81620  114.45530
 9517.00000    2.57120    6.02640    0.06900    0.07660    0.10140   72.39820   69.28680  109.34640
 9517.50000    2.56640    6.05600    0.06870    0.08380    0.08610   59.01750   67.70270  107.31780
 9518.00000    2.56290    6.03980    0.06850    0.09070    0.06420   52.65470   66.44140  105.96540
 9518.50000    2.56100    6.00860    0.07430    0.09350    0.05280   52.48870   65.49550  105.28930
 9519.00000    2.55810    5.99260    0.08000    0.09500    0.05040   54.97740   65.00000  104.68820
 9519.50000    2.55460    5.97660    0.09180    0.09770    0.05280   56.56110   65.85590  104.16230
