~Version ---------------------------------------------------
VERS.   2.0 : CWLS log ASCII Standard -VERSION 2.0
WRAP.    NO : One line per depth step
DLM . SPACE : Column Data Section Delimiter
~Well ------------------------------------------------------
STRT .F                  200.0 : START DEPTH
STOP .F                10059.0 : STOP DEPTH
STEP .F                    0.5 : STEP
NULL .                -9999.25 : NULL VALUE
COMP .                         : COMPANY
WELL .                         : WELL
FLD  .                         : FIELD
LOC  .                         : LOCATION
PROV .                         : PROVINCE
CNTY .                         : COUNTY
STAT .                         : STATE
CTRY .                         : COUNTRY
SRVC .                         : SERVICE COMPANY
DATE .                         : DATE
UWI  .                         : UNIQUE WELL ID
API  .                         : API NUMBER
SLAT .WGS84 0.7014593352653016 : SURFACE LATITUDE
SLON .WGS84  6.726548007735005 : SURFACE LONGITUDE
DATUM.F                2734.42 : DEPTH DATUM ELEV
~Curve Information -----------------------------------------
DEPT.F     : 
RHOB.G/C3  : BULK DENSITY
CALD.IN    : CALIPER FROM DENSITY LOG
DRHO.G/C3  : DENSITY CORRECTION
DPHI.DEC   : DENSITY POROSITY LIMESTONE
NPHI.DEC   : NEUTRON POROSITY LIMESTONE
GRS .GAPI  : GAMMA RAY FROM SONIC LOG
DTCO.US/F  : COMPRESSIONAL-WAVE INTERVAL TRANSIT TIME ACOUSTIC SLOWNESS
DTSM.US/F  : SHEAR-WAVE INTERVAL TRANSIT TIME DELTA-T
~Params ----------------------------------------------------
~Other -----------------------------------------------------
~ASCII -----------------------------------------------------
# ...
 8600.00000    2.59900    5.84340    0.01640    0.06750    0.11020   84.79460   72.39830  118.55530
 8600.50000    2.59940    5.84250    0.00800    0.06900    0.11780   89.59800   71.37200  119.30950
 8601.00000    2.59950    5.84160    0.00790    0.07030    0.12380   92.54360   70.72340  120.06300
 8601.50000    2.59580    5.84050    0.00770    0.07270    0.12590   91.19060   70.77010  119.53820
 8602.00000    2.58940    5.83960    0.01060    0.07570    0.12230   86.89640   70.50110  118.86240
 8602.50000    2.58750    5.85400    0.01050    0.07720    0.11840   84.18590   70.05200  118.03620
 8603.00000    2.59420    5.85290    0.01340    0.07160    0.11210   81.47550   69.64760  116.83380
 8603.50000    2.59910    5.85200    0.01630    0.06800    0.10190   76.72880   69.82940  115.10460
 8604.00000    2.60250    5.85110    0.01910    0.06800    0.09080   68.81470   69.83080  113.14970
 8604.50000    2.60150    5.85020    0.01600    0.06920    0.08480   64.74670   69.60690  112.38790
 8605.00000    2.59360    5.84930    0.01590    0.07350    0.08420   67.23990   68.07630  112.09930
 8605.50000    2.57760    5.84840    0.01280    0.07880    0.08870   73.12670   69.38430  112.85360
 8606.00000    2.56900    5.84760    0.01270    0.08380    0.09720   78.61140   69.70100  114.43520
 8606.50000    2.57530    5.84670    0.01250    0.08270    0.10320   82.98990   69.92750  115.64060
 8607.00000    2.59260    5.84580    0.01240    0.07620    0.10560   87.55170   70.01890  116.69550
 8607.50000    2.59490    5.82980    0.00930    0.07230    0.10860   92.60270   70.20050  117.07280
 8608.00000    2.59490    5.82890    0.00920    0.07120    0.11170   90.34470   69.85410  116.32220
 8608.50000    2.59150    5.82780    0.00910    0.07480    0.11080   86.50300   68.62680  115.87220
 8609.00000    2.58580    5.82690    0.00890    0.07720    0.10150   81.53010   68.13230  115.57230
 8609.50000    2.58730    5.82610    0.01180    0.07780    0.09240   81.08090   68.89980  115.12270
 8610.00000    2.60020    5.84050    0.01170    0.07460    0.09220   82.67020   70.16240  114.97370
 8610.50000    2.61430    5.83930    0.01460    0.06500    0.09890   84.25840   70.61380  115.12690
 8611.00000    2.62180    5.83850    0.01750    0.05480    0.10310   80.19040   70.25510  115.35290
 8611.50000    2.61550    5.83760    0.01730    0.05780    0.09820   78.38380   69.89610  114.67710
 8612.00000    2.60230    5.85200    0.01720    0.06260    0.09220   81.78310   69.67220  114.52850
 8612.50000    2.59300    5.83580    0.01110    0.06960    0.09080   88.80110   69.58310  114.45440
 8613.00000    2.59020    5.83490    0.01100    0.07440    0.09530   86.76930   69.81000  114.15520
 8613.50000    2.59550    5.83400    0.00790    0.07350    0.09950   80.43900   69.85630  113.78050
 8614.00000    2.59620    5.83310    0.00770    0.07230    0.10100   72.03680   69.09190  112.72850
 8614.50000    2.59520    5.83220    0.00760    0.07170    0.09680   63.86090   68.23740  111.52610
 8615.00000    2.59170    5.83130    0.00750    0.07240    0.08480   61.67410   68.18940  110.24840
 8615.50000    2.59150    5.84550    0.00740    0.07390    0.07850   65.97830   67.91730  109.78190
 8616.00000    2.59620    5.84440    0.00730    0.07420    0.07730   69.15020   67.74590  109.87510
 8616.50000    2.60320    5.82850    0.01010    0.06910    0.08090   72.32200   68.64840  110.47860
 8617.00000    2.61190    5.82760    0.01300    0.06130    0.08460   76.62510   69.32540  111.72580
 8617.50000    2.61420    5.82670    0.01890    0.05950    0.08610   77.76080   69.46160  114.09330
 8618.00000    2.61150    5.82580    0.01580    0.06060    0.08640   77.53790   69.68840  112.89120
 8618.50000    2.60390    5.82490    0.01570    0.06610    0.08670   77.99600   70.05010  112.81700
 8619.00000    2.59610    5.82410    0.01510    0.06900    0.08910   80.48910   70.27640  113.11990
 8619.50000    2.59200    5.83830    0.00940    0.07110    0.09190   82.98230   69.73750  113.64810
 8620.00000    2.58780    5.83730    0.00630    0.07380    0.09520   83.43920   69.64840  114.32670
 8620.50000    2.58460    5.83630    0.00620    0.07620    0.09910   82.53870   69.92030  114.17770
 8621.00000    2.58670    5.83540    0.00600    0.07800    0.10150   80.95940   69.47120  113.57720
 8621.50000    2.59460    5.83450    0.01190    0.07710    0.10400   78.92770   69.15720  113.35260
 8622.00000    2.60360    5.83360    0.01780    0.07390    0.10370   76.89600   69.89000  113.95640
 8622.50000    2.60830    5.83270    0.01770    0.06670    0.10070   75.54290   70.60810  114.78560
 8623.00000    2.61260    5.83180    0.01760    0.06190    0.10010   76.00000   70.60260  115.01760
 8623.50000    2.61430    5.84620    0.01750    0.06040    0.10100   75.29020   70.46920  115.91720
 8624.00000    2.61400    5.84510    0.01430    0.06010    0.09950   74.19890   69.65970  115.11570
 8624.50000    2.61110    5.85950    0.01420    0.06130    0.09860   74.88320   68.12950  114.11460
 8625.00000    2.60370    5.85840    0.00810    0.06440    0.09870   76.01880   67.72540  114.19140
 8625.50000    2.59520    5.85750    0.00500    0.06800    0.10170   77.83330   67.59160  114.11720
 8626.00000    2.58580    5.85660    0.00190    0.07280    0.10350   78.51640   67.09740  114.04350
 8626.50000    2.57970    5.85570    0.00170    0.07800    0.10380   79.87840   67.50420  113.89480
 8627.00000    2.57560    5.85480    0.00460    0.08160    0.09780   81.24030   68.85680  113.74540
 8627.50000    2.58610    5.85370    0.00750    0.08200    0.09390   80.11350   69.48880  114.19870
 8628.00000    2.60120    5.83780    0.00740    0.07650    0.09300   79.43930   69.30990  115.02790
 8628.50000    2.60730    5.83690    0.00720    0.06660    0.09850   79.89620   69.13110  115.40560
 8629.00000    2.61110    5.83600    0.00710    0.06300    0.10420   81.25810   68.99160  115.48230
 8629.50000    2.60870    5.85040    0.00700    0.06430    0.10270   79.67890   68.67730  115.78480
 8630.00000    2.59930    5.84930    0.00690    0.06760    0.09220   76.06340   68.36930  115.18430
 8630.50000    2.59810    5.84840    0.00980    0.06940    0.08590   75.38020   68.86650  114.58420
 8631.00000    2.60410    5.84750    0.00970    0.06740    0.08440   79.07640   68.64260  114.73620
 8631.50000    2.60870    5.84660    0.01260    0.06300    0.08680   85.20210   68.55350  114.21090
 8632.00000    2.61160    5.83070    0.01240    0.06070    0.08830   85.80980   69.18580  114.28760
 8632.50000    2.60700    5.84490    0.01530    0.06200    0.09170   83.32670   69.36740  114.74060
 8633.00000    2.60110    5.84400    0.01520    0.06440    0.09650   81.29490   69.54890  115.34400
 8633.50000    2.59730    5.84310    0.01510    0.06800    0.10280   80.84580   69.46010  115.87220
 8634.00000    2.59620    5.84220    0.01500    0.07020    0.10460   80.62400   69.37140  115.72320
 8634.50000    2.60000    5.84130    0.01480    0.06930    0.10250   79.72460   69.23750  114.82170
 8635.00000    2.60700    5.84020    0.01470    0.06630    0.09860   78.82410   69.05870  114.74310
 8635.50000    2.60980    5.83930    0.01460    0.06240    0.09600   79.95970   68.96960  115.05100
 8636.00000    2.61080    5.83840    0.01450    0.06120    0.09630   83.58410   69.15150  115.43530
 8636.50000    2.60590    5.83750    0.01440    0.06270    0.10410   85.39740   69.46810  115.00090
 8637.00000    2.59970    5.83660    0.01420    0.06760    0.11260   82.00930   69.33430  113.62560
 8637.50000    2.59190    5.83580    0.01110    0.07300    0.10910   76.81010   68.65990  111.52020
 8638.00000    2.59340    5.83490    0.01100    0.07360    0.08810   68.66980   68.07570  111.37080
 8638.50000    2.60230    5.83400    0.01090    0.06760    0.07130   70.03170   67.75920  112.65180
 8639.00000    2.60990    5.83310    0.01070    0.06220    0.07430   75.04560   67.87300  114.23340
 8639.50000    2.61560    5.84730    0.01060    0.05810    0.08770   84.92620   69.61150  115.13780
