~Version ---------------------------------------------------
VERS.   2.0 : CWLS log ASCII Standard -VERSION 2.0
WRAP.    NO : One line per depth step
DLM . SPACE : Column Data Section Delimiter
~Well ------------------------------------------------------
STRT .F                  200.0 : START DEPTH
STOP .F                10059.0 : STOP DEPTH
STEP .F                    0.5 : STEP
NULL .                -9999.25 : NULL VALUE
COMP .                         : COMPANY
WELL .                         : WELL
FLD  .                         : FIELD
LOC  .                         : LOCATION
PROV .                         : PROVINCE
CNTY .                         : COUNTY
STAT .                         : STATE
CTRY .                         : COUNTRY
SRVC .                         : SERVICE COMPANY
DATE .                         : DATE
UWI  .                         : UNIQUE WELL ID
API  .                         : API NUMBER
SLAT .WGS84 0.7014593352653016 : SURFACE LATITUDE
SLON .WGS84  6.726548007735005 : SURFACE LONGITUDE
DATUM.F                2734.42 : DEPTH DATUM ELEV
~Curve Information -----------------------------------------
DEPT.F     : 
RHOB.G/C3  : BULK DENSITY
CALD.IN    : CALIPER FROM DENSITY LOG
DRHO.G/C3  : DENSITY CORRECTION
DPHI.DEC   : DENSITY POROSITY LIMESTONE
NPHI.DEC   : NEUTRON POROSITY LIMESTONE
GRS .GAPI  : GAMMA RAY FROM SONIC LOG
DTCO.US/F  : COMPRESSIONAL-WAVE INTERVAL TRANSIT TIME ACOUSTIC SLOWNESS
DTSM.US/F  : SHEAR-WAVE INTERVAL TRANSIT TIME DELTA-T
~Params ----------------------------------------------------
~Other -----------------------------------------------------
~ASCII -----------------------------------------------------
# ...
 8800.00000    2.63120    5.96390    0.01410    0.04560    0.15170  103.89190   71.10040  128.76700
 8800.50000    2.62420    5.96260    0.01100    0.05010    0.15110   98.17810   70.58710  128.73100
 8801.00000    2.61710    5.96140    0.00790    0.05490    0.14910   97.96830   70.45300  129.46880
 8801.50000    2.61190    5.96020    0.00770    0.05830    0.14700  100.91220   71.13030  132.48920
 8802.00000    2.61310    5.95900    0.00760    0.05920    0.14370  103.62940   72.21270  134.21800
 8802.50000    2.63250    5.97270    0.00750    0.05200    0.14580  106.79900   73.11500  133.61770
 8803.00000    2.64990    5.97150    0.00740    0.04090    0.15820  109.96870   73.38660  133.84380
 8803.50000    2.65130    5.97030    0.00720    0.03640    0.17290  113.59080   73.38790  134.22020
 8804.00000    2.64630    5.96910    0.01020    0.03880    0.17920  116.76050   73.20900  134.52150
 8804.50000    2.64190    5.96790    0.01300    0.04090    0.17690  117.44140   72.85000  133.77090
 8805.00000    2.64300    5.98200    0.01590    0.04120    0.17510  116.53870   72.53600  133.47090
 8805.50000    2.65030    5.98060    0.01880    0.03700    0.17420  117.21960   73.28100  134.29830
 8806.00000    2.65200    5.97940    0.01870    0.03500    0.17360  120.16300   74.16060  137.00380
 8806.50000    2.63840    5.97820    0.01850    0.03560    0.17270  122.88020   74.56740  138.35690
 8807.00000    2.63050    5.97700    0.01840    0.04220    0.17180  124.69240   75.06420  138.20740
 8807.50000    2.62560    5.97580    0.01830    0.04940    0.17580  121.52720   74.75020  137.90760
 8808.00000    2.62560    5.95950    0.01820    0.05160    0.17760  117.44980   74.21200  136.66870
 8808.50000    2.62560    5.95830    0.01810    0.05100    0.17490  114.22000   73.59650  134.38630
 8809.00000    2.62480    5.97250    0.01490    0.05110    0.16170  109.90390   72.99750  131.59900
 8809.50000    2.62380    5.97100    0.01480    0.05380    0.15020  107.05700   72.59350  129.19550
 8810.00000    2.62250    5.96980    0.01470    0.05460    0.14430  106.60620   71.91910  127.16770
 8810.50000    2.62040    5.96860    0.01460    0.05400    0.14560  105.70400   71.74020  127.31870
 8811.00000    2.60600    5.96740    0.01150    0.05590    0.15150  106.15870   71.83170  130.39980
 8811.50000    2.58340    5.96620    0.01440    0.06280    0.15860  107.29220   72.14830  135.35920
 8812.00000    2.59440    5.96500    0.01730    0.07520    0.16660  109.78310   72.55500  135.66050
 8812.50000    2.60900    5.96390    0.01710    0.07340    0.17350  111.36900   73.00680  135.73620
 8813.00000    2.62320    5.96270    0.01700    0.06200    0.17300  112.05000   73.63880  135.28630
 8813.50000    2.61630    5.96140    0.01390    0.05660    0.16880  113.63590   74.31580  134.53570
 8814.00000    2.60900    5.96020    0.01370    0.05540    0.16310  115.44810   72.74050  132.65820
 8814.50000    2.60590    5.95900    0.01360    0.05690    0.15350  113.41410   72.42330  130.93090
 8815.00000    2.60510    5.95760    0.01350    0.06050    0.14930  111.60640   72.33130  130.70620
 8815.50000    2.60580    5.95640    0.01340    0.06480    0.15200  109.79870   72.11420  130.47630
 8816.00000    2.62060    5.95520    0.01330    0.06630    0.16250  109.11500   71.75520  129.92760
 8816.50000    2.64150    5.95400    0.01320    0.06120    0.16830  104.38230   71.26100  127.70340
 8817.00000    2.66250    5.95280    0.01300    0.05060    0.16230   95.72800   70.40650  125.29990
 8817.50000    2.68020    5.96670    0.01590    0.03490    0.14540   85.37370   69.19160  121.69430
 8818.00000    2.65610    5.96550    0.01580    0.02250    0.13070   86.73340   67.93130  121.39440
 8818.50000    2.63660    5.96430    0.01870    0.01890    0.12770   92.61800   67.43750  121.69580
 8819.00000    2.62100    5.96310    0.01810    0.02530    0.13230   99.18130   67.52890  121.92190
 8819.50000    2.62310    5.96190    0.01240    0.04600    0.13350  100.08800   68.34110  121.84740
 8820.00000    2.62320    5.96070    0.00930    0.05440    0.13260   97.14960   69.96400  121.84830
 8820.50000    2.61840    5.95950    0.00920    0.05380    0.13050   97.37810   69.92030  121.99930
 8821.00000    2.61470    5.95830    0.00900    0.05260    0.12900   96.47470   69.33600  122.15030
 8821.50000    2.61620    5.95710    0.00890    0.05480    0.12720   96.93000   69.43820  122.60180
 8822.00000    2.61840    5.95600    0.00880    0.05870    0.12580   98.51600   70.03480  123.20360
 8822.50000    2.61690    5.95480    0.00870    0.05870    0.12790  100.32810   70.64670  124.18110
 8823.00000    2.61280    5.95360    0.00860    0.05750    0.13670  103.95030   70.91830  125.09770
 8823.50000    2.60940    5.95240    0.00850    0.05870    0.14570  106.67820   71.09980  126.16640
 8824.00000    2.61020    5.95120    0.00830    0.06180    0.14900  104.63350   71.23620  127.11360
 8824.50000    2.61340    5.95000    0.00820    0.06270    0.14740  104.18320   71.37270  127.79050
 8825.00000    2.61760    5.94880    0.01110    0.06000    0.14480  107.91850   72.00460  128.46740
 8825.50000    2.62510    5.94760    0.01400    0.05730    0.14690  111.65430   72.72670  129.97080
 8826.00000    2.64150    5.94640    0.01390    0.05670    0.15240  117.53890   73.62890  132.30060
 8826.50000    2.66110    5.94520    0.01370    0.05460    0.17130  117.31480   73.85550  133.05270
 8827.00000    2.65430    5.95910    0.01670    0.04410    0.18700  115.05460   73.85680  133.20370
 8827.50000    2.63550    5.95760    0.02250    0.03330    0.19930  113.02070   73.72300  133.12910
 8828.00000    2.62410    5.98680    0.03140    0.03270    0.19090  111.21290   73.58850  132.75440
 8828.50000    2.62550    5.98530    0.04330    0.04450    0.18040  110.08390   72.56420  131.40270
 8829.00000    2.63470    6.01430    0.05220    0.05260    0.17320  106.69250   71.14520  129.14950
 8829.50000    2.63280    6.04350    0.06110    0.05020    0.16630  100.81240   71.07060  127.12170
 8830.00000    2.63170    6.07210    0.07000    0.04780    0.15460   97.87340   71.25250  125.61980
 8830.50000    2.63410    6.11610    0.06680    0.04850    0.14830  101.72180   71.47900  126.15130
 8831.00000    2.63320    6.16040    0.04870    0.05000    0.15440  106.70140   71.75060  126.75840
 8831.50000    2.63470    6.12880    0.03960    0.04810    0.16040  106.25110   71.39160  126.44870
 8832.00000    2.63650    6.05230    0.03350    0.04760    0.16100  103.27450   70.98750  124.94680
 8832.50000    2.63580    5.97580    0.03030    0.04820    0.15080  100.31940   69.86270  123.14440
 8833.00000    2.62490    5.95950    0.02420    0.04680    0.14090   98.26040   69.54870  122.31850
 8833.50000    2.62110    5.94330    0.01810    0.04530    0.14030   96.98460   69.45960  123.07070
 8834.00000    2.61810    5.95740    0.01780    0.04860    0.14480   95.85560   69.82170  124.04820
 8834.50000    2.61890    5.97130    0.01480    0.05520    0.14820   95.17850   70.67880  125.40130
 8835.00000    2.62300    5.96980    0.01170    0.05770    0.14850   97.44370   71.76410  127.13000
 8835.50000    2.62930    5.96860    0.00860    0.05560    0.15090  102.42340   72.47260  129.76040
 8836.00000    2.63450    5.96740    0.00850    0.05320    0.15510  114.19030   73.46820  132.61610
 8836.50000    2.64710    5.96620    0.00890    0.04990    0.16810  117.13370   74.42320  134.57030
 8837.00000    2.66350    5.96500    0.01120    0.04600    0.17690  119.62410   74.37950  133.74460
 8837.50000    2.67050    5.96390    0.01110    0.04150    0.17530  115.55440   74.15560  132.76860
 8838.00000    2.67010    5.96270    0.01400    0.03310    0.17040  113.06800   73.79660  132.38890
 8838.50000    2.66640    5.96140    0.01390    0.02740    0.17120  111.93900   73.52760  132.24420
 8839.00000    2.64570    5.96020    0.01680    0.02590    0.17860  111.92680   73.21370  132.09480
 8839.50000    2.64190    5.95900    0.01660    0.03170    0.18530  114.88820   72.67440  131.56960
