~Version ---------------------------------------------------
VERS.   2.0 : CWLS log ASCII Standard -VERSION 2.0
WRAP.    NO : One line per depth step
DLM . SPACE : Column Data Section Delimiter
~Well ------------------------------------------------------
STRT .F                  200.0 : START DEPTH
STOP .F                10059.0 : STOP DEPTH
STEP .F                    0.5 : STEP
NULL .                -9999.25 : NULL VALUE
COMP .                         : COMPANY
WELL .                         : WELL
FLD  .                         : FIELD
LOC  .                         : LOCATION
PROV .                         : PROVINCE
CNTY .                         : COUNTY
STAT .                         : STATE
CTRY .                         : COUNTRY
SRVC .                         : SERVICE COMPANY
DATE .                         : DATE
UWI  .                         : UNIQUE WELL ID
API  .                         : API NUMBER
SLAT .WGS84 0.7014593352653016 : SURFACE LATITUDE
SLON .WGS84  6.726548007735005 : SURFACE LONGITUDE
DATUM.F                2734.42 : DEPTH DATUM ELEV
~Curve Information -----------------------------------------
DEPT.F     : 
RHOB.G/C3  : BULK DENSITY
CALD.IN    : CALIPER FROM DENSITY LOG
DRHO.G/C3  : DENSITY CORRECTION
DPHI.DEC   : DENSITY POROSITY LIMESTONE
NPHI.DEC   : NEUTRON POROSITY LIMESTONE
GRS .GAPI  : GAMMA RAY FROM SONIC LOG
DTCO.US/F  : COMPRESSIONAL-WAVE INTERVAL TRANSIT TIME ACOUSTIC SLOWNESS
DTSM.US/F  : SHEAR-WAVE INTERVAL TRANSIT TIME DELTA-T
~Params ----------------------------------------------------
~Other -----------------------------------------------------
~ASCII -----------------------------------------------------
# ...
 7560.00000   -9999.25   -9999.25   -9999.25   -9999.25    0.27570   76.19940   54.28450   83.78460
 7560.50000   -9999.25   -9999.25   -9999.25   -9999.25    0.28710   74.38670   54.64660   84.99610
 7561.00000   -9999.25   -9999.25   -9999.25   -9999.25    0.28210   70.53830   55.27950   86.62330
 7561.50000   -9999.25   -9999.25   -9999.25   -9999.25    0.27060   66.23740   55.73180   88.43850
 7562.00000   -9999.25   -9999.25   -9999.25   -9999.25    0.26300   62.16280   55.68760   89.79260
 7562.50000   -9999.25   -9999.25   -9999.25   -9999.25    0.24440   60.12430   55.63950   89.41740
 7563.00000   -9999.25   -9999.25   -9999.25   -9999.25    0.22640   63.28950   55.25060   88.59110
 7563.50000   -9999.25   -9999.25   -9999.25   -9999.25    0.20390   65.77600   54.69720   87.68960
 7564.00000   -9999.25   -9999.25   -9999.25   -9999.25    0.22350   65.78000   55.10440   86.26170
 7564.50000   -9999.25   -9999.25   -9999.25   -9999.25    0.26770   63.04310   55.33100   86.78880
 7565.00000   -9999.25   -9999.25   -9999.25   -9999.25    0.31620   59.61500   55.60280   87.61660
 7565.50000   -9999.25   -9999.25   -9999.25   -9999.25    0.42590   56.18690   55.96490   87.84290
 7566.00000   -9999.25   -9999.25   -9999.25   -9999.25    0.46040   53.70190   56.55260   85.51280
 7566.50000   -9999.25   -9999.25   -9999.25   -9999.25    0.47420   52.86660   57.81760   85.81430
 7567.00000   -9999.25   -9999.25   -9999.25   -9999.25    0.48180   55.35250   58.85690   87.01810
 7567.50000   -9999.25   -9999.25   -9999.25   -9999.25    0.47850   57.16020   58.40160   87.99630
 7568.00000   -9999.25   -9999.25   -9999.25   -9999.25    0.46580   58.28920   57.47090   90.62860
 7568.50000   -9999.25   -9999.25   -9999.25   -9999.25    0.43720   57.60830   55.88010   92.88500
 7569.00000   -9999.25   -9999.25   -9999.25   -9999.25    0.39540   58.05850   55.20380   93.03610
 7569.50000   -9999.25   -9999.25   -9999.25   -9999.25    0.37470   59.86620   54.70800   90.51390
 7570.00000   -9999.25   -9999.25   -9999.25   -9999.25    0.39060   64.38890   54.75410   86.07990
 7570.50000   -9999.25   -9999.25   -9999.25   -9999.25    0.43190   65.29220   55.16130   86.40250
 7571.00000   -9999.25   -9999.25   -9999.25   -9999.25    0.44960   65.51560   56.01990   87.40010
 7571.50000   -9999.25   -9999.25   -9999.25   -9999.25    0.45240   66.41840   56.69800   87.92720
 7572.00000   -9999.25   -9999.25   -9999.25   -9999.25    0.44850   67.99980   56.42800   87.47680
 7572.50000   -9999.25   -9999.25   -9999.25   -9999.25    0.41270   68.90310   55.74810   87.92870
 7573.00000   -9999.25   -9999.25   -9999.25   -9999.25    0.38800   67.31660   54.51850   88.90690
 7573.50000   -9999.25   -9999.25   -9999.25   -9999.25    0.35640   66.40940   53.27060   89.43370
 7574.00000   -9999.25   -9999.25   -9999.25   -9999.25    0.34800   65.50220   53.63270   88.23170
 7574.50000   -9999.25   -9999.25   -9999.25   -9999.25    0.34400   64.59500   54.26560   86.95420
 7575.00000   -9999.25   -9999.25   -9999.25   -9999.25    0.33900   63.46150   54.71790   85.07530
 7575.50000   -9999.25   -9999.25   -9999.25   -9999.25    0.32560   65.08590   54.94460   82.14370
 7576.00000   -9999.25   -9999.25   -9999.25   -9999.25    0.30030   69.03140   55.12600   80.49030
 7576.50000   -9999.25   -9999.25   -9999.25   -9999.25    0.27420   75.18100   55.26230   79.81430
 7577.00000   -9999.25   -9999.25   -9999.25   -9999.25    0.24280   78.77900   55.17290   81.16840
 7577.50000   -9999.25   -9999.25   -9999.25   -9999.25    0.20060   80.64440   54.94810   81.92110
 7578.00000   -9999.25   -9999.25   -9999.25   -9999.25    0.19940   79.96340   54.95260   80.19250
 7578.50000   -9999.25   -9999.25   -9999.25   -9999.25    0.21520   74.53130   55.08530   79.89250
 7579.00000   -9999.25   -9999.25   -9999.25   -9999.25    0.23260   71.58790   55.17670   81.34240
 7579.50000   -9999.25   -9999.25   -9999.25   -9999.25    0.25810   70.22820   55.13220   82.16060
 7580.00000   -9999.25   -9999.25   -9999.25   -9999.25    0.26740   71.58340   54.95270   82.52650
 7580.50000   -9999.25   -9999.25   -9999.25   -9999.25    0.27760   74.52240   54.86310   82.15130
 7581.00000   -9999.25   -9999.25   -9999.25   -9999.25    0.27560   78.59250   55.08990   81.62570
 7581.50000   -9999.25   -9999.25   -9999.25   -9999.25    0.26840   81.75770   55.18090   80.42340
 7582.00000   -9999.25   -9999.25   -9999.25   -9999.25    0.25780   81.07670   54.86590   80.04800
 7582.50000   -9999.25   -9999.25   -9999.25   -9999.25    0.25030   77.22830   54.77650   79.74820
 7583.00000   -9999.25   -9999.25   -9999.25   -9999.25    0.24370   72.47500   54.86970   79.29780
 7583.50000   -9999.25   -9999.25   -9999.25   -9999.25    0.23470   71.34150   54.95890   78.84740
 7584.00000   -9999.25   -9999.25   -9999.25   -9999.25    0.22840   72.47050   55.00490   81.63010
 7584.50000   -9999.25   -9999.25   -9999.25   -9999.25    0.22150   71.56330   54.96060   85.16470
 7585.00000   -9999.25   -9999.25   -9999.25   -9999.25    0.21460   69.29860   54.73600   90.87970
 7585.50000   -9999.25   -9999.25   -9999.25   -9999.25    0.20930   67.26020   54.51090   97.64740
 7586.00000   -9999.25   -9999.25   -9999.25   -9999.25    0.21830   67.94740   54.37660  102.38500
 7586.50000   -9999.25   -9999.25   -9999.25   -9999.25    0.22440   70.69760   54.15180  101.55870
 7587.00000   -9999.25   -9999.25   -9999.25   -9999.25    0.21560   72.73690   54.24290   99.60450
 7587.50000   -9999.25   -9999.25   -9999.25   -9999.25    0.20390   72.64270   54.65010   97.34960
 7588.00000   -9999.25   -9999.25   -9999.25   -9999.25    0.19880   71.09460   54.92240   94.52190
 7588.50000   -9999.25   -9999.25   -9999.25   -9999.25    0.21270   69.96110   54.96790   91.49750
 7589.00000   -9999.25   -9999.25   -9999.25   -9999.25    0.22880   71.54260   54.74330   88.54480
 7589.50000   -9999.25   -9999.25   -9999.25   -9999.25    0.23650   73.12410   54.56360   85.92420
 7590.00000   -9999.25   -9999.25   -9999.25   -9999.25    0.23500   74.25360   54.56450   84.27080
 7590.50000   -9999.25   -9999.25   -9999.25   -9999.25    0.22830   74.47760   54.79110   82.09110
 7591.00000   -9999.25   -9999.25   -9999.25   -9999.25    0.22060   74.70160   54.74660   80.73850
 7591.50000   -9999.25   -9999.25   -9999.25   -9999.25    0.22600   75.15130   54.61200   78.93470
 7592.00000   -9999.25   -9999.25   -9999.25   -9999.25    0.24890   76.05410   54.61310   78.25860
 7592.50000   -9999.25   -9999.25   -9999.25   -9999.25    0.28560   76.50430   54.65920   77.95870
 7593.00000   -9999.25   -9999.25   -9999.25   -9999.25    0.28680   77.18080   54.84060   77.73370
 7593.50000   -9999.25   -9999.25   -9999.25   -9999.25    0.24650   76.27360   55.26160   78.86250
 7594.00000   -9999.25   -9999.25   -9999.25   -9999.25    0.21380   73.78270   56.58280   80.14140
 7594.50000   -9999.25   -9999.25   -9999.25   -9999.25    0.21440   72.42300   57.10060   82.84890
 7595.00000   -9999.25   -9999.25   -9999.25   -9999.25    0.23090   71.96820   56.06330   90.59400
 7595.50000   -9999.25   -9999.25   -9999.25   -9999.25    0.25650   71.73980   55.07100  102.94250
 7596.00000   -9999.25   -9999.25   -9999.25   -9999.25    0.27310   71.28500   54.93620  105.48270
 7596.50000   -9999.25   -9999.25   -9999.25   -9999.25    0.27580   72.41580   55.38880  102.92720
 7597.00000   -9999.25   -9999.25   -9999.25   -9999.25    0.26380   73.78170   55.66060  100.59710
 7597.50000   -9999.25   -9999.25   -9999.25   -9999.25    0.24290   74.44580   55.66140   96.68810
 7598.00000   -9999.25   -9999.25   -9999.25   -9999.25    0.22070   72.56730   55.57200   89.39560
 7598.50000   -9999.25   -9999.25   -9999.25   -9999.25    0.21570   70.46410   55.38840   83.08050
 7599.00000   -9999.25   -9999.25   -9999.25   -9999.25    0.21790   70.81860   55.02570   83.83320
 7599.50000   -9999.25   -9999.25   -9999.25   -9999.25    0.22090   72.40010   54.98780   85.71360
