~Version ---------------------------------------------------
VERS.   2.0 : CWLS log ASCII Standard -VERSION 2.0
WRAP.    NO : One line per depth step
DLM . SPACE : Column Data Section Delimiter
~Well ------------------------------------------------------
STRT .F                  200.0 : START DEPTH
STOP .F                10059.0 : STOP DEPTH
STEP .F                    0.5 : STEP
NULL .                -9999.25 : NULL VALUE
COMP .                         : COMPANY
WELL .                         : WELL
FLD  .                         : FIELD
LOC  .                         : LOCATION
PROV .                         : PROVINCE
CNTY .                         : COUNTY
STAT .                         : STATE
CTRY .                         : COUNTRY
SRVC .                         : SERVICE COMPANY
DATE .                         : DATE
UWI  .                         : UNIQUE WELL ID
API  .                         : API NUMBER
SLAT .WGS84 0.7014593352653016 : SURFACE LATITUDE
SLON .WGS84  6.726548007735005 : SURFACE LONGITUDE
DATUM.F                2734.42 : DEPTH DATUM ELEV
~Curve Information -----------------------------------------
DEPT.F     : 
RHOB.G/C3  : BULK DENSITY
CALD.IN    : CALIPER FROM DENSITY LOG
DRHO.G/C3  : DENSITY CORRECTION
DPHI.DEC   : DENSITY POROSITY LIMESTONE
NPHI.DEC   : NEUTRON POROSITY LIMESTONE
GRS .GAPI  : GAMMA RAY FROM SONIC LOG
DTCO.US/F  : COMPRESSIONAL-WAVE INTERVAL TRANSIT TIME ACOUSTIC SLOWNESS
DTSM.US/F  : SHEAR-WAVE INTERVAL TRANSIT TIME DELTA-T
~Params ----------------------------------------------------
~Other -----------------------------------------------------
~ASCII -----------------------------------------------------
# ...
 8960.00000    2.63920    5.95780    0.02850    0.03560    0.17590  116.63290   72.61330  131.04480
 8960.50000    2.63480    5.95680    0.02530    0.04040    0.17440  119.59610   73.05580  132.02450
 8961.00000    2.63570    5.95570    0.01920    0.04680    0.17810  120.41170   72.78730  132.47820
 8961.50000    2.63930    5.95470    0.01300    0.04770    0.17960  115.66330   72.87960  132.03040
 8962.00000    2.63920    5.95360    0.00980    0.04350    0.17450  113.17680   72.92600  131.43230
 8962.50000    2.63430    5.95260    0.00660    0.04170    0.16340  114.08400   72.56780  130.83420
 8963.00000    2.62720    5.95130    0.00640    0.04850    0.16010  116.80120   71.66870  130.31120
 8963.50000    2.63650    5.93520    0.00620    0.05140    0.16040  119.29210   70.94930  130.07060
 8964.00000    2.64990    5.94920    0.00910    0.04270    0.16310  120.42560   71.58220  131.14350
 8964.50000    2.65690    5.94820    0.01190    0.03520    0.16650  120.20100   72.03440  131.91090
 8965.00000    2.65120    5.94710    0.01470    0.03370    0.17130  121.56120   72.44160  132.36420
 8965.50000    2.63250    5.94610    0.01410    0.03950    0.17580  123.14710   72.80370  132.05470
 8966.00000    2.61570    5.94500    0.01140    0.05240    0.17530  125.41180   72.86760  131.68190
 8966.50000    2.62030    5.94400    0.01420    0.05700    0.16990  125.86650   72.80720  131.00870
 8967.00000    2.62850    5.94300    0.01400    0.05550    0.16140  124.03730   72.53440  128.68260
 8967.50000    2.63460    5.94190    0.01380    0.05100    0.15360  119.52000   71.97980  125.98080
 8968.00000    2.63580    5.94090    0.01360    0.04650    0.14420  107.73070   70.36660  121.40070
 8968.50000    2.63450    5.93980    0.01340    0.04810    0.12960   92.39180   68.04000  117.19630
 8969.00000    2.62890    5.93880    0.01320    0.04990    0.11910   85.83300   67.23090  115.39610
 8969.50000    2.62290    5.95280    0.01310    0.05200    0.11370   83.57220   66.91690  114.12180
 8970.00000    2.61680    5.95180    0.01290    0.05510    0.11290   86.74240   67.23450  114.19990
 8970.50000    2.61070    5.96580    0.00970    0.05930    0.11560   89.45950   67.32630  115.06540
 8971.00000    2.60460    5.96470    0.00950    0.06500    0.12590   89.68740   67.10240  116.48500
 8971.50000    2.59850    5.96370    0.00940    0.06900    0.12800   87.88030   66.87940  116.61360
 8972.00000    2.59250    6.00930    0.00920    0.07230    0.12260   85.84630   66.56590  116.39120
 8972.50000    2.58640    6.16200    0.01200    0.07540    0.11840   83.35980   66.34240  116.54440
 8973.00000    2.58030    6.32650    0.01180    0.07780    0.12020   83.58830   66.38920  117.29860
 8973.50000    2.57500    6.42610    0.01160    0.07990    0.13110   88.11540   66.70630  118.80420
 8974.00000    2.57240    6.44040    0.01150    0.08210    0.14610   97.01660   67.25190  121.43680
 8974.50000    2.57310    6.43910    0.01430    0.08400    0.16360  103.57450   68.09560  122.56590
 8975.00000    2.58870    6.34770    0.01410    0.08370    0.17350  104.18540   69.06160  121.36750
 8975.50000    2.60860    6.22620    0.01390    0.06980    0.16780   97.17460   69.01120  119.64240
 8976.00000    2.63280    6.02940    0.01680    0.05330    0.15550   91.52080   68.51740  117.69200
 8976.50000    2.63840    5.92290    0.01660    0.04370    0.14260   88.12930   67.66330  117.01870
 8977.00000    2.64110    5.92190    0.01640    0.04250    0.12460   85.86910   66.76420  117.25970
 8977.50000    2.64100    5.92080    0.01620    0.04400    0.11800   86.55000   66.40560  117.77670
 8978.00000    2.63960    5.91980    0.01900    0.04380    0.11740   88.36220   66.90290  117.70450
 8978.50000    2.63790    5.90370    0.01890    0.04290    0.11860   87.68570   67.31010  117.48200
 8979.00000    2.63550    5.90260    0.01830    0.04590    0.11960   85.87800   67.53710  117.18440
 8979.50000    2.63240    5.90160    0.01550    0.04810    0.11450   85.42720   67.80910  116.73660
 8980.00000    2.63110    5.91590    0.01530    0.04870    0.11270   89.72860   67.27030  116.66370
 8980.50000    2.63140    5.91460    0.01210    0.04870    0.11420   94.93440   66.50630  116.96790
 8981.00000    2.64500    5.91350    0.01500    0.04780    0.12390   94.48240   66.59930  118.39830
 8981.50000    2.66260    5.91250    0.01470    0.04430    0.13290   92.43390   67.15840  120.05420
 8982.00000    2.66740    5.91140    0.01460    0.03260    0.14410   93.49390   67.89700  123.21260
 8982.50000    2.66630    5.91040    0.01440    0.02540    0.15880  100.14750   69.53190  127.68180
 8983.00000    2.64560    5.90930    0.01420    0.02720    0.16670  112.36690   71.83090  137.36080
 8983.50000    2.63550    5.90830    0.01710    0.03810    0.17600  123.00260   75.07600  147.48970
 8984.00000    2.63020    5.90720    0.01690    0.04740    0.18210  133.18580   77.64530  149.07040
 8984.50000    2.62840    5.90600    0.01970    0.04950    0.20390  137.71300   79.49390  148.92300
 8985.00000    2.62560    5.90490    0.01950    0.05080    0.21270  135.67900   79.99120  147.87410
 8985.50000    2.62410    5.90390    0.01930    0.05200    0.21550  132.51380   79.22720  146.07390
 8986.00000    2.63960    5.90280    0.02210    0.05230    0.21170  130.70600   78.23800  143.14680
 8986.50000    2.65880    5.90180    0.02200    0.04550    0.20440  129.35080   76.84330  141.27140
 8987.00000    2.67810    5.90080    0.02180    0.02440    0.17710  123.24440   73.96220  138.19400
 8987.50000    2.67290    5.89970    0.02460    0.01960    0.14670  113.51820   69.81990  131.88580
 8988.00000    2.64960    5.89870    0.02440    0.02480    0.11600   96.55200   67.74960  125.05180
 8988.50000    2.64220    5.89760    0.03030    0.03680    0.10760   96.10180   68.75740  126.65660
 8989.00000    2.64430    5.89660    0.03310    0.04200    0.10830  108.61850   69.71710  128.18870
 8989.50000    2.64670    5.89560    0.03290    0.03900    0.11310  119.69430   71.13370  129.49420
 8990.00000    2.64550    5.89450    0.03270    0.03870    0.12030  119.45700   72.21650  129.87200
 8990.50000    2.63600    5.90880    0.02950    0.04200    0.12820  111.29010   71.45250  127.09580
 8991.00000    2.62580    5.90750    0.02630    0.04630    0.13240  100.52040   70.41830  123.34220
 8991.50000    2.61940    5.90640    0.01720    0.05500    0.13210   92.04540   69.24890  121.91770
 8992.00000    2.62390    5.90540    0.01400    0.05690    0.13090   92.93930   68.89030  121.54500
 8992.50000    2.62980    5.91940    0.01380    0.05450    0.12770   94.05950   68.75650  121.32180
 8993.00000    2.63510    5.91840    0.01360    0.04880    0.12440   94.50360   69.02900  122.37730
 8993.50000    2.63750    5.93240    0.01650    0.04400    0.12080   94.26360   69.12080  123.88290
 8994.00000    2.63990    5.93130    0.01930    0.04160    0.12560   95.60990   69.16760  126.51540
 8994.50000    2.64330    5.93030    0.01910    0.04020    0.13860  100.12370   70.11540  128.72730
 8995.00000    2.64660    5.94430    0.01890    0.03960    0.16070  105.99500   71.46850  130.72880
 8995.50000    2.65570    5.94300    0.01870    0.03840    0.17540  112.09250   72.93050  133.58730
 8996.00000    2.66210    5.94200    0.01850    0.03420    0.18470  117.05880   74.47760  137.42200
 8996.50000    2.66480    5.94090    0.01840    0.02970    0.18970  125.33710   75.28910  139.98120
 8997.00000    2.66430    5.93990    0.01520    0.02890    0.19820  130.00810   76.20570  141.55980
 8997.50000    2.65580    5.93890    0.01500    0.03290    0.20340  126.29880   76.56790  141.88290
 8998.00000    2.64300    5.93780    0.01480    0.03910    0.20130  120.17910   76.02910  140.73930
 8998.50000    2.63040    5.93680    0.01160    0.05060    0.18990  119.71830   75.22010  138.26320
 8999.00000    2.62420    5.93570    0.00850    0.05210    0.18690  125.13440   74.99660  137.68990
 8999.50000    2.63140    5.93470    0.00830    0.04700    0.19230  128.96940   74.81820  138.26900
