~Version ---------------------------------------------------
VERS.   2.0 : CWLS log ASCII Standard -VERSION 2.0
WRAP.    NO : One line per depth step
DLM . SPACE : Column Data Section Delimiter
~Well ------------------------------------------------------
STRT .F                  200.0 : START DEPTH
STOP .F                10059.0 : STOP DEPTH
STEP .F                    0.5 : STEP
NULL .                -9999.25 : NULL VALUE
COMP .                         : COMPANY
WELL .                         : WELL
FLD  .                         : FIELD
LOC  .                         : LOCATION
PROV .                         : PROVINCE
CNTY .                         : COUNTY
STAT .                         : STATE
CTRY .                         : COUNTRY
SRVC .                         : SERVICE COMPANY
DATE .                         : DATE
UWI  .                         : UNIQUE WELL ID
API  .                         : API NUMBER
SLAT .WGS84 0.7014593352653016 : SURFACE LATITUDE
SLON .WGS84  6.726548007735005 : SURFACE LONGITUDE
DATUM.F                2734.42 : DEPTH DATUM ELEV
~Curve Information -----------------------------------------
DEPT.F     : 
RHOB.G/C3  : BULK DENSITY
CALD.IN    : CALIPER FROM DENSITY LOG
DRHO.G/C3  : DENSITY CORRECTION
DPHI.DEC   : DENSITY POROSITY LIMESTONE
NPHI.DEC   : NEUTRON POROSITY LIMESTONE
GRS .GAPI  : GAMMA RAY FROM SONIC LOG
DTCO.US/F  : COMPRESSIONAL-WAVE INTERVAL TRANSIT TIME ACOUSTIC SLOWNESS
DTSM.US/F  : SHEAR-WAVE INTERVAL TRANSIT TIME DELTA-T
~Params ----------------------------------------------------
~Other -----------------------------------------------------
~ASCII -----------------------------------------------------
# ...
 7920.00000    2.52550    7.02410    0.18530    0.11490    0.22240  108.55270   77.59840  149.46600
 7920.50000    2.51920    7.05360    0.18210    0.12840    0.24200  112.39050   80.17490  150.74850
 7921.00000    2.48700    7.21870    0.17900    0.15610    0.26100  115.32670   82.52560  151.80520
 7921.50000    2.44470    7.85120    0.17280    0.17540    0.27060  113.96080   81.53550  153.99060
 7922.00000    2.40620    8.22980    0.17870    0.18800    0.26850  110.56050   80.81630  153.16210
 7922.50000    2.38940    8.39310    0.17550    0.20070    0.26100  107.16010   80.68400  149.18320
 7923.00000    2.38640    8.45340    0.17540    0.20280    0.23570  106.70260   81.43420  146.71280
 7923.50000    2.38380    8.46570    0.16920    0.20310    0.21530  110.31420   82.65940  145.05070
 7924.00000    2.39040    8.43490    0.16010    0.19560    0.21980  112.11740   83.31260  143.39870
 7924.50000    2.41040    8.40420    0.15090    0.18420    0.23310  111.43200   83.72200  142.04670
 7925.00000    2.43510    8.28310    0.14170    0.16650    0.24420  110.29410   84.58210  144.38350
 7925.50000    2.46500    8.05660    0.13260    0.15300    0.24170  109.60860   84.13460  147.17090
 7926.00000    2.49490    7.72470    0.13540    0.12980    0.23110  111.21320   82.78330  148.75430
 7926.50000    2.52250    7.42290    0.13530    0.09160    0.22830  112.12410   82.10920  147.70420
 7927.00000    2.55690    7.43730    0.13510    0.06280    0.23530  112.52980   81.79630  146.12740
 7927.50000    2.59910    7.43670    0.13500    0.04870    0.23890  112.52150   80.89650  144.77640
 7928.00000    2.63520    7.43610    0.12880    0.04750    0.23350  112.28850   80.04180  143.50050
 7928.50000    2.61320    7.14940    0.12260    0.05620    0.22690  112.05560   80.49640  144.78300
 7929.00000    2.59930    6.55670    0.11050    0.06950    0.21970  111.37020   81.13150  145.61400
 7929.50000    2.58340    6.33230    0.10430    0.08270    0.21760  111.13720   81.04430  145.91830
 7930.00000    2.56830    6.27210    0.09820    0.08940    0.22330  112.26180   80.55080  143.69490
 7930.50000    2.57030    6.24340    0.08000    0.07700    0.22870  114.06500   79.42530  140.85830
 7931.00000    2.62140    6.24270    0.05580    0.06470    0.23480  116.09460   78.18190  138.47940
 7931.50000    2.62650    6.22700    0.03770    0.04970    0.22520  115.86160   75.76970  137.35400
 7932.00000    2.64320    6.22640    0.03150    0.04190    0.20620  114.72370   75.04010  135.59100
 7932.50000    2.64880    6.19570    0.02540    0.03920    0.18910  114.26450   74.87790  135.25390
 7933.00000    2.64390    6.19510    0.02520    0.04140    0.17500  117.19900   74.88180  136.03620
 7933.50000    2.63790    6.19450    0.02210    0.04200    0.16630  120.59670   74.74950  136.31480
 7934.00000    2.63930    6.20910    0.02190    0.04290    0.16210  121.25810   74.70670  136.69430
 7934.50000    2.64610    6.25350    0.02480    0.04170    0.17050  120.44670   74.93630  139.48170
 7935.00000    2.65560    6.28320    0.02770    0.03330    0.17590  116.49190   75.30060  141.40050
 7935.50000    2.66190    6.29770    0.03950    0.03030    0.17780  116.48520   75.98090  142.62910
 7936.00000    2.65660    6.29690    0.05740    0.03660    0.17690  117.83600   78.19620  143.70570
 7936.50000    2.64150    6.28130    0.06620    0.04900    0.18710  123.25910   79.10230  144.68720
 7937.00000    2.62520    6.26560    0.06910    0.05680    0.20430  126.41990   79.82770  146.12010
 7937.50000    2.62460    6.23490    0.06890    0.05170    0.22350  128.22310   80.37260  146.42360
 7938.00000    2.64550    6.21930    0.06580    0.04000    0.22900  129.34770   80.55630  145.14860
 7938.50000    2.64250    6.21870    0.05940    0.03760    0.22440  129.11480   79.97250  144.70050
 7939.00000    2.62270    6.20300    0.05050    0.04640    0.22680  126.16690   79.20760  145.08000
 7939.50000    2.60800    6.17230    0.04680    0.05990    0.23250  124.35020   79.39870  145.15780
 7940.00000    2.60010    6.15660    0.04410    0.06600    0.23140  123.44030   80.34920  144.56000
 7940.50000    2.59710    6.15600    0.04700    0.06960    0.21640  126.59930   80.12120  143.88610
 7941.00000    2.59560    6.17050    0.04990    0.06990    0.20680  130.89130   79.08590  143.28750
 7941.50000    2.60760    6.16980    0.05270    0.06270    0.20890  131.56330   78.72710  142.91400
 7942.00000    2.62700    6.16920    0.05250    0.05340    0.20980  130.40740   79.49850  142.46110
 7942.50000    2.63320    6.16860    0.06140    0.04740    0.20740  128.81240   80.40450  141.94310
 7943.00000    2.61810    6.16800    0.07030    0.05340    0.20420  128.60180   80.90420  143.15120
 7943.50000    2.61430    6.16740    0.07610    0.05950    0.20090  129.04790   80.99760  144.13270
 7944.00000    2.61810    6.16680    0.08200    0.05590    0.20750  129.03950   81.18130  143.75980
 7944.50000    2.62950    6.16620    0.09380    0.04900    0.21110  127.67540   81.31910  142.55920
 7945.00000    2.63910    6.16560    0.09070    0.04540    0.21290  121.56010   79.96860  140.07940
 7945.50000    2.63610    6.14990    0.07250    0.04690    0.21170  118.43490   77.80470  136.54630
 7946.00000    2.63510    6.13430    0.05430    0.04500    0.20850  116.21730   75.64070  134.29230
 7946.50000    2.64150    6.10360    0.03020    0.03910    0.20220  114.75210   75.19240  131.21060
 7947.00000    2.64950    6.08790    0.02100    0.03400    0.18620  115.19790   74.78920  128.50510
 7947.50000    2.65540    6.05720    0.01490    0.03190    0.17690  115.64540   73.97250  126.92830
 7948.00000    2.65860    6.04150    0.01170    0.03470    0.17090  118.12570   73.11270  125.47770
 7948.50000    2.65480    6.02590    0.01160    0.03980    0.16670  122.19150   72.99270  126.18250
 7949.00000    2.64340    6.02530    0.01140    0.04760    0.16550  125.35220   73.40290  126.18590
 7949.50000    2.63000    6.02470    0.00830    0.05220    0.16650  127.15540   73.76720  126.18920
 7950.00000    2.62450    6.02410    0.00810    0.05370    0.17130  127.60290   74.33230  126.20520
 7950.50000    2.62850    6.02310    0.00340    0.04980    0.18090  124.88760   74.58370  126.27190
 7951.00000    2.63710    6.02230    0.00190    0.04500    0.18220  114.02230   74.81080  123.64170
 7951.50000    2.64050    6.02140    0.00780    0.04320    0.17800  104.06540   74.54120  121.91440
 7952.00000    2.63290    6.02050    0.01380    0.04680    0.17080   87.77360   78.19980  121.61590
 7952.50000    2.62210    5.97440    0.01370    0.05410    0.15420   72.61300   91.15820  122.89920
 7953.00000    2.61100    5.95620    0.01360    0.06160    0.11370   64.23970   99.28590  124.93410
 7953.50000    2.59680    5.92720    0.01050    0.06490    0.09110   58.80760  100.50620  130.65610
 7954.00000    2.58260    5.91130    0.00740    0.07100    0.07910   55.18550  100.91350  138.40960
 7954.50000    2.56840    5.91040    0.00730    0.08060    0.05870   52.24210   98.66360  131.94190
 7955.00000    2.55250    5.92460    0.00720    0.09360    0.05420   51.53860   87.82410  119.68030
 7955.50000    2.54080    5.92370    0.00710    0.10560    0.05210   50.12060   71.12110  103.58190
 7956.00000    2.53130    5.92280    0.01000    0.11220    0.05060   45.67380   67.60100  103.28340
 7956.50000    2.52620    5.93720    0.00990    0.11560    0.05130   43.86160   67.87320  103.21150
 7957.00000    2.52460    5.93610    0.00980    0.11680    0.05410   43.40690   67.24250  103.21570
 7957.50000    2.52910    5.93520    0.00670    0.11250    0.05610   43.40470   66.60890  102.99320
 7958.00000    2.53910    5.91930    0.01270    0.10820    0.05420   43.40250   65.86260  102.69560
 7958.50000    2.55070    5.90330    0.01860    0.10270    0.04980   43.62700   64.62830  102.39790
 7959.00000    2.56360    5.90240    0.02450    0.09280    0.04650   44.30300   63.41060  102.62700
 7959.50000    2.58050    5.88630    0.02140    0.07930    0.04510   44.30080   62.68960  103.30750
