~Version ---------------------------------------------------
VERS.   2.0 : CWLS log ASCII Standard -VERSION 2.0
WRAP.    NO : One line per depth step
DLM . SPACE : Column Data Section Delimiter
~Well ------------------------------------------------------
STRT .F                 9850.0 : START DEPTH
STOP .F                15347.5 : STOP DEPTH
STEP .F                    0.5 : STEP
NULL .                -9999.25 : NULL VALUE
COMP .                         : COMPANY
WELL .                         : WELL
FLD  .                         : FIELD
LOC  .                         : LOCATION
PROV .                         : PROVINCE
CNTY .                         : COUNTY
STAT .                         : STATE
CTRY .                         : COUNTRY
SRVC .                         : SERVICE COMPANY
DATE .                         : DATE
UWI  .                         : UNIQUE WELL ID
API  .                         : API NUMBER
SLAT .WGS84 0.5943569076805026 : SURFACE LATITUDE
SLON .WGS84  6.228333573710998 : SURFACE LONGITUDE
DATUM.F                2250.99 : DEPTH DATUM ELEV
~Curve Information -----------------------------------------
DEPT.F     : 
CALD.IN    : CALIPER FROM DENSITY LOG
DRHO.G/C3  : DENSITY CORRECTION
PEF .B/E   : PHOTOELECTRIC FACTOR
NPHI.DEC   : NEUTRON POROSITY LIMESTONE
DPHI.DEC   : DENSITY POROSITY LIMESTONE
TEND.LBS   : TENSION FORM DENSITY LOG
TENS.LBS   : TENSION FROM SONIC
GRS .GAPI  : GAMMA RAY FROM SONIC LOG
DT  .US/F  : DELTA TIME
DTCO.US/F  : COMPRESSIONAL-WAVE INTERVAL TRANSIT TIME ACOUSTIC SLOWNESS
DTSM.US/F  : SHEAR-WAVE INTERVAL TRANSIT TIME DELTA-T
DTST.US/F  : SHEAR-WAVE INTERVAL TRANSIT TIME
~Params ----------------------------------------------------
~Other -----------------------------------------------------
~ASCII -----------------------------------------------------
# ...
 13098.00000    7.16780   -0.00460    3.32830    0.00850    0.02950 4581.89260 4606.72410   21.84480   51.70800   49.93980   85.17460   -9999.25
 13098.50000    7.16690   -0.00470    3.32830    0.00850    0.02950 4581.31490 4577.32710   21.22000   51.70900   49.98690   85.00280   -9999.25
 13099.00000    7.16600   -0.00470    3.35870    0.00790    0.02950 4580.73580 4578.13720   20.65160   51.70990   50.54220   85.00690   -9999.25
 13099.50000    7.16510   -0.00480    3.35870    0.00800    0.02890 4550.12790 4578.85790   20.08560   51.71100   50.54220   85.01180   -9999.25
 13100.00000    7.16420   -0.00330    3.41950    0.00800    0.02890 4519.52000 4579.57910   20.66090   51.60410   50.55460   85.03960   -9999.25
 13100.50000    7.16320   -0.00490    3.48640    0.00800    0.02810 4516.60840 4626.63180   22.70170   51.55030   50.63110   85.11940   -9999.25
 13101.00000    7.16230   -0.00490    3.64050    0.00860    0.02770 4488.86130 4640.84080   23.06980   51.49640   50.70750   85.19920   -9999.25
 13101.50000    7.16150   -0.00490    3.76610    0.00850    0.02740 4458.54200 4641.44140   23.43840   51.44670   50.78400   85.27890   -9999.25
 13102.00000    7.16060   -0.00650    3.81400    0.00800    0.02720 4548.34180 4672.07230   24.18130   51.46710   50.84940   85.63820   -9999.25
 13102.50000    7.15970   -0.00650    3.69070    0.00860    0.03200 4608.11280 4702.80660   25.30020   51.56370   50.85090   85.94470   -9999.25
 13103.00000    7.15880   -0.00660    3.51960    0.00860    0.03560 4577.77780 4703.38920   26.44000   51.95840   50.85240   86.25120   -9999.25
 13103.50000    7.15790   -0.00660    3.28250    0.00890    0.03260 4577.47750 4703.97270   27.97920   52.32970   50.55270   86.25550   -9999.25
 13104.00000    7.15700   -0.00660    3.18850    0.01020    0.03140 4577.17720 4704.55470   29.57420   52.44680   50.55450   86.56200   -9999.25
 13104.50000    7.15610   -0.00670    3.20530    0.01170    0.03080 4606.95410 4705.13720   30.90170   52.31680   50.55590   86.26430   -9999.25
 13105.00000    7.15520   -0.00670    3.26590    0.01290    0.03020 4636.69480 4705.72070   29.94060   51.99710   50.55740   85.96650   -9999.25
 13105.50000    7.15430   -0.00670    3.32660    0.01110    0.02660 4636.33590 4676.27290   28.38840   51.62950   50.25760   85.91230   -9999.25
 13106.00000    7.15340   -0.00680    3.38720    0.00930    0.02280 4636.03610 4676.87600   26.97930   51.46310   49.95790   85.67310   -9999.25
 13106.50000    7.15250   -0.00680    3.44790    0.00930    0.01800 4635.68070 4677.47710   26.36640   51.37480   49.95930   85.67820   -9999.25
 13107.00000    7.15160   -0.00690    3.47810    0.00930    0.01570 4605.36080 4678.07810   26.35890   51.28650   49.65960   85.68280   -9999.25
 13107.50000    7.15070   -0.00690    3.57060    0.00940    0.01620 4575.04100 4686.42770   26.35140   51.19820   49.66110   85.98940   -9999.25
 13108.00000    7.14990   -0.00690    3.59940    0.00940    0.02150 4574.75150 4709.30960   26.71920   51.20010   49.66270   86.29700   -9999.25
 13108.50000    7.14900   -0.00700    3.52690    0.00880    0.02640 4544.43120 4721.29200   27.46250   51.20190   49.66420   86.60340   -9999.25
 13109.00000    7.14810   -0.00700    3.44710    0.00870    0.02490 4514.11230 4727.22070   28.20480   51.29380   49.66570   86.60780   -9999.25
 13109.50000    7.14720   -0.00700    3.44700    0.00880    0.02280 4513.81400 4711.11130   27.82210   51.38560   49.66720   86.61220   -9999.25
 13110.00000    7.14630   -0.00560    3.43470    0.00880    0.02550 4513.51320 4711.71140   27.06410   51.56760   49.66870   86.61650   -9999.25
 13110.50000    7.14540   -0.00410    3.34110    0.00940    0.02800 4549.53960 4712.42040   26.30600   51.65950   49.67050   86.17100   -9999.25
 13111.00000    7.14450   -0.00410    3.26170    0.00940    0.02920 4573.01370 4713.00290   25.92340   51.75140   49.67190   86.02100   -9999.25
 13111.50000    7.14360   -0.00270    3.17280    0.00980    0.02440 4572.67240 4713.58640   25.91590   51.75320   49.67320   85.72330   -9999.25
 13112.00000    7.14270   -0.00120    3.08140    0.01070    0.02080 4602.40230 4714.16890   26.32310   51.75500   49.67470   85.66420   -9999.25
 13112.50000    7.14180   -0.00120    2.99010    0.01010    0.01840 4632.13180 4684.72070   27.46450   51.66640   49.67620   85.12780   -9999.25
 13113.00000    7.14090   -0.00130    2.99000    0.01010    0.02020 4648.97460 4685.30320   27.77110   51.57810   49.67770   85.02160   -9999.25
 13113.50000    7.14000   -0.00130    3.14180    0.00950    0.02340 4661.56150 4685.88670   27.28040   51.61560   49.67920   84.83540   -9999.25
 13114.00000    7.13910   -0.00140    3.26320    0.00950    0.02820 4631.19040 4686.48630   27.00450   51.71220   49.68070   84.53780   -9999.25
 13114.50000    7.13820   -0.00140    3.26220    0.00950    0.03070 4630.90090 4657.02150   27.67810   51.85410   49.68230   84.54320   -9999.25
 13115.00000    7.13730   -0.00290    3.26880    0.00890    0.03020 4600.58060 4657.65770   28.49100   51.90520   49.38230   84.54680   -9999.25
 13115.50000    7.13640   -0.00300    3.35910    0.00900    0.02930 4600.29150 4658.25830   27.53450   51.94810   49.38400   84.55190   -9999.25
 13116.00000    7.13550   -0.00260    3.46680    0.00960    0.03120 4599.63330 4658.85890   25.84680   51.94990   49.38550   84.55620   -9999.25
 13116.50000    7.13460   -0.00150    3.56640    0.00960    0.03640 4569.66990 4659.45950   24.71340   51.86150   49.38710   84.56060   -9999.25
 13117.00000    7.13370   -0.00160    3.36080    0.00960    0.03900 4569.36910 4660.05960   23.20460   51.77320   49.38880   84.56500   -9999.25
 13117.50000    7.13280   -0.00160    3.23180    0.00960    0.03400 4569.06930 4690.69040   22.82200   51.68470   49.03730   84.56950   -9999.25
 13118.00000    7.13200    0.00140    3.29360    0.00960    0.02940 4559.52880 4691.29100   23.56540   51.59640   48.88250   84.52750   -9999.25
 13118.50000    7.13380    0.00430    3.35300    0.00960    0.02760 4538.43800 4692.00440   25.05960   51.59830   48.66480   84.27590   -9999.25
 13119.00000    7.13530    0.00430    3.32250    0.00960    0.02820 4508.10840 4692.58640   25.42790   51.50990   48.49100   84.28100   -9999.25
 13119.50000    7.13680    0.00420    3.20070    0.00900    0.03060 4539.41850 4693.16890   25.41740   51.51170   48.49250   83.98250   -9999.25
 13120.00000    7.13830    0.00420    3.07900    0.00910    0.03240 4597.53960 4663.66410   24.63650   51.42340   48.49400   83.98790   -9999.25
 13120.50000    7.13990    0.00420    3.13970    0.00910    0.03300 4657.30960 4664.30470   24.23240   51.42520   48.49550   83.99240   -9999.25
 13121.00000    7.14140    0.00560    3.20030    0.00910    0.03480 4657.02000 4664.88720   23.52100   51.42700   48.49700   83.99780   -9999.25
 13121.50000    7.14290    0.00710    3.23130    0.00910    0.03730 4656.73000 4665.46920   23.13810   51.40860   48.49850   84.00150   -9999.25
 13122.00000    7.14450    0.01010    3.32160    0.00970    0.04030 4626.41110 4666.06540   23.50710   51.34030   48.50000   84.00650   -9999.25
 13122.50000    7.14600    0.01180    3.31680    0.00970    0.04010 4596.09080 4666.66700   24.14820   51.34230   48.50150   84.01090   -9999.25
 13123.00000    7.14750    0.01340    3.26050    0.00910    0.03280 4595.79540 4637.18700   24.99250   51.34410   48.66150   84.31720   -9999.25
 13123.50000    7.14910    0.01780    3.26910    0.00910    0.02710 4565.46530 4637.83740   25.54280   51.34590   48.80600   84.32170   -9999.25
 13124.00000    7.15060    0.02200    3.32100    0.00910    0.02530 4565.16550 4638.43850   25.72820   51.34770   48.80720   84.62840   -9999.25
 13124.50000    7.15210    0.02130    3.33390    0.00980    0.02590 4564.86470 4639.03860   25.34390   51.34950   48.80870   84.63290   -9999.25
 13125.00000    7.15360    0.01820    3.33580    0.00980    0.02560 4564.56450 4639.63960   24.96120   51.35140   48.81040   84.63750   -9999.25
 13125.50000    7.15520    0.01590    3.27280    0.00980    0.02530 4594.35300 4640.24020   24.57860   51.44360   48.81170   84.94410   -9999.25
