~Version ---------------------------------------------------
VERS.   2.0 : CWLS log ASCII Standard -VERSION 2.0
WRAP.    NO : One line per depth step
DLM . SPACE : Column Data Section Delimiter
~Well ------------------------------------------------------
STRT .F                 9850.0 : START DEPTH
STOP .F                15347.5 : STOP DEPTH
STEP .F                    0.5 : STEP
NULL .                -9999.25 : NULL VALUE
COMP .                         : COMPANY
WELL .                         : WELL
FLD  .                         : FIELD
LOC  .                         : LOCATION
PROV .                         : PROVINCE
CNTY .                         : COUNTY
STAT .                         : STATE
CTRY .                         : COUNTRY
SRVC .                         : SERVICE COMPANY
DATE .                         : DATE
UWI  .                         : UNIQUE WELL ID
API  .                         : API NUMBER
SLAT .WGS84 0.5943569076805026 : SURFACE LATITUDE
SLON .WGS84  6.228333573710998 : SURFACE LONGITUDE
DATUM.F                2250.99 : DEPTH DATUM ELEV
~Curve Information -----------------------------------------
DEPT.F     : 
CALD.IN    : CALIPER FROM DENSITY LOG
DRHO.G/C3  : DENSITY CORRECTION
PEF .B/E   : PHOTOELECTRIC FACTOR
NPHI.DEC   : NEUTRON POROSITY LIMESTONE
DPHI.DEC   : DENSITY POROSITY LIMESTONE
TEND.LBS   : TENSION FORM DENSITY LOG
TENS.LBS   : TENSION FROM SONIC
GRS .GAPI  : GAMMA RAY FROM SONIC LOG
DT  .US/F  : DELTA TIME
DTCO.US/F  : COMPRESSIONAL-WAVE INTERVAL TRANSIT TIME ACOUSTIC SLOWNESS
DTSM.US/F  : SHEAR-WAVE INTERVAL TRANSIT TIME DELTA-T
DTST.US/F  : SHEAR-WAVE INTERVAL TRANSIT TIME
~Params ----------------------------------------------------
~Other -----------------------------------------------------
~ASCII -----------------------------------------------------
# ...
 12734.00000    7.24300    0.06500    2.89240    0.00020    0.03590 4539.33890 4619.83840   21.16900   52.28290   50.10450   82.50150   -9999.25
 12734.50000    7.25340    0.04840    2.89220    0.00020    0.03980 4509.15920 4631.88570   23.21510   52.37340   49.77560   82.20250   -9999.25
 12735.00000    7.27160    0.03640    2.83130    0.00020    0.05060 4509.00930 4650.16110   20.96500   52.46980   49.44790   82.20540   -9999.25
 12735.50000    7.27100    0.02730    2.76830    0.00020    0.06430 4508.85890 4650.30710   18.71460   52.56540   49.01580   81.90620   -9999.25
 12736.00000    7.27040    0.02580    2.67500    0.00020    0.06790 4508.70900 4635.75150   16.46420   52.73510   48.71030   81.90940   -9999.25
 12736.50000    7.26970    0.03660    2.60580    0.00080    0.05910 4478.50100 4620.56930   14.96450   52.75620   48.40470   81.60990   -9999.25
 12737.00000    7.26920    0.04420    2.52680    0.00080    0.05370 4448.32520 4620.72020   14.59080   52.82610   48.09910   81.52160   -9999.25
 12737.50000    7.26860    0.04690    2.56710    0.00020    0.05000 4418.14990 4620.87060   14.59280   52.82660   47.79360   81.31370   -9999.25
 12738.00000    7.29790    0.03960    2.62980    0.00020    0.05400 4418.00440 4621.02050   14.97000   52.73690   47.48790   81.01510   -9999.25
 12738.50000    7.32720    0.02760    2.72070    0.00020    0.05820 4417.85890 4621.17090   18.01710   52.69760   47.45160   81.01810   -9999.25
 12739.00000    7.32650    0.02180    2.97210    0.00020    0.06120 4447.74760 4621.32420   21.07470   52.69220   47.47930   81.02170   -9999.25
 12739.50000    7.32600    0.01560    3.49860    0.00080    0.06150 4447.59720 4621.47120   23.34240   52.73830   47.47440   81.62890   -9999.25
 12740.00000    7.32540    0.01090    3.74160    0.00080    0.05640 4447.44780 4621.62160   24.88800   52.55860   47.46990   82.53820   -9999.25
 12740.50000    7.32090    0.00630    3.83270    0.00080    0.05400 4447.29740 4621.77150   25.86500   51.74830   47.88970   83.44740   -9999.25
 12741.00000    7.29430    0.00420    3.92370    0.00140    0.04840 4447.14700 4621.92190   23.89530   51.02800   48.51020   84.35670   -9999.25
 12741.50000    7.29370    0.01090    4.04510    0.00140    0.04340 4484.74510 4622.07180   21.69920   50.75820   49.13060   85.26590   -9999.25
 12742.00000    7.28360    0.01090    4.01460    0.00140    0.04010 4536.96000 4622.25000   19.91760   50.57840   50.16180   86.18130   -9999.25
 12742.50000    7.26270    0.00940    3.80170    0.00140    0.04130 4566.84470 4622.39600   19.11600   50.39870   50.15750   86.81060   -9999.25
 12743.00000    7.26210    0.00790    3.64950    0.00140    0.03990 4536.63620 4622.54200   18.94600   50.39910   50.15310   87.08760   -9999.25
 12743.50000    7.26150    0.00790    3.74060    0.00140    0.03810 4536.48630 4622.68800   19.87090   50.48960   49.84760   87.09060   -9999.25
 12744.00000    7.26090    0.00790    3.78920    0.00200    0.03170 4536.33590 4622.83450   23.62640   50.67460   49.54200   87.00070   -9999.25
 12744.50000    7.26020    0.00790    3.91650    0.00200    0.02800 4536.15920 4622.98050   27.38200   51.03830   49.23640   86.68010   -9999.25
 12745.00000    7.25960    0.00800    4.06440    0.00200    0.03410 4536.01420 4623.12650   29.63610   51.21170   48.93070   86.35970   -9999.25
 12745.50000    7.25900    0.01090    4.20810    0.00260    0.03830 4535.86870 4593.24270   31.13940   51.21220   48.92620   86.19640   -9999.25
 12746.00000    7.25850    0.01120    4.16950    0.00200    0.03950 4505.69290 4593.39360   29.63970   51.16990   48.62050   85.89730   -9999.25
 12746.50000    7.25790    0.01280    3.91790    0.00140    0.03950 4475.51760 4593.54350   25.51240   50.91650   48.61600   85.29660   -9999.25
 12747.00000    7.25730    0.01400    3.52670    0.00140    0.03830 4445.34180 4563.65090   21.00980   50.94320   48.61140   84.99740   -9999.25
 12747.50000    7.25670    0.01400    3.22260    0.00140    0.03590 4445.19530 4557.05960   18.38400   50.97970   48.74470   84.69820   -9999.25
 12748.00000    7.25610    0.01250    2.91850    0.00140    0.03730 4447.45700 4533.91360   18.80050   51.16540   49.22560   84.39900   -9999.25
 12748.50000    7.25550    0.01100    2.88800    0.00140    0.04400 4504.96530 4534.08400   19.57420   51.30500   50.40430   84.09970   -9999.25
 12749.00000    7.25490    0.01100    2.97900    0.00140    0.04980 4504.80470 4522.53560   20.26650   51.44610   51.30350   84.09540   -9999.25
 12749.50000    7.26240    0.01100    3.34360    0.00140    0.05420 4496.54150 4504.35400   19.68500   51.57620   51.60040   83.80350   -9999.25
 12750.00000    7.28370    0.01250    3.49540    0.00140    0.05450 4444.44430 4504.50440   19.01900   51.57660   51.89720   83.80660   -9999.25
 12750.50000    7.31300    0.01100    3.40210    0.00200    0.05390 4444.29440 4521.29790   18.24900   51.48690   52.19430   83.88180   -9999.25
 12751.00000    7.31220    0.01100    3.41210    0.00210    0.05250 4457.94820 4534.86330   18.02180   51.39730   52.18970   84.20780   -9999.25
 12751.50000    7.31160    0.00800    3.50110    0.00260    0.04860 4519.79540 4534.98490   18.21210   51.21760   51.52820   84.83700   -9999.25
 12752.00000    7.31100    0.00650    3.49480    0.00230    0.03940 4533.93360 4545.92870   18.98730   51.12800   50.03200   85.32930   -9999.25
 12752.50000    7.31030    0.00650    3.49470    0.00140    0.03700 4533.75830 4565.31490   20.65540   51.03830   49.16460   85.79220   -9999.25
 12753.00000    7.30980    0.00960    3.40950    0.00140    0.03690 4533.61280 4565.47750   22.15870   50.85860   50.23470   85.94020   -9999.25
 12753.50000    7.30920    0.01100    3.37080    0.00140    0.03940 4533.46680 4565.62400   21.40980   50.58870   51.06970   85.94310   -9999.25
 12754.00000    7.30860    0.01110    3.51050    0.00140    0.04000 4533.32180 4565.77000   18.78400   50.58920   51.56020   85.94600   -9999.25
 12754.50000    7.30800    0.01110    3.49400    0.00140    0.03880 4503.14600 4565.91600   16.53360   50.60300   51.40210   85.94890   -9999.25
 12755.00000    7.30750    0.01110    3.52430    0.00140    0.03700 4503.00050 4566.06590   15.40920   50.69820   50.47200   85.95180   -9999.25
 12755.50000    7.30690    0.01110    3.61530    0.00200    0.03640 4471.97510 4573.86230   15.78650   50.88360   49.73870   85.65260   -9999.25
 12756.00000    7.30630    0.01110    3.97990    0.00260    0.03560 4442.64260 4588.24950   16.16370   51.04140   48.83070   85.35340   -9999.25
 12756.50000    7.30570    0.01110    4.07100    0.00320    0.03360 4442.49270 4596.54640   15.79010   50.91940   48.22400   85.35650   -9999.25
 12757.00000    7.30510    0.01050    4.07080    0.00380    0.03220 4479.03220 4596.69680   14.99310   50.64490   47.91840   85.05720   -9999.25
 12757.50000    7.30450    0.00930    3.97950    0.00380    0.03420 4502.27290 4596.84670   14.59840   50.55040   47.61290   85.06040   -9999.25
 12758.00000    7.30390    0.00620    3.46260    0.00440    0.03570 4532.15720 4596.99710   13.91870   50.54940   47.90970   85.06340   -9999.25
 12758.50000    7.30330    0.00400    3.52330    0.00500    0.03830 4519.68020 4597.14700   13.92080   50.64480   48.20660   85.06650   -9999.25
 12759.00000    7.30270    0.00060    3.49270    0.00500    0.04120 4487.57080 4597.29740   14.43070   50.68390   48.55810   85.06950   -9999.25
 12759.50000    7.30210   -0.00090    3.88980    0.00440    0.04180 4441.59130 4605.64840   15.35820   50.68430   48.87770   85.07250   -9999.25
 12760.00000    7.30140   -0.00090    4.11040    0.00380    0.04360 4471.44190 4627.62740   15.45360   50.50460   49.19720   85.07550   -9999.25
 12760.50000    7.30080    0.00060    4.13060    0.00380    0.04420 4531.35690 4634.33060   14.28710   50.05460   49.51620   85.07900   -9999.25
 12761.00000    7.30020    0.00360    3.84850    0.00320    0.04540 4531.21090 4657.97900   12.96230   50.23520   49.83550   85.08190   -9999.25
 12761.50000    7.29960    0.00510    3.76750    0.00320    0.04300 4531.06590 4658.10840   12.80590   50.41580   49.98640   85.08490   -9999.25
