~Version ---------------------------------------------------
VERS.   2.0 : CWLS log ASCII Standard -VERSION 2.0
WRAP.    NO : One line per depth step
DLM . SPACE : Column Data Section Delimiter
~Well ------------------------------------------------------
STRT .F                 9850.0 : START DEPTH
STOP .F                15347.5 : STOP DEPTH
STEP .F                    0.5 : STEP
NULL .                -9999.25 : NULL VALUE
COMP .                         : COMPANY
WELL .                         : WELL
FLD  .                         : FIELD
LOC  .                         : LOCATION
PROV .                         : PROVINCE
CNTY .                         : COUNTY
STAT .                         : STATE
CTRY .                         : COUNTRY
SRVC .                         : SERVICE COMPANY
DATE .                         : DATE
UWI  .                         : UNIQUE WELL ID
API  .                         : API NUMBER
SLAT .WGS84 0.5943569076805026 : SURFACE LATITUDE
SLON .WGS84  6.228333573710998 : SURFACE LONGITUDE
DATUM.F                2250.99 : DEPTH DATUM ELEV
~Curve Information -----------------------------------------
DEPT.F     : 
CALD.IN    : CALIPER FROM DENSITY LOG
DRHO.G/C3  : DENSITY CORRECTION
PEF .B/E   : PHOTOELECTRIC FACTOR
NPHI.DEC   : NEUTRON POROSITY LIMESTONE
DPHI.DEC   : DENSITY POROSITY LIMESTONE
TEND.LBS   : TENSION FORM DENSITY LOG
TENS.LBS   : TENSION FROM SONIC
GRS .GAPI  : GAMMA RAY FROM SONIC LOG
DT  .US/F  : DELTA TIME
DTCO.US/F  : COMPRESSIONAL-WAVE INTERVAL TRANSIT TIME ACOUSTIC SLOWNESS
DTSM.US/F  : SHEAR-WAVE INTERVAL TRANSIT TIME DELTA-T
DTST.US/F  : SHEAR-WAVE INTERVAL TRANSIT TIME
~Params ----------------------------------------------------
~Other -----------------------------------------------------
~ASCII -----------------------------------------------------
# ...
 15086.00000    7.09550    0.00610    3.36220    0.01250   -0.03090 5491.61720 5394.57670   26.66900   47.27500   46.41570   85.39510  182.44870
 15086.50000    7.09480    0.00610    3.42290    0.01160   -0.03570 5491.11960 5394.43120   28.59050   47.59560   46.42350   85.72970  182.13820
 15087.00000    7.09400    0.00630    3.46960    0.01040   -0.04050 5490.68510 5424.31640   30.13970   47.90470   46.12960   86.24810  181.94010
 15087.50000    7.08460    0.00910    3.59760    0.01010   -0.04230 5460.31200 5454.20120   31.06290   47.63530   46.13690   86.25570  182.25830
 15088.00000    7.06270    0.00950    3.63540    0.00990   -0.04170 5399.99710 5454.90190   30.23360   47.18570   45.84300   85.96070  182.27190
 15088.50000    7.06190    0.01410    3.44030    0.01190   -0.04300 5399.55130 5483.94090   27.72810   46.82620   45.90310   85.96970  182.59020
 15089.00000    7.06120    0.01930    3.31580    0.01250   -0.04570 5395.34420 5513.82570   27.35180   46.64690   46.23130   85.88020  182.90540
 15089.50000    7.06040    0.02400    3.23640    0.01430   -0.05380 5368.75540 5520.68700   33.29880   46.73790   46.46840   85.98420  182.91850
 15090.00000    7.05960    0.02870    3.17680    0.01490   -0.05490 5398.26170 5543.56540   39.67660   47.10490   46.77710   86.29410  182.93160
 15090.50000    7.05880    0.03310    3.08500    0.01620   -0.04930 5467.69580 5543.39360   41.92520   47.55920   46.91460   87.51170  182.34050
 15091.00000    7.05810    0.03460    3.05420    0.01740   -0.04710 5553.64550 5543.24370   41.54620   47.73150   47.54460   88.72930  182.05150
 15091.50000    7.05740    0.03310    2.96250    0.01740   -0.04950 5650.61720 5543.09330   40.79180   47.71170   47.70330   89.64450  182.08330
 15092.00000    7.02680    0.03310    3.02320    0.01740   -0.05620 5619.56400 5525.74850   40.03740   47.64310   47.71220   89.30890  182.38070
 15092.50000    7.02610    0.03310    3.17530    0.01660   -0.06090 5515.63570 5482.70700   39.28300   47.85670   47.71950   88.62450  182.39430
 15093.00000    7.02540    0.03300    3.26770    0.01500   -0.05910 5485.26120 5482.56200   38.12740   47.78710   47.42560   87.76600  182.71000
 15093.50000    7.02460    0.02990    3.35760    0.01440   -0.05130 5514.76760 5452.38620   37.34870   47.51190   47.13170   87.03610  182.72360
 15094.00000    7.02390    0.02680    3.35240    0.01440   -0.03930 5604.15380 5452.24120   37.01950   47.18700   46.83730   86.22290  182.60630
 15094.50000    7.02310    0.02340    3.31960    0.01440   -0.03330 5513.89990 5449.55960   37.11570   47.10720   46.24270   85.60270  182.44860
 15095.00000    7.02240    0.01710    3.32630    0.01440   -0.03210 5483.52590 5451.95210   37.88840   47.01800   46.24990   85.28500  182.46220
 15095.50000    7.02160    0.01440    3.33720    0.01440   -0.03520 5393.26320 5451.80180   38.80950   47.19920   45.95600   84.86510  182.17370
 15096.00000    7.03440    0.01120    3.34270    0.01380   -0.04010 5362.87450 5481.69090   38.90560   47.29020   45.66210   84.56880  181.88690
 15096.50000    7.05000    0.00880    3.26370    0.01440   -0.04230 5332.48540 5481.53170   37.15210   47.20090   45.67020   84.57710  181.90000
 15097.00000    7.04910    0.01270    3.15490    0.01440   -0.04170 5332.03560 5511.43020   33.99330   46.93140   45.67770   85.18950  182.21530
 15097.50000    7.04840    0.01480    3.05030    0.01440   -0.04190 5361.59520 5520.98780   33.61430   47.02250   45.68520   85.80200  182.53050
 15098.00000    7.04770    0.01480    3.20240    0.01510   -0.04230 5391.10210 5553.00780   34.73680   47.18690   45.69280   86.12300  182.55360
 15098.50000    7.04690    0.01480    3.29360    0.01620   -0.04250 5404.26610 5571.02100   36.61000   47.42720   46.00150   86.45520  183.22770
 15099.00000    7.04620    0.01330    3.29330    0.01690   -0.04380 5479.94040 5570.87110   38.48320   47.61410   46.00900   86.73220  184.13660
 15099.50000    7.04550    0.01030    3.29300    0.01610   -0.04650 5509.43070 5570.69140   40.73190   47.74700   46.31920   86.73980  184.01780
 15100.00000    7.04480    0.00870    3.29270    0.01510   -0.04830 5568.86230 5562.40670   42.22970   47.71470   46.40540   86.71910  183.00180
 15100.50000    7.04400    0.00510    3.35550    0.01450   -0.04650 5508.47510 5537.07760   42.69730   47.61290   46.66160   86.55040  182.48900
 15101.00000    6.98420    0.00350    3.41430    0.01450   -0.04280 5508.04200 5509.57130   43.35590   47.46340   46.94030   86.44780  182.02110
 15101.50000    6.98370    0.00260    3.53610    0.01450   -0.03920 5507.60740 5479.10790   43.73120   47.29860   46.34370   86.75200  182.03470
 15102.00000    6.98320    0.00260    3.53810    0.01510   -0.03500 5507.17380 5478.67380   42.60510   47.17900   46.04830   86.45080  182.35290
 15102.50000    6.98280    0.00260    3.41390    0.01630   -0.03440 5446.85640 5448.19870   41.10360   47.08200   46.06640   85.54460  182.36600
 15103.00000    6.98230    0.00560    3.32020    0.01880   -0.03740 5385.56100 5447.74800   41.57620   47.02970   46.99920   85.57310  182.07550
 15103.50000    6.98190    0.00710    3.28350    0.02070   -0.03920 5384.98240 5477.37400   42.98050   46.99250   47.57230   86.20060  182.09010
 15104.00000    6.98150    0.01010    3.20000    0.02260   -0.03390 5384.40480 5506.97020   42.39450   47.03070   47.49870   86.45690  182.10310
 15104.50000    6.98070    0.01460    3.20800    0.02430   -0.02620 5383.82620 5547.67190   40.19110   47.21130   46.87910   86.36810  182.11630
 15105.00000    6.94830    0.02060    3.30130    0.02470   -0.02050 5384.80270 5579.61620   36.90890   47.30180   46.38550   85.85450  183.38970
 15105.50000    6.92040    0.02660    3.35200    0.02270   -0.02240 5442.54980 5595.64550   33.38940   47.48250   46.84030   85.85630  184.56040
 15106.00000    6.92000    0.02970    3.36810    0.01940   -0.03300 5471.91260 5625.14010   29.46700   47.66310   47.17070   86.16040  184.57400
 15106.50000    6.91960    0.03250    3.30490    0.01530   -0.04030 5501.27390 5594.67680   27.59010   47.85140   47.30830   86.33580  184.58760
 15107.00000    6.91910    0.03250    3.22950    0.01270   -0.04590 5500.59860 5594.24270   26.08860   48.03940   47.61530   86.46620  184.90330
 15107.50000    6.91870    0.03180    3.19890    0.01210   -0.04940 5500.00000 5563.77980   25.71320   48.22770   47.62110   86.16490  184.47660
 15108.00000    6.91820    0.02640    3.19880    0.01390   -0.05120 5499.40140 5533.31590   27.96550   48.29540   47.92810   85.86380  184.02420
 15108.50000    6.91770    0.01930    3.19860    0.01510   -0.05180 5468.86230 5502.85300   27.21470   47.91250   47.93390   85.56290  184.04030
 15109.00000    6.91720    0.01310    3.16800    0.01450   -0.05360 5438.21480 5472.37210   25.67960   47.26040   47.93980   85.26180  183.74920
 15109.50000    6.91680    0.01200    3.07640    0.01270   -0.05540 5377.75630 5441.89210   24.12020   46.67530   47.64430   85.26320  183.76440
 15110.00000    6.91640    0.01360    3.13720    0.01150   -0.05540 5377.17870 5441.44140   22.93600   46.31540   47.60040   84.96210  183.77750
 15110.50000    6.91600    0.01430    3.16750    0.01090   -0.04870 5346.65970 5471.08840   22.23150   46.22570   47.35470   85.26630  183.48790
 15111.00000    6.91550    0.01430    3.16740    0.01100   -0.04620 5316.14210 5482.28960   22.59930   46.22620   47.45660   84.96510  182.89730
 15111.50000    6.91510    0.01420    3.19770    0.01300   -0.04170 5345.50340 5514.25340   24.69500   46.31670   47.66870   85.05000  182.30630
 15112.00000    6.91860    0.01270    3.26670    0.01550   -0.03670 5376.42580 5559.75980   27.78920   46.67750   47.67470   85.27080  184.85820
 15112.50000    6.94410    0.01120    3.38050    0.01790   -0.03920 5434.16750 5589.33940   32.12050   47.15040   47.84360   85.82620  185.95920
 15113.00000    6.94360    0.00970    3.50220    0.01730   -0.04210 5397.75100 5618.91940   38.10060   47.69940   47.98910   86.63110  185.80330
 15113.50000    6.97310    0.00810    3.44310    0.01370   -0.04460 5373.05470 5618.42190   39.60210   48.07500   48.29610   87.09080  185.37980
