~Version ---------------------------------------------------
VERS.   2.0 : CWLS log ASCII Standard -VERSION 2.0
WRAP.    NO : One line per depth step
DLM . SPACE : Column Data Section Delimiter
~Well ------------------------------------------------------
STRT .F                 9850.0 : START DEPTH
STOP .F                15347.5 : STOP DEPTH
STEP .F                    0.5 : STEP
NULL .                -9999.25 : NULL VALUE
COMP .                         : COMPANY
WELL .                         : WELL
FLD  .                         : FIELD
LOC  .                         : LOCATION
PROV .                         : PROVINCE
CNTY .                         : COUNTY
STAT .                         : STATE
CTRY .                         : COUNTRY
SRVC .                         : SERVICE COMPANY
DATE .                         : DATE
UWI  .                         : UNIQUE WELL ID
API  .                         : API NUMBER
SLAT .WGS84 0.5943569076805026 : SURFACE LATITUDE
SLON .WGS84  6.228333573710998 : SURFACE LONGITUDE
DATUM.F                2250.99 : DEPTH DATUM ELEV
~Curve Information -----------------------------------------
DEPT.F     : 
CALD.IN    : CALIPER FROM DENSITY LOG
DRHO.G/C3  : DENSITY CORRECTION
PEF .B/E   : PHOTOELECTRIC FACTOR
NPHI.DEC   : NEUTRON POROSITY LIMESTONE
DPHI.DEC   : DENSITY POROSITY LIMESTONE
TEND.LBS   : TENSION FORM DENSITY LOG
TENS.LBS   : TENSION FROM SONIC
GRS .GAPI  : GAMMA RAY FROM SONIC LOG
DT  .US/F  : DELTA TIME
DTCO.US/F  : COMPRESSIONAL-WAVE INTERVAL TRANSIT TIME ACOUSTIC SLOWNESS
DTSM.US/F  : SHEAR-WAVE INTERVAL TRANSIT TIME DELTA-T
DTST.US/F  : SHEAR-WAVE INTERVAL TRANSIT TIME
~Params ----------------------------------------------------
~Other -----------------------------------------------------
~ASCII -----------------------------------------------------
# ...
 14190.00000    6.97610    0.01070    5.04150    0.01790    0.01360 5155.64010 5252.25200   43.49580   51.37840   51.68670   93.07140  183.63020
 14190.50000    6.97510    0.01070    5.08700    0.01750    0.01470 5185.32960 5221.62160   38.23370   51.06390   51.38860   93.07280  183.07960
 14191.00000    7.00410    0.00910    5.07620    0.01930    0.01510 5185.00100 5221.02050   36.72550   51.30220   51.39160   93.07430  184.08320
 14191.50000    7.00280    0.00910    4.96590    0.01870    0.01300 5154.77150 5190.38960   38.22020   51.55160   51.09320   93.37830  184.29260
 14192.00000    7.00180    0.00910    4.93920    0.01810    0.01020 5124.54100 5159.75980   41.73810   51.73940   51.09640   93.68240  184.29560
 14192.50000    7.03040    0.00910    4.96960    0.01810    0.00780 5064.37110 5145.12060   45.07230   51.87840   51.16890   93.68380  184.29860
 14193.00000    7.02940    0.00900    5.00000    0.01930    0.00600 5064.07180 5128.52830   45.70740   51.87940   51.70480   93.69880  184.30220
 14193.50000    7.02840    0.00900    5.03040    0.02110    0.00540 5067.75630 5127.82080   45.21020   51.61000   51.70780   93.98940  184.30510
 14194.00000    7.05720    0.00900    5.06080    0.02900    0.00660 5093.44240 5157.27250   44.79840   51.52070   51.71080   93.99090  184.00640
 14194.50000    7.08610    0.00750    5.12160    0.03140    0.01020 5101.08150 5156.69530   45.10800   51.88200   51.55530   94.29500  184.00930
 14195.00000    7.08510    0.00590    5.02990    0.03320    0.01390 5122.80270 5186.14790   46.08440   52.15320   51.41570   94.29650  183.71040
 14195.50000    7.11390    0.00580    4.90150    0.02880    0.01940 5194.28710 5185.58590   47.17170   52.42430   51.72040   94.60060  183.71340
 14196.00000    7.11280    0.00290    4.81760    0.02570    0.02170 5225.98050 5215.02290   47.27730   52.60540   51.72330   94.60210  183.71640
 14196.50000    7.11180    0.00590    4.92820    0.02210    0.01970 5241.61720 5214.41550   45.65660   52.50350   51.72620   94.60360  183.71950
 14197.00000    7.11070    0.00630    5.04730    0.01780    0.01790 5211.31930 5213.81450   43.77300   52.20820   51.72910   94.60540  183.72250
 14197.50000    7.13970    0.00940    5.18300    0.01420    0.01550 5181.08940 5213.21390   41.88930   51.80860   51.73200   94.60690  183.72550
 14198.00000    7.13850    0.01100    5.34670    0.01190    0.01360 5150.85990 5202.23680   39.99340   51.46230   51.43370   94.30560  183.72850
 14198.50000    7.15110    0.01180    5.34870    0.00980    0.01150 5120.62940 5181.98240   38.04850   51.21880   51.43670   94.00470  183.73150
 14199.00000    7.19610    0.01180    5.53520    0.00850    0.00900 5120.33980 5151.35210   36.41630   51.03300   51.13830   93.70360  183.73450
 14199.50000    7.25460    0.01180    5.60790    0.00710    0.00810 5090.10990 5120.60160   33.30560   50.81010   50.84000   93.70500  183.73810
 14200.00000    7.28350    0.00310    5.45590    0.01100    0.00960 5059.87990 5131.33060   28.84380   50.51890   50.71270   93.40390  183.56060
 14200.50000    7.28310    0.00480    4.98980    0.01480    0.01110 5056.93020 5165.72610   27.28990   50.17560   49.90010   93.40700  183.00190
 14201.00000    7.37220    0.00640    4.74030    0.01610    0.00890 4998.20360 5200.12160   26.77130   49.99080   49.08750   93.41030  182.84470
 14201.50000    7.40160    0.00870    4.63610    0.01610    0.00240 4997.30520 5208.85890   29.67060   50.04690   49.78350   93.41320  183.01410
 14202.00000    7.40120    0.00690    4.83600    0.01400   -0.00070 5026.46290 5225.84520   33.58030   50.60310   50.34920   93.71870  183.15620
 14202.50000    7.43060    0.00410    5.04420    0.01220   -0.00140 5065.40970 5237.98830   36.57970   51.27470   50.57230   94.32680  184.06550
 14203.00000    7.46000    0.00410    5.23510    0.00980    0.00120 5114.54490 5237.47310   37.54230   51.83490   50.57830   94.66550  183.76820
 14203.50000    7.45960    0.00560    5.41150    0.00960    0.00190 5187.35740 5237.03560   34.32020   51.89500   50.58430   94.99310  183.16930
 14204.00000    7.45910    0.00550    5.39040    0.00980    0.00060 5232.33540 5206.56880   31.31350   51.19140   50.59040   95.54610  182.87200
 14204.50000    7.45250    0.00550    5.24600    0.00920   -0.00120 5321.08400 5176.10210   29.80840   50.54280   50.59750   95.44990  182.87640
 14205.00000    7.42840    0.00550    5.15510    0.01040   -0.00360 5350.29930 5145.63480   29.79270   50.27480   50.60330   95.12830  182.88080
 14205.50000    7.41820    0.00540    5.06420    0.00980   -0.00300 5229.52490 5145.19530   31.33430   50.18520   50.60910   94.80680  183.18700
 14206.00000    7.39760    0.00380    5.00370    0.00980   -0.00050 5168.77440 5144.74560   33.65550   50.18570   50.61490   94.48520  183.19160
 14206.50000    7.39720    0.00240    5.00400    0.01170    0.00120 5108.02590 5144.29490   36.23400   50.27620   50.62070   94.04900  183.19610
 14207.00000    7.39670    0.00060    5.00430    0.01360    0.00190 5226.91650 5143.84380   36.54690   50.36670   50.62660   94.05190  183.20060
 14207.50000    7.39630   -0.00060    4.87710    0.01610    0.00320 5226.04790 5173.48000   35.79200   50.63740   50.63250   93.75190  183.20510
 14208.00000    7.39570   -0.00120    4.66680    0.01760    0.00460 5163.21730 5182.62060   36.79940   50.90810   50.63860   93.45230  183.20970
 14208.50000    7.39530   -0.00070    4.56810    0.01900    0.00670 5104.49070 5202.63570   39.39900   51.17880   50.64460   93.45550  183.21420
 14209.00000    7.39490   -0.00070    4.51910    0.02000    0.00420 5103.59230 5202.10250   41.94270   51.26940   50.65060   93.76100  183.21950
 14209.50000    7.39440   -0.00070    4.68120    0.01850   -0.00330 5102.69430 5201.65190   44.63920   51.26980   50.65660   93.76400  183.32800
 14210.00000    7.39400   -0.00080    4.93300    0.01510   -0.00450 5101.79640 5201.20170   38.40020   51.25830   50.66270   93.76700  183.52990
 14210.50000    7.39360   -0.00230    5.08150    0.01220   -0.00120 5100.89790 5200.66990   34.64280   50.98340   50.66870   93.70760  183.53430
 14211.00000    7.36330   -0.00230    5.12830    0.01400    0.00120 5114.00390 5200.23290   33.51300   50.70820   50.67470   93.47010  183.53870
 14211.50000    7.36280   -0.00230    5.06780    0.01580    0.00540 5158.98190 5199.79540   33.88480   50.55080   50.68190   93.47350  183.54300
 14212.00000    7.35920   -0.00240    4.94660    0.01700    0.00780 5157.91020 5199.35890   35.75800   50.67400   50.68670   93.47650  183.54750
 14212.50000    7.33210   -0.00090    5.06840    0.01940    0.00600 5127.10010 5168.89160   39.13270   50.85970   50.69280   93.78220  183.55200
 14213.00000    7.33160   -0.00090    5.28150    0.01940    0.00360 5096.29100 5168.45510   41.00600   51.04540   50.69880   93.95790  183.55660
 14213.50000    7.36110   -0.00080    5.34590    0.01940    0.00360 5065.48100 5168.01760   41.75310   51.23110   50.61550   94.09130  183.56110
 14214.00000    7.36060    0.00070    5.25170    0.01570    0.00610 5184.37350 5197.61080   42.12480   51.27390   50.40970   94.09420  183.96980
 14214.50000    7.36010    0.00210    5.12950    0.01140    0.00790 5213.47310 5197.14790   41.99370   51.18430   50.41570   93.79450  184.47510
 14215.00000    7.38960    0.00200    5.06690    0.00900    0.00780 5212.57470 5226.76660   39.07480   51.09470   50.42170   93.79750  184.47960
 14215.50000    7.38910    0.00050    5.03460    0.00740    0.00780 5179.68460 5226.27590   33.29510   50.82480   50.42770   93.49770  184.01520
 14216.00000    7.38870   -0.00100    4.98790    0.00810    0.00840 5150.89790 5255.92330   30.20360   50.46490   50.62050   93.50070  183.28290
 14216.50000    7.38810   -0.00100    4.90940    0.00980    0.00870 5156.03610 5255.40530   29.18420   50.19510   50.74100   93.20110  183.28720
 14217.00000    7.38770   -0.00110    4.88870    0.00980    0.00900 5179.15770 5254.95560   28.22230   50.01530   50.74700   93.20420  183.29160
 14217.50000    7.38730   -0.00110    4.97720    0.00980    0.00810 5128.16310 5254.50490   27.04700   49.92570   50.75300   93.27740  183.29600
