~Version ---------------------------------------------------
VERS.   2.0 : CWLS log ASCII Standard -VERSION 2.0
WRAP.    NO : One line per depth step
DLM . SPACE : Column Data Section Delimiter
~Well ------------------------------------------------------
STRT .F                 9850.0 : START DEPTH
STOP .F                15347.5 : STOP DEPTH
STEP .F                    0.5 : STEP
NULL .                -9999.25 : NULL VALUE
COMP .                         : COMPANY
WELL .                         : WELL
FLD  .                         : FIELD
LOC  .                         : LOCATION
PROV .                         : PROVINCE
CNTY .                         : COUNTY
STAT .                         : STATE
CTRY .                         : COUNTRY
SRVC .                         : SERVICE COMPANY
DATE .                         : DATE
UWI  .                         : UNIQUE WELL ID
API  .                         : API NUMBER
SLAT .WGS84 0.5943569076805026 : SURFACE LATITUDE
SLON .WGS84  6.228333573710998 : SURFACE LONGITUDE
DATUM.F                2250.99 : DEPTH DATUM ELEV
~Curve Information -----------------------------------------
DEPT.F     : 
CALD.IN    : CALIPER FROM DENSITY LOG
DRHO.G/C3  : DENSITY CORRECTION
PEF .B/E   : PHOTOELECTRIC FACTOR
NPHI.DEC   : NEUTRON POROSITY LIMESTONE
DPHI.DEC   : DENSITY POROSITY LIMESTONE
TEND.LBS   : TENSION FORM DENSITY LOG
TENS.LBS   : TENSION FROM SONIC
GRS .GAPI  : GAMMA RAY FROM SONIC LOG
DT  .US/F  : DELTA TIME
DTCO.US/F  : COMPRESSIONAL-WAVE INTERVAL TRANSIT TIME ACOUSTIC SLOWNESS
DTSM.US/F  : SHEAR-WAVE INTERVAL TRANSIT TIME DELTA-T
DTST.US/F  : SHEAR-WAVE INTERVAL TRANSIT TIME
~Params ----------------------------------------------------
~Other -----------------------------------------------------
~ASCII -----------------------------------------------------
# ...
 13462.00000    8.31390    0.00010    3.91920    0.16970   -0.01240 4951.35110 4917.12650  111.20860   64.62520   64.24510  113.25740   -9999.25
 13462.50000    8.25360    0.00320    3.91340    0.16910   -0.00970 4981.23140 4917.41750  109.70350   64.62840   64.57300  113.26320   -9999.25
 13463.00000    8.19340    0.00560    3.75350    0.17090   -0.00790 4983.13960 4947.74710  108.52510   64.63210   64.74400  113.57120   -9999.25
 13463.50000    8.13310    0.01000    3.73450    0.17220   -0.00610 5010.97070 4948.04790  107.81930   64.63510   65.05420  113.57700   -9999.25
 13464.00000    8.09540    0.01600    3.83530    0.17690   -0.00370 5004.75630 4948.34810  109.46820   64.72830   65.36270  113.88520   -9999.25
 13464.50000    8.07220    0.02190    3.78330    0.17270   -0.00180 4972.63870 4940.65670  111.29130   65.09170   65.37000  113.89120   -9999.25
 13465.00000    8.07160    0.02790    3.72330    0.16710   -0.00060 4920.42040 4918.87060  111.56220   65.54520   65.37730  113.83150   -9999.25
 13465.50000    8.03910    0.04150    3.62700    0.16480   -0.00060 4920.27050 4919.21920  109.22960   66.08880   65.68580  113.21260   -9999.25
 13466.00000    7.97690    0.05200    3.53380    0.16560   -0.00190 4906.07370 4905.53810  107.62470   66.72510   65.69310  112.59370   -9999.25
 13466.50000    7.93860    0.05490    3.36880    0.16990   -0.00440 4843.92630 4889.78960  107.82240   66.81580   65.70040  112.40480   -9999.25
 13467.00000    7.87420    0.05470    3.27750    0.17190   -0.00900 4829.70070 4890.14790  110.04430   66.53480   66.00900  113.00900   -9999.25
 13467.50000    7.81990    0.04520    3.33810    0.17280   -0.00600 4829.55520 4860.40920  113.04370   66.17210   65.98380  113.96300   -9999.25
 13468.00000    7.75760    0.03440    3.42920    0.17100   -0.00540 4829.40970 4860.69970  112.28930   65.87370   65.72230  115.44520   -9999.25
 13468.50000    7.69530    0.02320    3.55060    0.16680   -0.00560 4829.26420 4860.98970  109.65810   65.50540   65.35760  116.05530   -9999.25
 13469.00000    7.63310    0.02760    3.67200    0.16440   -0.00750 4859.14940 4891.31010  106.27600   65.26330   65.13440  115.45690   -9999.25
 13469.50000    7.58850    0.03120    3.94740    0.16450   -0.01250 4859.00390 4891.60110  104.02010   65.03290   65.44290  115.16010   -9999.25
 13470.00000    7.55810    0.03490    4.00610    0.16380   -0.01620 4918.91890 4921.92190  103.64110   64.85590   65.01940  114.86410   -9999.25
 13470.50000    7.52770    0.03960    3.90970    0.16200   -0.01830 4950.85740 4954.31050  104.81210   64.67880   64.25690  114.87020   -9999.25
 13471.00000    7.58680    0.04490    3.84680    0.15960   -0.01680 4978.68850 4982.58300  106.03570   64.41220   63.01940  114.87610   -9999.25
 13471.50000    7.58620    0.05150    3.79290    0.15840   -0.01620 4918.46830 4982.88280  108.80760   64.32480   60.95770  114.75500   -9999.25
 13472.00000    7.61550    0.05240    3.79270    0.16230   -0.01440 4910.32670 4983.18310  113.05900   63.96790   60.56950  111.50040   -9999.25
 13472.50000    7.58510    0.03790    3.79260    0.16880   -0.01010 4888.13770 4983.48340  116.88510   63.61060   61.57470  107.72630   -9999.25
 13473.00000    7.58240    0.02430    3.77750    0.17120   -0.00770 4857.95800 4983.78370  116.45710   63.25330   62.18440  106.44020   -9999.25
 13473.50000    7.51620    0.01520    3.72800    0.17310   -0.00890 4827.77730 4970.03760  115.07670   62.53560   62.49290  106.56160   -9999.25
 13474.00000    7.45800    0.00920    3.64010    0.17410   -0.01550 4827.62740 4954.35400  113.92180   62.17830   62.80140  107.76320   -9999.25
 13474.50000    7.39560    0.00760    3.67040    0.17300   -0.02030 4815.48970 4924.68310  113.36640   62.37510   62.82090  109.94640   -9999.25
 13475.00000    7.37310    0.00450    3.73100    0.17260   -0.02090 4917.39310 4924.97310  112.98740   63.71730   64.07210  111.82540   -9999.25
 13475.50000    7.37250    0.00130    3.76120    0.17390   -0.01840 4917.24800 4895.19480  112.98370   64.79320   64.93220  113.72310   -9999.25
 13476.00000    7.37190   -0.00180    3.76110    0.17900   -0.01510 4887.07230 4865.46530  113.35550   65.51300   65.24100  114.93740   -9999.25
 13476.50000    7.34150   -0.00350    3.76090    0.18800   -0.01170 4796.83740 4865.78520  115.22870   65.92660   65.24850  115.84960   -9999.25
 13477.00000    7.34080   -0.00460    3.75970    0.18830   -0.01010 4796.69190 4836.04540  118.22810   66.36470   65.15200  115.85540   -9999.25
 13477.50000    7.28050   -0.00460    3.63240    0.18560   -0.01170 4796.54640 4866.36620  121.60290   67.05950   64.96090  115.86120   -9999.25
 13478.00000    7.27990   -0.00320    3.47440    0.18380   -0.01330 4856.46140 4896.69630  124.57220   67.57650   64.66870  116.16920   -9999.25
 13478.50000    7.27930   -0.00160    3.32230    0.14710   -0.01360 4890.33200 4900.99270  126.62780   66.89200   64.21220  116.47730   -9999.25
 13479.00000    7.27880    0.00280    3.27390    0.10880   -0.01060 4976.29100 4927.32710  130.64570   66.53420   63.78010  116.06430   -9999.25
 13479.50000    7.27820    0.00270    3.88210    0.06810   -0.00400 4968.13430 4935.61960  131.10090   66.17740   62.88520  113.35990   -9999.25
 13480.00000    7.27760    0.00270    4.31290    0.01000   -0.00220 4915.91600 4957.95750  119.33120   66.00030   59.57930  106.56710   -9999.25
 13480.50000    7.24510    0.00270    4.91250    0.00400   -0.00220 4903.77780 4958.25780   78.78710   65.46280   56.27330  101.09000   -9999.25
 13481.00000    7.21670   -0.00040    4.94320    0.00720   -0.00280 4885.58540 4972.54830   51.38100   61.68210   53.26860   96.01900   -9999.25
 13481.50000    7.18630   -0.00040    4.45850    0.00760    0.00390 4915.46580 4958.85840   31.10710   56.27970   50.26380   92.37620   -9999.25
 13482.00000    7.15580   -0.00050    4.33680    0.00740    0.00810 4915.28610 4959.15920   20.59300   51.77880   48.16270   90.04800   -9999.25
 13482.50000    7.15520   -0.00050    4.45820    0.00620    0.00930 4795.02050 4959.50730   14.95870   49.16920   47.24960   88.73230   -9999.25
 13483.00000    7.15460    0.00120    4.57960    0.00590    0.01240 4794.87550 4929.76860   12.70270   48.54170   46.97240   88.73810   -9999.25
 13483.50000    7.15400    0.00270    4.67070    0.00590    0.01550 4764.69970 4900.02880   12.32360   48.18440   47.63990   88.74390   -9999.25
 13484.00000    7.15340    0.00730    4.60970    0.00590    0.01530 4734.52490 4900.31930   12.69560   48.36760   48.26840   88.74980   -9999.25
 13484.50000    7.15270    0.01240    4.51840    0.00710    0.01320 4734.37940 4870.58060   13.06730   48.55090   48.59750   88.75560   -9999.25
 13485.00000    7.18200    0.01650    4.55180    0.00770    0.00820 4704.20410 4870.87110   13.43900   48.55410   48.81020   88.76150   -9999.25
 13485.50000    7.18140    0.01890    4.67720    0.00830    0.00460 4736.14260 4841.13090   13.43470   48.46690   48.81780   88.76740   -9999.25
 13486.00000    7.18080    0.02030    4.76110    0.00830    0.00160 4767.96000 4845.43750   13.07980   48.37980   48.82530   88.77340   -9999.25
 13486.50000    7.18030    0.02030    4.75360    0.00830    0.00530 4866.01270 4871.77150   12.47660   48.40950   48.83280   88.77950   -9999.25
 13487.00000    7.17970    0.01720    4.65070    0.00830    0.00940 4921.80570 4910.12600   12.67190   48.50840   48.84170   88.78550   -9999.25
 13487.50000    7.17910    0.01420    4.60870    0.00830    0.01300 4943.71780 4972.47220   13.04370   48.56980   48.84900   88.79150   -9999.25
 13488.00000    7.17850    0.01420    4.69610    0.00840    0.01060 4913.51370 5004.78030   13.79080   48.57300   49.45870   88.68870   -9999.25
 13488.50000    7.17790    0.01110    4.72990    0.00840    0.00820 4913.36330 5023.12300   14.16290   48.57610   50.67080   88.50150   -9999.25
 13489.00000    7.17730    0.00810    4.72980    0.00820    0.00280 4913.21340 5007.37500   13.40820   48.48920   51.58170   88.50750   -9999.25
 13489.50000    7.17670    0.00500    4.72960    0.00780   -0.00140 4883.00390 4993.69380   11.90300   48.40230   51.58900   88.51360   -9999.25
