~Version ---------------------------------------------------
VERS.   2.0 : CWLS log ASCII Standard -VERSION 2.0
WRAP.    NO : One line per depth step
DLM . SPACE : Column Data Section Delimiter
~Well ------------------------------------------------------
STRT .F                 9850.0 : START DEPTH
STOP .F                15347.5 : STOP DEPTH
STEP .F                    0.5 : STEP
NULL .                -9999.25 : NULL VALUE
COMP .                         : COMPANY
WELL .                         : WELL
FLD  .                         : FIELD
LOC  .                         : LOCATION
PROV .                         : PROVINCE
CNTY .                         : COUNTY
STAT .                         : STATE
CTRY .                         : COUNTRY
SRVC .                         : SERVICE COMPANY
DATE .                         : DATE
UWI  .                         : UNIQUE WELL ID
API  .                         : API NUMBER
SLAT .WGS84 0.5943569076805026 : SURFACE LATITUDE
SLON .WGS84  6.228333573710998 : SURFACE LONGITUDE
DATUM.F                2250.99 : DEPTH DATUM ELEV
~Curve Information -----------------------------------------
DEPT.F     : 
CALD.IN    : CALIPER FROM DENSITY LOG
DRHO.G/C3  : DENSITY CORRECTION
PEF .B/E   : PHOTOELECTRIC FACTOR
NPHI.DEC   : NEUTRON POROSITY LIMESTONE
DPHI.DEC   : DENSITY POROSITY LIMESTONE
TEND.LBS   : TENSION FORM DENSITY LOG
TENS.LBS   : TENSION FROM SONIC
GRS .GAPI  : GAMMA RAY FROM SONIC LOG
DT  .US/F  : DELTA TIME
DTCO.US/F  : COMPRESSIONAL-WAVE INTERVAL TRANSIT TIME ACOUSTIC SLOWNESS
DTSM.US/F  : SHEAR-WAVE INTERVAL TRANSIT TIME DELTA-T
DTST.US/F  : SHEAR-WAVE INTERVAL TRANSIT TIME
~Params ----------------------------------------------------
~Other -----------------------------------------------------
~ASCII -----------------------------------------------------
# ...
 14722.00000    7.11410    0.04210    3.33150    0.00310   -0.05760 5213.10990 5310.51120   19.75120   44.72440   43.64460   79.98800  184.30780
 14722.50000    7.11480    0.04520    3.44100    0.00380   -0.06190 5242.51510 5280.02930   21.99620   44.81540   43.35090   80.30270  182.76860
 14723.00000    7.11550    0.04770    3.46880    0.00500   -0.06750 5241.89750 5272.07180   23.86580   44.81630   44.26310   80.61560  181.90610
 14723.50000    7.11620    0.04990    3.38950    0.00560   -0.06930 5241.31690 5249.09860   25.36000   45.08740   45.47520   81.53080  182.68880
 14724.00000    7.11690    0.05060    3.33280    0.00620   -0.06390 5246.31640 5248.64840   30.60800   45.82350   46.08490   82.44610  184.41240
 14724.50000    7.11760    0.04910    3.31250    0.00750   -0.05610 5305.11230 5248.19820   40.08340   46.65830   46.99570   83.36880  185.24280
 14725.00000    7.11830    0.04450    3.43070    0.01380   -0.04770 5329.41260 5247.74760   49.96340   47.28200   47.00300   84.00140  185.24890
 14725.50000    7.11890    0.04300    3.66910    0.01630   -0.04230 5288.98440 5264.24950   61.37240   47.63420   47.01050   84.28920  185.25490
 14726.00000    7.11960    0.04440    3.78740    0.01900   -0.03920 5238.32320 5306.82570   64.36260   47.82110   47.01810   83.99870  185.26090
 14726.50000    7.12030    0.04440    3.78540    0.01840   -0.03800 5207.78420 5366.44970   63.84930   47.73160   47.02560   83.92550  185.26800
 14727.00000    7.12100    0.04740    3.69190    0.01550   -0.03740 5224.03420 5396.09570   57.61270   47.36050   46.94530   83.41960  185.27380
 14727.50000    7.12170    0.04730    3.59760    0.01340   -0.04440 5236.52690 5395.60550   47.62760   46.85570   46.62850   83.13250  185.27960
 14728.00000    7.12240    0.04920    3.56340    0.01160   -0.05790 5235.84670 5365.13960   40.07770   46.20960   46.44580   82.84340  185.28550
 14728.50000    7.12160    0.05080    3.52910    0.01040   -0.06460 5235.27100 5364.70210   34.63800   45.63710   46.29900   82.68660  185.29130
 14729.00000    7.12090    0.05320    3.41530    0.00920   -0.06970 5294.57470 5333.99120   30.95230   45.36770   46.15960   82.26720  185.29710
 14729.50000    7.12010    0.05390    3.41340    0.00860   -0.07540 5293.99900 5303.75390   27.89660   45.18840   46.16840   81.97590  185.30320
 14730.00000    7.11940    0.05790    3.41140    0.00800   -0.07890 5293.41310 5303.30320   26.01240   45.18930   45.87350   81.98930  185.30920
 14730.50000    7.11870    0.05820    3.31940    0.00740   -0.07650 5322.78660 5302.85300   25.25440   45.28020   45.88170   82.30220  185.31520
 14731.00000    7.11790    0.05310    3.31710    0.00680   -0.07290 5322.15530 5310.27290   28.25010   45.37120   45.88900   82.91620  185.32130
 14731.50000    7.11720    0.05150    3.31520    0.00620   -0.07280 5351.57470 5332.05270   33.12270   45.55230   45.89620   82.92790  185.32730
 14732.00000    7.11640    0.05000    3.28330    0.00620   -0.07290 5350.89840 5343.15580   36.11840   45.55320   45.90360   83.24100  185.33330
 14732.50000    7.11570    0.05300    3.19130    0.00620   -0.07170 5350.29980 5374.67290   37.23730   45.44290   46.21240   83.25300  185.33940
 14733.00000    7.11490    0.05600    3.15940    0.00620   -0.06990 5349.70070 5390.69040   34.11820   45.26830   46.21990   82.96280  185.34650
 14733.50000    7.11420    0.05890    3.18840    0.00620   -0.07140 5349.10160 5390.23970   31.11630   45.17330   46.22740   82.67330  184.44740
 14734.00000    7.11340    0.06070    3.28780    0.00620   -0.07510 5318.46440 5389.71090   29.63460   44.98860   46.23490   82.59280  183.24650
 14734.50000    7.11270    0.06340    3.43960    0.00620   -0.07850 5347.90430 5389.27490   28.47710   44.92690   46.24250   82.39540  182.04570
 14735.00000    7.11190    0.06480    3.54950    0.00620   -0.08000 5347.25240 5388.83840   27.20170   44.92790   46.25000   82.10840  182.05150
 14735.50000    7.11120    0.06480    3.57040    0.00620   -0.08160 5346.67680 5388.40140   26.16400   44.92880   46.25750   81.96440  182.05730
 14736.00000    7.11040    0.06480    3.38840    0.00620   -0.08010 5256.27980 5357.93510   25.54810   44.92970   45.96530   81.83130  182.06330
 14736.50000    7.10970    0.06470    3.41610    0.00620   -0.07810 5224.17290 5357.49850   25.16520   44.93080   45.97250   81.84540  182.06940
 14737.00000    7.10900    0.06470    3.50420    0.00620   -0.08080 5195.24660 5327.02690   25.15770   44.93170   45.67860   81.85700  182.00950
 14737.50000    7.10820    0.06460    3.62200    0.00630   -0.08110 5237.15670 5326.57620   25.14880   44.93250   45.38460   82.16990  181.77890
 14738.00000    7.10750    0.06460    3.65040    0.00630   -0.07230 5343.79490 5296.09570   24.76610   44.93330   45.09070   82.18150  181.78580
 14738.50000    7.10670    0.06910    3.61830    0.00750   -0.06390 5343.11380 5295.64550   24.38350   44.93430   45.09800   82.49440  181.79190
 14739.00000    7.10600    0.08140    3.61640    0.00770   -0.05250 5342.51560 5265.16460   23.62540   45.02530   44.80400   82.20480  181.79790
 14739.50000    7.14670    0.10830    3.49440    0.00810   -0.05470 5341.91650 5274.88570   23.24280   45.11660   44.81180   81.91530  181.80390
 14740.00000    7.17810    0.13070    3.37240    0.00780   -0.07480 5341.20170 5294.38230   22.86010   45.21300   44.81930   81.88760  181.81090
 14740.50000    7.20950    0.14440    3.34040    0.00650   -0.08990 5340.62600 5337.79880   22.10210   45.30980   44.82680   81.57780  181.81670
 14741.00000    7.22240    0.15380    3.36860    0.00630   -0.09040 5340.04930 5383.48340   23.24180   45.38920   44.83430   81.26800  181.82260
 14741.50000    7.25140    0.15550    3.35970    0.00750   -0.08290 5309.53320 5412.97410   23.58900   45.39010   44.71560   80.95820  181.82840
 14742.00000    7.25070    0.13990    3.30450    0.00810   -0.06490 5279.01660 5412.53710   23.58110   45.36230   44.39940   80.76870  181.83420
 14742.50000    7.24990    0.10790    3.32520    0.00870   -0.05390 5218.56050 5382.07030   23.57360   45.30160   44.25450   81.08430  182.16620
 14743.00000    7.24920    0.07930    3.48820    0.00870   -0.04650 5185.96340 5381.63380   23.67960   45.21260   44.26330   81.39760  183.08710
 14743.50000    7.24850    0.04910    3.73480    0.00870   -0.05130 5093.11960 5351.16700   24.96020   45.30360   44.57180   81.71310  183.36050
 14744.00000    7.25010    0.04310    3.83720    0.00990   -0.05250 4977.24510 5350.73050   26.66000   45.49850   44.88030   82.02600  182.90540
 14744.50000    7.27690    0.04000    3.65480    0.00990   -0.05310 5034.22360 5320.26370   30.09380   45.93620   45.49000   82.03760  181.86330
 14745.00000    7.27610    0.04000    3.50280    0.00920   -0.05610 5238.45020 5318.73440   36.04150   46.38750   45.79840   82.35050  181.44350
 14745.50000    7.27540    0.04160    3.47090    0.00850   -0.06270 5362.48000 5289.33940   40.04360   46.83880   46.10690   82.36210  181.72240
 14746.00000    7.27460    0.04290    3.55910    0.00750   -0.06640 5440.07420 5318.95360   38.53490   47.01990   46.11450   82.67500  181.88230
 14746.50000    7.27390    0.04290    3.61730    0.00810   -0.06760 5453.29350 5318.46830   37.40140   47.02080   46.12200   82.68670  181.88940
 14747.00000    7.27310    0.04180    3.58530    0.00810   -0.06580 5422.66700 5348.11040   36.26800   46.93160   46.12950   83.02680  181.89520
 14747.50000    7.27230    0.03920    3.55330    0.00810   -0.05710 5422.09130 5377.70410   35.51000   46.84090   46.22730   83.40840  181.90110
 14748.00000    7.27150    0.03520    3.55140    0.00870   -0.05250 5391.57420 5389.64940   32.49970   46.74590   46.55840   84.29690  181.90690
 14748.50000    7.27080    0.03370    3.54940    0.00860   -0.05270 5361.05860 5406.75680   30.61550   46.65090   46.75450   85.23360  181.91270
 14749.00000    7.27010    0.03370    3.54740    0.00870   -0.05400 5330.53910 5436.33590   30.62470   46.57470   46.76200   85.86830  181.91850
 14749.50000    7.26940    0.03510    3.52000    0.00870   -0.05490 5329.94040 5465.82960   32.18080   46.57570   46.46840   86.50400  181.92460
