~Version ---------------------------------------------------
VERS.   2.0 : CWLS log ASCII Standard -VERSION 2.0
WRAP.    NO : One line per depth step
DLM . SPACE : Column Data Section Delimiter
~Well ------------------------------------------------------
STRT .F                 9850.0 : START DEPTH
STOP .F                15347.5 : STOP DEPTH
STEP .F                    0.5 : STEP
NULL .                -9999.25 : NULL VALUE
COMP .                         : COMPANY
WELL .                         : WELL
FLD  .                         : FIELD
LOC  .                         : LOCATION
PROV .                         : PROVINCE
CNTY .                         : COUNTY
STAT .                         : STATE
CTRY .                         : COUNTRY
SRVC .                         : SERVICE COMPANY
DATE .                         : DATE
UWI  .                         : UNIQUE WELL ID
API  .                         : API NUMBER
SLAT .WGS84 0.5943569076805026 : SURFACE LATITUDE
SLON .WGS84  6.228333573710998 : SURFACE LONGITUDE
DATUM.F                2250.99 : DEPTH DATUM ELEV
~Curve Information -----------------------------------------
DEPT.F     : 
CALD.IN    : CALIPER FROM DENSITY LOG
DRHO.G/C3  : DENSITY CORRECTION
PEF .B/E   : PHOTOELECTRIC FACTOR
NPHI.DEC   : NEUTRON POROSITY LIMESTONE
DPHI.DEC   : DENSITY POROSITY LIMESTONE
TEND.LBS   : TENSION FORM DENSITY LOG
TENS.LBS   : TENSION FROM SONIC
GRS .GAPI  : GAMMA RAY FROM SONIC LOG
DT  .US/F  : DELTA TIME
DTCO.US/F  : COMPRESSIONAL-WAVE INTERVAL TRANSIT TIME ACOUSTIC SLOWNESS
DTSM.US/F  : SHEAR-WAVE INTERVAL TRANSIT TIME DELTA-T
DTST.US/F  : SHEAR-WAVE INTERVAL TRANSIT TIME
~Params ----------------------------------------------------
~Other -----------------------------------------------------
~ASCII -----------------------------------------------------
# ...
 13266.00000    7.56300    0.07650    5.47350    0.00410   -0.00370 4729.72950 4789.78960   17.92260   49.00900   49.72890   92.50190   -9999.25
 13266.50000    7.56240    0.08250    5.53630    0.00480   -0.00420 4729.72950 4789.78960   13.92950   48.95010   49.73690   93.06950   -9999.25
 13267.00000    7.56180    0.08550    5.59910    0.00540   -0.00410 4729.72950 4779.02980   12.09410   48.91890   49.44280   93.37760   -9999.25
 13267.50000    7.56120    0.08850    5.58740    0.00540   -0.00320 4729.72950 4759.75980   11.18220   48.90860   49.45030   93.38370   -9999.25
 13268.00000    7.56060    0.09150    5.54100    0.00600   -0.00160 4729.72950 4759.75980    9.99780   48.86190   49.15640   93.08650   -9999.25
 13268.50000    7.56000    0.09300    5.43510    0.00600   -0.00030 4759.75980 4759.75980    8.81130   48.82880   49.16420   93.09370   -9999.25
 13269.00000    7.55940    0.09480    5.28300    0.00540   -0.00120 4759.75980 4759.75980    8.62850   48.73870   49.14500   93.09970   -9999.25
 13269.50000    7.55870    0.09790    5.16120    0.00540   -0.00360 4759.75980 4759.75980   11.04070   48.73870   48.87710   93.10570   -9999.25
 13270.00000    7.55810    0.09890    5.28270    0.00560   -0.01140 4759.75980 4742.21680   12.53670   48.73870   48.88550   93.11290   -9999.25
 13270.50000    7.55750    0.09180    5.37370    0.00690   -0.01080 4759.75980 4729.72950   12.90730   48.73870   48.78380   93.11870   -9999.25
 13271.00000    7.55700    0.07930    5.40400    0.00810   -0.00420 4759.75980 4720.24660   12.52580   48.73870   48.59940   93.12460   -9999.25
 13271.50000    7.55640    0.05960    5.46460    0.00970    0.01390 4759.75980 4699.69970   11.76970   48.73870   48.75270   93.13040   -9999.25
 13272.00000    7.55580    0.02810    5.28210    0.00970    0.02530 4729.72950 4699.69970   11.01350   48.73870   48.91570   93.13630   -9999.25
 13272.50000    7.55690    0.02610    5.39130    0.00910    0.02770 4729.72950 4699.69970    9.83920   48.73870   49.22580   93.44430   -9999.25
 13273.00000    7.58450    0.03100    5.62280    0.00850    0.02230 4699.69970 4699.69970    8.75000   48.73870   48.93190   93.45140   -9999.25
 13273.50000    7.58390    0.04010    5.76410    0.00790    0.00890 4699.69970 4699.69970    8.36950   48.82880   48.93920   93.75830   -9999.25
 13274.00000    7.58330    0.05210    5.88940    0.00610    0.00010 4715.32520 4699.69970    8.84060   48.86790   48.64460   93.76440   -9999.25
 13274.50000    7.58270    0.06270    5.81970    0.00560   -0.00060 4729.72950 4699.69970    9.61300   48.96490   48.65260   93.46770   -9999.25
 13275.00000    7.58210    0.07060    5.70670    0.00500    0.00240 4729.72950 4699.69970   10.38490   49.06150   48.96120   93.17150   -9999.25
 13275.50000    7.55160    0.08110    5.55930    0.01060    0.00150 4729.72950 4699.69970   11.53180   49.18920   48.96840   92.87520   -9999.25
 13276.00000    7.50450    0.08950    5.25040    0.01550   -0.00130 4729.72950 4699.69970   13.05590   49.27930   49.27710   92.88220   -9999.25
 13276.50000    7.46080    0.09910    5.12870    0.02060   -0.00720 4729.72950 4699.69970   15.09100   49.36940   49.28460   93.01980   -9999.25
 13277.00000    7.43040    0.10160    5.00700    0.02600   -0.01390 4729.72950 4699.69970   16.96240   49.63960   49.59340   93.34680   -9999.25
 13277.50000    7.39990    0.09510    4.88520    0.02970   -0.02350 4729.72950 4699.69970   19.58460   50.00000   49.66890   93.80660   -9999.25
 13278.00000    7.39940    0.07050    5.09790    0.02700   -0.02110 4729.72950 4699.69970   26.71130   50.54930   49.90960   93.81380   -9999.25
 13278.50000    7.42870    0.04840    5.09770    0.02520   -0.00600 4729.72950 4699.69970   33.83800   51.01070   50.02160   93.51760   -9999.25
 13279.00000    7.42810    0.03080    5.00450    0.02790   -0.00360 4729.72950 4699.69970   40.96470   51.29410   50.22590   93.52340   -9999.25
 13279.50000    7.45730    0.01870    4.97580    0.03510   -0.00910 4729.72950 4699.69970   40.93630   51.44140   50.37560   93.22720   -9999.25
 13280.00000    7.45670    0.01110    5.00610    0.03880   -0.01090 4729.72950 4699.69970   40.20270   51.32140   50.70250   92.93090   -9999.25
 13280.50000    7.46230    0.00660    5.04450    0.03520   -0.01200 4729.72950 4699.69970   40.27460   51.04420   51.15360   92.93680   -9999.25
 13281.00000    7.51530    0.00960    5.18940    0.03220   -0.00780 4729.72950 4699.69970   43.27040   50.94430   51.16090   92.94260   -9999.25
 13281.50000    7.54460    0.00800    5.51680    0.02440   -0.00260 4699.69970 4699.69970   52.52610   51.28180   51.46940   93.55290   -9999.25
 13282.00000    7.57370    0.00640    5.56830    0.00860    0.01710 4699.69970 4690.01370   60.64800   51.80180   51.77790   93.89620   -9999.25
 13282.50000    7.58780    0.00350    5.42470    0.00330    0.02740 4699.69970 4669.66940   62.13780   52.16220   52.08640   94.22260   -9999.25
 13283.00000    7.63220    0.00350    5.30910    0.00190    0.03670 4729.72950 4669.66940   59.33590   52.25230   52.39490   94.47730   -9999.25
 13283.50000    7.66150    0.00540    5.40010    0.00100    0.03190 4759.75980 4669.66940   44.66680   52.07210   52.40220   94.48340   -9999.25
 13284.00000    7.69070    0.00850    5.43040    0.00100    0.02710 4759.75980 4669.66940   28.89560   51.44140   52.10830   94.38100   -9999.25
 13284.50000    7.69010    0.01380    5.43020    0.00100    0.02530 4761.58350 4669.66940   15.37660   50.53510   51.78810   94.19340   -9999.25
 13285.00000    7.68950    0.01540    5.43010    0.00100    0.02770 4789.78960 4669.66940    8.61450   49.88690   51.47610   94.19940   -9999.25
 13285.50000    7.68890    0.00490    5.39950    0.00040    0.03190 4783.58890 4669.66940    7.85830   49.44520   51.22660   94.20540   -9999.25
 13286.00000    7.68840    0.00180    5.42980    0.00100    0.03010 4759.75980 4669.66940    7.10210   49.27930   51.23490   93.90940   -9999.25
 13286.50000    7.68980    0.00030    5.46000    0.00100    0.02770 4729.72950 4669.66940    7.09650   49.27930   51.24250   93.91640   -9999.25
 13287.00000    7.72100    0.00180    5.35210    0.00100    0.02960 4729.72950 4699.69970    7.14100   49.27930   51.13100   93.92220   -9999.25
 13287.50000    7.74630    0.00180    5.00380    0.00110    0.02930 4729.72950 4699.69970    7.46110   49.27930   50.51670   93.92810   -9999.25
 13288.00000    7.74570    0.00330    4.88210    0.00110    0.02720 4729.72950 4699.69970    7.83110   49.27930   50.20540   93.63140   -9999.25
 13288.50000    7.74510    0.00320    4.98500    0.00110    0.02220 4729.72950 4699.69970    7.82470   49.18920   49.89290   93.63770   -9999.25
 13289.00000    7.77430    0.00330    5.00330    0.00110    0.01350 4699.69970 4699.69970    8.19440   49.09910   49.47290   93.64360   -9999.25
 13289.50000    7.77370    0.00620    4.94240    0.00250    0.00990 4639.63960 4699.69970    8.18880   49.00900   49.17920   93.33530   -9999.25
 13290.00000    7.77310    0.00620    5.00300    0.00380    0.00900 4609.60940 4699.69970    8.18320   48.91890   48.88550   92.74890   -9999.25
 13290.50000    7.80230    0.00660    5.12440    0.00470    0.00780 4609.60940 4699.69970    8.55190   48.73870   48.59190   92.45270   -9999.25
 13291.00000    7.80170    0.00970    5.54980    0.00390    0.01020 4640.12400 4699.69970    8.54650   48.55860   47.99740   92.45920   -9999.25
 13291.50000    7.83100    0.01350    5.76240    0.00330    0.01510 4702.25290 4699.69970    8.91650   48.55340   47.40230   92.16230   -9999.25
 13292.00000    7.86030    0.01900    5.97510    0.00270    0.02050 4759.75980 4699.69970    8.91100   48.37840   47.10480   92.16920   -9999.25
 13292.50000    7.88950    0.02710    5.91410    0.00330    0.02590 4759.75980 4699.69970    9.28100   48.26970   46.81450   92.17520   -9999.25
 13293.00000    7.91880    0.03310    5.76140    0.00540    0.03550 4759.75980 4699.69970    9.27550   48.19820   46.82230   91.87920   -9999.25
 13293.50000    8.00980    0.03910    5.62670    0.00840    0.03470 4771.18800 4699.69970    9.64550   48.19820   46.82980   91.88520   -9999.25
