~Version ---------------------------------------------------
VERS.   2.0 : CWLS log ASCII Standard -VERSION 2.0
WRAP.    NO : One line per depth step
DLM . SPACE : Column Data Section Delimiter
~Well ------------------------------------------------------
STRT .F                 9850.0 : START DEPTH
STOP .F                15347.5 : STOP DEPTH
STEP .F                    0.5 : STEP
NULL .                -9999.25 : NULL VALUE
COMP .                         : COMPANY
WELL .                         : WELL
FLD  .                         : FIELD
LOC  .                         : LOCATION
PROV .                         : PROVINCE
CNTY .                         : COUNTY
STAT .                         : STATE
CTRY .                         : COUNTRY
SRVC .                         : SERVICE COMPANY
DATE .                         : DATE
UWI  .                         : UNIQUE WELL ID
API  .                         : API NUMBER
SLAT .WGS84 0.5943569076805026 : SURFACE LATITUDE
SLON .WGS84  6.228333573710998 : SURFACE LONGITUDE
DATUM.F                2250.99 : DEPTH DATUM ELEV
~Curve Information -----------------------------------------
DEPT.F     : 
CALD.IN    : CALIPER FROM DENSITY LOG
DRHO.G/C3  : DENSITY CORRECTION
PEF .B/E   : PHOTOELECTRIC FACTOR
NPHI.DEC   : NEUTRON POROSITY LIMESTONE
DPHI.DEC   : DENSITY POROSITY LIMESTONE
TEND.LBS   : TENSION FORM DENSITY LOG
TENS.LBS   : TENSION FROM SONIC
GRS .GAPI  : GAMMA RAY FROM SONIC LOG
DT  .US/F  : DELTA TIME
DTCO.US/F  : COMPRESSIONAL-WAVE INTERVAL TRANSIT TIME ACOUSTIC SLOWNESS
DTSM.US/F  : SHEAR-WAVE INTERVAL TRANSIT TIME DELTA-T
DTST.US/F  : SHEAR-WAVE INTERVAL TRANSIT TIME
~Params ----------------------------------------------------
~Other -----------------------------------------------------
~ASCII -----------------------------------------------------
# ...
 14918.00000    7.15150    0.01460    3.00760    0.01290   -0.06600 5402.90920 5374.17480   16.19370   45.00710   46.18670   82.06960  185.41180
 14918.50000    7.15500    0.01010    3.07010    0.01110   -0.06910 5402.47460 5373.72410   16.37390   45.10370   46.49250   82.07410  184.98150
 14919.00000    7.21050    0.01000    3.15920    0.01050   -0.06630 5372.09860 5403.37840   16.76810   45.15230   46.49780   82.07870  184.66120
 14919.50000    7.18010    0.01150    3.18940    0.01050   -0.06310 5341.72360 5414.96190   18.43400   45.15280   46.20030   81.78150  184.21960
 14920.00000    7.14970    0.01300    3.18900    0.01050   -0.06430 5341.28810 5432.43210   19.55640   45.15320   46.20530   81.48330  184.22400
 14920.50000    7.13940    0.01440    3.18870    0.01050   -0.06610 5370.79350 5431.98240   20.30410   45.06360   45.90810   81.37480  184.22830
 14921.00000    7.12430    0.01450    3.18840    0.00990   -0.06910 5400.29980 5431.53170   21.05070   45.06400   45.61140   80.88690  184.23270
 14921.50000    7.10930    0.01730    3.18810    0.00990   -0.07330 5398.16020 5431.00490   20.67160   44.97440   45.60490   80.89130  184.53870
 14922.00000    7.10480    0.02030    3.18780    0.00990   -0.07990 5309.58060 5430.56840   19.91720   44.97480   45.31900   80.74920  184.54310
 14922.50000    7.10390    0.02400    3.21790    0.01050   -0.07750 5314.66260 5430.13180   18.78750   44.88510   45.32380   80.29490  184.54750
 14923.00000    7.10320    0.02620    3.27870    0.00990   -0.07510 5405.86720 5429.69380   18.79890   44.79550   45.02650   80.26400  184.51660
 14923.50000    7.10240    0.01900    3.27830    0.00990   -0.07020 5428.06150 5429.25730   19.96340   44.70580   45.03160   80.00110  184.25450
 14924.00000    7.10170    0.01340    3.36950    0.00990   -0.06780 5427.54490 5428.82030   21.07980   44.61620   45.03610   80.00610  184.25940
 14924.50000    7.10100    0.00950    3.39970    0.00930   -0.06530 5427.09570 5427.77290   21.40050   44.61670   45.04070   80.01060  184.16090
 14925.00000    7.10030    0.00800    3.30790    0.00810   -0.06150 5426.64650 5397.89750   20.92600   44.52700   45.04610   80.01510  183.84100
 14925.50000    7.09950    0.00790    3.18570    0.00810   -0.05700 5396.25730 5367.41750   20.15040   44.52750   45.05040   80.01970  183.21900
 14926.00000    7.09880    0.00790    3.06210    0.00810   -0.05280 5365.78660 5360.69530   18.99890   44.57010   45.05480   80.02420  182.76920
 14926.50000    7.12800    0.00780    3.00210    0.00820   -0.05600 5305.47170 5336.48680   18.22230   44.66640   45.05910   80.02950  183.37790
 14927.00000    7.12720    0.01080    3.00720    0.00820   -0.05930 5305.03610 5336.03560   17.80930   44.79920   45.36470   80.03390  184.28720
 14927.50000    7.13370    0.01380    3.03200    0.00880   -0.06200 5304.60110 5365.70170   18.75000   44.88970   45.36900   80.34090  183.98990
 14928.00000    7.16490    0.01980    3.11140    0.00940   -0.06540 5304.16550 5378.72750   18.74550   45.07030   45.37350   80.64780  183.08930
 14928.50000    7.18500    0.02590    3.28670    0.00950   -0.06240 5333.67040 5424.77440   17.61570   45.16090   45.37800   80.95470  182.49030
 14929.00000    7.18410    0.03520    3.41020    0.01020   -0.05870 5393.23490 5441.64060   17.61210   45.25140   45.44500   81.56920  183.10780
 14929.50000    7.16840    0.04420    3.45760    0.01060   -0.05990 5514.58940 5483.85500   17.98380   45.34190   45.68830   82.17400  184.30920
 14930.00000    7.13570    0.05040    3.44000    0.01060   -0.06660 5507.99220 5483.41800   20.98320   45.34230   45.69280   82.48110  183.35850
 14930.50000    7.12190    0.05420    3.36550    0.00970   -0.07200 5445.73140 5513.01120   25.48400   45.34280   45.69730   82.41310  182.50780
 14931.00000    7.09120    0.04850    3.30420    0.00940   -0.07440 5421.25780 5542.60450   28.10800   45.34320   45.70180   82.09080  182.91010
 14931.50000    7.06050    0.04010    3.27340    0.00940   -0.07010 5411.06840 5542.16700   29.61490   45.34370   45.40510   81.77070  183.42230
 14932.00000    7.05980    0.03220    3.18170    0.00940   -0.06050 5390.41890 5541.73050   31.97540   45.34410   45.10840   81.28900  183.14480
 14932.50000    7.05910    0.02370    3.27280    0.00940   -0.06260 5346.57520 5541.29150   35.74460   45.34460   44.81170   80.90890  182.22470
 14933.00000    7.05840    0.01630    3.36400    0.00940   -0.06470 5284.36870 5510.81050   37.17020   45.34500   44.51510   80.39120  182.83340
 14933.50000    7.08760    0.01320    3.42470    0.00820   -0.06170 5321.10300 5506.38040   37.84950   45.25540   44.21860   80.39550  183.74280
 14934.00000    7.08950    0.01320    3.42700    0.00820   -0.05850 5418.56250 5479.87990   37.62220   45.25590   44.22290   80.39990  183.74710
 14934.50000    7.11610    0.01310    3.53420    0.00820   -0.05810 5358.16940 5479.42970   35.66920   45.25640   44.22740   80.40430  182.84650
 14935.00000    7.11530    0.01610    3.77240    0.00830   -0.05780 5357.73390 5478.97950   31.80310   45.25680   43.93040   81.01380  182.24740
 14935.50000    7.11450    0.01760    3.81990    0.00830   -0.05300 5387.23880 5508.64110   28.66230   45.25730   43.93520   81.01820  181.95020
 14936.00000    7.11380    0.01600    3.73740    0.00900   -0.04460 5416.76660 5538.13870   26.54340   45.34780   43.93980   81.34490  181.95470
 14936.50000    7.14310    0.01300    3.63630    0.01030   -0.03580 5416.30810 5537.68800   25.43840   45.43830   44.24550   81.67540  181.95930
 14937.00000    7.14220    0.01290    3.54570    0.01070   -0.03880 5415.86820 5537.23730   25.81020   45.70900   44.38970   82.00560  181.96380
 14937.50000    7.14150    0.01500    3.45030    0.01150   -0.04720 5447.78370 5536.70560   26.93270   46.06980   44.71860   82.24660  181.96830
 14938.00000    7.14060    0.01970    3.29990    0.01130   -0.05680 5509.13720 5536.26760   28.80590   46.34640   45.16350   82.36260  181.97290
 14938.50000    7.13990    0.02530    3.20820    0.01070   -0.06460 5534.32670 5535.83110   29.92840   46.52120   45.77020   82.55830  181.97740
 14939.00000    7.13910    0.03200    3.14690    0.01010   -0.07190 5525.62300 5535.39450   29.17400   46.30570   45.77460   83.02220  181.98190
 14939.50000    7.16830    0.03750    3.26860    0.00950   -0.08150 5473.50290 5504.92720   28.04420   45.95760   46.08010   83.77850  181.98730
 14940.00000    7.16760    0.04210    3.35970    0.00950   -0.08330 5413.17380 5474.46000   27.66520   45.80170   45.78330   84.69060  181.99170
 14940.50000    7.16690    0.04270    3.42040    0.00890   -0.08200 5398.84080 5443.99320   29.16300   46.01840   45.78770   84.99750  181.99600
 14941.00000    7.16620    0.04270    3.51160    0.00830   -0.07920 5382.33540 5443.54390   28.32100   46.16310   45.79220   85.00190  182.00040
 14941.50000    7.16540    0.03810    3.54180    0.00770   -0.07130 5381.79740 5443.09330   26.46140   46.30160   45.79670   85.30890  182.00470
 14942.00000    7.16470    0.03780    3.54150    0.00830   -0.06360 5351.42190 5442.64210   26.14910   46.34420   45.80120   85.31320  182.00910
 14942.50000    7.16390    0.05460    3.54120    0.00960   -0.05910 5350.98580 5472.27540   27.00460   46.34470   45.80570   85.31770  182.02580
 14943.00000    7.16320    0.07860    3.50250    0.01100   -0.05600 5350.55130 5480.93750   27.26790   46.25500   45.81020   85.01940  182.31970
 14943.50000    7.15280    0.09370    3.34880    0.01350   -0.06710 5380.08940 5501.43070   26.73530   46.25550   45.81480   85.02420  182.38170
 14944.00000    7.13170    0.09810    3.07800    0.01500   -0.08280 5409.56050 5530.93120   25.58340   46.16580   45.81930   85.02870  182.63050
 14944.50000    7.13100    0.09740    2.96360    0.01320   -0.08140 5379.18460 5530.48050   24.23480   46.16620   46.12580   85.03330  182.93660
 14945.00000    7.10030    0.07900    2.94560    0.01300   -0.07180 5379.70900 5530.03030   23.49850   46.16670   46.13010   85.16400  183.36790
 14945.50000    7.09960    0.05280    3.12280    0.01260   -0.06400 5471.01070 5499.46480   23.49410   46.16710   46.43570   85.34490  183.69680
