~Version ---------------------------------------------------
VERS.   2.0 : CWLS log ASCII Standard -VERSION 2.0
WRAP.    NO : One line per depth step
DLM . SPACE : Column Data Section Delimiter
~Well ------------------------------------------------------
STRT .F                 9850.0 : START DEPTH
STOP .F                15347.5 : STOP DEPTH
STEP .F                    0.5 : STEP
NULL .                -9999.25 : NULL VALUE
COMP .                         : COMPANY
WELL .                         : WELL
FLD  .                         : FIELD
LOC  .                         : LOCATION
PROV .                         : PROVINCE
CNTY .                         : COUNTY
STAT .                         : STATE
CTRY .                         : COUNTRY
SRVC .                         : SERVICE COMPANY
DATE .                         : DATE
UWI  .                         : UNIQUE WELL ID
API  .                         : API NUMBER
SLAT .WGS84 0.5943569076805026 : SURFACE LATITUDE
SLON .WGS84  6.228333573710998 : SURFACE LONGITUDE
DATUM.F                2250.99 : DEPTH DATUM ELEV
~Curve Information -----------------------------------------
DEPT.F     : 
CALD.IN    : CALIPER FROM DENSITY LOG
DRHO.G/C3  : DENSITY CORRECTION
PEF .B/E   : PHOTOELECTRIC FACTOR
NPHI.DEC   : NEUTRON POROSITY LIMESTONE
DPHI.DEC   : DENSITY POROSITY LIMESTONE
TEND.LBS   : TENSION FORM DENSITY LOG
TENS.LBS   : TENSION FROM SONIC
GRS .GAPI  : GAMMA RAY FROM SONIC LOG
DT  .US/F  : DELTA TIME
DTCO.US/F  : COMPRESSIONAL-WAVE INTERVAL TRANSIT TIME ACOUSTIC SLOWNESS
DTSM.US/F  : SHEAR-WAVE INTERVAL TRANSIT TIME DELTA-T
DTST.US/F  : SHEAR-WAVE INTERVAL TRANSIT TIME
~Params ----------------------------------------------------
~Other -----------------------------------------------------
~ASCII -----------------------------------------------------
# ...
 12902.00000    7.28240    0.03280    3.57270    0.01080    0.03610 4457.64260 4640.24020    8.26880   52.25590   52.25750   86.21680   -9999.25
 12902.50000    7.25220    0.00720    3.05620    0.00890    0.04520 4487.23680 4640.39060    6.83880   52.89170   53.39290   85.59750   -9999.25
 12903.00000    7.25190    0.00420    2.77610    0.00850    0.06040 4550.96340 4610.48140    6.58000   53.53280   53.57430   85.00500   -9999.25
 12903.50000    7.25160    0.00440    2.57050    0.00760    0.07930 4666.54540 4610.66060    6.36880   53.88020   53.10500   85.00340   -9999.25
 12904.00000    7.25130    0.00760    3.01330    0.00610    0.08430 4599.95120 4594.76220    6.58410   53.86180   52.37670   85.38700   -9999.25
 12904.50000    7.25100    0.01020    3.20210    0.00790    0.08010 4545.49510 4580.93120    7.16870   52.90700   52.07830   86.01270   -9999.25
 12905.00000    7.28060    0.01080    3.18080    0.01090    0.07640 4515.01460 4581.10550    8.46510   52.35120   51.47950   86.63730   -9999.25
 12905.50000    7.28030    0.01170    2.99270    0.01260    0.08500 4502.57670 4581.25050    9.96840   53.00610   50.88040   86.65770   -9999.25
 12906.00000    7.28000    0.01170    2.36590    0.01200    0.09150 4484.08400 4581.39600    9.97020   53.65620   50.28110   86.20340   -9999.25
 12906.50000    7.28250    0.01260    2.31430    0.01020    0.08940 4513.66360 4611.57130    9.59670   54.02580   50.88690   85.59720   -9999.25
 12907.00000    7.30930    0.01630    2.66960    0.00840    0.08290 4543.24270 4611.71630    9.22300   54.15690   50.89020   85.29350   -9999.25
 12907.50000    7.30900    0.01930    3.78880    0.00660    0.06860 4542.71970 4641.89160    8.84950   53.88750   50.89360   85.89610   -9999.25
 12908.00000    7.30870    0.02230    4.54900    0.00540    0.06010 4542.28420 4702.10210    9.22670   53.16770   50.59520   86.80080   -9999.25
 12908.50000    7.30840    0.02380    4.91400    0.00480    0.05350 4511.81790 4706.24800   10.01570   52.17760   50.29720   87.70560   -9999.25
 12909.00000    7.31950    0.02830    5.12710    0.00610    0.04570 4481.35210 4732.43210   11.60940   51.45770   50.00000   89.23650   -9999.25
 12909.50000    7.36750    0.03130    5.21860    0.00770    0.03540 4420.85550 4702.53320   13.93210   50.91800   49.70210   90.15230   -9999.25
 12910.00000    7.36720    0.03430    5.09730    0.00760    0.02880 4450.45070 4672.64840   16.16660   50.73870   49.40430   90.77800   -9999.25
 12910.50000    7.38350    0.03420    4.82110    0.00630    0.02520 4512.11870 4660.78660   17.49410   50.92890   49.40810   91.02240   -9999.25
 12911.00000    7.39640    0.03110    4.59980    0.00590    0.02400 4539.66850 4628.95260   16.47720   51.13140   49.41130   91.02050   -9999.25
 12911.50000    7.42600    0.02830    4.27750    0.00560    0.02890 4539.18900 4597.07910   15.08850   51.48360   49.71570   90.59190   -9999.25
 12912.00000    7.42560    0.02920    4.47390    0.00500    0.03000 4538.73830 4583.18360   14.31690   51.64320   50.02010   90.41290   -9999.25
 12912.50000    7.42530    0.03550    4.62130    0.00470    0.02460 4538.28810 4583.35740   13.92000   51.61060   50.01120   90.10910   -9999.25
 12913.00000    7.42510    0.04170    4.67350    0.00530    0.01850 4537.83790 4583.50290   13.75000   51.42510   49.72540   89.80500   -9999.25
 12913.50000    7.42480    0.04570    4.61310    0.00520    0.01350 4523.34080 4583.64790   13.75220   51.23960   49.42740   89.80340   -9999.25
 12914.00000    7.42450    0.04730    4.64300    0.00520    0.01130 4506.90670 4613.82320   14.50480   51.05410   49.34540   90.10410   -9999.25
 12914.50000    7.42420    0.05240    4.73530    0.00580    0.01570 4476.33890 4613.96880   15.25730   50.92720   49.07870   90.70650   -9999.25
 12915.00000    7.42390    0.05390    4.61400    0.00580    0.01670 4445.87300 4614.11380   16.76060   50.83800   48.83530   91.30910   -9999.25
 12915.50000    7.42360    0.04940    4.46240    0.00640    0.01730 4475.46730 4614.26420   17.88860   50.83880   48.83870   91.61570   -9999.25
 12916.00000    7.42330    0.04490    4.44720    0.00640    0.02330 4505.06100 4631.42720   18.26580   50.74950   48.84270   91.91010   -9999.25
 12916.50000    7.42300    0.03730    4.52370    0.00580    0.02990 4504.62550 4644.59470   18.26760   50.66040   48.84590   91.90840   -9999.25
 12917.00000    7.42270    0.03430    4.70640    0.00580    0.03010 4504.18950 4644.74510   18.23330   50.66130   48.84910   91.90670   -9999.25
 12917.50000    7.39250    0.03130    4.98030    0.00510    0.02690 4503.75390 4644.89500   17.52050   50.66220   49.15350   91.87230   -9999.25
 12918.00000    7.39220    0.02960    5.10210    0.00510    0.02570 4503.30320 4645.04490   16.60830   50.66310   49.15670   91.66160   -9999.25
 12918.50000    7.36210    0.02650    5.09620    0.00510    0.02690 4502.85300 4645.19530   15.43780   50.66400   49.46120   91.37690   -9999.25
 12919.00000    7.36180    0.02340    4.94660    0.00510    0.02810 4508.45650 4645.34520   14.26400   50.66490   49.49380   91.29570   -9999.25
 12919.50000    7.36140    0.02030    4.92060    0.00510    0.02680 4532.04000 4645.52490   13.39870   50.66580   49.76910   91.14740   -9999.25
 12920.00000    7.36110    0.01810    4.98180    0.00510    0.02610 4531.53120 4645.66990   13.02550   50.66670   49.77240   90.99030   -9999.25
 12920.50000    7.36090    0.01800    4.84040    0.00510    0.02370 4531.08110 4645.81490   13.22640   50.57750   49.57370   90.98840   -9999.25
 12921.00000    7.39040    0.01800    4.76950    0.00510    0.02230 4530.63040 4615.91550   14.15580   50.53010   49.47790   90.79990   -9999.25
 12921.50000    7.39010    0.01650    4.86110    0.00500    0.01980 4530.18020 4616.07570   14.53300   50.30920   49.48130   90.68310   -9999.25
 12922.00000    7.38980    0.01490    4.78110    0.00500    0.01900 4529.64260 4616.22070   14.91020   50.12990   49.48530   90.68140   -9999.25
 12922.50000    7.38950    0.01490    4.49700    0.00500    0.02280 4529.20610 4616.36620   14.91200   50.31090   49.48850   90.98190   -9999.25
 12923.00000    7.38930    0.01340    4.55810    0.00560    0.02620 4528.77050 4616.51660   14.91380   50.58210   49.41540   90.98020   -9999.25
 12923.50000    7.38900    0.01330    4.64960    0.00500    0.02900 4528.33400 4616.66650   14.54030   50.76310   49.49490   91.28080   -9999.25
 12924.00000    7.38870    0.01330    4.74110    0.00500    0.02620 4527.89840 4646.84670   14.54210   50.76400   49.49810   91.37230   -9999.25
 12924.50000    7.38840    0.01330    4.86290    0.00500    0.02440 4527.46240 4646.99710   13.78560   50.76490   49.50140   91.69560   -9999.25
 12925.00000    7.38810    0.01330    4.95440    0.00560    0.02320 4527.02690 4657.11670   13.01260   50.67560   49.50470   92.18190   -9999.25
 12925.50000    7.38780    0.01170    4.92430    0.00560    0.02380 4526.57620 4677.32710   12.24090   50.57300   49.50800   92.34360   -9999.25
 12926.00000    7.38750    0.01110    4.85980    0.00480    0.02680 4526.12600 4677.47710   11.46940   50.47770   49.51140   92.48070   -9999.25
 12926.50000    7.38720    0.00860    4.64470    0.00430    0.03100 4519.62110 4677.62740   11.07200   50.40800   49.51470   92.17670   -9999.25
 12927.00000    7.38690    0.00560    4.12220    0.00430    0.03760 4495.19530 4707.83690   10.30060   50.56380   49.63930   92.17520   -9999.25
 12927.50000    7.38660    0.00260    3.86170    0.00430    0.04310 4494.74460 4677.95170    9.52850   50.84730   49.82260   91.87130   -9999.25
 12928.00000    7.38620    0.00100    4.06070    0.00490    0.04420 4524.41110 4678.09720    9.30180   51.22090   49.82600   91.86970   -9999.25
 12928.50000    7.38590    0.00250    4.42410    0.00490    0.04210 4523.87350 4678.24270    9.87200   51.45340   50.13110   91.56600   -9999.25
 12929.00000    7.38560    0.00250    4.67540    0.00490    0.03750 4523.42330 4648.35790   11.02350   51.67400   50.13430   91.56430   -9999.25
 12929.50000    7.41520    0.00240    4.83570    0.00490    0.03150 4522.88570 4648.50340   12.31080   51.67490   50.13750   91.56260   -9999.25
