~Version ---------------------------------------------------
VERS.   2.0 : CWLS log ASCII Standard -VERSION 2.0
WRAP.    NO : One line per depth step
DLM . SPACE : Column Data Section Delimiter
~Well ------------------------------------------------------
STRT .F                 9850.0 : START DEPTH
STOP .F                15347.5 : STOP DEPTH
STEP .F                    0.5 : STEP
NULL .                -9999.25 : NULL VALUE
COMP .                         : COMPANY
WELL .                         : WELL
FLD  .                         : FIELD
LOC  .                         : LOCATION
PROV .                         : PROVINCE
CNTY .                         : COUNTY
STAT .                         : STATE
CTRY .                         : COUNTRY
SRVC .                         : SERVICE COMPANY
DATE .                         : DATE
UWI  .                         : UNIQUE WELL ID
API  .                         : API NUMBER
SLAT .WGS84 0.5943569076805026 : SURFACE LATITUDE
SLON .WGS84  6.228333573710998 : SURFACE LONGITUDE
DATUM.F                2250.99 : DEPTH DATUM ELEV
~Curve Information -----------------------------------------
DEPT.F     : 
CALD.IN    : CALIPER FROM DENSITY LOG
DRHO.G/C3  : DENSITY CORRECTION
PEF .B/E   : PHOTOELECTRIC FACTOR
NPHI.DEC   : NEUTRON POROSITY LIMESTONE
DPHI.DEC   : DENSITY POROSITY LIMESTONE
TEND.LBS   : TENSION FORM DENSITY LOG
TENS.LBS   : TENSION FROM SONIC
GRS .GAPI  : GAMMA RAY FROM SONIC LOG
DT  .US/F  : DELTA TIME
DTCO.US/F  : COMPRESSIONAL-WAVE INTERVAL TRANSIT TIME ACOUSTIC SLOWNESS
DTSM.US/F  : SHEAR-WAVE INTERVAL TRANSIT TIME DELTA-T
DTST.US/F  : SHEAR-WAVE INTERVAL TRANSIT TIME
~Params ----------------------------------------------------
~Other -----------------------------------------------------
~ASCII -----------------------------------------------------
# ...
 14554.00000    7.12460    0.01150    3.80800    0.02640   -0.04350 5244.41500 5281.68210   38.38500   48.04590   48.15700   85.42210  182.28050
 14554.50000    7.12340    0.01090    3.87250    0.03120   -0.04350 5274.93120 5281.23140   40.25100   48.79610   48.76230   85.88350  182.28660
 14555.00000    7.12230    0.00990    3.90290    0.03600   -0.04370 5305.44680 5280.69340   45.11990   49.60820   49.36760   86.99420  182.76040
 14555.50000    7.12110    0.01140    3.93230    0.04310   -0.04400 5306.02250 5250.22610   57.87920   50.24020   49.67170   88.46220  183.01550
 14556.00000    7.12000    0.01140    3.89650    0.04390   -0.04520 5336.53810 5249.78910   75.23620   50.69190   49.67470   88.76910  182.00390
 14556.50000    7.11880    0.01140    3.79540    0.03320   -0.04700 5307.17380 5249.35110   76.61870   50.78330   49.67770   88.77350  183.21640
 14557.00000    7.08780    0.01130    3.68940    0.02360   -0.05060 5274.31490 5248.91360   72.14600   50.22340   49.62950   87.87010  182.61890
 14557.50000    7.08660    0.01280    3.61810    0.02060   -0.05290 5248.44580 5248.47660   60.93960   49.65410   49.23620   86.96680  182.32300
 14558.00000    7.08540    0.01280    3.57120    0.02360   -0.04990 5210.76420 5248.03960   50.34720   48.65720   48.29410   85.43880  182.02710
 14558.50000    7.08420    0.01290    3.63110    0.02840   -0.04390 5189.71680 5247.59720   39.81030   47.62830   47.46550   84.55500  181.73140
 14559.00000    7.08300    0.01270    3.66090    0.03200   -0.03840 5147.28120 5247.14700   34.18050   47.18630   47.58430   85.22130  182.03920
 14559.50000    7.08180    0.01270    3.69080    0.03700   -0.03600 5131.13770 5276.75780   50.28010   49.49350   47.88860   85.85300  182.04520
 14560.00000    7.08060    0.01110    3.72070    0.04050   -0.03490 5161.79250 5282.21000   63.02330   50.25230   48.19340   86.48510  182.05130
 14560.50000    7.07920    0.01260    3.72060    0.03970   -0.03410 5192.30810 5305.91260   64.51580   50.25360   48.79870   87.11770  182.05730
 14561.00000    7.07800    0.01330    3.71820    0.03270   -0.03170 5192.88330 5335.50590   63.75230   50.07500   49.40400   87.75000  182.06340
 14561.50000    7.07690    0.01640    3.63020    0.02880   -0.02250 5223.39940 5334.98540   63.36600   50.25650   50.00930   88.07980  182.06940
 14562.00000    7.07570    0.01860    3.57000    0.03490   -0.01650 5253.91500 5334.53470   71.61330   51.42900   50.91580   88.52120  182.07540
 14562.50000    7.04470    0.01850    3.63860    0.04220   -0.01600 5254.49070 5334.08450   91.87270   52.51140   51.21990   88.82820  182.08260
 14563.00000    7.07340    0.02000    3.71980    0.04710   -0.02810 5255.08980 5333.63380   96.74160   53.05320   51.52410   89.13510  182.08840
 14563.50000    7.07220    0.01850    3.64580    0.04230   -0.03650 5255.68900 5333.10010   86.71590   52.51400   50.56250   89.74460  182.09420
 14564.00000    7.07100    0.01540    3.64590    0.03330   -0.04420 5256.28710 5302.63280   60.60750   50.98380   49.31680   90.05160  182.10000
 14564.50000    7.06990    0.01240    3.68930    0.02310   -0.04960 5256.88570 5272.16600   45.00300   48.60030   48.07170   89.44590  182.10590
 14565.00000    7.06870    0.01230    3.74920    0.01280   -0.05380 5257.48490 5241.69780   29.00550   47.33020   46.92300   87.89110  182.11170
 14565.50000    7.06750    0.01230    3.80910    0.00920   -0.05620 5258.08400 5211.23100   25.73950   46.43430   46.60280   85.93970  181.80000
 14566.00000    7.06630    0.01230    3.86910    0.00860   -0.05850 5228.74270 5210.79390   26.37300   46.10210   46.12050   84.32020  181.21830
 14566.50000    7.09490    0.01230    3.92900    0.00800   -0.05710 5199.40140 5180.32620   28.07060   46.03540   45.96370   84.41840  181.16490
 14567.00000    7.09350    0.01220    3.89880    0.00820   -0.05530 5170.14010 5179.87940   30.01650   46.34140   45.82530   85.05130  180.92830
 14567.50000    7.09240    0.01220    3.78280    0.00860   -0.05380 5140.77590 5179.42920   31.73680   46.43860   45.82880   85.68310  181.23680
 14568.00000    7.12120    0.01520    3.52450    0.00870   -0.05240 5141.35160 5209.04440   33.93930   46.62600   45.83170   86.31540  181.24280
 14568.50000    7.14980    0.01820    3.50800    0.00870   -0.05270 5171.86820 5215.09770   34.67920   46.67160   46.13580   86.76490  181.39480
 14569.00000    7.14860    0.02420    3.60990    0.00810   -0.05490 5203.49410 5268.22950   36.16980   46.76330   46.74110   87.07180  182.15990
 14569.50000    7.14750    0.03010    3.64230    0.00690   -0.06010 5262.87400 5297.82230   37.66030   46.76460   47.04520   87.07620  182.46860
 14570.00000    7.14630    0.03610    3.65770    0.00690   -0.06430 5263.47270 5318.28220   38.77560   46.76590   47.04820   86.47540  182.47450
 14570.50000    7.14510    0.03610    3.65750    0.00870   -0.07210 5294.01220 5356.90670   39.14000   46.67710   47.05120   86.17700  182.48030
 14571.00000    7.14390    0.03610    3.62730    0.00870   -0.07380 5324.55130 5356.45650   38.75370   46.31810   47.00060   85.27390  182.18400
 14571.50000    7.14270    0.03570    3.62720    0.00870   -0.07260 5325.14940 5356.00630   41.43370   46.13920   46.45450   84.35230  182.19030
 14572.00000    7.14150    0.03400    3.53690    0.00880   -0.07140 5325.74900 5355.47660   44.12270   45.86810   46.36150   83.72960  182.19610
 14572.50000    7.14030    0.03000    3.44670    0.00930   -0.07130 5296.52290 5355.03960   45.47770   45.68310   46.15910   83.16900  182.20210
 14573.00000    7.13910    0.02540    3.57130    0.00930   -0.07000 5267.06590 5324.57280   43.59470   45.58850   46.16270   82.87080  182.20810
 14573.50000    7.13770    0.02090    3.62660    0.00930   -0.06840 5237.79390 5324.13480   40.22470   45.42370   46.16570   82.57260  182.21420
 14574.00000    7.13650    0.01780    3.57430    0.00930   -0.05930 5208.38330 5323.69780   38.54600   45.63120   46.47050   82.27530  182.22020
 14574.50000    7.13540    0.01780    3.43620    0.01080   -0.05450 5149.12500 5293.23050   38.79000   45.85010   47.07580   82.43300  182.22620
 14575.00000    7.13420    0.01630    3.48850    0.01270   -0.05840 5149.70070 5292.79250   42.41740   46.09600   47.07870   83.36850  182.10650
 14575.50000    7.13310    0.01770    3.55100    0.01360   -0.06190 5150.29980 5292.34230   45.66950   46.33020   47.38280   84.10510  181.93660
 14576.00000    7.13190    0.01920    3.62580    0.01180   -0.06400 5150.89890 5291.89160   47.64810   46.47070   47.08430   84.41210  181.94270
 14576.50000    7.13070    0.02070    3.65570    0.01120   -0.06010 5181.43750 5291.44140   48.76330   46.51330   46.48500   85.02160  181.94980
 14577.00000    7.12530    0.02040    3.74560    0.00940   -0.05500 5211.97560 5290.99120   48.00170   46.51460   46.18670   85.02600  181.95560
 14577.50000    7.09850    0.01760    3.89560    0.00940   -0.05280 5242.51460 5290.54000   46.11390   46.42580   46.18980   84.42520  181.96140
 14578.00000    7.06750    0.01760    3.86550    0.01060   -0.05130 5257.47510 5300.94430   44.60140   46.33710   46.24640   84.12700  181.96730
 14578.50000    7.02530    0.02060    3.68480    0.01180   -0.05190 5273.65280 5319.66990   44.59050   46.24830   46.49700   84.09850  181.97310
 14579.00000    7.00540    0.02360    3.62490    0.01190   -0.05430 5274.35450 5319.21920   45.33340   46.24960   46.80120   83.83320  181.67720
 14579.50000    7.00420    0.02950    3.66030    0.01320   -0.05670 5244.99120 5318.76900   46.47090   46.34140   47.10540   83.83810  181.68330
 14580.00000    7.00280    0.03250    3.72280    0.01420   -0.06020 5245.56690 5318.23050   47.23440   46.52250   47.10840   83.84270  181.68930
 14580.50000    6.97180    0.03550    3.74460    0.01570   -0.06320 5216.16700 5317.79350   48.44790   46.62590   47.11140   83.97020  181.69530
 14581.00000    6.97060    0.03550    3.74440    0.01640   -0.06700 5216.77780 5317.35640   50.08490   46.81330   47.11500   84.30130  181.70140
 14581.50000    6.96950    0.03700    3.69860    0.01720   -0.07130 5186.20800 5286.88920   52.39710   47.00060   47.11790   84.93300  181.70740
