~Version ---------------------------------------------------
VERS.   2.0 : CWLS log ASCII Standard -VERSION 2.0
WRAP.    NO : One line per depth step
DLM . SPACE : Column Data Section Delimiter
~Well ------------------------------------------------------
STRT .F                 9850.0 : START DEPTH
STOP .F                15347.5 : STOP DEPTH
STEP .F                    0.5 : STEP
NULL .                -9999.25 : NULL VALUE
COMP .                         : COMPANY
WELL .                         : WELL
FLD  .                         : FIELD
LOC  .                         : LOCATION
PROV .                         : PROVINCE
CNTY .                         : COUNTY
STAT .                         : STATE
CTRY .                         : COUNTRY
SRVC .                         : SERVICE COMPANY
DATE .                         : DATE
UWI  .                         : UNIQUE WELL ID
API  .                         : API NUMBER
SLAT .WGS84 0.5943569076805026 : SURFACE LATITUDE
SLON .WGS84  6.228333573710998 : SURFACE LONGITUDE
DATUM.F                2250.99 : DEPTH DATUM ELEV
~Curve Information -----------------------------------------
DEPT.F     : 
CALD.IN    : CALIPER FROM DENSITY LOG
DRHO.G/C3  : DENSITY CORRECTION
PEF .B/E   : PHOTOELECTRIC FACTOR
NPHI.DEC   : NEUTRON POROSITY LIMESTONE
DPHI.DEC   : DENSITY POROSITY LIMESTONE
TEND.LBS   : TENSION FORM DENSITY LOG
TENS.LBS   : TENSION FROM SONIC
GRS .GAPI  : GAMMA RAY FROM SONIC LOG
DT  .US/F  : DELTA TIME
DTCO.US/F  : COMPRESSIONAL-WAVE INTERVAL TRANSIT TIME ACOUSTIC SLOWNESS
DTSM.US/F  : SHEAR-WAVE INTERVAL TRANSIT TIME DELTA-T
DTST.US/F  : SHEAR-WAVE INTERVAL TRANSIT TIME
~Params ----------------------------------------------------
~Other -----------------------------------------------------
~ASCII -----------------------------------------------------
# ...
 13994.00000    7.23280    0.01080    4.06140    0.04280    0.00360 5037.12600 5098.99270   82.99040   53.58760   53.22030   94.85320  184.59120
 13994.50000    7.23190    0.01070    3.93950    0.05650    0.00360 5036.52690 5098.27150   92.21030   54.30960   53.82530   95.16210  184.59660
 13995.00000    7.23120    0.01120    3.90880    0.06700    0.00300 5035.82180 5067.52000   99.42610   54.76130   54.44750   95.77240  184.60100
 13995.50000    7.20060    0.01370    3.81730    0.06650   -0.00060 5035.24370 5066.79740  101.93160   56.38430   55.36470   96.08010  184.60540
 13996.00000    7.19990    0.01360    4.19460    0.05610   -0.00320 5034.66460 5066.06690   97.99640   56.37610   55.98930   95.78260  184.60980
 13996.50000    7.19920    0.01360    4.34970    0.04230   -0.00550 5034.08690 5065.31590   94.05990   55.99050   56.24590   95.48490  184.61420
 13997.00000    7.19850    0.01350    4.53050    0.02960   -0.00680 5033.50780 5034.53520   89.72520   55.52140   56.16240   94.88520  184.31690
 13997.50000    7.19780    0.01350    4.64640    0.02900   -0.00640 5032.92970 5033.78420   83.53010   54.98700   55.24210   94.58530  184.32130
 13998.00000    7.19700    0.01340    4.70900    0.02420   -0.00430 5032.33540 5043.40970   76.39610   54.52400   54.32230   94.26840  184.32580
 13998.50000    7.19630    0.01340    4.80200    0.01820   -0.00210 5031.73630 5062.31300   70.01290   54.15140   53.56060   93.99280  184.02840
 13999.00000    7.19550    0.01330    4.81820    0.01580   -0.00120 5031.13820 5061.56200   60.62670   53.68840   52.78360   93.99850  184.03320
 13999.50000    7.19480    0.01330    4.78750    0.01580   -0.00300 5030.53910 5060.66160   48.98830   53.06200   52.04600   94.00380  184.03770
 14000.00000    7.19390    0.01480    4.78720    0.01460   -0.00540 5029.95610 5063.48580   41.47900   52.40990   51.78060   94.35070  184.07560
 14000.50000    7.22330    0.01770    4.81730    0.01580   -0.00600 5029.49070 5073.42870   40.18720   51.53280   51.88770   94.59670  184.28590
 14001.00000    7.22270    0.01620    4.78660    0.01700   -0.00580 5029.04150 5083.37160   38.89540   51.63700   51.99480   94.84270  184.04520
 14001.50000    7.22210    0.01620    4.82350    0.01740   -0.00410 4998.65280 5117.06840   37.72980   51.75350   51.75620   95.08870  183.87700
 14002.00000    7.22150    0.01620    4.89510    0.01960   -0.00420 4908.30270 5115.91600   38.20870   52.10260   52.06030   95.21940  183.44520
 14002.50000    7.22090    0.01460    5.00170    0.02060   -0.00400 4907.86870 5114.86520   38.48380   52.25900   51.76200   95.21940  183.44670
 14003.00000    7.22030    0.01460    5.07230    0.01650   -0.00150 4907.43600 5113.81350   37.95710   52.13250   51.76510   95.21940  183.44810
 14003.50000    7.21970    0.01460    5.05870    0.01580    0.00090 4907.00240 5098.71580   37.91480   51.94730   51.70980   95.21940  183.44960
 14004.00000    7.23620    0.01220    4.93670    0.01400   -0.00060 4906.56930 5081.68210   37.90950   51.76230   51.46950   95.13450  183.14930
 14004.50000    7.24840    0.01150    4.93640    0.01220   -0.00480 4936.07760 5080.42680   36.98880   51.54390   51.17120   94.91680  183.77250
 14005.00000    7.30740    0.00850    5.08810    0.01340   -0.00600 4967.50880 5079.41020   36.61500   51.45520   51.17470   94.91680  185.59610
 14005.50000    7.30680    0.00850    5.17900    0.01460   -0.00360 5025.03080 5078.39360   36.52090   51.27630   51.17770   95.21940  185.86880
 14006.00000    7.30620    0.00850    5.17870    0.01640    0.00000 5060.88920 5077.37500   36.99340   51.18750   51.35140   95.21940  185.49260
 14006.50000    7.24600    0.00840    5.05680    0.01820   -0.00120 5084.04440 5076.35840   37.74560   51.18070   52.08790   95.52190  184.46490
 14007.00000    7.24530    0.00840    4.81040    0.02220   -0.00180 5012.86430 5075.34230   38.87330   51.37030   52.39200   95.82450  183.21580
 14007.50000    7.18290    0.00840    4.51800    0.03520   -0.00360 4993.26420 5104.35550   40.41260   51.75090   52.99730   96.12710  182.55660
 14008.00000    7.15030    0.00840    4.07800    0.04330   -0.00250 5037.90620 5103.33690   44.05720   52.48690   53.60260   96.42960  182.25640
 14008.50000    7.12420    0.00840    4.09790    0.04640    0.00090 5099.57030 5136.27880   52.41120   53.04740   54.20790   96.73220  182.25820
 14009.00000    7.13220    0.00830    4.24310    0.05060    0.00250 5111.67680 5161.36380   64.29610   53.49500   54.51690   97.33740  182.25960
 14009.50000    7.15290    0.00980    4.39170    0.05390    0.00130 5051.28810 5190.37550   71.82630   53.86900   54.84430   97.63990  182.26090
 14010.00000    7.18210    0.01130    4.53590    0.05620    0.00030 5020.91410 5189.18990   74.44040   54.20730   55.17070   97.63990  182.26250
 14010.50000    7.18150    0.01280    4.53520    0.05730   -0.00110 4990.54150 5188.13870   74.92020   54.52740   55.42470   97.63990  182.26400
 14011.00000    7.18090    0.01430    4.32460    0.05440   -0.00290 4960.16800 5173.09810   74.92180   54.81180   55.42770   97.63990  183.18520
 14011.50000    7.21010    0.01570    4.20270    0.05070   -0.00410 4959.73050 5156.00630   74.92340   55.16650   55.43070   97.63990  184.73890
 14012.00000    7.23940    0.01420    4.20240    0.04650   -0.00600 4989.24120 5124.72220   74.17440   55.43800   55.29290   97.94250  185.88840
 14012.50000    7.29840    0.01420    4.32370    0.04350   -0.00350 4988.77250 5123.70560   69.67150   55.52940   54.97270   98.11890  186.19150
 14013.00000    7.32770    0.01420    4.53620    0.04530   -0.00100 4995.59620 5122.68700   65.91920   55.44050   54.83740   98.24510  186.19310
 14013.50000    7.35700    0.01260    4.71820    0.04960    0.00260 5017.88180 5151.70020   64.79460   55.35180   54.84080   98.24510  184.37730
 14014.00000    7.35640    0.01110    4.87330    0.04840    0.00170 5088.88180 5150.68360   65.17150   55.34950   54.54220   98.24510  182.41980
 14014.50000    7.35580    0.01110    4.96080    0.04690   -0.00070 5106.73630 5179.73000   66.67450   55.44710   54.54540   98.54770  183.51560
 14015.00000    7.35520    0.01110    4.88150    0.04340   -0.00270 5106.28710 5178.67870   68.20790   55.62610   54.84950   98.85020  185.89770
 14015.50000    7.35460    0.01100    4.74740    0.04090   -0.00520 5075.81250 5207.69190   69.34610   55.62750   54.85240   98.85020  184.69250
 14016.00000    7.34530    0.01100    4.70620    0.03990   -0.00860 5015.49950 5206.60550   70.05760   55.49570   54.85540   98.85020  182.88400
 14016.50000    7.32360    0.01100    4.71160    0.04230   -0.01070 5015.06590 5211.51320   68.93910   55.21440   54.55700   98.79020  185.60040
 14017.00000    7.29310    0.01100    4.80730    0.04760   -0.00890 5014.63280 5234.67040   65.46350   54.80840   54.19350   98.24510  186.26010
 14017.50000    7.29250    0.01100    4.72490    0.05200   -0.00470 4984.25930 5223.47360   62.50150   54.38070   53.87300   97.94250  184.09500
 14018.00000    7.29190    0.00860    4.59390    0.05320   -0.00230 4953.88670 5202.40190   61.76620   54.09940   53.25050   97.51130  184.78410
 14018.50000    7.29120    0.00790    4.35040    0.05080   -0.00110 4954.78220 5201.35060   63.89220   53.92390   52.76210   97.18550  186.31060
 14019.00000    7.29070    0.00790    4.31970    0.04540    0.00130 4982.96000 5170.27050   66.68890   54.28580   52.61870   96.73220  187.19060
 14019.50000    7.29010    0.00790    4.13710    0.04000    0.00500 5012.46630 5138.98490   68.19190   54.82770   53.37110   96.42960  187.41930
 14020.00000    7.25970    0.00780    4.07600    0.03340    0.00810 5011.97560 5137.96880   67.81800   55.00910   53.97640   96.73220  187.29990
 14020.50000    7.25910    0.00780    4.04530    0.02840    0.01130 5011.52730 5136.95210   65.19190   55.10050   54.58170   96.73220  186.53080
 14021.00000    7.25850    0.00930    4.12300    0.02670    0.01280 5011.07760 5135.93310   62.94120   55.01170   54.88580   96.42960  184.81190
 14021.50000    7.25790    0.01080    4.47720    0.03300    0.00810 5039.84420 5134.91700   61.44120   54.64940   54.88870   96.12710  184.37700
