~Version ---------------------------------------------------
VERS.   2.0 : CWLS log ASCII Standard -VERSION 2.0
WRAP.    NO : One line per depth step
DLM . SPACE : Column Data Section Delimiter
~Well ------------------------------------------------------
STRT .F                 9850.0 : START DEPTH
STOP .F                15347.5 : STOP DEPTH
STEP .F                    0.5 : STEP
NULL .                -9999.25 : NULL VALUE
COMP .                         : COMPANY
WELL .                         : WELL
FLD  .                         : FIELD
LOC  .                         : LOCATION
PROV .                         : PROVINCE
CNTY .                         : COUNTY
STAT .                         : STATE
CTRY .                         : COUNTRY
SRVC .                         : SERVICE COMPANY
DATE .                         : DATE
UWI  .                         : UNIQUE WELL ID
API  .                         : API NUMBER
SLAT .WGS84 0.5943569076805026 : SURFACE LATITUDE
SLON .WGS84  6.228333573710998 : SURFACE LONGITUDE
DATUM.F                2250.99 : DEPTH DATUM ELEV
~Curve Information -----------------------------------------
DEPT.F     : 
CALD.IN    : CALIPER FROM DENSITY LOG
DRHO.G/C3  : DENSITY CORRECTION
PEF .B/E   : PHOTOELECTRIC FACTOR
NPHI.DEC   : NEUTRON POROSITY LIMESTONE
DPHI.DEC   : DENSITY POROSITY LIMESTONE
TEND.LBS   : TENSION FORM DENSITY LOG
TENS.LBS   : TENSION FROM SONIC
GRS .GAPI  : GAMMA RAY FROM SONIC LOG
DT  .US/F  : DELTA TIME
DTCO.US/F  : COMPRESSIONAL-WAVE INTERVAL TRANSIT TIME ACOUSTIC SLOWNESS
DTSM.US/F  : SHEAR-WAVE INTERVAL TRANSIT TIME DELTA-T
DTST.US/F  : SHEAR-WAVE INTERVAL TRANSIT TIME
~Params ----------------------------------------------------
~Other -----------------------------------------------------
~ASCII -----------------------------------------------------
# ...
 13826.00000    7.03700    0.00590    3.17690    0.01560    0.01750 4968.66800 5001.15190   58.94190   52.72620   54.04580   87.54830  184.50100
 13826.50000    7.03690    0.01170    3.03230    0.02540    0.01440 4938.06010 5001.80180   60.44700   52.45630   54.05440   87.39680  184.50390
 13827.00000    7.03670    0.01530    3.13810    0.03260    0.01630 4937.48100 5002.40230   61.20140   52.00630   54.06330   87.40260  184.50680
 13827.50000    7.03650    0.02010    3.44320    0.03620    0.02770 4936.90330 5003.00290   61.95580   51.64640   53.77000   87.40740  184.20810
 13828.00000    7.03640    0.02480    3.73190    0.04490    0.01380 4906.29440 4993.59330   62.71020   51.55530   53.78010   88.01650  183.90930
 13828.50000    7.03630    0.03030    3.58010    0.05110    0.00420 4905.71630 4974.06450   65.80710   52.57340   54.09050   89.83400  183.61050
 13829.00000    7.03610    0.03490    3.48910    0.04610   -0.00820 4965.19730 4974.77440   70.02320   53.76140   54.13910   91.67380  183.70620
 13829.50000    7.03600    0.03860    3.48920    0.03610   -0.00680 4970.27880 4975.37600   72.96510   54.96960   54.99380   92.60130  184.03500
 13830.00000    7.03580    0.04010    3.73250    0.03060    0.00120 4994.07080 4975.97610   74.43570   55.73820   56.83260   93.23880  184.80560
 13830.50000    7.03570    0.03700    3.82390    0.03250    0.00300 4993.39360 4946.54640   73.70350   56.06350   55.97620   93.47940  184.96640
 13831.00000    7.03550    0.02950    3.79090    0.03870    0.00240 4992.79350 4931.29300   64.64590   56.00880   54.41760   92.63350  184.71980
 13831.50000    7.03540    0.02190    3.69270    0.05670    0.00000 4992.19240 4917.71780   56.42750   55.23840   53.24140   91.67550  185.43930
 13832.00000    7.03520    0.01130    3.58970    0.06450    0.00420 4991.59180 4918.41650   51.14280   53.91210   52.64670   90.17220  185.44220
 13832.50000    7.03510    0.00210    3.48050    0.07290    0.00420 4990.88960 4888.97410   45.39710   52.83940   52.35370   87.45800  185.14330
 13833.00000    7.03490    0.00070    3.37510    0.07300    0.00120 4990.31200 4889.56250   39.62070   52.00770   52.06030   84.74370  184.84470
 13833.50000    7.03480    0.00070    3.16130    0.06570    0.00060 4989.73290 4890.15140   35.98830   51.74190   52.06940   83.23800  184.54600
 13834.00000    7.03460    0.00120    2.97090    0.04650    0.00280 4989.15480 4890.73930   42.11030   52.01270   51.77620   83.54490  184.54900
 13834.50000    7.03450    0.00340    2.88280    0.03350    0.00760 4958.54540 4921.35790   47.36920   52.28340   51.48320   84.47230  184.55200
 13835.00000    7.03430    0.00810    2.88300    0.02490    0.01150 4927.92820 4921.92190   48.12360   52.55410   52.09650   85.41200  184.25300
 13835.50000    7.03420    0.01520    3.00470    0.01690    0.01390 4927.32670 4952.56490   48.50260   52.82480   52.53760   86.42260  183.95430
 13836.00000    7.03400    0.02310    3.15680    0.01520    0.01270 4926.72710 4953.15280   50.38320   53.09550   53.18030   87.69300  183.95780
 13836.50000    7.03390    0.03210    3.15700    0.01990    0.01410 4926.12550 4983.78370   53.38980   53.54640   53.03020   88.83540  183.80810
 13837.00000    7.03370    0.03810    3.21820    0.02440    0.01080 4955.65380 4984.38430   55.64570   53.90720   51.83220   89.77390  183.05940
 13837.50000    7.03360    0.04410    3.32480    0.03130    0.00420 4954.95510 4988.70850   53.77250   54.17790   51.23750   91.11880  182.76020
 13838.00000    7.06330    0.04420    3.66840    0.03620    0.00000 4954.35400 5015.61520   51.89930   54.08360   51.54780   92.65960  182.46150
 13838.50000    7.06310    0.03490    3.93930    0.03920    0.00120 4983.78420 5016.21630   55.02370   53.89920   52.77310   93.29730  182.76650
 13839.00000    7.09720    0.02700    4.04880    0.04170    0.00720 5013.11080 5016.81690   57.59760   53.81890   53.75880   93.56490  182.76940
 13839.50000    7.12250    0.02080    3.96120    0.03860    0.01520 5042.64260 5017.41700   58.29170   53.90950   54.59130   93.57000  182.77230
 13840.00000    7.15220    0.01690    3.85710    0.03380    0.02050 5041.98440 4987.88920   54.39730   53.74820   54.90200   93.57500  182.77530
 13840.50000    7.15210    0.01530    3.92080    0.02900    0.02770 5041.40620 4988.58840   49.30560   53.31220   54.47950   93.58010  182.73410
 13841.00000    7.15190    0.01810    4.10060    0.02780    0.02530 5040.82710 4989.18950   48.02850   52.91970   53.85440   93.58610  182.47930
 13841.50000    7.15180    0.02210    4.58710    0.03480    0.02410 5039.26760 4989.79000   47.58100   52.99700   53.42080   94.19510  182.48270
 13842.00000    7.15160    0.02360    4.58730    0.03680    0.02220 5008.02590 4990.39010   52.02590   53.67650   55.54260   94.19990  182.48570
 13842.50000    7.15150    0.02420    4.55700    0.03650    0.02050 4978.97950 4990.99120   63.83410   54.50640   56.75790   94.50690  182.48870
 13843.00000    7.15130    0.02270    4.46600    0.03350    0.02050 4978.37840 4961.56150   76.68170   55.06140   57.06820   94.20950  182.49170
 13843.50000    7.15120    0.01820    4.13180    0.02880    0.02070 4977.77830 4932.24270   74.08850   55.53480   57.07680   93.29090  182.49530
 13844.00000    7.15100    0.01360    3.96820    0.02630    0.02420 4977.17680 4932.83110   65.83390   55.80550   56.78370   92.31770  182.49820
 13844.50000    7.15090    0.01210    3.69240    0.02960    0.02620 4976.57710 4933.41890   60.95770   55.35550   56.49070   91.36000  182.50110
 13845.00000    7.15070    0.01050    3.46570    0.03440    0.02710 4975.97660 4903.97660   59.08440   54.45500   56.09770   90.50390  182.80560
 13845.50000    7.15060    0.01220    3.11060    0.03740    0.02770 4975.27250 4904.56590   57.21120   53.64460   55.64440   89.57470  182.80850
 13846.00000    7.15040    0.01530    3.06870    0.03740    0.02710 4974.69430 4905.15380   55.71340   53.11280   54.84980   88.94710  183.42330
 13846.50000    7.15030    0.01730    3.12960    0.03680    0.02530 4974.11520 4905.74170   56.09240   53.10140   54.30500   88.20340  184.05300
 13847.00000    7.15010    0.02360    3.20930    0.03740    0.02290 4973.53760 4891.91890   58.75980   53.10680   54.42650   87.90530  184.68390
 13847.50000    7.15000    0.03110    3.37310    0.03680    0.01330 4972.95850 4876.88920   62.99170   53.59310   54.43510   87.60830  185.31380
 13848.00000    7.14990    0.04130    3.55560    0.03490    0.00290 5002.41020 4877.47710   84.55980   54.91570   54.44370   88.21780  185.64350
 13848.50000    7.11990    0.05100    3.64700    0.03380    0.00000 4998.75050 4878.07810   94.59010   56.44330   56.59380   90.03530  185.84310
 13849.00000    7.11970    0.05550    3.64710    0.03520    0.00280 4971.17090 4876.16650   92.48350   57.36200   58.46470   91.57310  186.14780
 13849.50000    7.11960    0.05850    3.52570    0.03750    0.00680 4940.54050 4849.21190   74.13290   56.92030   60.04140   92.16010  185.84980
 13850.00000    7.11940    0.05840    3.37390    0.04770    0.00640 4909.90970 4879.87990   52.23970   55.39040   60.81300   91.93110  184.64600
 13850.50000    7.11930    0.05240    3.30850    0.08270    0.00600 4879.27880 4880.48050   46.15910   53.28110   57.19130   90.03940  183.74400
 13851.00000    7.11910    0.04630    3.20820    0.09160    0.01110 4878.67920 4888.61910   46.18620   52.26940   53.69080   88.14660  183.74690
 13851.50000    7.11900    0.03690    3.08690    0.07830    0.01770 4895.04590 4911.71140   58.69870   52.96940   51.79340   87.04430  184.05140
 13852.00000    7.11880    0.03120    3.04010    0.05910    0.02530 4907.50730 4942.34180   77.26170   54.61720   53.00870   87.65450  184.35600
 13852.50000    7.11860    0.03800    3.19670    0.03440    0.02050 4936.93750 4954.18950   85.79280   55.18250   55.12890   87.96140  184.66060
 13853.00000    7.11850    0.05360    3.32550    0.03370    0.01080 4966.36620 4973.57370   85.04570   55.36310   55.43920   87.66410  184.66370
 13853.50000    7.11840    0.06300    3.37490    0.05260   -0.00360 5025.78860 4974.17380   70.03430   55.00320   55.12650   87.06470  184.66670
