~Version ---------------------------------------------------
VERS.   2.0 : CWLS log ASCII Standard -VERSION 2.0
WRAP.    NO : One line per depth step
DLM . SPACE : Column Data Section Delimiter
~Well ------------------------------------------------------
STRT .F                 9850.0 : START DEPTH
STOP .F                15347.5 : STOP DEPTH
STEP .F                    0.5 : STEP
NULL .                -9999.25 : NULL VALUE
COMP .                         : COMPANY
WELL .                         : WELL
FLD  .                         : FIELD
LOC  .                         : LOCATION
PROV .                         : PROVINCE
CNTY .                         : COUNTY
STAT .                         : STATE
CTRY .                         : COUNTRY
SRVC .                         : SERVICE COMPANY
DATE .                         : DATE
UWI  .                         : UNIQUE WELL ID
API  .                         : API NUMBER
SLAT .WGS84 0.5943569076805026 : SURFACE LATITUDE
SLON .WGS84  6.228333573710998 : SURFACE LONGITUDE
DATUM.F                2250.99 : DEPTH DATUM ELEV
~Curve Information -----------------------------------------
DEPT.F     : 
CALD.IN    : CALIPER FROM DENSITY LOG
DRHO.G/C3  : DENSITY CORRECTION
PEF .B/E   : PHOTOELECTRIC FACTOR
NPHI.DEC   : NEUTRON POROSITY LIMESTONE
DPHI.DEC   : DENSITY POROSITY LIMESTONE
TEND.LBS   : TENSION FORM DENSITY LOG
TENS.LBS   : TENSION FROM SONIC
GRS .GAPI  : GAMMA RAY FROM SONIC LOG
DT  .US/F  : DELTA TIME
DTCO.US/F  : COMPRESSIONAL-WAVE INTERVAL TRANSIT TIME ACOUSTIC SLOWNESS
DTSM.US/F  : SHEAR-WAVE INTERVAL TRANSIT TIME DELTA-T
DTST.US/F  : SHEAR-WAVE INTERVAL TRANSIT TIME
~Params ----------------------------------------------------
~Other -----------------------------------------------------
~ASCII -----------------------------------------------------
# ...
 12538.00000   -9999.25   -9999.25   -9999.25    0.03080   -9999.25   -9999.25   -9999.25   21.60490   -9999.25   -9999.25   -9999.25   -9999.25
 12538.50000   -9999.25   -9999.25   -9999.25    0.03080   -9999.25   -9999.25   -9999.25   23.53400   -9999.25   -9999.25   -9999.25   -9999.25
 12539.00000   -9999.25   -9999.25   -9999.25    0.02960   -9999.25   -9999.25   -9999.25   25.46300   -9999.25   -9999.25   -9999.25   -9999.25
 12539.50000   -9999.25   -9999.25   -9999.25    0.02960   -9999.25   -9999.25   -9999.25   27.39200   -9999.25   -9999.25   -9999.25   -9999.25
 12540.00000   -9999.25   -9999.25   -9999.25    0.03100   -9999.25   -9999.25   -9999.25   25.07720   -9999.25   -9999.25   -9999.25   -9999.25
 12540.50000   -9999.25   -9999.25   -9999.25    0.03280   -9999.25   -9999.25   -9999.25   23.53400   -9999.25   -9999.25   -9999.25   -9999.25
 12541.00000   -9999.25   -9999.25   -9999.25    0.03400   -9999.25   -9999.25   -9999.25   23.91980   -9999.25   -9999.25   -9999.25   -9999.25
 12541.50000   -9999.25   -9999.25   -9999.25    0.03460   -9999.25   -9999.25   -9999.25   24.30560   -9999.25   -9999.25   -9999.25   -9999.25
 12542.00000   -9999.25   -9999.25   -9999.25    0.03620   -9999.25   -9999.25   -9999.25   25.07720   -9999.25   -9999.25   -9999.25   -9999.25
 12542.50000   -9999.25   -9999.25   -9999.25    0.03750   -9999.25   -9999.25   -9999.25   26.23460   -9999.25   -9999.25   -9999.25   -9999.25
 12543.00000   -9999.25   -9999.25   -9999.25    0.04040   -9999.25   -9999.25   -9999.25   25.46300   -9999.25   -9999.25   -9999.25   -9999.25
 12543.50000   -9999.25   -9999.25   -9999.25    0.04280   -9999.25   -9999.25   -9999.25   24.30560   -9999.25   -9999.25   -9999.25   -9999.25
 12544.00000   -9999.25   -9999.25   -9999.25    0.04520   -9999.25   -9999.25   -9999.25   21.99070   -9999.25   -9999.25   -9999.25   -9999.25
 12544.50000   -9999.25   -9999.25   -9999.25    0.04160   -9999.25   -9999.25   -9999.25   20.06170   -9999.25   -9999.25   -9999.25   -9999.25
 12545.00000   -9999.25   -9999.25   -9999.25    0.03620   -9999.25   -9999.25   -9999.25   18.51850   -9999.25   -9999.25   -9999.25   -9999.25
 12545.50000   -9999.25   -9999.25   -9999.25    0.03320   -9999.25   -9999.25   -9999.25   17.74690   -9999.25   -9999.25   -9999.25   -9999.25
 12546.00000   -9999.25   -9999.25   -9999.25    0.03380   -9999.25   -9999.25   -9999.25   18.51850   -9999.25   -9999.25   -9999.25   -9999.25
 12546.50000   -9999.25   -9999.25   -9999.25    0.03380   -9999.25   -9999.25   -9999.25   19.29010   -9999.25   -9999.25   -9999.25   -9999.25
 12547.00000   -9999.25   -9999.25   -9999.25    0.03360   -9999.25   -9999.25   -9999.25   15.43210   -9999.25   -9999.25   -9999.25   -9999.25
 12547.50000   -9999.25   -9999.25   -9999.25    0.03160   -9999.25   -9999.25   -9999.25   14.27470   -9999.25   -9999.25   -9999.25   -9999.25
 12548.00000   -9999.25   -9999.25   -9999.25    0.02890   -9999.25   -9999.25   -9999.25   13.88890   -9999.25   -9999.25   -9999.25   -9999.25
 12548.50000   -9999.25   -9999.25   -9999.25    0.02600   -9999.25   -9999.25   -9999.25   15.81790   -9999.25   -9999.25   -9999.25   -9999.25
 12549.00000   -9999.25   -9999.25   -9999.25    0.02470   -9999.25   -9999.25   -9999.25   18.13270   -9999.25   -9999.25   -9999.25   -9999.25
 12549.50000    7.28410   -0.05000   -9999.25    0.03190    0.21180 4399.39940   -9999.25   16.58950   -9999.25   -9999.25   -9999.25   -9999.25
 12550.00000    7.28360   -0.04850   -9999.25    0.04150    0.19180 4399.39940   -9999.25   13.50310   -9999.25   -9999.25   90.45320   -9999.25
 12550.50000    7.28310   -0.04400    7.31610    0.04180    0.17560 4399.39940   -9999.25   13.50310   -9999.25   56.26510   89.75800   -9999.25
 12551.00000    7.28260   -0.03650    2.99370    0.02110    0.15520 4438.35400   -9999.25   12.34570   -9999.25   56.56630   87.45930   -9999.25
 12551.50000    7.31190   -0.00940    2.36340    0.00790    0.11680 4481.25540 4399.39940   13.88890   53.87390   55.96390   84.37520   -9999.25
 12552.00000    7.31130    0.03450    2.39270    0.00430    0.06700 4536.71390 4369.36910   16.58950   53.62430   55.06020   82.11990   -9999.25
 12552.50000    7.31090    0.04180    2.42220    0.00310    0.06520 4444.68650 4369.36910   18.13270   53.15910   53.81860   81.39940   -9999.25
 12553.00000    7.28050    0.02910    2.48140    0.00250    0.06640 4399.39940 4339.33940   20.44750   52.40440   52.85140   81.70390   -9999.25
 12553.50000    7.28010    0.02190    2.48080    0.00240    0.06640 4429.42920 4339.33940   23.53400   52.16220   51.67140   82.47290   -9999.25
 12554.00000    7.27960    0.01140    2.54480    0.00250    0.06640 4459.45950 4369.36910   25.46300   52.25230   50.74300   83.21890   -9999.25
 12554.50000    7.27910    0.00710    2.60970    0.00230    0.06520 4519.51950 4399.39940   26.23460   52.34230   50.11560   84.12720   -9999.25
 12555.00000    7.27860    0.01670    2.73450    0.00190    0.05890 4519.51950 4459.45950   24.69140   52.43240   49.48730   84.73340   -9999.25
 12555.50000    7.27810    0.04170    2.87000    0.00250    0.04890 4519.51950 4519.51950   23.14810   52.52250   49.16230   85.03740   -9999.25
 12556.00000    7.27760    0.05220    3.15800    0.00250    0.04000 4459.45950 4519.51950   24.30560   52.61260   48.43370   85.64360   -9999.25
 12556.50000    7.24730    0.05370    3.42460    0.00310    0.03410 4429.06590 4511.76560   24.72050   52.47600   48.13250   85.94760   -9999.25
 12557.00000    7.24680    0.05070    3.55440    0.00310    0.03200 4399.39940 4489.48930   23.14810   51.97610   48.13250   86.55390   -9999.25
 12557.50000    7.21640    0.04760    3.43410    0.00250    0.03350 4403.63770 4533.00240   20.06170   51.53150   48.13250   86.16330   -9999.25
 12558.00000    7.18610    0.04160    3.01430    0.00250    0.04070 4429.42920 4595.94820   16.58950   51.86010   47.83130   84.97980   -9999.25
 12558.50000    7.18560    0.03800    2.86400    0.00190    0.04860 4429.42920 4609.60940   14.27470   52.52250   47.83130   84.05090   -9999.25
 12559.00000    7.18500    0.03710    2.74370    0.00130    0.05320 4459.45950 4579.57960   12.34570   52.97300   47.53010   83.42580   -9999.25
 12559.50000    7.18450    0.04160    2.83610    0.00130    0.05680 4525.66990 4549.54930   11.95990   53.24320   47.53010   83.37890   -9999.25
 12560.00000    7.18400    0.04230    2.96410    0.00070    0.05980 4535.50290 4519.51950   13.50310   53.33330   47.63090   83.70630   -9999.25
 12560.50000    7.18350    0.04220    3.08890    0.00140    0.06280 4473.50590 4489.48930   14.27470   53.33330   47.95620   85.05780   -9999.25
 12561.00000    7.18310    0.03700    3.23690    0.00210    0.06460 4459.45950 4459.45950   13.50310   53.33330   48.28310   86.26820   -9999.25
 12561.50000    7.18260    0.02950    3.47240    0.00310    0.06950 4429.42920 4459.45950   12.34570   53.22300   48.79130   87.17650   -9999.25
 12562.00000    7.18210    0.02490    3.67710    0.00330    0.07310 4429.42920 4459.45950   13.11730   52.94420   49.26200   88.08470   -9999.25
 12562.50000    7.21150    0.02340    3.42800    0.00400    0.07540 4429.42920 4459.45950   14.27470   52.62740   49.73260   88.69090   -9999.25
 12563.00000    7.24080    0.02190    3.41330    0.00430    0.07080 4429.42920 4459.45950   15.43210   52.11380   50.24100   87.78650   -9999.25
 12563.50000    7.24030    0.02500    3.48680    0.00370    0.06350 4459.45950 4489.48930   17.36110   51.26130   49.93980   88.39280   -9999.25
 12564.00000    7.21000    0.02970    3.42630    0.00310    0.06030 4549.54930 4519.51950   16.58950   51.89190   49.63860   88.34950   -9999.25
 12564.50000    7.19860    0.03320    3.17800    0.00310    0.05750 4549.54930 4519.51950   15.04630   53.15320   49.99120   87.28780   -9999.25
 12565.00000    7.17910    0.03950    2.97810    0.00250    0.06450 4549.54930 4549.54930   13.88890   54.05410   52.09980   85.89100   -9999.25
 12565.50000    7.17860    0.04720    2.72530    0.00190    0.07180 4508.42430 4549.54930   12.34570   54.50450   55.20960   84.96330   -9999.25
