~Version ---------------------------------------------------
VERS.   2.0 : CWLS log ASCII Standard -VERSION 2.0
WRAP.    NO : One line per depth step
DLM . SPACE : Column Data Section Delimiter
~Well ------------------------------------------------------
STRT .F                 9850.0 : START DEPTH
STOP .F                15347.5 : STOP DEPTH
STEP .F                    0.5 : STEP
NULL .                -9999.25 : NULL VALUE
COMP .                         : COMPANY
WELL .                         : WELL
FLD  .                         : FIELD
LOC  .                         : LOCATION
PROV .                         : PROVINCE
CNTY .                         : COUNTY
STAT .                         : STATE
CTRY .                         : COUNTRY
SRVC .                         : SERVICE COMPANY
DATE .                         : DATE
UWI  .                         : UNIQUE WELL ID
API  .                         : API NUMBER
SLAT .WGS84 0.5943569076805026 : SURFACE LATITUDE
SLON .WGS84  6.228333573710998 : SURFACE LONGITUDE
DATUM.F                2250.99 : DEPTH DATUM ELEV
~Curve Information -----------------------------------------
DEPT.F     : 
CALD.IN    : CALIPER FROM DENSITY LOG
DRHO.G/C3  : DENSITY CORRECTION
PEF .B/E   : PHOTOELECTRIC FACTOR
NPHI.DEC   : NEUTRON POROSITY LIMESTONE
DPHI.DEC   : DENSITY POROSITY LIMESTONE
TEND.LBS   : TENSION FORM DENSITY LOG
TENS.LBS   : TENSION FROM SONIC
GRS .GAPI  : GAMMA RAY FROM SONIC LOG
DT  .US/F  : DELTA TIME
DTCO.US/F  : COMPRESSIONAL-WAVE INTERVAL TRANSIT TIME ACOUSTIC SLOWNESS
DTSM.US/F  : SHEAR-WAVE INTERVAL TRANSIT TIME DELTA-T
DTST.US/F  : SHEAR-WAVE INTERVAL TRANSIT TIME
~Params ----------------------------------------------------
~Other -----------------------------------------------------
~ASCII -----------------------------------------------------
# ...
 15282.00000    7.01190    0.05460    2.99880    0.00890   -0.07010 5604.19190 5581.38130   22.33480   45.26860   45.23120   80.03660  182.03470
 15282.50000    7.01120    0.04620    3.08990    0.01070   -0.06240 5604.04250 5581.08110   22.33480   45.40540   45.53490   80.34060  182.17730
 15283.00000    7.01040    0.03560    3.12010    0.01130   -0.05060 5573.95170 5580.78080   21.95950   45.58560   45.53730   80.64460  182.49100
 15283.50000    7.00970    0.02210    3.15030    0.01130   -0.04050 5543.86230 5580.42770   22.33480   45.58560   45.53970   81.25120  182.50270
 15284.00000    7.00900    0.00990    3.21100    0.01010   -0.03790 5543.71290 5610.16800   23.46100   45.58560   45.54220   82.16040  182.51430
 15284.50000    7.00820    0.00670    3.24110    0.00890   -0.03730 5543.56300 5609.87740   23.08560   45.58560   45.51300   82.76700  182.82800
 15285.00000    7.00750    0.02020    3.21040    0.00890   -0.04000 5603.29350 5639.63960   21.95950   45.58560   45.24600   83.07110  183.14200
 15285.50000    7.00670    0.03520    3.20820    0.00890   -0.05150 5603.14400 5639.32860   20.80910   45.58560   45.24850   83.02480  183.48920
 15286.00000    7.00600    0.04720    3.14450    0.00910   -0.05870 5662.84620 5669.06880   20.40800   45.58560   45.15220   82.77140  183.77040
 15286.50000    7.03490    0.05920    3.08080    0.01090   -0.06230 5692.66500 5668.76900   20.53210   45.58560   44.95180   82.77310  183.78250
 15287.00000    7.03420    0.06520    2.99570    0.01260   -0.05440 5722.45460 5668.46880   21.40850   45.49550   44.95480   82.47170  183.79460
 15287.50000    7.03350    0.06820    3.09840    0.01260   -0.05080 5752.23290 5668.16850   22.33480   45.38290   44.79270   82.33450  183.80670
 15288.00000    7.03280    0.07120    3.19180    0.01170   -0.04950 5722.14890 5667.86770   22.18500   45.28650   44.96030   82.17250  183.81870
 15288.50000    7.03210    0.07120    3.17580    0.01140   -0.04640 5662.12400 5656.99020   21.40930   45.13510   44.96240   81.87140  184.00330
 15289.00000    7.03130    0.07110    3.08590    0.01020   -0.03920 5632.03610 5624.52290   20.63200   45.26660   44.96510   81.57060  184.14710
 15289.50000    7.00070    0.07110    2.96370    0.00780   -0.03270 5628.11330 5592.07420   19.70720   45.59070   45.26880   81.57200  184.15870
 15290.00000    7.00000    0.06900    2.84140    0.00420   -0.02920 5601.79640 5559.55570   18.95650   46.39640   45.57240   81.27080  184.17030
 15290.50000    6.99930    0.06500    2.71920    0.00360   -0.02700 5601.64700 5576.22410   19.33180   46.93690   45.87600   80.96980  184.18200
 15291.00000    6.99850    0.06260    2.59690    0.00420   -0.02370 5601.49710 5575.93410   20.83330   47.38740   46.17970   80.66870  184.49570
 15291.50000    6.99780    0.06200    2.65760    0.00420   -0.02250 5601.34770 5605.70560   23.83630   47.56760   46.48340   80.36760  184.50750
 15292.00000    6.99700    0.06340    2.90620    0.00480   -0.02610 5571.25730 5635.43550   25.71320   47.74770   47.45320   80.06650  184.21690
 15292.50000    6.99630    0.06490    2.99240    0.00540   -0.03270 5554.13770 5665.15380   -9999.25   47.92790   47.99450   79.70180  184.17430
 15293.00000    7.02520    0.06190    2.83960    0.00540   -0.04350 5511.05220 5664.86430   -9999.25   48.10810   48.29780   79.16170  183.86100
 15293.50000    7.02450    0.05880    2.91940    0.00620   -0.04590 5480.96730 5664.56490   -9999.25   47.91120   47.99950   79.05440  183.34550
 15294.00000    7.02380    0.05710    2.97300    0.00710   -0.04160 5480.82280 5664.26420   -9999.25   47.34360   48.00200   78.73130  183.35950
 15294.50000    7.05300    0.04940    3.05040    0.00840   -0.03730 5600.43900 5663.96390   -9999.25   46.78450   47.70330   78.40750  182.92150
 15295.00000    7.08210    0.03950    3.11580    0.00900   -0.03800 5660.17480 5663.66360   -9999.25   46.36940   47.40460   78.26020  182.30610
 15295.50000    7.11120    0.02770    3.26490    0.00900   -0.04430 5689.97070 5652.66460   -9999.25   46.05930   47.10590   78.26200  182.18730
 15296.00000    7.17020    0.02710    3.35610    0.00900   -0.04390 5659.87990 5603.00290   -9999.25   45.81610   46.50630   78.26340  182.20100
 15296.50000    7.16940    0.02980    3.41670    0.00900   -0.04120 5655.14260 5572.67290   -9999.25   45.62970   46.50870   78.56750  182.21270
 15297.00000    7.20470    0.03450    3.44700    0.00900   -0.04080 5622.85300 5572.37260   -9999.25   45.44320   46.20980   78.87150  182.22430
 15297.50000    7.22770    0.04050    3.38570    0.00960   -0.05190 5599.55130 5572.02000   -9999.25   45.31530   46.21230   79.17550  182.23590
 15298.00000    7.22690    0.04950    3.32320    0.01020   -0.05490 5599.40140 5601.80180   -9999.25   45.22520   46.21490   79.47960  182.24770
 15298.50000    7.22610    0.06450    3.23260    0.01020   -0.05850 5599.25150 5601.47020   -9999.25   45.22520   46.21740   79.78370  182.25980
 15299.00000    7.22540    0.08110    3.22690    0.00900   -0.05430 5599.10210 5631.21090   -9999.25   45.22520   46.21990   79.78520  182.27190
 15299.50000    7.22450    0.09160    3.12500    0.00830   -0.02240 5598.92290 5660.95020   -9999.25   45.31530   46.22240   79.78670  182.28400
 15300.00000    7.20900    0.10660    3.05890    0.00640   -0.00740 5598.77830 5660.66060   -9999.25   45.40540   46.22490   79.78820  182.29610
 15300.50000    7.16390    0.11250    3.23170    0.00520    0.01400 5598.63380 5714.78320   -9999.25   45.46850   46.22740   79.48680  182.55620
 15301.00000    7.17880    0.12250    3.21770    0.00450    0.02180 5598.48970 5768.90530   -9999.25   45.49550   45.92870   79.48870  183.67550
 15301.50000    7.22290    0.13680    3.20120    0.00420    0.02020 5598.34520 5808.55910   -9999.25   45.40540   45.32930   79.49020  184.14500
 15302.00000    7.22260    0.14580    3.21910    0.00360    0.01070 5598.20120 5777.63870   -9999.25   45.27940   45.33170   79.49200  184.15920
 15302.50000    7.28210    0.14740    3.10980    0.00240    0.02720 5568.11380 5776.91410   -9999.25   45.00000   45.33410   80.09850  184.17080
 15303.00000    7.31160    0.14440    2.98780    0.00480    0.05560 5567.96390 5746.15970   -9999.25   44.59460   45.03510   80.10000  184.18250
 15303.50000    7.34120    0.13380    2.83540    0.00910    0.07970 5537.88720 5715.40330   -9999.25   44.56750   45.33900   80.40400  184.19410
 15304.00000    7.34090    0.11560    2.80490    0.03800    0.11900 5672.75830 5684.64890   -9999.25   45.04500   45.64260   80.40550  184.20570
 15304.50000    7.41690    0.08930    2.83540    0.04400    0.11420 5726.99460 5683.92430   -9999.25   45.31530   45.64510   80.40700  183.90920
 15305.00000    7.40000    0.07940    2.95730   -9999.25    0.09250 5776.97510 5653.15280   -9999.25   45.04500   45.64760   80.40850  183.59480
 15305.50000    7.36980    0.07430    3.07930   -9999.25    0.07090 5702.73390 5652.40190   -9999.25   44.75710   45.65010   80.41000  182.98040
 15306.00000    7.28000    0.06800    3.11260   -9999.25    0.01070 5640.52250 5651.65090   -9999.25   44.50450   45.73430   80.41150  182.74170
 15306.50000    7.19010    0.06550    3.17070   -9999.25   -0.02250 5596.82910 5650.90140   -9999.25   44.73930   45.95630   80.41300  183.76110
 15307.00000    7.10030    0.06230    3.17750   -9999.25   -0.03530 5596.68460 5659.87650   -9999.25   45.11740   46.26000   80.41450  184.27560
 15307.50000   -9999.25    0.05720    3.23170   -9999.25   -0.04310 5596.54000 5679.57320   -9999.25   45.27030   46.71190   80.41600  183.68580
 15308.00000   -9999.25    0.04810    3.20120   -9999.25   -0.04640 5596.39600 5678.67870   -9999.25   45.31530   47.46990   80.41750  183.39580
 15308.50000   -9999.25    0.04210    3.23170   -9999.25   -0.04380 5566.31100 5707.95800   -9999.25   45.31530   47.47280   80.41910  183.71210
 15309.00000   -9999.25    0.04060    3.26220   -9999.25   -0.04280 5476.34620 5707.06540   -9999.25   45.22520   46.87280   80.42060  184.02580
 15309.50000   -9999.25    0.04520    3.30900   -9999.25   -0.04660 5537.89600 5706.34080   -9999.25   45.13510   46.27290   80.42210  184.33960
