~Version ---------------------------------------------------
VERS.   2.0 : CWLS log ASCII Standard -VERSION 2.0
WRAP.    NO : One line per depth step
DLM . SPACE : Column Data Section Delimiter
~Well ------------------------------------------------------
STRT .F                 9850.0 : START DEPTH
STOP .F                15347.5 : STOP DEPTH
STEP .F                    0.5 : STEP
NULL .                -9999.25 : NULL VALUE
COMP .                         : COMPANY
WELL .                         : WELL
FLD  .                         : FIELD
LOC  .                         : LOCATION
PROV .                         : PROVINCE
CNTY .                         : COUNTY
STAT .                         : STATE
CTRY .                         : COUNTRY
SRVC .                         : SERVICE COMPANY
DATE .                         : DATE
UWI  .                         : UNIQUE WELL ID
API  .                         : API NUMBER
SLAT .WGS84 0.5943569076805026 : SURFACE LATITUDE
SLON .WGS84  6.228333573710998 : SURFACE LONGITUDE
DATUM.F                2250.99 : DEPTH DATUM ELEV
~Curve Information -----------------------------------------
DEPT.F     : 
CALD.IN    : CALIPER FROM DENSITY LOG
DRHO.G/C3  : DENSITY CORRECTION
PEF .B/E   : PHOTOELECTRIC FACTOR
NPHI.DEC   : NEUTRON POROSITY LIMESTONE
DPHI.DEC   : DENSITY POROSITY LIMESTONE
TEND.LBS   : TENSION FORM DENSITY LOG
TENS.LBS   : TENSION FROM SONIC
GRS .GAPI  : GAMMA RAY FROM SONIC LOG
DT  .US/F  : DELTA TIME
DTCO.US/F  : COMPRESSIONAL-WAVE INTERVAL TRANSIT TIME ACOUSTIC SLOWNESS
DTSM.US/F  : SHEAR-WAVE INTERVAL TRANSIT TIME DELTA-T
DTST.US/F  : SHEAR-WAVE INTERVAL TRANSIT TIME
~Params ----------------------------------------------------
~Other -----------------------------------------------------
~ASCII -----------------------------------------------------
# ...
 13630.00000    7.26370    0.00350    3.92700    0.05310    0.01600 4933.93410 4948.97070   69.59550   54.40560   51.41590   86.19350   -9999.25
 13630.50000    7.30690    0.00490    4.53480    0.05890    0.01670 4945.32080 4979.14600   74.26010   55.12760   52.32380   88.01790   -9999.25
 13631.00000    7.36590    0.00640    4.92980    0.05390    0.01850 4962.76270 4979.29200   76.79800   55.57940   52.93070   89.57950   -9999.25
 13631.50000    7.36530    0.00640    5.14240    0.03800    0.02630 4978.14600 4979.43750   78.54160   55.68090   53.23650   90.83900   -9999.25
 13632.00000    7.36470    0.00630    5.17580    0.01080    0.02380 5021.62160 4979.58300   72.50070   54.95140   52.87120   92.02410   -9999.25
 13632.50000    7.36410    0.00780    5.26720    0.00600    0.01920 5051.05130 4979.72900   53.73560   53.32600   52.15650   92.56040   -9999.25
 13633.00000    7.36360    0.00780    5.35470    0.00360    0.01560 5080.48050 4949.84470   40.22570   51.94200   51.09010   91.72340   -9999.25
 13633.50000    7.36300    0.00770    5.34720    0.00060    0.01600 5079.82130 4950.00000   27.84200   50.84140   49.95840   90.91700   -9999.25
 13634.00000    7.36240    0.00770    5.25390    0.00180    0.01660 5049.21090 4950.15040   19.21200   50.05700   49.17620   90.59620   -9999.25
 13634.50000    7.36180    0.00610    5.16860    0.00240    0.01490 5018.59860 4950.30030   12.45890   49.91290   49.04670   90.76670   -9999.25
 13635.00000    7.39110    0.00390    4.94070    0.00240    0.01790 4987.98830 4950.45020   11.71170   50.00450   49.05180   90.77100   -9999.25
 13635.50000    7.39040    0.00300    4.68550    0.00110    0.02270 4957.35740 4956.29200   12.14080   50.00590   49.35740   90.77540   -9999.25
 13636.00000    7.38990    0.00300    4.68880    0.00120    0.02150 4956.75680 4980.78080   14.08950   49.96760   49.66290   90.77980   -9999.25
 13636.50000    7.38930    0.00150    4.86730    0.00130    0.02090 4956.15620 4980.93070   16.41740   49.87320   49.81190   91.08630   -9999.25
 13637.00000    7.38870    0.00290    5.01910    0.00200    0.01970 4955.55570 4981.08110   17.90460   49.88060   49.97290   91.09060   -9999.25
 13637.50000    7.35820    0.00620    5.08740    0.00240    0.01430 4954.95510 4981.25830   18.48670   50.01150   49.97740   91.09520   -9999.25
 13638.00000    7.35750    0.01080    4.95800    0.00180    0.00640 4966.34230 4981.40430   17.10150   50.10290   49.98190   91.09970   -9999.25
 13638.50000    7.35690    0.01700    4.86670    0.00180    0.00220 5013.81400 4992.77000   16.24250   50.19430   49.98640   91.10420   -9999.25
 13639.00000    7.35640    0.02090    4.86660    0.00240    0.00430 4983.18360 5011.72560   17.90820   50.10550   49.99100   91.20330   -9999.25
 13639.50000    7.35580    0.02080    4.92730    0.00240    0.00860 4952.43650 5011.87110   19.83120   50.01680   49.69430   91.41540   -9999.25
 13640.00000    7.35520    0.01870    4.99610    0.00240    0.01010 4951.85450 5042.04740   18.88210   50.01810   49.69880   91.72210   -9999.25
 13640.50000    7.38450    0.01470    5.18180    0.00240    0.00950 5011.33400 5072.22270   17.75960   50.10950   50.00540   92.02870   -9999.25
 13641.00000    7.38390    0.01390    5.30330    0.00180    0.01010 5040.84080 5070.67720   16.63710   50.20600   49.70850   92.33620   -9999.25
 13641.50000    7.38330    0.00860    5.35990    0.00190    0.01000 5070.27000 5042.48440   15.89000   50.29230   49.71230   92.34050   -9999.25
 13642.00000    7.38270    0.00560    5.41280    0.00130    0.01260 5069.64990 5012.59960   15.14290   50.29370   49.71690   92.04230   -9999.25
 13642.50000    7.38210    0.00250    5.41260    0.00130    0.01500 5069.06880 4982.71480   14.77100   50.27330   49.72140   91.74470   -9999.25
 13643.00000    7.38150    0.00250    5.39890    0.00130    0.01800 5068.46830 4973.71680   14.77480   50.17910   49.57190   91.74940   -9999.25
 13643.50000    7.36370    0.00090    5.25970    0.00190    0.01980 5037.83840 4912.07470   14.77850   50.08450   49.42900   91.75380   -9999.25
 13644.00000    7.38030   -0.00060    5.10820    0.00190    0.01990 5037.23730 4863.06300   14.74750   49.99030   49.40560   91.75830   -9999.25
 13644.50000    7.37970   -0.00060    5.10800    0.00190    0.02170 5036.63670 4833.18310   14.41040   49.80590   49.13650   91.76280   -9999.25
 13645.00000    7.37900   -0.00370    5.22950    0.00250    0.02360 5006.00630 4863.36330   15.24660   49.73640   49.14160   91.83740   -9999.25
 13645.50000    7.37840   -0.00370    5.29010    0.00390    0.02460 4975.37550 4893.57180   16.12850   49.58270   49.14610   92.07400   -9999.25
 13646.00000    7.40780   -0.00380    5.38110    0.00490    0.02320 4944.74460 4923.74710   17.17670   49.49390   49.15060   92.19470   -9999.25
 13646.50000    7.40710   -0.00380    5.38430    0.00460    0.02020 4944.14400 4953.92330   17.57940   49.40510   49.15600   92.38520   -9999.25
 13647.00000    7.37670   -0.00380    5.35050    0.00310    0.01960 4943.42720 4954.06880   17.80780   49.40640   49.16030   92.38970   -9999.25
 13647.50000    7.37610   -0.00240    5.31940    0.00250    0.01710 4942.84570 4954.21440   17.61480   49.49780   49.16470   92.39510   -9999.25
 13648.00000    7.37550   -0.00090    5.25900    0.00250    0.01360 4972.29540 4984.39010   16.62560   49.58920   49.16900   92.39950   -9999.25
 13648.50000    7.37490   -0.00090    5.25880    0.00190    0.01020 5001.80180 4954.50590   15.56750   49.59060   49.17340   92.40380   -9999.25
 13649.00000    7.37430    0.00050    5.25240    0.00130    0.01020 5001.16260 4954.65480   14.82030   49.58790   49.17770   92.40790   -9999.25
 13649.50000    7.37370    0.00200    5.22810    0.00130    0.01080 5000.58060 4954.80470   14.44820   49.50310   49.18220   92.11040   -9999.25
 13650.00000    7.36320    0.00500    5.21790    0.00140    0.01080 5000.00000 4924.91260   14.45230   49.50450   49.18670   92.01400   -9999.25
 13650.50000    7.34270    0.00490    5.16700    0.00140    0.01020 4939.33940 4925.07470   14.45590   49.50590   49.19130   91.79400   -9999.25
 13651.00000    7.34210    0.00790    5.09700    0.00140    0.01030 4938.73880 4895.17380   14.83490   49.50720   49.09660   91.51930   -9999.25
 13651.50000    7.34150    0.00640    4.87860    0.00200    0.01090 4938.13820 4895.34520   15.97080   49.54020   48.89890   91.22160   -9999.25
 13652.00000    7.34080    0.00480    4.97160    0.00200    0.01290 4967.64500 4865.43510   17.12490   49.63710   48.90360   91.22660   -9999.25
 13652.50000    7.31040    0.00180    5.07520    0.00200    0.01650 4966.96730 4865.61520   17.09810   49.69140   48.90810   91.11570   -9999.25
 13653.00000    7.27990    0.00170    5.16620    0.00140    0.01750 4954.37890 4865.76560   16.27420   49.69280   48.61140   90.93350   -9999.25
 13653.50000    7.27940    0.00170    5.10530    0.00080    0.01670 4935.73580 4895.97510   15.02920   49.60410   48.61650   90.93810   -9999.25
 13654.00000    7.30860    0.00170    5.01400    0.00080    0.01630 4905.10500 4926.15040   13.60860   49.51530   48.62090   90.64130   -9999.25
 13654.50000    7.33790    0.00350    4.98340    0.00080    0.01690 4814.29830 4986.35640   13.35890   49.51680   48.62520   90.64570   -9999.25
 13655.00000    7.33730    0.00650    4.98330    0.00200    0.01510 4843.74610 4986.50200   14.48950   49.51820   48.93080   90.34740   -9999.25
 13655.50000    7.33980    0.00870    5.47340    0.00200    0.01240 4933.25590 4991.33980   14.10880   49.51950   48.93520   90.35230   -9999.25
 13656.00000    7.39590    0.01050    5.62410    0.00200    0.01310 4992.73440 4986.78660   13.37090   49.52080   49.24100   90.65880   -9999.25
 13656.50000    7.39520    0.01200    5.60200    0.00200    0.01630 5052.21340 4986.93900   14.12600   49.52210   49.24550   90.66310   -9999.25
 13657.00000    7.39460    0.01050    5.32060    0.00140    0.01880 5051.63180 4957.05470   14.50510   49.61640   49.25000   90.99180   -9999.25
 13657.50000    7.39400    0.00890    5.03550    0.00080    0.02000 5081.08150 4954.42240   14.59910   49.71330   49.25450   91.27640   -9999.25
