~Version ---------------------------------------------------
VERS.   2.0 : CWLS log ASCII Standard -VERSION 2.0
WRAP.    NO : One line per depth step
DLM . SPACE : Column Data Section Delimiter
~Well ------------------------------------------------------
STRT .F                 9850.0 : START DEPTH
STOP .F                15347.5 : STOP DEPTH
STEP .F                    0.5 : STEP
NULL .                -9999.25 : NULL VALUE
COMP .                         : COMPANY
WELL .                         : WELL
FLD  .                         : FIELD
LOC  .                         : LOCATION
PROV .                         : PROVINCE
CNTY .                         : COUNTY
STAT .                         : STATE
CTRY .                         : COUNTRY
SRVC .                         : SERVICE COMPANY
DATE .                         : DATE
UWI  .                         : UNIQUE WELL ID
API  .                         : API NUMBER
SLAT .WGS84 0.5943569076805026 : SURFACE LATITUDE
SLON .WGS84  6.228333573710998 : SURFACE LONGITUDE
DATUM.F                2250.99 : DEPTH DATUM ELEV
~Curve Information -----------------------------------------
DEPT.F     : 
CALD.IN    : CALIPER FROM DENSITY LOG
DRHO.G/C3  : DENSITY CORRECTION
PEF .B/E   : PHOTOELECTRIC FACTOR
NPHI.DEC   : NEUTRON POROSITY LIMESTONE
DPHI.DEC   : DENSITY POROSITY LIMESTONE
TEND.LBS   : TENSION FORM DENSITY LOG
TENS.LBS   : TENSION FROM SONIC
GRS .GAPI  : GAMMA RAY FROM SONIC LOG
DT  .US/F  : DELTA TIME
DTCO.US/F  : COMPRESSIONAL-WAVE INTERVAL TRANSIT TIME ACOUSTIC SLOWNESS
DTSM.US/F  : SHEAR-WAVE INTERVAL TRANSIT TIME DELTA-T
DTST.US/F  : SHEAR-WAVE INTERVAL TRANSIT TIME
~Params ----------------------------------------------------
~Other -----------------------------------------------------
~ASCII -----------------------------------------------------
# ...
 14358.00000    8.10510    0.00460    4.60460    0.05330   -0.00720 5272.45510 5203.73830   79.48950   58.26490   57.20590  101.92440  181.67750
 14358.50000    8.10420    0.00460    4.73870    0.05210   -0.00420 5241.76610 5210.39890   72.35160   58.08630   56.88680  101.62480  181.37880
 14359.00000    8.13320    0.00460    4.88650    0.05390   -0.00360 5225.08200 5231.15230   67.46620   57.54710   56.62020  101.62810  181.38170
 14359.50000    8.16220    0.00450    4.99410    0.05770   -0.00120 5210.18460 5229.58060   65.15970   56.82770   56.62350  101.63110  181.38460
 14360.00000    8.17320    0.00450    5.07900    0.06510    0.00360 5209.45950 5228.22800   63.32620   56.37850   56.32480  101.33140  181.38760
 14360.50000    8.22000    0.00260    5.03080    0.06430    0.00420 5298.55620 5196.84720   65.49980   56.46990   56.20520  101.33430  181.39060
 14361.00000    8.24900    0.00150    4.83620    0.05960    0.00170 5327.84420 5195.23050   68.49410   56.74150   55.88440  101.03470  181.39370
 14361.50000    8.27790    0.00140    4.86670    0.05750    0.00060 5327.04740 5193.92290   69.69120   56.74320   55.73190  100.73500  181.69830
 14362.00000    8.27690    0.00140    4.83650    0.06070    0.00040 5326.32230 5162.58500   66.98740   56.36740   55.43370  100.67210  182.01410
 14362.50000    8.30590    0.00220    4.74550    0.06500   -0.00140 5325.59860 5161.27390   64.82940   55.83330   55.13550  100.43830  184.31710
 14363.00000    8.33480    0.00890    4.62400    0.07000   -0.00330 5324.85010 5220.02590   63.66740   55.75570   55.13890  100.13870  185.47450
 14363.50000    8.33400    0.01340    4.47220    0.07620   -0.00640 5324.10160 5248.74800   64.78680   55.98320   55.44300  100.14220  184.69290
 14364.00000    8.33310    0.01940    4.25960    0.08100   -0.01330 5323.35300 5247.43990   66.65820   56.35650   55.74710  100.75410  184.73060
 14364.50000    8.33130    0.01990    4.35250    0.08280   -0.01570 5284.69680 5246.09720   68.15430   56.76430   56.35490  101.83630  185.03510
 14365.00000    8.30150    0.01630    4.58160    0.08520   -0.01600 5232.03610 5244.74410   68.14880   57.19330   56.65660  102.87490  184.13310
 14365.50000    8.30060    0.01330    4.84860    0.08460   -0.00840 5201.34770 5243.39400   68.14330   57.43040   56.65960  102.87790  182.02440
 14366.00000    8.29970    0.01480    4.98170    0.07790   -0.00120 5200.59860 5242.04150   69.26400   57.56580   56.36110  102.88080  181.72560
 14366.50000    8.28960    0.01630    5.08100    0.06760    0.00360 5169.91020 5210.66110   70.38470   57.65740   56.06280  102.58110  181.72850
 14367.00000    8.29810    0.01670    5.08120    0.06650    0.00290 5139.07670 5209.30810   69.97050   57.47860   55.76450  102.28140  181.73150
 14367.50000    8.29700    0.02110    5.10820    0.06990   -0.00140 5108.41160 5207.95850   67.95780   57.11950   55.46690  101.98180  181.73450
 14368.00000    8.29610    0.02760    5.21850    0.07130   -0.00240 5077.74760 5206.60640   65.48800   56.58030   55.30890  101.98490  181.73760
 14368.50000    8.26520    0.03430    5.21620    0.06820   -0.00050 5047.08250 5205.25490   66.96570   56.39300   54.87050  101.94260  181.74060
 14369.00000    8.26430    0.03090    5.02100    0.06710    0.00510 5046.35890 5203.66750   69.68460   56.67300   54.57230  101.68800  181.74360
 14369.50000    8.26350    0.02520    4.65640    0.06830    0.01220 5075.57370 5202.35690   72.64110   57.12800   54.87690  101.99390  181.74660
 14370.00000    8.23270    0.02700    4.56540    0.06910    0.01330 5194.61080 5201.04880   74.58500   57.40550   55.78340  102.10850  181.74960
 14370.50000    8.23190    0.02910    4.47430    0.06890    0.00980 5225.85450 5199.74070   76.34270   57.59280   56.99110  102.73870  181.75260
 14371.00000    8.23100    0.03530    4.50490    0.06950    0.00360 5253.04200 5198.43020   77.09080   57.66940   57.59640  103.36770  181.75620
 14371.50000    8.23020    0.04150    4.59620    0.07070    0.00000 5252.24510 5197.12210   74.83190   57.64420   57.56300  103.82150  182.06080
 14372.00000    8.25910    0.04840    4.68830    0.07310   -0.00360 5251.49710 5195.79540   71.44810   57.58170   56.65860  103.82500  182.06370
 14372.50000    8.25820    0.05690    4.75120    0.07790   -0.00660 5250.74850 5194.44530   71.81800   57.69890   56.76430  104.13050  182.06660
 14373.00000    8.25730    0.05720    4.84460    0.08640   -0.01080 5250.00000 5193.09230   75.94170   58.30250   57.47860  104.43600  182.37120
 14373.50000    8.25640    0.04610    5.11010    0.08870   -0.01450 5249.25100 5191.74220   81.19150   58.85750   58.21390  104.43890  182.67580
 14374.00000    8.25550    0.03100    5.36140    0.08130   -0.01430 5248.50290 5190.39010   84.18910   59.11920   58.08640  104.13930  182.67870
 14374.50000    8.25460    0.01140    5.56070    0.05540   -0.00850 5247.60940 5189.03910   84.13060   59.03040   57.31020  103.52970  182.68170
 14375.00000    8.25370    0.00380    5.67370    0.04040   -0.00600 5216.94430 5187.68850   77.72690   58.40110   56.36570  102.25630  182.73480
 14375.50000    8.25280    0.00080    5.66230    0.01840   -0.00560 5186.28080 5186.33640   66.74310   56.15010   54.91310  100.42190  182.61600
 14376.00000    8.28180    0.00080    5.55360    0.01470   -0.00270 5185.55570 5184.98540   53.01350   54.16940   53.41000   99.03570  181.99550
 14376.50000    8.31070    0.00080    5.44880    0.01690    0.00090 5154.89160 5183.63480   46.99890   52.63920   51.90690   96.53000  182.09050
 14377.00000    8.30980    0.00070    5.35780    0.01950    0.00330 5154.16650 5182.07130   47.12190   51.46790   51.00620   94.96790  182.83120
 14377.50000    8.30890    0.00110    4.96280    0.02310    0.00360 5153.44290 5180.76320   50.61570   51.49690   51.31030   94.47810  184.21790
 14378.00000    8.30800    0.00220    4.59820    0.03820    0.00120 5152.69430 5179.45260   58.00260   52.45940   52.24980   94.63670  183.00510
 14378.50000    8.30720    0.00220    4.50710    0.04420    0.00060 5181.93460 5148.11430   62.45340   53.87160   54.72500   95.62000  182.90370
 14379.00000    8.33610    0.00290    4.72010    0.06640    0.00120 5223.15040 5146.80620   70.24290   54.95410   56.24830   99.02620  185.12260
 14379.50000    8.36510    0.00360    4.78100    0.09350    0.00120 5308.11770 5145.49560   77.36960   56.16150   57.12320  102.35740  185.48890
 14380.00000    8.33430    0.00360    4.71830    0.09590    0.00000 5359.40280 5144.14500   82.24400   57.44090   58.15340  104.47840  184.52510
 14380.50000    8.32540    0.00360    4.73230    0.09450   -0.00440 5298.65230 5142.79250   86.74310   58.58430   59.28210  105.38900  185.13130
 14381.00000    8.29260    0.00360    4.85410    0.09250   -0.00880 5283.89990 5147.35160   87.16480   59.14370   59.16270  105.69450  185.13420
 14381.50000    8.24210    0.00350    4.90320    0.08300   -0.01170 5251.27980 5177.99020   82.60300   59.22950   58.39500  104.77500  184.23220
 14382.00000    8.24120    0.00350    4.86300    0.06750   -0.01020 5266.32230 5208.60740   76.59160   58.69030   56.75960  102.89650  184.88260
 14382.50000    8.24030    0.00350    4.84270    0.05690   -0.00030 5265.59720 5239.27100   71.97550   57.70060   55.85890  101.37190  185.20830
 14383.00000    8.23920    0.00350    4.85670    0.04530    0.00070 5264.87350 5256.15580   67.76510   56.26050   55.25930  100.38670  185.44750
 14383.50000    8.23840    0.00350    4.87340    0.03370   -0.00120 5234.20800 5254.80570   64.72920   55.45100   54.35860   99.58360  185.14880
 14384.00000    8.23750    0.00340    4.89140    0.02250   -0.00240 5173.60450 5223.15430   61.46020   54.73160   53.75910   98.75380  185.15230
 14384.50000    8.20680    0.00340    4.93450    0.01770   -0.00360 5083.05910 5221.84330   57.33300   53.92210   53.45840   98.15160  185.15530
 14385.00000    8.11640    0.00440    4.96510    0.01470   -0.00480 5052.39500 5190.50490   52.85140   52.81870   53.13710   97.54940  185.15840
 14385.50000    8.08570    0.00590    4.97180    0.01590   -0.00660 5083.63920 5189.19680   49.97320   52.19200   52.51570   96.94720  185.16190
