~Version ---------------------------------------------------
VERS.   2.0 : CWLS log ASCII Standard -VERSION 2.0
WRAP.    NO : One line per depth step
DLM . SPACE : Column Data Section Delimiter
~Well ------------------------------------------------------
STRT .F                  190.0 : START DEPTH
STOP .F                 4601.0 : STOP DEPTH
STEP .F                    0.5 : STEP
NULL .                -9999.25 : NULL VALUE
COMP .                         : COMPANY
WELL .                         : WELL
FLD  .                         : FIELD
LOC  .                         : LOCATION
PROV .                         : PROVINCE
CNTY .                         : COUNTY
STAT .                         : STATE
CTRY .                         : COUNTRY
SRVC .                         : SERVICE COMPANY
DATE .                         : DATE
UWI  .                         : UNIQUE WELL ID
API  .                         : API NUMBER
SLAT .WGS84 2.9034517340801003 : SURFACE LATITUDE
SLON .WGS84  9.383760901910009 : SURFACE LONGITUDE
DATUM.F                4236.02 : DEPTH DATUM ELEV
~Curve Information -----------------------------------------
DEPT.F     : 
DTCO.US/F  : COMPRESSIONAL-WAVE INTERVAL TRANSIT TIME ACOUSTIC SLOWNESS
DTSM.US/F  : SHEAR-WAVE INTERVAL TRANSIT TIME DELTA-T
HSGR.GAPI  : HIGH RESOLUTION STANDARD GAMMA RAY, SPECTROSCOPY GAMMA RAY
HCAL.IN    : HILT CALIPER
TNPH.DEC   : THERMAL NEUTRON POROSITY LIMESTONE
DPHZ.DEC   : DENSITY POROSITY LIMESTONE
HDRA.G/C3  : DELTA RHO HIP TOOL
PEFZ.B/E   : FORMATION PHETOELECTRIC FACTOR
RHOZ.G/C3  : HILT BULK DENSITY
~Params ----------------------------------------------------
~Other -----------------------------------------------------
~ASCII -----------------------------------------------------
# ...
 4351.00000   49.31260   92.49500   35.73130    8.88290    0.06210   -0.07280   -0.00210    3.33680    2.82350
 4351.50000   48.33080   90.65610   34.22860    8.88180    0.05890   -0.09020   -0.00240    3.25740    2.85510
 4352.00000   47.60960   88.81720   32.68460    8.88060    0.05200   -0.08890   -0.00300    3.21160    2.85210
 4352.50000   47.20120   86.97830   31.09360    8.87950    0.04450   -0.08650   -0.00330    3.21910    2.84790
 4353.00000   47.28180   85.13940   29.61660    8.87840    0.03840   -0.08410   -0.00370    3.21240    2.84460
 4353.50000   47.36230   84.63390   27.88200    8.87730    0.03370   -0.08160   -0.00430    3.24500    2.84130
 4354.00000   47.43230   86.40780   28.49280    8.87620    0.02900   -0.07920   -0.00470    3.30760    2.83720
 4354.50000   48.23990   88.56570   30.28060    8.87510    0.02660   -0.07860   -0.00520    3.36580    2.83620
 4355.00000   49.20160   90.85260   32.76220    8.87400    0.02600   -0.08190   -0.00540    3.43080    2.83990
 4355.50000   49.47360   92.58840   34.84970    8.87280    0.02890   -0.08500   -0.00540    3.47750    2.84410
 4356.00000   49.02050   92.85860   35.69720    8.87170    0.03640   -0.08060   -0.00530    3.49250    2.84440
 4356.50000   48.54440   87.68310   36.49510    8.87060    0.04530   -0.07600   -0.00410    3.41000    2.83770
 4357.00000   47.94020   82.42730   37.00270    8.86950    0.05290   -0.06960   -0.00270    3.31320    2.83150
 4357.50000   47.03110   83.46680   34.50410    8.86840    0.04890   -0.07220   -0.00120    3.23820    2.82560
 4358.00000   46.33520   84.84000   31.59840    8.86730    0.03480   -0.08090   -0.00040    3.21450    2.83430
 4358.50000   46.04810   84.35390   28.57560    8.86610    0.01960   -0.09160   -0.00060    3.20020    2.84980
 4359.00000   46.10830   82.44050   27.32370    8.86500    0.01640   -0.09210   -0.00070    3.22970    2.85810
 4359.50000   46.40920   82.11600   29.73180    8.86390    0.02000   -0.09300   -0.00080    3.26560    2.85780
 4360.00000   47.23490   82.97190   32.33350    8.86280    0.02720   -0.09160   -0.00090    3.30130    2.85890
 4360.50000   48.08080   83.82790   34.50890    8.86160    0.03290   -0.08760   -0.00110    3.33190    2.85840
 4361.00000   48.92670   84.68390   33.98950    8.86240    0.04390   -0.07770   -0.00120    3.31350    2.84460
 4361.50000   49.77260   86.89070   32.55460    8.86370    0.05690   -0.06450   -0.00140    3.28780    2.82600
 4362.00000   50.61850   90.03760   30.32680    8.86490    0.07260   -0.05570   -0.00030    3.26450    2.80830
 4362.50000   51.46440   93.18450   28.13810    8.86620    0.08290   -0.05690    0.00280    3.23840    2.80290
 4363.00000   52.06860  102.10120   26.10140    8.86740    0.08820   -0.05890    0.00520    3.21680    2.80060
 4363.50000   52.55850  119.58680   24.97580    8.86860    0.09460   -0.04330    0.00250    3.18620    2.79360
 4364.00000   52.96890  135.59160   28.53610    8.86990    0.10100   -0.02750   -0.00190    3.19610    2.77480
 4364.50000   52.83790  143.98680   35.45880    8.87110    0.10860   -0.01170   -0.00230    3.25410    2.75680
 4365.00000   52.52720  144.04780   38.58020    8.87240    0.10860   -0.00430   -0.00190    3.29740    2.73910
 4365.50000   52.32960  122.54200   34.79110    8.87360    0.09930   -0.00210   -0.00170    3.33050    2.72010
 4366.00000   52.40140  105.83550   29.69180    8.87490    0.08790    0.00000   -0.00150    3.36070    2.71470
 4366.50000   52.17690   91.95390   25.76960    8.87610    0.08080    0.00360   -0.00080    3.39140    2.70930
 4367.00000   51.69990   89.04710   25.33360    8.87740    0.08060    0.00880    0.00110    3.41680    2.70410
 4367.50000   50.71670   90.05820   26.72840    8.87860    0.09800    0.00950    0.00050    3.45600    2.70000
 4368.00000   49.68370   91.26660   26.88640    8.87980    0.10580    0.01000   -0.00290    3.48900    2.69350
 4368.50000   48.69250   91.45440   25.82470    8.88110    0.09900   -0.01210   -0.00520    3.52500    2.70000
 4369.00000   48.01060   90.84080   25.20670    8.88160    0.07460   -0.03650   -0.00660    3.58760    2.72210
 4369.50000   47.73320   90.25110   27.05800    8.88150    0.05960   -0.04290   -0.00820    3.64770    2.74240
 4370.00000   47.73320   89.62980   30.16230    8.88160    0.04520   -0.05040   -0.00800    3.68210    2.76360
 4370.50000   47.73320   87.25050   32.62420    8.88150    0.02890   -0.05890   -0.00760    3.67050    2.78460
 4371.00000   47.73320   83.92740   34.81430    8.88160    0.02500   -0.05920   -0.00700    3.69640    2.80460
 4371.50000   47.73320   83.02910   37.28570    8.88160    0.02080   -0.05870   -0.00690    3.72710    2.80450
 4372.00000   47.82870   86.36760   39.51530    8.88130    0.01440   -0.05750   -0.00440    3.85700    2.80340
 4372.50000   48.07220   88.31180   38.93440    8.87730    0.00760   -0.05620   -0.00060    4.07070    2.80160
 4373.00000   48.39520   87.04130   37.09730    8.87230    0.00630   -0.05490   -0.00060    4.30300    2.80030
 4373.50000   48.45540   87.32120   35.13050    8.86740    0.00520   -0.05370   -0.00090    4.38460    2.79900
 4374.00000   48.21680   88.33700   34.21400    8.86240    0.01530   -0.04960   -0.00090    4.34070    2.79490
 4374.50000   47.97390   88.64430   34.75610    8.85760    0.02460   -0.04420   -0.00160    4.18490    2.78780
 4375.00000   48.10630   89.03460   35.45790    8.85250    0.03260   -0.03880   -0.00030    3.92890    2.78110
 4375.50000   48.22720   89.44480   36.37700    8.84780    0.03920   -0.03290    0.00760    3.82490    2.77390
 4376.00000   48.34220   89.29590   36.72830    8.84260    0.04290   -0.03080    0.01790    3.75620    2.76740
 4376.50000   48.40940   89.70490   33.83380    8.84300    0.03700   -0.02930    0.02000    3.89450    2.75990
 4377.00000   48.58850   90.34300   31.13550    8.84670    0.02630   -0.03170    0.00910    4.03560    2.75820
 4377.50000   49.01140   90.48900   27.21270    8.84950    0.01550   -0.03660    0.00550    4.17970    2.76200
 4378.00000   49.36670   90.17430   28.03380    8.85280    0.01000   -0.03900    0.00200    4.31480    2.76490
 4378.50000   49.58000   89.85960   31.29890    8.85570    0.01440   -0.03920   -0.00140    4.37960    2.76820
 4379.00000   49.79320   89.64890   34.04360    8.85900    0.02040   -0.04010   -0.00430    4.22730    2.77140
 4379.50000   50.02010   91.35250   36.22320    8.86100    0.03300   -0.04170   -0.00510    3.99270    2.77440
 4380.00000   50.04300   93.67640   35.84820    8.85800    0.04790   -0.03820   -0.00570    3.76610    2.77800
 4380.50000   49.93320   95.86760   33.98330    8.85490    0.06370   -0.03240   -0.00630    3.58620    2.77770
 4381.00000   49.79500   92.50860   34.61770    8.85190    0.07250   -0.02480   -0.00690    3.60940    2.76870
 4381.50000   49.48230   84.83450   39.22170    8.84880    0.07420   -0.01840   -0.00740    3.62590    2.75990
 4382.00000   49.11050   86.43320   43.37370    8.84580    0.06270   -0.01410   -0.00770    3.69420    2.75110
 4382.50000   48.73870   89.32000   44.34730    8.84260    0.04290   -0.01030   -0.00790    4.01760    2.74220
 4383.00000   48.73600   92.19000   40.79670    8.84120    0.02300   -0.00480   -0.00810    4.34330    2.73350
 4383.50000   49.02130   92.72610   36.97360    8.84140    0.00640   -0.00700   -0.00830    4.60560    2.72430
 4384.00000   49.30660   91.36470   35.16350    8.84130    0.00330   -0.01100   -0.00550    4.83290    2.72050
 4384.50000   49.59880   90.25070   36.44310    8.84140    0.00080   -0.01480   -0.00160    4.84310    2.72850
 4385.00000   49.77930   90.25070   37.23240    8.84130    0.00840   -0.01880   -0.00100    4.70520    2.73590
 4385.50000   49.70530   89.56270   38.08840    8.84140    0.02270   -0.01980   -0.00030    4.57110    2.74430
 4386.00000   49.68020   87.88900   37.56350    8.84140    0.04490   -0.01530   -0.00190    4.34220    2.74430
 4386.50000   49.73510   87.96150   36.05140    8.84140    0.05530   -0.00650   -0.00480    4.05100    2.73700
 4387.00000   49.75450   87.66890   35.38650    8.84140    0.06410   -0.00750   -0.00800    3.87790    2.73270
