~Version ---------------------------------------------------
VERS.   2.0 : CWLS log ASCII Standard -VERSION 2.0
WRAP.    NO : One line per depth step
DLM . SPACE : Column Data Section Delimiter
~Well ------------------------------------------------------
STRT .F                  190.0 : START DEPTH
STOP .F                 4601.0 : STOP DEPTH
STEP .F                    0.5 : STEP
NULL .                -9999.25 : NULL VALUE
COMP .                         : COMPANY
WELL .                         : WELL
FLD  .                         : FIELD
LOC  .                         : LOCATION
PROV .                         : PROVINCE
CNTY .                         : COUNTY
STAT .                         : STATE
CTRY .                         : COUNTRY
SRVC .                         : SERVICE COMPANY
DATE .                         : DATE
UWI  .                         : UNIQUE WELL ID
API  .                         : API NUMBER
SLAT .WGS84 2.9034517340801003 : SURFACE LATITUDE
SLON .WGS84  9.383760901910009 : SURFACE LONGITUDE
DATUM.F                4236.02 : DEPTH DATUM ELEV
~Curve Information -----------------------------------------
DEPT.F     : 
DTCO.US/F  : COMPRESSIONAL-WAVE INTERVAL TRANSIT TIME ACOUSTIC SLOWNESS
DTSM.US/F  : SHEAR-WAVE INTERVAL TRANSIT TIME DELTA-T
HSGR.GAPI  : HIGH RESOLUTION STANDARD GAMMA RAY, SPECTROSCOPY GAMMA RAY
HCAL.IN    : HILT CALIPER
TNPH.DEC   : THERMAL NEUTRON POROSITY LIMESTONE
DPHZ.DEC   : DENSITY POROSITY LIMESTONE
HDRA.G/C3  : DELTA RHO HIP TOOL
PEFZ.B/E   : FORMATION PHETOELECTRIC FACTOR
RHOZ.G/C3  : HILT BULK DENSITY
~Params ----------------------------------------------------
~Other -----------------------------------------------------
~ASCII -----------------------------------------------------
# ...
 3548.00000   47.94380   88.79570   40.54010    9.64030    0.00360   -0.14550   -0.00290    4.46200    2.93610
 3548.50000   47.71820   89.48300   45.64260    9.64330    0.00910   -0.13740   -0.00160    4.21960    2.93870
 3549.00000   48.35910   90.17160   50.96970    9.64470    0.01550   -0.11740   -0.00030    3.92400    2.94120
 3549.50000   49.65420   91.31540   54.68180    9.64450    0.02200   -0.10020    0.00160    3.66180    2.94340
 3550.00000   51.44360   93.52700   55.39630    9.64460    0.02720   -0.10550    0.00360    3.52360    2.94430
 3550.50000   53.24500   95.75720   56.16000    9.64460    0.03170   -0.11740    0.00540    3.41990    2.90460
 3551.00000   54.64400   97.52360   59.52900    9.64460    0.03880   -0.10180    0.00440    3.43920    2.85110
 3551.50000   54.70940   98.41690   68.12640    9.64460    0.05430   -0.07730    0.00300    3.45970    2.81100
 3552.00000   53.88310   99.28950   76.05080    9.64460    0.07780   -0.06100    0.00330    3.51530    2.81020
 3552.50000   53.09110  100.42720   79.26380    9.64460    0.07540   -0.07200    0.00550    3.59990    2.82520
 3553.00000   53.27220  102.14500   68.86350    9.64460    0.06560   -0.08820    0.00300    3.70440    2.84520
 3553.50000   55.28600  103.86290   53.87390    9.64460    0.04380   -0.10620   -0.00110    3.92390    2.86560
 3554.00000   56.79880  105.69710   38.76910    9.64460    0.02650   -0.13800   -0.00630    4.19340    2.88560
 3554.50000   57.78340  105.20120   28.76530    9.64460    0.02000   -0.13170   -0.00370    4.33760    2.90580
 3555.00000   56.64190  104.79840   33.86590    9.64460    0.04100   -0.10230    0.00500    4.11070    2.92650
 3555.50000   54.93000  105.31770   40.32000    9.64460    0.06400   -0.07580    0.01430    3.96080    2.87430
 3556.00000   53.62820  106.31130   43.64290    9.64470    0.08520   -0.04280    0.01160    3.86410    2.79730
 3556.50000   53.69110  106.39520   35.17010    9.64410    0.06280   -0.06270    0.00220    4.18900    2.77780
 3557.00000   54.65400  106.47910   26.21870    9.63770    0.03770   -0.09890   -0.01000    4.56270    2.79560
 3557.50000   56.66000  109.01510   17.35160    9.62990    0.01280   -0.14190   -0.02490    4.99370    2.86620
 3558.00000   60.18460  112.33820   18.89420    9.62280   -0.00140   -0.17710   -0.04060    5.11890    2.93670
 3558.50000   63.02630  113.13160   23.39850    9.61480    0.00770   -0.16300   -0.03760    4.96490    2.98970
 3559.00000   64.34300  112.84320   32.40460    9.60850    0.01800   -0.13070   -0.02620    4.53920    2.94150
 3559.50000   63.92710  112.51370   41.63270    9.59390    0.05650   -0.10090   -0.00950    4.11060    2.88320
 3560.00000   60.78090  107.92400   47.31620    9.57240    0.08940   -0.08140   -0.00190    3.82750    2.84280
 3560.50000   55.86480  103.19450   50.43610    9.55280    0.11500   -0.05050   -0.00360    3.67000    2.80220
 3561.00000   51.73940   98.44700   50.98140    9.53230    0.11700   -0.06060   -0.00190    3.62760    2.79110
 3561.50000   49.24490   95.42970   45.97270    9.51220    0.09230   -0.07510    0.00100    3.66880    2.80940
 3562.00000   48.15450   94.49710   38.85590    9.49240    0.06490   -0.08960    0.00360    3.69790    2.83390
 3562.50000   49.47840   96.10830   31.43000    9.47540    0.03750   -0.11940    0.00460    3.70320    2.85840
 3563.00000   52.56920   97.71960   33.80190    9.45510    0.02810   -0.11430    0.00540    3.62220    2.88290
 3563.50000   55.66000   99.33080   39.75930    9.43430    0.03430   -0.10690    0.00490    3.53410    2.90230
 3564.00000   57.75790  100.94200   48.87420    9.41370    0.04790   -0.08750    0.00330    3.47190    2.89240
 3564.50000   58.68610  101.68310   57.89600    9.39290    0.07260   -0.05310    0.00290    3.41570    2.85230
 3565.00000   56.71210   98.88300   66.75390    9.37230    0.09980   -0.01870    0.00510    3.54470    2.81210
 3565.50000   52.62170   96.10340   68.10550    9.35150    0.10380   -0.00840    0.00330    3.78830    2.77190
 3566.00000   48.49150   93.33070   52.90220    9.33140    0.07110   -0.05800   -0.00200    3.98600    2.73170
 3566.50000   46.64030   91.51370   38.11760    9.31510    0.03990   -0.09860   -0.00210    4.11690    2.79870
 3567.00000   46.62530   89.89440   26.85780    9.30130    0.01880   -0.13550   -0.00160    4.03100    2.92280
 3567.50000   46.93880   88.27370   23.39610    9.28790    0.01440   -0.10430   -0.00130    3.92620    2.91290
 3568.00000   47.29470   86.65610   24.59140    9.27450    0.01680   -0.09880   -0.00080    3.83140    2.89380
 3568.50000   47.66390   85.43630   26.63090    9.26080    0.02200   -0.09300   -0.00010    3.72060    2.87470
 3569.00000   47.79340   85.63690   32.53110    9.24770    0.02930   -0.08480    0.00930    3.69490    2.85640
 3569.50000   47.38780   88.03720   37.06320    9.23370    0.04130   -0.07410    0.01650    3.74890    2.84190
 3570.00000   46.70810   91.44140   39.91390    9.22130    0.04610   -0.07740    0.03950    3.79460    2.83290
 3570.50000   46.46940   93.67960   35.55730    9.20600    0.04370   -0.08820    0.03470    3.81690    2.84060
 3571.00000   48.49690   94.57950   29.91320    9.21350    0.03590   -0.09620    0.01730    3.80790    2.84780
 3571.50000   51.53140   95.06510   25.69610    9.23460    0.03010   -0.09340    0.00510    3.79940    2.85490
 3572.00000   53.35970   95.06470   27.97340    9.25380    0.03320   -0.07750   -0.00570    3.80790    2.86230
 3572.50000   53.87160   94.08510   34.11470    9.26420    0.04850   -0.06300   -0.00890    3.82700    2.84360
 3573.00000   53.71960   93.17400   39.58880    9.26270    0.04690   -0.05250   -0.00680    3.89950    2.81640
 3573.50000   52.30930   92.26290   36.94340    9.26350    0.04090   -0.07560   -0.00530    4.11470    2.79530
 3574.00000   49.59200   91.35180   30.18420    9.26200    0.03010   -0.09940   -0.00380    4.38850    2.82860
 3574.50000   46.87820   88.33300   22.69590    9.24320    0.01800   -0.15250   -0.00640    4.58570    2.87580
 3575.00000   45.72460   86.03810   17.21570    9.22090    0.00990   -0.14370   -0.01050    4.66680    2.94200
 3575.50000   45.59970   87.47760   21.03890    9.19640    0.01090   -0.12130   -0.01190    4.49890    2.92100
 3576.00000   46.77030   88.56260   24.42430    9.17830    0.01330   -0.09940   -0.00910    4.17570    2.87740
 3576.50000   48.64550   87.78800   27.71100    9.17060    0.01900   -0.09380   -0.00640    3.87290    2.86940
 3577.00000   49.48490   87.01340   31.30640    9.16030    0.02470   -0.09660   -0.00100    3.60480    2.86040
 3577.50000   48.58380   88.15720   38.35900    9.15020    0.03370   -0.07120    0.00080    3.55540    2.84590
 3578.00000   46.97450   91.08670   48.38380    9.15110    0.06650   -0.04820    0.00200    3.49860    2.81520
 3578.50000   48.01000   93.46040   60.01910    9.28240    0.08470   -0.02240    0.00330    3.58380    2.78460
 3579.00000   50.16030   94.26280   55.75300    9.40660    0.09060   -0.04520    0.00470    3.73550    2.74660
 3579.50000   52.10310   94.32150   44.82920    9.34810    0.07470   -0.08360    0.00410    3.89310    2.76430
 3580.00000   53.27580   94.38440   34.15840    9.22710    0.06170   -0.10660    0.01020    3.95950    2.86450
 3580.50000   53.78930   94.44730   39.13980    9.18460    0.05710   -0.10060    0.03060    3.82240    2.85960
 3581.00000   53.91280   95.36210   49.87490    9.20260    0.08420   -0.02950    0.06740    3.70580    2.77290
 3581.50000   53.33350   97.37610   57.68890    9.20830    0.12550    0.00160    0.10000    3.60920    2.71710
 3582.00000   51.21370   99.96150   56.44110    9.21970    0.11670   -0.03860    0.10850    3.64370    2.75410
 3582.50000   48.94940  108.66600   48.89560    9.20380    0.09780   -0.08280    0.07290    3.69480    2.79100
 3583.00000   50.59790  126.45670   53.76550    9.21170    0.10560   -0.06400    0.01680    3.70960    2.82790
 3583.50000   52.85580  148.39160   69.83190    9.18540    0.14800   -0.00840   -0.01860    3.59820    2.83720
 3584.00000   55.11360  166.40820   87.85140    9.20280    0.19640    0.12950   -0.02260    3.46540    2.65900
