~Version ---------------------------------------------------
VERS.   2.0 : CWLS log ASCII Standard -VERSION 2.0
WRAP.    NO : One line per depth step
DLM . SPACE : Column Data Section Delimiter
~Well ------------------------------------------------------
STRT .F                  190.0 : START DEPTH
STOP .F                 4601.0 : STOP DEPTH
STEP .F                    0.5 : STEP
NULL .                -9999.25 : NULL VALUE
COMP .                         : COMPANY
WELL .                         : WELL
FLD  .                         : FIELD
LOC  .                         : LOCATION
PROV .                         : PROVINCE
CNTY .                         : COUNTY
STAT .                         : STATE
CTRY .                         : COUNTRY
SRVC .                         : SERVICE COMPANY
DATE .                         : DATE
UWI  .                         : UNIQUE WELL ID
API  .                         : API NUMBER
SLAT .WGS84 2.9034517340801003 : SURFACE LATITUDE
SLON .WGS84  9.383760901910009 : SURFACE LONGITUDE
DATUM.F                4236.02 : DEPTH DATUM ELEV
~Curve Information -----------------------------------------
DEPT.F     : 
DTCO.US/F  : COMPRESSIONAL-WAVE INTERVAL TRANSIT TIME ACOUSTIC SLOWNESS
DTSM.US/F  : SHEAR-WAVE INTERVAL TRANSIT TIME DELTA-T
HSGR.GAPI  : HIGH RESOLUTION STANDARD GAMMA RAY, SPECTROSCOPY GAMMA RAY
HCAL.IN    : HILT CALIPER
TNPH.DEC   : THERMAL NEUTRON POROSITY LIMESTONE
DPHZ.DEC   : DENSITY POROSITY LIMESTONE
HDRA.G/C3  : DELTA RHO HIP TOOL
PEFZ.B/E   : FORMATION PHETOELECTRIC FACTOR
RHOZ.G/C3  : HILT BULK DENSITY
~Params ----------------------------------------------------
~Other -----------------------------------------------------
~ASCII -----------------------------------------------------
# ...
 2124.50000   45.78320   80.72440   30.01700    9.22640    0.00920   -0.11790    0.00570    3.64840    2.89860
 2125.00000   45.79320   80.72220   32.14400    9.21930    0.01060   -0.10940    0.00810    3.52240    2.88830
 2125.50000   45.80370   80.46990   35.05320    9.21250    0.01200   -0.10760    0.02440    3.48220    2.88290
 2126.00000   45.86410   80.21770   39.16510    9.20530    0.01330   -0.10030    0.03220    3.53040    2.87430
 2126.50000   45.95720   80.02010   43.04960    9.20320    0.01470   -0.09570    0.02220    3.59270    2.86700
 2127.00000   46.04810   80.59070   47.54750    9.20510    0.01630   -0.08980    0.00740    3.65300    2.85740
 2127.50000   46.52960   80.87480   49.15640    9.20620    0.01720   -0.09540    0.00050    3.71390    2.86080
 2128.00000   46.84130   80.22610   49.27490    9.20770    0.01610   -0.10170   -0.00020    3.77520    2.87030
 2128.50000   47.10310   79.57750   49.42760    9.20900    0.01480   -0.10480    0.00020    3.81260    2.87840
 2129.00000   47.31270   80.02650   47.97270    9.21040    0.01480   -0.10740    0.00060    3.85160    2.88520
 2129.50000   47.52220   81.84270   44.77170    9.21170    0.01680   -0.10850    0.00110    3.78830    2.88420
 2130.00000   47.52680   83.21300   42.59320    9.21310    0.01960   -0.10870    0.00150    3.69020    2.88160
 2130.50000   47.49650   83.51620   45.09740    9.21440    0.02240   -0.10780    0.00200    3.59110    2.88060
 2131.00000   47.20380   82.32370   48.26370    9.21580    0.02520   -0.10700    0.00230    3.51330    2.87280
 2131.50000   46.87090   81.22370   50.40250    9.21710    0.02800   -0.09570    0.00450    3.47450    2.86110
 2132.00000   46.61040   80.99480   51.41610    9.21840    0.02970   -0.08690    0.00880    3.41980    2.85080
 2132.50000   46.25620   80.78230   49.91540    9.21980    0.02980   -0.07370    0.01130    3.39560    2.84040
 2133.00000   45.90500   80.56990   47.39750    9.22110    0.02990   -0.07660    0.01210    3.40810    2.82820
 2133.50000   45.54680   80.35750   45.66280    9.22250    0.03000   -0.08100    0.00540    3.41480    2.83220
 2134.00000   45.43110   80.14480   45.75280    9.22290    0.03120   -0.08130   -0.00320    3.42600    2.84330
 2134.50000   45.40950   79.93150   46.07910    9.22290    0.03370   -0.08170   -0.00470    3.42850    2.84350
 2135.00000   45.38620   79.72130   46.19080    9.22290    0.03680   -0.08200   -0.00280    3.40230    2.84010
 2135.50000   45.50650   79.73190   45.53010    9.22290    0.03410   -0.08400   -0.00040    3.35650    2.84330
 2136.00000   45.68010   79.94810   44.44500    9.22290    0.03020   -0.09000    0.00060    3.35360    2.85370
 2136.50000   45.86750   80.16440   42.58220    9.22290    0.02690   -0.09940    0.00010    3.41700    2.86550
 2137.00000   46.05490   81.04150   40.87080    9.22290    0.02350   -0.10080   -0.00020    3.49020    2.87350
 2137.50000   46.24230   82.15150   40.69930    9.22290    0.02020   -0.10310   -0.00080    3.64330    2.87350
 2138.00000   46.49360   82.80640   41.74580    9.22290    0.01690   -0.10530   -0.00250    3.80950    2.88140
 2138.50000   46.76600   83.07070   43.93280    9.22290    0.01560   -0.11070   -0.00340    3.88070    2.89970
 2139.00000   46.78430   82.43160   44.29390    9.22290    0.01560   -0.12300   -0.00290    3.86230    2.91810
 2139.50000   46.69270   82.42440   42.76330    9.22290    0.01560   -0.13590   -0.00250    3.84240    2.93650
 2140.00000   46.67490   82.50350   41.29660    9.22290    0.01900   -0.14240   -0.00200    3.78580    2.92410
 2140.50000   46.76610   82.70530   40.31420    9.22480    0.02260   -0.12900   -0.00160    3.73500    2.90360
 2141.00000   47.06880   82.90710   39.76900    9.22750    0.02620   -0.10620   -0.00110    3.67530    2.88270
 2141.50000   47.15710   83.10890   38.09470    9.23010    0.02970   -0.10740   -0.00060    3.59050    2.88520
 2142.00000   46.95150   82.93060   35.10200    9.23270    0.03300   -0.11080   -0.00040    3.49450    2.88980
 2142.50000   46.64700   81.45590   32.19810    9.23530    0.03470   -0.11420   -0.00040    3.43990    2.89290
 2143.00000   46.34420   79.98120   30.22690    9.23790    0.03440   -0.11620   -0.00040    3.42060    2.89820
 2143.50000   46.04150   80.01790   30.76680    9.24060    0.03400   -0.11320   -0.00030    3.44200    2.89540
 2144.00000   45.73880   81.44730   32.22250    9.24260    0.03360   -0.10770   -0.00080    3.45740    2.88400
 2144.50000   45.66600   82.82850   33.61100    9.24000    0.03330   -0.09940   -0.00210    3.44650    2.87350
 2145.00000   45.83320   83.02910   35.02750    9.23700    0.03290   -0.09280   -0.00330    3.44110    2.86250
 2145.50000   46.05920   83.02910   36.47450    9.23400    0.03250   -0.08780   -0.00360    3.43380    2.85210
 2146.00000   46.62300   83.62360   36.23300    9.23100    0.02820   -0.09660   -0.00380    3.45600    2.85170
 2146.50000   47.22650   84.54090   35.46030    9.22810    0.02410   -0.09480   -0.00410    3.51140    2.85410
 2147.00000   47.31190   84.53090   33.95700    9.22510    0.01990   -0.09100   -0.00430    3.55920    2.85580
 2147.50000   47.26480   83.43780   32.81730    9.22030    0.01680   -0.09260   -0.00460    3.64860    2.85970
 2148.00000   47.27810   82.42730   32.55050    9.21180    0.01440   -0.09740   -0.00480    3.71750    2.88430
 2148.50000   47.30840   82.53580   31.96430    9.20300    0.01330   -0.12070   -0.00530    3.87740    2.91110
 2149.00000   46.95600   82.62790   30.88170    9.19420    0.01260   -0.14160   -0.00500    4.08450    2.94000
 2149.50000   46.56160   81.90350   29.55730    9.18540    0.01240   -0.15110   -0.00360    4.28790    2.95340
 2150.00000   46.25940   81.45980   30.12590    9.17660    0.01390   -0.14540   -0.00200    4.18370    2.93790
 2150.50000   45.98800   81.02530   31.88440    9.16770    0.01530   -0.13910   -0.00190    3.94340    2.92300
 2151.00000   45.98800   81.20440   33.45660    9.15910    0.01730   -0.13180   -0.00350    3.84520    2.90770
 2151.50000   45.98800   81.40540   33.77400    9.14990    0.01990   -0.12250   -0.00470    3.72330    2.89190
 2152.00000   45.98800   81.60640   34.26330    9.14340    0.02240   -0.11420   -0.00610    3.62770    2.87720
 2152.50000   45.98800   81.82480   35.57180    9.14760    0.02360   -0.09500   -0.00630    3.56750    2.86410
 2153.00000   45.98800   81.08950   38.85560    9.15230    0.02360   -0.09810   -0.00590    3.48280    2.87810
 2153.50000   46.18490   80.22650   42.03940    9.15680    0.02250   -0.10870   -0.00570    3.50010    2.89880
 2154.00000   46.46340   80.35640   45.32960    9.16150    0.01880   -0.11940   -0.00540    3.61650    2.89530
 2154.50000   46.67400   81.62490   46.78070    9.16600    0.01560   -0.11060   -0.00510    3.66710    2.88200
 2155.00000   46.75780   82.03500   43.98330    9.17070    0.01870   -0.09900   -0.00490    3.67370    2.87090
 2155.50000   46.84890   82.59670   38.39760    9.17520    0.02150   -0.09430   -0.00450    3.62570    2.85950
 2156.00000   47.22960   83.98830   36.29440    9.18020    0.02450   -0.08920   -0.00480    3.57570    2.84760
 2156.50000   47.73320   85.37980   37.17170    9.18300    0.02810   -0.08500   -0.00620    3.51570    2.84330
 2157.00000   47.96590   85.95590   39.34680    9.18260    0.03170   -0.08260   -0.00480    3.44850    2.84980
 2157.50000   48.01850   85.70530   39.73300    9.18280    0.03530   -0.09140   -0.00240    3.38840    2.85540
 2158.00000   47.87400   86.12410   39.65800    9.18270    0.03840   -0.09820   -0.00020    3.29870    2.86140
 2158.50000   47.54950   85.67810   39.49030    9.18280    0.04110   -0.09860    0.00220    3.20300    2.86710
 2159.00000   47.07570   84.21400   37.77680    9.18270    0.04370   -0.09370    0.00070    3.15690    2.87240
 2159.50000   46.69710   82.77400   35.57770    9.18270    0.04420   -0.08860   -0.00230    3.18090    2.86540
 2160.00000   46.43530   81.33830   33.28750    9.18270    0.04250   -0.08680   -0.00430    3.19410    2.85380
 2160.50000   46.35850   79.81950   30.85270    9.18270    0.04070   -0.08510   -0.00520    3.21600    2.84370
