~Version ---------------------------------------------------
VERS.   2.0 : CWLS log ASCII Standard -VERSION 2.0
WRAP.    NO : One line per depth step
DLM . SPACE : Column Data Section Delimiter
~Well ------------------------------------------------------
STRT .F                  190.0 : START DEPTH
STOP .F                 4601.0 : STOP DEPTH
STEP .F                    0.5 : STEP
NULL .                -9999.25 : NULL VALUE
COMP .                         : COMPANY
WELL .                         : WELL
FLD  .                         : FIELD
LOC  .                         : LOCATION
PROV .                         : PROVINCE
CNTY .                         : COUNTY
STAT .                         : STATE
CTRY .                         : COUNTRY
SRVC .                         : SERVICE COMPANY
DATE .                         : DATE
UWI  .                         : UNIQUE WELL ID
API  .                         : API NUMBER
SLAT .WGS84 2.9034517340801003 : SURFACE LATITUDE
SLON .WGS84  9.383760901910009 : SURFACE LONGITUDE
DATUM.F                4236.02 : DEPTH DATUM ELEV
~Curve Information -----------------------------------------
DEPT.F     : 
DTCO.US/F  : COMPRESSIONAL-WAVE INTERVAL TRANSIT TIME ACOUSTIC SLOWNESS
DTSM.US/F  : SHEAR-WAVE INTERVAL TRANSIT TIME DELTA-T
HSGR.GAPI  : HIGH RESOLUTION STANDARD GAMMA RAY, SPECTROSCOPY GAMMA RAY
HCAL.IN    : HILT CALIPER
TNPH.DEC   : THERMAL NEUTRON POROSITY LIMESTONE
DPHZ.DEC   : DENSITY POROSITY LIMESTONE
HDRA.G/C3  : DELTA RHO HIP TOOL
PEFZ.B/E   : FORMATION PHETOELECTRIC FACTOR
RHOZ.G/C3  : HILT BULK DENSITY
~Params ----------------------------------------------------
~Other -----------------------------------------------------
~ASCII -----------------------------------------------------
# ...
 1723.00000   50.83930   88.27580   48.38440    9.17350    0.05750   -0.05910   -0.00050    3.58470    2.82140
 1723.50000   49.40210   87.81200   51.91080    9.17480    0.06760   -0.04330   -0.00180    3.58040    2.80000
 1724.00000   48.31180   87.64030   49.40820    9.17620    0.07500   -0.02760   -0.00310    3.59570    2.77800
 1724.50000   47.74900   86.54200   45.35350    9.17760    0.07370   -0.01800   -0.00470    3.55100    2.75520
 1725.00000   47.37210   85.43630   41.12590    9.17900    0.06850   -0.02850   -0.00530    3.50940    2.74000
 1725.50000   47.07120   85.23570   36.97710    9.18030    0.05840   -0.05040   -0.00470    3.59260    2.74220
 1726.00000   46.92020   84.29580   32.84220    9.18170    0.04820   -0.07230   -0.00410    3.71300    2.78910
 1726.50000   46.83050   83.35410   28.56960    9.18270    0.03810   -0.11600   -0.00140    3.94190    2.83370
 1727.00000   46.83050   82.42980   25.22880    9.18270    0.03320   -0.10700    0.00140    4.04220    2.87920
 1727.50000   46.93060   82.55410   23.19520    9.18270    0.03210   -0.10220    0.00070    4.11770    2.87970
 1728.00000   47.09510   82.77380   22.06360    9.18270    0.03140   -0.09110   -0.00160    4.20240    2.87560
 1728.50000   47.19160   82.98910   20.91320    9.18270    0.03070   -0.08100   -0.00300    4.27140    2.86680
 1729.00000   47.08860   82.12880   20.29620    9.18270    0.02840   -0.09180   -0.00020    4.28370    2.85700
 1729.50000   46.92110   81.02330   21.22510    9.18270    0.02510   -0.10140    0.00320    4.24770    2.84560
 1730.00000   46.75310   81.07550   23.04500    9.18290    0.02170   -0.11380    0.00390    4.18470    2.86200
 1730.50000   46.59010   81.38480   24.63340    9.18750    0.02000   -0.12390    0.00440    4.14830    2.89730
 1731.00000   46.58980   81.57300   25.63190    9.19300    0.01960   -0.13790    0.00480    4.12280    2.93100
 1731.50000   46.53340   81.34110   26.91230    9.19940    0.02140   -0.13290    0.00540    4.04780    2.93180
 1732.00000   46.40070   81.10920   28.00980    9.20280    0.02290   -0.12120    0.00490    4.01660    2.91760
 1732.50000   46.26800   80.95190   29.31020    9.20100    0.02400   -0.10980    0.00240    4.08890    2.88740
 1733.00000   46.13540   81.25340   29.85310    9.19990    0.02220   -0.09500    0.00080    4.14460    2.86520
 1733.50000   46.00270   81.55490   29.85690    9.19840    0.02060   -0.09900   -0.00230    4.20910    2.86190
 1734.00000   45.98900   81.85640   29.62590    9.19720    0.01950   -0.10120    0.00500    4.26730    2.86580
 1734.50000   46.12970   81.85710   28.36970    9.19580    0.02040   -0.10380    0.01090    4.20210    2.87390
 1735.00000   46.27040   81.47060   26.12890    9.19450    0.02230   -0.09680    0.00990    4.09970    2.87400
 1735.50000   46.49090   81.08400   22.93520    9.19310    0.02430   -0.09540    0.00190    4.00590    2.86880
 1736.00000   46.81250   81.02310   22.01290    9.19180    0.02650   -0.09380   -0.00090    3.90690    2.86450
 1736.50000   47.13410   81.02310   24.05240    9.19050    0.02720   -0.09100   -0.00260    3.81430    2.86000
 1737.00000   47.35690   80.99330   28.29340    9.18920    0.02820   -0.09290   -0.00470    3.73040    2.85680
 1737.50000   47.43230   83.90830   31.71990    9.18780    0.02800   -0.09640   -0.00620    3.72810    2.85710
 1738.00000   47.20800   87.28150   34.49690    9.18660    0.02280   -0.10820   -0.00580    3.75520    2.86790
 1738.50000   47.02380   88.44580   37.23050    9.18510    0.02380   -0.10580   -0.00430    3.82070    2.87690
 1739.00000   47.07120   85.52460   39.44510    9.18430    0.02610   -0.09940   -0.00240    3.88110    2.88330
 1739.50000   47.48930   85.50750   38.80400    9.18070    0.02830   -0.09020   -0.00060    3.96020    2.87440
 1740.00000   48.52640   85.92130   33.95340    9.16310    0.03050   -0.09330    0.00110    3.97130    2.85580
 1740.50000   49.91330   86.33510   31.99830    9.14590    0.03360   -0.09900    0.00320    3.85280    2.86140
 1741.00000   50.78070   86.63990   39.25350    9.12980    0.03780   -0.09700    0.00220    3.74280    2.86770
 1741.50000   51.04310   86.30000   55.20540    9.11120    0.04250   -0.07050   -0.00130    3.62720    2.86280
 1742.00000   50.80110   85.56910   71.26890    9.10230    0.05860   -0.04940   -0.00370    3.51670    2.82400
 1742.50000   50.06100   85.08020   83.75490    9.10600    0.06890   -0.02490   -0.00640    3.42910    2.78640
 1743.00000   48.88870   85.23570   76.17860    9.10760    0.06470   -0.01680   -0.00720    3.33720    2.75110
 1743.50000   47.55270   84.27880   63.26020    9.11030    0.05580   -0.05650   -0.00360    3.39740    2.73460
 1744.00000   47.22480   83.52580   50.33320    9.11240    0.04690   -0.07980   -0.00030    3.58710    2.77190
 1744.50000   47.40950   83.54420   40.41540    9.11480    0.03800   -0.10230    0.00320    3.70750    2.82960
 1745.00000   47.73730   84.74700   36.41020    9.11710    0.02810   -0.11440    0.00410    3.78860    2.88600
 1745.50000   48.28620   85.83750   34.97090    9.11940    0.02930   -0.11830    0.00160    3.81540    2.90110
 1746.00000   48.80280   85.92810   34.63850    9.12180    0.03490   -0.10240   -0.00060    3.79310    2.89960
 1746.50000   49.31730   86.01190   36.86930    9.12150    0.04180   -0.08810   -0.00290    3.72140    2.87350
 1747.00000   49.63370   86.29690   39.05620    9.11930    0.04910   -0.07220   -0.00530    3.63190    2.85270
 1747.50000   49.83950   86.63990   38.09050    9.11750    0.05630   -0.05450   -0.00440    3.53850    2.83080
 1748.00000   49.83950   86.45640   34.49220    9.11560    0.06290   -0.04530   -0.00290    3.49670    2.80860
 1748.50000   49.83950   86.29580   30.89390    9.11370    0.06850   -0.03490   -0.00210    3.51220    2.78650
 1749.00000   49.83950   86.80310   27.61040    9.11180    0.06860   -0.02720   -0.00110    3.51760    2.76450
 1749.50000   49.83950   87.63220   27.96670    9.10990    0.06880   -0.02290   -0.00020    3.52810    2.74870
 1750.00000   49.67700   87.39220   29.24930    9.10800    0.06890   -0.02330    0.00050    3.53240    2.74770
 1750.50000   49.47840   86.08570   30.47090    9.10610    0.06780   -0.03450    0.00010    3.47150    2.76860
 1751.00000   49.22520   85.66610   30.53450    9.10420    0.06380   -0.04460   -0.00040    3.39970    2.80900
 1751.50000   49.10460   86.12290   30.30530    9.10230    0.05990   -0.05470   -0.00090    3.31850    2.80520
 1752.00000   48.98400   86.03770   28.51990    9.10040    0.05640   -0.06130   -0.00140    3.27450    2.80210
 1752.50000   48.88400   84.73120   26.92860    9.09850    0.05170   -0.05690   -0.00210    3.28820    2.79680
 1753.00000   48.95100   83.83150   27.16070    9.09660    0.04750   -0.05170   -0.00280    3.29500    2.79770
 1753.50000   49.23770   83.89450   29.41910    9.09470    0.04330   -0.05490   -0.00330    3.31470    2.80190
 1754.00000   49.62980   84.38870   34.22520    9.09280    0.04010   -0.06170   -0.00240    3.34290    2.80730
 1754.50000   50.33960   85.53020   40.03590    9.09100    0.03840   -0.05850   -0.00090    3.36240    2.79610
 1755.00000   51.45390   85.47340   46.57350    9.08910    0.03610   -0.05010   -0.00010    3.43410    2.78050
 1755.50000   52.30710   85.21860   48.50000    9.08720    0.03720   -0.04170   -0.00130    3.55760    2.76500
 1756.00000   52.71300   86.80670   47.47800    9.08530    0.03920   -0.03320   -0.00280    3.63930    2.74960
 1756.50000   52.85370   88.38600   49.93200    9.08340    0.04120   -0.02470   -0.00420    3.72090    2.73370
 1757.00000   52.62800   89.48950   58.96650    9.08150    0.04490   -0.01630   -0.00330    3.58820    2.71840
 1757.50000   52.30750   89.61980   67.88150    9.07960    0.04970   -0.00780   -0.00190    3.38880    2.71400
 1758.00000   51.97040   89.74150   71.67430    9.07770    0.05410   -0.00360   -0.00060    3.18610    2.73200
 1758.50000   51.88580   89.86490   64.48260    9.07580    0.04940   -0.02090   -0.00080    3.11870    2.79250
 1759.00000   52.16340   89.99200   58.63730    9.07390    0.04490   -0.05130   -0.00150    3.20870    2.78800
