~Version ---------------------------------------------------
VERS.   2.0 : CWLS log ASCII Standard -VERSION 2.0
WRAP.    NO : One line per depth step
DLM . SPACE : Column Data Section Delimiter
~Well ------------------------------------------------------
STRT .F                  190.0 : START DEPTH
STOP .F                 4601.0 : STOP DEPTH
STEP .F                    0.5 : STEP
NULL .                -9999.25 : NULL VALUE
COMP .                         : COMPANY
WELL .                         : WELL
FLD  .                         : FIELD
LOC  .                         : LOCATION
PROV .                         : PROVINCE
CNTY .                         : COUNTY
STAT .                         : STATE
CTRY .                         : COUNTRY
SRVC .                         : SERVICE COMPANY
DATE .                         : DATE
UWI  .                         : UNIQUE WELL ID
API  .                         : API NUMBER
SLAT .WGS84 2.9034517340801003 : SURFACE LATITUDE
SLON .WGS84  9.383760901910009 : SURFACE LONGITUDE
DATUM.F                4236.02 : DEPTH DATUM ELEV
~Curve Information -----------------------------------------
DEPT.F     : 
DTCO.US/F  : COMPRESSIONAL-WAVE INTERVAL TRANSIT TIME ACOUSTIC SLOWNESS
DTSM.US/F  : SHEAR-WAVE INTERVAL TRANSIT TIME DELTA-T
HSGR.GAPI  : HIGH RESOLUTION STANDARD GAMMA RAY, SPECTROSCOPY GAMMA RAY
HCAL.IN    : HILT CALIPER
TNPH.DEC   : THERMAL NEUTRON POROSITY LIMESTONE
DPHZ.DEC   : DENSITY POROSITY LIMESTONE
HDRA.G/C3  : DELTA RHO HIP TOOL
PEFZ.B/E   : FORMATION PHETOELECTRIC FACTOR
RHOZ.G/C3  : HILT BULK DENSITY
~Params ----------------------------------------------------
~Other -----------------------------------------------------
~ASCII -----------------------------------------------------
# ...
 1504.00000   59.64670  109.48970   26.10980    9.99200    0.01720   -0.14120    0.00070    5.03540    2.92000
 1504.50000   60.49150  109.68080   33.33000   10.01760    0.03850   -0.13190    0.00370    4.98720    2.89590
 1505.00000   60.43130  109.58070   39.49460   10.04030    0.05410   -0.11380    0.00600    4.88990    2.87070
 1505.50000   59.83660  109.50850   41.05990   10.03670    0.06880   -0.07170    0.00370    4.73930    2.83260
 1506.00000   58.91260  108.90670   38.97610   10.01590    0.06770   -0.09190    0.00650    4.60420    2.84050
 1506.50000   57.67690  105.18540   38.24000   10.00080    0.05710   -0.10010    0.01480    4.45790    2.88480
 1507.00000   55.48770  101.72740   42.29090    9.98300    0.04810   -0.10880    0.02350    4.34710    2.88150
 1507.50000   52.75900   98.26930   45.01170    9.96680    0.05290   -0.10020    0.02090    4.24240    2.84730
 1508.00000   50.74910   94.80250   38.85510    9.94730    0.05530   -0.04720    0.00920    4.09600    2.80940
 1508.50000   49.46520   93.05560   33.65640    9.92870    0.05410   -0.04870    0.00450    3.98680    2.78760
 1509.00000   49.18280   92.80230   28.13900    9.90420    0.04680   -0.06180    0.00660    4.04250    2.79230
 1509.50000   50.10110   93.44910   22.83700    9.88370    0.03060   -0.07460    0.01460    4.09550    2.83180
 1510.00000   51.47960   95.26370   15.58540    9.85580    0.01450   -0.08420    0.01400    4.29980    2.87330
 1510.50000   53.04100   97.68720   16.07980    9.86060    0.00200   -0.10940    0.01120    4.61010    2.91440
 1511.00000   54.04250  100.11380   17.31590    9.90720   -0.00020   -0.12470    0.00910    4.83890    2.96060
 1511.50000   54.89470  102.53510   18.81430    9.95150   -0.00200   -0.14000    0.01020    5.03610    2.95710
 1512.00000   55.43730  103.78590   20.21980    9.99400    0.00360   -0.15470    0.01270    5.10580    2.95870
 1512.50000   55.53950  104.82860   21.61550   10.04460    0.00900   -0.12690    0.01340    5.17720    2.92090
 1513.00000   55.37610  105.87510   22.13450   10.05000    0.01520   -0.10580    0.01060    5.16100    2.88220
 1513.50000   55.80040  106.92160   18.83510    9.99340    0.01110   -0.11870    0.00830    5.14540    2.92220
 1514.00000   56.24440  107.60150   15.36960    9.94760    0.00630   -0.13840    0.00580    5.17770    2.96110
 1514.50000   56.63990  107.82390   12.12260    9.89120    0.00040   -0.15410    0.00450    5.20090    2.95790
 1515.00000   57.00100  108.04640   14.00690    9.86150    0.00490   -0.15750    0.00320    5.24380    2.96100
 1515.50000   56.70010  108.27050   19.30570    9.86020    0.01440   -0.14000    0.00230    5.25890    2.92880
 1516.00000   56.19700  108.23930   18.62900    9.85420    0.02720   -0.12370    0.00170    5.21360    2.89760
 1516.50000   55.75310  108.16500   17.62980    9.85060    0.02540   -0.10900    0.00100    5.17710    2.88220
 1517.00000   55.66880  108.22840   16.65140    9.84570    0.02280   -0.12370    0.00040    5.12740    2.89030
 1517.50000   56.02190  108.76230   15.94680    9.84170    0.02010   -0.14630   -0.00050    5.17600    2.94440
 1518.00000   56.89820  109.29620   15.88550    9.83710    0.01750   -0.14410   -0.00180    5.28570    2.93620
 1518.50000   58.06190  110.23220   15.79820    9.83310    0.01480   -0.13510   -0.00390    5.36490    2.93400
 1519.00000   59.22560  112.54220   15.81680    9.82780    0.01200   -0.14220   -0.00170    5.31710    2.92500
 1519.50000   60.40590  114.85220   16.69870    9.82610    0.01420   -0.15200    0.00510    5.23130    2.93580
 1520.00000   61.65110  115.92780   21.06810    9.83780    0.02700   -0.16230    0.01060    5.16920    2.95460
 1520.50000   62.18390  115.43560   27.28100    9.84990    0.04360   -0.16430    0.01730    5.06280    2.97050
 1521.00000   61.34130  114.10100   33.45660    9.86150    0.06000   -0.14090    0.01870    4.93000    2.92680
 1521.50000   59.52860  110.37170   36.75420    9.87410    0.07410   -0.10430    0.01440    4.82560    2.88990
 1522.00000   56.53420  103.26460   37.89650    9.88480    0.07340   -0.09110    0.01110    4.69880    2.85650
 1522.50000   53.58120   98.03830   34.72110    9.89960    0.06770   -0.09610    0.00710    4.63520    2.85860
 1523.00000   51.29300   95.50950   28.68370    9.90080    0.05310   -0.10400    0.00580    4.64840    2.88280
 1523.50000   49.43110   92.98060   22.71910    9.84280    0.03850   -0.11790    0.00500    4.65360    2.90250
 1524.00000   48.26650   90.45180   18.29630    9.78460    0.02390   -0.13190    0.00390    4.64360    2.92300
 1524.50000   47.55670   88.84450   17.85650    9.72620    0.01840   -0.15110    0.00520    4.44960    2.94380
 1525.00000   47.13140   87.84350   19.48240    9.66760    0.01980   -0.14130    0.00950    4.25850    2.94940
 1525.50000   47.47440   88.64290   21.19560    9.61050    0.02120   -0.12480    0.00780    4.01900    2.92960
 1526.00000   48.02260   90.14440   22.26310    9.61020    0.02260   -0.11180    0.00260    3.93730    2.90240
 1526.50000   48.75590   91.81060   22.63440    9.61980    0.02380   -0.10140    0.00020    3.87770    2.87560
 1527.00000   49.86580   93.72920   23.53670    9.62720    0.02750   -0.08040   -0.00300    3.98480    2.85050
 1527.50000   50.98500   95.64780   25.24620    9.63550    0.03030   -0.06570   -0.00450    4.19510    2.81900
 1528.00000   52.10290   97.56640   26.13700    9.64520    0.02550   -0.06610   -0.00440    4.39590    2.81730
 1528.50000   53.07870   99.48490   25.27420    9.67090    0.01730   -0.08300   -0.00440    4.52150    2.82840
 1529.00000   53.69110  100.93170   23.83880    9.70040    0.00920   -0.09860   -0.00230    4.52790    2.86530
 1529.50000   54.01720  102.04390   24.49860    9.72940    0.00500   -0.12070    0.00020    4.58610    2.89980
 1530.00000   54.23460  102.46070   26.25190    9.75850    0.00520   -0.14470    0.00280    4.68230    2.94210
 1530.50000   54.01290  102.68810   27.27480    9.78760    0.00950   -0.13430    0.00290    4.71780    2.93460
 1531.00000   53.62910  102.58500   26.32690    9.81670    0.01590   -0.12220    0.00130    4.71320    2.92070
 1531.50000   53.39020  102.47970   22.98420    9.84590    0.01860   -0.11460    0.00010    4.69330    2.89810
 1532.00000   53.65020  102.37430   19.92040    9.87480    0.01380   -0.12610   -0.00160    4.79240    2.90530
 1532.50000   53.86260  102.26890   16.63820    9.90430    0.00460   -0.14790   -0.00730    5.00900    2.94000
 1533.00000   53.80960  102.16350   15.16850    9.93270    0.00170   -0.15150   -0.01410    5.22290    2.95460
 1533.50000   53.75660  102.05820   16.57730    9.96330    0.00160   -0.14710   -0.01810    5.35330    2.94670
 1534.00000   53.70360  101.95280   16.67610    9.98290   -0.00130   -0.14490   -0.01070    5.25070    2.94010
 1534.50000   53.77560  101.55890   15.14910    9.96260   -0.00390   -0.15590   -0.00120    5.11470    2.94240
 1535.00000   53.92580  100.65800   13.36610    9.94300   -0.00690   -0.17230   -0.00020    5.07400    2.97630
 1535.50000   54.07590   99.75710   12.94370    9.92180   -0.00840   -0.17540   -0.00160    5.12730    2.99410
 1536.00000   54.15470   98.85620   16.96220    9.88010   -0.00140   -0.17710   -0.00370    5.16360    2.99150
 1536.50000   54.08920   98.54110   21.16040    9.84130    0.01180   -0.15310   -0.00290    5.20220    2.96490
 1537.00000   53.93900   99.29190   25.94170    9.80230    0.02510   -0.13190   -0.00170    5.19800    2.93650
 1537.50000   53.78890  100.08020   28.44050    9.76370    0.03800   -0.11340   -0.00220    5.22800    2.90580
 1538.00000   53.85130  100.79340   28.16190    9.72440    0.03540   -0.11760   -0.00400    5.25820    2.88940
 1538.50000   53.99200  101.28390   26.10320    9.68650    0.02770   -0.12920   -0.00580    5.24390    2.90390
 1539.00000   53.80820  100.98190   26.97380    9.64530    0.01960   -0.14590   -0.00540    5.19500    2.93230
 1539.50000   53.61390  100.10610   30.20560    9.61380    0.02150   -0.13830   -0.00170    4.84750    2.94360
 1540.00000   53.41960   99.23020   34.12510    9.59360    0.03530   -0.12500    0.00010    4.44580    2.94160
