~Version ---------------------------------------------------
VERS.   2.0 : CWLS log ASCII Standard -VERSION 2.0
WRAP.    NO : One line per depth step
DLM . SPACE : Column Data Section Delimiter
~Well ------------------------------------------------------
STRT .F                  190.0 : START DEPTH
STOP .F                 4601.0 : STOP DEPTH
STEP .F                    0.5 : STEP
NULL .                -9999.25 : NULL VALUE
COMP .                         : COMPANY
WELL .                         : WELL
FLD  .                         : FIELD
LOC  .                         : LOCATION
PROV .                         : PROVINCE
CNTY .                         : COUNTY
STAT .                         : STATE
CTRY .                         : COUNTRY
SRVC .                         : SERVICE COMPANY
DATE .                         : DATE
UWI  .                         : UNIQUE WELL ID
API  .                         : API NUMBER
SLAT .WGS84 2.9034517340801003 : SURFACE LATITUDE
SLON .WGS84  9.383760901910009 : SURFACE LONGITUDE
DATUM.F                4236.02 : DEPTH DATUM ELEV
~Curve Information -----------------------------------------
DEPT.F     : 
DTCO.US/F  : COMPRESSIONAL-WAVE INTERVAL TRANSIT TIME ACOUSTIC SLOWNESS
DTSM.US/F  : SHEAR-WAVE INTERVAL TRANSIT TIME DELTA-T
HSGR.GAPI  : HIGH RESOLUTION STANDARD GAMMA RAY, SPECTROSCOPY GAMMA RAY
HCAL.IN    : HILT CALIPER
TNPH.DEC   : THERMAL NEUTRON POROSITY LIMESTONE
DPHZ.DEC   : DENSITY POROSITY LIMESTONE
HDRA.G/C3  : DELTA RHO HIP TOOL
PEFZ.B/E   : FORMATION PHETOELECTRIC FACTOR
RHOZ.G/C3  : HILT BULK DENSITY
~Params ----------------------------------------------------
~Other -----------------------------------------------------
~ASCII -----------------------------------------------------
# ...
 4168.50000   53.20150  100.42880   49.01750    9.02350    0.07080   -0.06150   -0.00490    3.80000    2.76640
 4169.00000   51.74330   97.46640   31.22490    9.02520    0.03820   -0.09900   -0.00400    4.07870    2.83500
 4169.50000   50.28510   95.45370   30.42170    9.02700    0.02400   -0.14190   -0.00300    4.33760    2.93470
 4170.00000   48.82690   91.49260   38.04100    9.02880    0.03340   -0.12580   -0.00230    4.26650    2.92710
 4170.50000   47.36860   89.44830   46.88760    9.03050    0.04770   -0.10140   -0.00210    4.02830    2.89970
 4171.00000   46.25640   88.84650   42.49260    9.03230    0.05770   -0.07090   -0.00180    3.77620    2.87280
 4171.50000   45.34640   87.93010   36.87570    9.03400    0.05000   -0.07050   -0.00160    3.52360    2.84700
 4172.00000   44.60380   85.80160   32.10920    9.03580    0.03840   -0.07630   -0.00040    3.47520    2.82290
 4172.50000   44.66760   83.67310   29.75900    9.03750    0.02680   -0.08290    0.00420    3.45900    2.83170
 4173.00000   44.72420   81.54460   29.21690    9.03940    0.01920   -0.08950    0.00680    3.44630    2.83970
 4173.50000   44.69120   79.81950   26.33980    9.04090    0.01570   -0.09610    0.00760    3.55560    2.84830
 4174.00000   44.74950   79.81950   23.92530    9.04460    0.01220   -0.09760    0.00380    3.71300    2.85630
 4174.50000   45.54620   82.63130   21.98790    9.05090    0.01090   -0.09670   -0.00600    3.77090    2.86750
 4175.00000   47.06960   85.80890   21.25170    9.05710    0.01280   -0.09580   -0.00750    3.73590    2.86550
 4175.50000   48.61810   88.76330   21.57040    9.06340    0.01520   -0.09230   -0.00450    3.71550    2.85890
 4176.00000   50.16660   89.85860   23.22550    9.06980    0.01920   -0.08740   -0.00280    3.67020    2.85330
 4176.50000   51.57680   90.95390   24.63450    9.07590    0.01840   -0.08020   -0.00460    3.64840    2.84840
 4177.00000   51.99350   92.35510   26.86440    9.08340    0.01560   -0.08390   -0.00630    3.82760    2.84040
 4177.50000   52.35750   93.05920   26.09280    9.10060    0.01080   -0.09820   -0.00590    4.13950    2.85610
 4178.00000   52.69980   93.25000   21.99470    9.11930    0.00520   -0.12080   -0.00550    4.49280    2.88520
 4178.50000   52.91650   94.54990   18.44640    9.13710   -0.00050   -0.14530   -0.00500    4.83010    2.91170
 4179.00000   52.96890   94.03670   14.72720    9.15610   -0.00440   -0.15630   -0.00460    4.99140    2.93720
 4179.50000   52.83410   92.19840   15.98370    9.16330   -0.00480   -0.16160   -0.00330    4.92620    2.96980
 4180.00000   52.44510   90.71970   20.45910    9.16280   -0.00150   -0.16080   -0.00020    4.80920    2.96530
 4180.50000   51.15490   89.83500   27.53040    9.16130    0.00420   -0.14730   -0.00130    4.68500    2.95260
 4181.00000   49.87440   88.95030   26.85440    9.14760    0.00790   -0.15000   -0.00560    4.61670    2.94640
 4181.50000   48.90680   88.50780   23.73030    9.13560    0.00990   -0.15320   -0.00980    4.59540    2.95160
 4182.00000   48.16150   89.80770   24.15140    9.12310    0.01360   -0.14770   -0.00960    4.47890    2.95540
 4182.50000   47.43070   89.63890   27.55050    9.11090    0.02010   -0.13020   -0.00770    4.07590    2.94120
 4183.00000   47.35490   89.24770   32.62530    9.09850    0.02660   -0.11290   -0.00660    3.74190    2.87740
 4183.50000   47.79340   89.36370   31.70780    9.08640    0.02960   -0.10420   -0.00220    3.56870    2.88110
 4184.00000   48.84050   89.54750   29.52390    9.07370    0.02750   -0.10800    0.00630    3.55960    2.87980
 4184.50000   49.85110   89.64890   27.94640    9.06380    0.02220   -0.11060    0.01500    3.62960    2.88160
 4185.00000   50.80560   92.68000   27.78160    9.07060    0.01470   -0.10660    0.02080    3.79660    2.88220
 4185.50000   51.27130   98.44290   24.99720    9.07950    0.00730   -0.12340    0.01660    4.19560    2.90560
 4186.00000   51.71350  101.08330   21.32700    9.08750   -0.00010   -0.14050    0.00900    4.58410    2.93290
 4186.50000   51.82360   95.25180   17.05240    9.09680   -0.00760   -0.16790    0.00190    4.75140    2.97470
 4187.00000   51.68350   92.02610   17.87650    9.10050   -0.00400   -0.16060   -0.00180    4.69360    2.97170
 4187.50000   50.83250   89.49850   20.10890    9.08680   -0.00030   -0.13110   -0.00560    4.69460    2.95200
 4188.00000   49.81140   86.97090   21.80780    9.07420    0.00580   -0.13190   -0.00720    4.62370    2.93400
 4188.50000   48.53740   85.22680   23.73160    9.06180    0.01350   -0.13390   -0.00380    4.42360    2.92460
 4189.00000   47.26350   83.80210   25.55610    9.04860    0.02110   -0.13550   -0.00090    4.09540    2.92460
 4189.50000   46.18440   82.37750   26.42440    9.03920    0.03210   -0.11960   -0.00150    3.71710    2.92340
 4190.00000   45.72830   80.95290   24.66650    9.03420    0.03050   -0.09860   -0.00300    3.61660    2.90420
 4190.50000   45.49910   79.51590   23.14740    9.02830    0.02680   -0.09460   -0.00480    3.64320    2.88510
 4191.00000   45.44860   78.05550   23.42240    9.02290    0.02290   -0.09900   -0.00420    3.71200    2.86840
 4191.50000   45.39800   78.09380   24.36760    9.01710    0.02380   -0.11180   -0.00080    3.65620    2.87400
 4192.00000   45.49810   79.98100   24.81660    9.01180    0.02490   -0.10880   -0.00330    3.61140    2.88120
 4192.50000   45.76890   81.86830   24.67820    9.00550    0.02380   -0.09470   -0.00510    3.56750    2.88950
 4193.00000   45.91790   83.64530   24.69790    9.00110    0.02160   -0.08980   -0.00620    3.63420    2.87560
 4193.50000   46.18750   85.24610   24.55000    8.99970    0.01940   -0.09860   -0.00720    3.75530    2.85600
 4194.00000   46.59220   86.84050   24.78850    8.99760    0.01680   -0.10690   -0.00650    3.83020    2.86790
 4194.50000   47.18600   85.00500   25.18760    8.99580    0.01640   -0.11580   -0.00530    3.87570    2.87890
 4195.00000   47.73200   82.82850   27.32490    8.99390    0.02180   -0.11330   -0.00420    3.85710    2.89480
 4195.50000   48.30540   85.17630   33.27200    8.99200    0.02830   -0.10770   -0.00290    3.70380    2.89030
 4196.00000   48.97270   88.94460   39.26100    8.99010    0.03350   -0.09690   -0.00270    3.54460    2.87770
 4196.50000   49.64000   90.85260   44.59130    8.98820    0.04020   -0.08820   -0.00450    3.53680    2.86770
 4197.00000   50.11880   89.31780   48.09070    8.98630    0.03870   -0.09300   -0.00540    3.63440    2.85450
 4197.50000   50.03210   87.84720   47.52620    8.98440    0.03320   -0.10580   -0.00510    3.70600    2.86230
 4198.00000   49.71920   88.58170   46.98440    8.98250    0.03620   -0.10180   -0.00500    3.79080    2.87950
 4198.50000   49.10730   89.13470   46.23760    8.98190    0.03990   -0.08990   -0.00480    3.80910    2.86880
 4199.00000   48.54460   89.41120   44.96260    8.98190    0.04370   -0.07980   -0.00470    3.82830    2.84930
 4199.50000   48.09050   90.16950   41.35620    8.98190    0.04650   -0.07940   -0.00440    3.86080    2.83930
 4200.00000   47.80240   88.52420   37.56160    8.98190    0.04420   -0.08010   -0.00560    3.90010    2.84230
 4200.50000   47.47510   86.03790   35.63590    8.98190    0.03570   -0.08100   -0.00800    3.98780    2.84650
 4201.00000   47.30730   83.55160   36.66010    8.98190    0.02530   -0.08590   -0.00770    4.09090    2.85080
 4201.50000   47.08920   82.42730   39.44210    8.98190    0.02330   -0.09340   -0.00610    4.18350    2.85490
 4202.00000   46.75960   83.06120   42.55670    8.98190    0.02550   -0.09090   -0.00490    4.10210    2.85900
 4202.50000   46.45910   85.07520   43.33200    8.98190    0.02800   -0.08300   -0.00320    3.99710    2.85370
 4203.00000   46.37280   85.70190   38.36750    8.98190    0.03040   -0.07780   -0.00050    3.87660    2.84440
 4203.50000   46.77030   86.03810   33.97130    8.98190    0.03250   -0.07780    0.00340    3.83560    2.83620
 4204.00000   47.48300   87.62730   29.19810    8.98190    0.03240   -0.08490    0.00310    3.92010    2.84100
 4204.50000   48.78440   89.44830   26.03630    8.98190    0.03230   -0.09500   -0.00060    3.98910    2.85270
