~Version ---------------------------------------------------
VERS.   2.0 : CWLS log ASCII Standard -VERSION 2.0
WRAP.    NO : One line per depth step
DLM . SPACE : Column Data Section Delimiter
~Well ------------------------------------------------------
STRT .F                  190.0 : START DEPTH
STOP .F                 4601.0 : STOP DEPTH
STEP .F                    0.5 : STEP
NULL .                -9999.25 : NULL VALUE
COMP .                         : COMPANY
WELL .                         : WELL
FLD  .                         : FIELD
LOC  .                         : LOCATION
PROV .                         : PROVINCE
CNTY .                         : COUNTY
STAT .                         : STATE
CTRY .                         : COUNTRY
SRVC .                         : SERVICE COMPANY
DATE .                         : DATE
UWI  .                         : UNIQUE WELL ID
API  .                         : API NUMBER
SLAT .WGS84 2.9034517340801003 : SURFACE LATITUDE
SLON .WGS84  9.383760901910009 : SURFACE LONGITUDE
DATUM.F                4236.02 : DEPTH DATUM ELEV
~Curve Information -----------------------------------------
DEPT.F     : 
DTCO.US/F  : COMPRESSIONAL-WAVE INTERVAL TRANSIT TIME ACOUSTIC SLOWNESS
DTSM.US/F  : SHEAR-WAVE INTERVAL TRANSIT TIME DELTA-T
HSGR.GAPI  : HIGH RESOLUTION STANDARD GAMMA RAY, SPECTROSCOPY GAMMA RAY
HCAL.IN    : HILT CALIPER
TNPH.DEC   : THERMAL NEUTRON POROSITY LIMESTONE
DPHZ.DEC   : DENSITY POROSITY LIMESTONE
HDRA.G/C3  : DELTA RHO HIP TOOL
PEFZ.B/E   : FORMATION PHETOELECTRIC FACTOR
RHOZ.G/C3  : HILT BULK DENSITY
~Params ----------------------------------------------------
~Other -----------------------------------------------------
~ASCII -----------------------------------------------------
# ...
 2927.50000   50.55490   93.19960   44.88280    8.94820    0.06930   -0.04410   -0.00480    3.22530    2.77390
 2928.00000   51.06980   94.27650   44.30340    8.96830    0.07500   -0.04460    0.00390    3.25460    2.78100
 2928.50000   52.16080   93.91230   42.02300    8.97730    0.06410   -0.04720    0.01100    3.34070    2.78640
 2929.00000   53.22980   93.53610   40.91370    8.98670    0.05230   -0.05410    0.01360    3.35080    2.79360
 2929.50000   54.28460   93.15850   42.22720    8.99600    0.04060   -0.06010    0.00760    3.34250    2.79880
 2930.00000   55.35100   93.78990   48.59930    9.00570    0.03050   -0.03400    0.00030    3.33750    2.80330
 2930.50000   56.06460   95.94780   56.22940    9.03290    0.03000   -0.01060   -0.00350    3.34850    2.73670
 2931.00000   56.03880   98.10580   63.16490    9.06120    0.02970    0.00960   -0.00270    3.35810    2.69600
 2931.50000   55.70920   99.27780   60.06680    9.08820    0.03410   -0.01240   -0.00050    3.42480    2.73480
 2932.00000   55.49650   99.07720   51.42910    9.11820    0.02700   -0.05250    0.00590    3.58240    2.77520
 2932.50000   55.74920   98.17640   41.16810    9.10660    0.02080   -0.09460    0.01000    3.75730    2.81290
 2933.00000   56.06840   96.98620   43.98660    9.08050    0.01560   -0.08440    0.00700    3.76210    2.85470
 2933.50000   56.48370   96.97690   48.01020    9.06400    0.02160   -0.05620    0.00270    3.61070    2.82370
 2934.00000   57.17710   98.36160   51.80770    9.06750    0.02710   -0.02160   -0.00030    3.60240    2.78910
 2934.50000   57.83270   99.74620   52.54060    9.07240    0.03180   -0.02160   -0.00150    3.61790    2.75030
 2935.00000   58.28590  100.82250   53.22680    9.07710    0.03570   -0.03060   -0.00220    3.58170    2.75570
 2935.50000   58.26140  100.48390   55.36860    9.08170    0.04350   -0.03690   -0.00360    3.50710    2.76080
 2936.00000   57.93770  100.15640   58.42400    9.08640    0.05140   -0.02340   -0.00120    3.43110    2.76730
 2936.50000   57.61400  100.18530   61.85590    9.09090    0.05940   -0.00680    0.00060    3.29650    2.74420
 2937.00000   57.12140  101.82290   65.71910    9.09610    0.06730   -0.00600   -0.00030    3.14460    2.71910
 2937.50000   56.70010  101.86100   64.76690    9.09990    0.07250   -0.00570   -0.00060    3.04820    2.71810
 2938.00000   56.07070  100.74550   62.01650    9.11000    0.07050   -0.00750   -0.00120    3.12660    2.71930
 2938.50000   55.44130   99.87960   59.33920    9.12500    0.06650   -0.01060   -0.00160    3.19850    2.71950
 2939.00000   55.01500  101.03940   57.10910    9.13850    0.05880   -0.01450   -0.00220    3.28400    2.73430
 2939.50000   54.97140  102.61280   51.75290    9.15280    0.05250   -0.03740   -0.00230    3.39340    2.76850
 2940.00000   55.43530  104.18630   44.39510    9.16650    0.03660   -0.06910   -0.00160    3.54380    2.80010
 2940.50000   56.22240  104.94340   38.93720    9.18060    0.02450   -0.09860   -0.00210    3.88870    2.83280
 2941.00000   57.56600  104.58370   33.91330    9.16840    0.01600   -0.10820   -0.00380    4.11200    2.86580
 2941.50000   58.88670  104.22410   36.94220    9.14960    0.01880   -0.10180   -0.00530    4.17620    2.88300
 2942.00000   59.72220  104.69410   44.19390    9.13530    0.02080   -0.09980   -0.00600    4.04790    2.83470
 2942.50000   60.43130  106.02610   51.66960    9.11850    0.04330   -0.04460   -0.00690    3.63530    2.76940
 2943.00000   62.58490  108.24390   57.18930    9.10170    0.05790   -0.00010   -0.00710    3.32060    2.70190
 2943.50000   64.32330  110.45980   62.24480    9.08500    0.07090    0.05270   -0.00480    3.03760    2.63160
 2944.00000   65.60060  112.67710   66.51350    9.06800    0.08510    0.05830   -0.00250    2.72630    2.61880
 2944.50000   66.26880  114.32300   70.59240    9.06140    0.08870    0.06120   -0.00150    2.67960    2.60520
 2945.00000   65.94780  113.72120   74.00620    9.06280    0.08820    0.07380   -0.00220    2.67530    2.59250
 2945.50000   65.00500  111.39730   78.15120    9.05830    0.09770    0.08580   -0.00250    2.65960    2.57990
 2946.00000   62.81970  109.07340   80.05140    9.04930    0.10670    0.09730   -0.00310    2.65510    2.56740
 2946.50000   60.41780  105.23440   81.33590    9.04070    0.11140    0.09170   -0.00340    2.67990    2.55460
 2947.00000   57.75350  100.64680   80.38700    9.03190    0.10880    0.07300   -0.00340    2.69970    2.58460
 2947.50000   55.30410   96.05930   79.81280    9.02260    0.09920    0.05450   -0.00340    2.75760    2.61510
 2948.00000   54.06570   91.85560   79.96460    9.01420    0.08860    0.04130   -0.00350    2.85870    2.64170
 2948.50000   52.90290   91.85560   78.48910    9.00520    0.08320    0.03290   -0.00250    2.95020    2.66410
 2949.00000   52.28500   92.50350   72.54180    8.99620    0.07720    0.01530   -0.00080    3.05140    2.68640
 2949.50000   52.42730   92.85610   64.27700    8.98720    0.06720   -0.00450   -0.00030    3.11850    2.70870
 2950.00000   53.04950   91.84100   56.32550    8.97820    0.05390   -0.02430   -0.00010    3.17670    2.73110
 2950.50000   53.81140   91.45120   48.62180    8.96920    0.03930   -0.04210    0.00010    3.19390    2.75370
 2951.00000   54.22670   93.49450   49.86940    8.96030    0.04350   -0.04970    0.00040    3.13910    2.77620
 2951.50000   54.33850   95.75580   63.15200    8.95110    0.05090   -0.03800    0.00050    3.09140    2.78660
 2952.00000   52.73590   96.60410   70.56180    8.94370    0.05850   -0.02160    0.00050    3.04450    2.76110
 2952.50000   50.97650   93.11720   75.16620    8.95900    0.07170   -0.00570   -0.00050    3.14590    2.73580
 2953.00000   49.21500   90.62650   73.21300    8.97900    0.07270   -0.00080    0.00230    3.25070    2.71100
 2953.50000   47.45360   88.13580   60.65270    8.99780    0.06590   -0.02030    0.00790    3.45930    2.72750
 2954.00000   46.27920   85.43630   49.57120    9.01700    0.05260   -0.04660    0.01160    3.67930    2.76030
 2954.50000   45.71170   86.52450   39.97530    9.02080    0.03930   -0.06930    0.00770    3.83750    2.79310
 2955.00000   45.53400   87.71220   33.15920    9.01750    0.03020   -0.09140    0.00000    3.84430    2.82600
 2955.50000   45.62690   87.22090   31.88920    9.01530    0.02950   -0.09540    0.00000    3.75160    2.85790
 2956.00000   45.90490   85.64910   31.82010    9.01260    0.02880   -0.09840    0.00270    3.67190    2.86560
 2956.50000   46.20640   84.04860   31.54530    9.01020    0.02750   -0.10230    0.00350    3.65100    2.87370
 2957.00000   46.52960   83.19970   31.26760    9.00750    0.02570   -0.10680    0.00280    3.69960    2.88020
 2957.50000   46.66950   82.58090   31.69060    9.00500    0.02070   -0.11130    0.00290    3.73070    2.89110
 2958.00000   46.74650   82.58600   32.22960    9.00260    0.01340   -0.11570    0.00360    3.78180    2.90470
 2958.50000   46.56560   82.80000   32.76830    9.01050    0.00720   -0.11940    0.00420    3.95640    2.91790
 2959.00000   46.38470   83.02910   33.33190    9.02230    0.00420   -0.13510    0.00490    4.10480    2.93160
 2959.50000   46.20380   82.93010   34.10390    9.03330    0.00200   -0.14110    0.00550    4.18670    2.93710
 2960.00000   46.04110   82.82430   34.85630    9.04470    0.00610   -0.13640    0.00470    4.12530    2.92360
 2960.50000   45.98800   82.71850   33.98360    9.05590    0.01040   -0.13040    0.00330    4.06770    2.91130
 2961.00000   46.21220   82.66190   32.00820    9.06720    0.01040   -0.12180    0.00100    3.99730    2.89990
 2961.50000   46.45020   82.89830   31.12150    9.07840    0.01040   -0.12310   -0.00120    4.01920    2.90290
 2962.00000   46.68830   83.13480   31.09810    9.08970    0.00880   -0.12520   -0.00320    4.14230    2.90840
 2962.50000   46.95840   83.37130   30.96640    9.10040    0.00680   -0.12730   -0.00260    4.26270    2.91360
 2963.00000   47.24530   83.30460   30.88700    9.08670    0.00480   -0.13030   -0.00160    4.29330    2.91750
 2963.50000   47.48210   83.64300   30.82850    9.06630    0.00280   -0.12720   -0.00080    4.30080    2.91220
