~Version ---------------------------------------------------
VERS.   2.0 : CWLS log ASCII Standard -VERSION 2.0
WRAP.    NO : One line per depth step
DLM . SPACE : Column Data Section Delimiter
~Well ------------------------------------------------------
STRT .F                  190.0 : START DEPTH
STOP .F                 4601.0 : STOP DEPTH
STEP .F                    0.5 : STEP
NULL .                -9999.25 : NULL VALUE
COMP .                         : COMPANY
WELL .                         : WELL
FLD  .                         : FIELD
LOC  .                         : LOCATION
PROV .                         : PROVINCE
CNTY .                         : COUNTY
STAT .                         : STATE
CTRY .                         : COUNTRY
SRVC .                         : SERVICE COMPANY
DATE .                         : DATE
UWI  .                         : UNIQUE WELL ID
API  .                         : API NUMBER
SLAT .WGS84 2.9034517340801003 : SURFACE LATITUDE
SLON .WGS84  9.383760901910009 : SURFACE LONGITUDE
DATUM.F                4236.02 : DEPTH DATUM ELEV
~Curve Information -----------------------------------------
DEPT.F     : 
DTCO.US/F  : COMPRESSIONAL-WAVE INTERVAL TRANSIT TIME ACOUSTIC SLOWNESS
DTSM.US/F  : SHEAR-WAVE INTERVAL TRANSIT TIME DELTA-T
HSGR.GAPI  : HIGH RESOLUTION STANDARD GAMMA RAY, SPECTROSCOPY GAMMA RAY
HCAL.IN    : HILT CALIPER
TNPH.DEC   : THERMAL NEUTRON POROSITY LIMESTONE
DPHZ.DEC   : DENSITY POROSITY LIMESTONE
HDRA.G/C3  : DELTA RHO HIP TOOL
PEFZ.B/E   : FORMATION PHETOELECTRIC FACTOR
RHOZ.G/C3  : HILT BULK DENSITY
~Params ----------------------------------------------------
~Other -----------------------------------------------------
~ASCII -----------------------------------------------------
# ...
 2745.00000   49.40470   86.25880   28.27390    9.04220    0.01680   -0.11120    0.00720    3.74970    2.88910
 2745.50000   49.75210   86.84050   33.96100    9.04220    0.01940   -0.11680    0.01150    3.81460    2.89670
 2746.00000   49.65900   86.84050   40.18930    9.04220    0.02440   -0.12300    0.01320    3.81890    2.90560
 2746.50000   48.94220   85.55020   47.31200    9.04220    0.03190   -0.11020    0.00750    3.77650    2.90900
 2747.00000   48.21810   84.43330   45.87190    9.04220    0.03950   -0.10220    0.00130    3.68620    2.88960
 2747.50000   47.35490   84.25280   42.05310    9.04220    0.04420   -0.09940   -0.00120    3.54260    2.87310
 2748.00000   46.49180   84.08490   38.07280    9.04220    0.04210   -0.08820    0.00060    3.45410    2.85260
 2748.50000   45.90130   83.53020   34.66880    9.04220    0.03450   -0.09580    0.00170    3.51660    2.86020
 2749.00000   45.68840   82.79790   32.85310    9.04220    0.02760   -0.11120    0.00440    3.59990    2.87920
 2749.50000   45.56670   82.83180   31.27100    9.04220    0.02040   -0.12090    0.00680    3.66790    2.89520
 2750.00000   45.69820   84.20390   29.79930    9.04220    0.01340   -0.12390    0.00960    3.74080    2.90710
 2750.50000   45.98800   85.43630   28.14710    9.04220    0.00790   -0.11780    0.00990    3.77920    2.90660
 2751.00000   46.41110   84.03210   26.03960    9.04220    0.00640   -0.11930    0.00700    3.74840    2.90020
 2751.50000   46.91980   84.47050   25.08570    9.04220    0.00770   -0.12180    0.00440    3.72580    2.88130
 2752.00000   47.76400   85.09260   25.82250    9.04210    0.00900   -0.11120    0.00070    3.70000    2.86300
 2752.50000   48.60300   85.71480   30.94410    9.04230    0.01850   -0.09440   -0.00280    3.67230    2.84340
 2753.00000   49.46770   86.33690   36.56590    9.04370    0.02700   -0.07840   -0.00610    3.60580    2.82560
 2753.50000   50.37560   87.58510   42.45490    9.04540    0.03560   -0.06490   -0.00650    3.54320    2.80380
 2754.00000   51.29590   89.42760   48.39760    9.04700    0.03960   -0.05650   -0.00640    3.47490    2.79990
 2754.50000   52.21350   91.15180   54.32160    9.04870    0.04350   -0.05340   -0.00630    3.37200    2.79650
 2755.00000   53.13110   91.98930   60.20610    9.05030    0.04260   -0.05570   -0.00480    3.26280    2.78980
 2755.50000   54.22520   92.82680   66.13130    9.05190    0.04120   -0.04740   -0.00300    3.17140    2.76760
 2756.00000   55.55760   94.13120   73.78500    9.05360    0.03440   -0.02570   -0.00280    3.08510    2.74480
 2756.50000   57.04920   95.61480   72.55230    9.05520    0.02560   -0.00840   -0.00380    3.05640    2.72360
 2757.00000   58.54090   97.09830   69.68150    9.05690    0.01710    0.00640   -0.00440    3.03590    2.70400
 2757.50000   60.03250   98.58190   66.88860    9.05850    0.00840    0.00560   -0.00440    3.01250    2.68420
 2758.00000   61.21240  103.01300   70.05580    9.06010    0.01500    0.01120   -0.00440    2.99410    2.66190
 2758.50000   61.77510  109.31850   79.63580    9.06180    0.03050    0.02130   -0.00500    2.97950    2.65730
 2759.00000   61.47360  107.57650   84.50420    9.06230    0.04530    0.02950   -0.00640    2.96470    2.66570
 2759.50000   60.92420  104.49350   81.52490    9.06220    0.05850    0.03570   -0.00710    2.96400    2.69440
 2760.00000   60.16100  102.97050   75.82610    9.06230    0.05720    0.02200   -0.00450    2.99660    2.70880
 2760.50000   59.39790  101.34700   71.28850    9.06230    0.05490    0.00890   -0.00180    3.02570    2.69880
 2761.00000   58.63470   99.72350   73.27420    9.06230    0.05390    0.00160   -0.00270    3.06290    2.68840
 2761.50000   57.87150   98.10000   76.14820    9.06230    0.05270    0.01250   -0.00470    3.06630    2.67890
 2762.00000   57.10830   96.47650   75.17000    9.06230    0.05170    0.02240   -0.00490    3.03460    2.67380
 2762.50000   56.28920   95.58550   69.48410    9.06230    0.04790    0.01360   -0.00330    2.99310    2.69930
 2763.00000   55.15280   94.66400   64.63140    9.06230    0.04440   -0.00200   -0.00200    3.00340    2.72830
 2763.50000   54.01640   93.35920   59.57790    9.06220    0.04090   -0.01940   -0.00030    3.09990    2.75650
 2764.00000   52.93690   91.98870   54.83550    9.06220    0.03650   -0.03680    0.00230    3.19590    2.78710
 2764.50000   52.01340   91.52330   53.06580    9.06220    0.03920   -0.04890    0.00580    3.26870    2.77990
 2765.00000   51.67840   91.28680   55.16270    9.06220    0.04300   -0.04140    0.00660    3.25310    2.77090
 2765.50000   51.48390   91.05030   54.02070    9.06220    0.04640   -0.03330    0.00150    3.22470    2.75610
 2766.00000   51.66290   91.12670   48.04170    9.06220    0.04260   -0.02810    0.00090    3.23680    2.76510
 2766.50000   52.14030   92.79940   41.82860    9.06210    0.03400   -0.05530    0.01890    3.30160    2.79550
 2767.00000   52.61760   94.48990   40.60110    9.06300    0.02450   -0.07880    0.03630    3.36990    2.82490
 2767.50000   52.76680   94.91160   41.77460    9.07390    0.02160   -0.09360    0.05590    3.51500    2.85440
 2768.00000   52.65930   94.98310   42.27210    9.08740    0.01570   -0.09980    0.05970    3.68200    2.88600
 2768.50000   52.42730   95.05010   35.26000    9.10030    0.00600   -0.12390    0.04460    4.16940    2.92050
 2769.00000   52.32940   96.14620   27.42620    9.11370   -0.00380   -0.14420    0.02780    4.60500    2.95510
 2769.50000   52.54760   97.54210   22.20620    9.12660   -0.01040   -0.16450    0.01240    4.94600    2.99150
 2770.00000   53.08830   98.93790   19.99470    9.14070   -0.01200   -0.17180    0.00570    5.03190    2.98450
 2770.50000   53.78720   99.86120   20.63150    9.13450   -0.01010   -0.16340    0.00190    5.03570    2.96880
 2771.00000   54.52720   98.65520   24.08160    9.12230   -0.00680   -0.15040   -0.00130    4.94640    2.95270
 2771.50000   55.31940   97.62330   26.45280    9.11150   -0.00130   -0.13790   -0.00340    4.85840    2.93700
 2772.00000   55.77310   97.35530   34.13540    9.09980    0.00420   -0.13150   -0.00310    4.72260    2.92180
 2772.50000   55.91780   97.08730   40.29170    9.08890    0.01040   -0.11660   -0.00280    4.46420    2.89870
 2773.00000   55.58460   96.59050   46.39850    9.07710    0.01820   -0.10180   -0.00240    4.05990    2.86680
 2773.50000   55.07880   95.12870   50.39810    9.06690    0.02730   -0.07200   -0.00170    3.67110    2.83520
 2774.00000   54.43270   93.66260   54.06630    9.05290    0.03640   -0.04210   -0.00060    3.28730    2.80410
 2774.50000   53.39140   92.30510   57.77800    9.03620    0.03980   -0.02030   -0.00130    2.97590    2.77180
 2775.00000   51.88740   90.94370   61.76830    9.02130    0.04050   -0.01010   -0.00350    2.91420    2.73950
 2775.50000   50.46930   89.58720   64.79170    9.00560    0.04010   -0.00920   -0.00400    2.99100    2.72340
 2776.00000   49.41830   88.99650   60.80950    8.99050    0.03970   -0.01660   -0.00240    3.09770    2.73810
 2776.50000   49.02910   88.87090   52.89860    8.97450    0.03470   -0.03760   -0.00100    3.19170    2.76710
 2777.00000   48.87660   89.56690   44.98170    8.96260    0.02930   -0.05860    0.00080    3.27550    2.79600
 2777.50000   49.97640   90.45940   41.04920    8.96310    0.02400   -0.07210    0.00070    3.38540    2.82430
 2778.00000   51.63470   91.35340   38.38050    8.96440    0.02040   -0.07980   -0.00370    3.42480    2.83740
 2778.50000   53.26980   92.17420   38.93140    8.96560    0.02560   -0.07650   -0.00440    3.36700    2.82120
 2779.00000   54.35310   92.71600   43.53600    8.96690    0.03510   -0.07290    0.00530    3.31860    2.80680
 2779.50000   55.08060   93.25050   52.09860    8.96810    0.04760   -0.05530    0.01510    3.26120    2.79150
 2780.00000   55.49680   93.07690   60.63500    8.96930    0.06350   -0.04020    0.01210    3.20210    2.77700
 2780.50000   54.70790   92.45740   69.55440    8.97060    0.07860   -0.02980    0.00510    3.15970    2.75640
 2781.00000   53.75050   93.05840   69.07120    8.97180    0.08220   -0.03350   -0.00150    3.17540    2.75910
