~Version ---------------------------------------------------
VERS.   2.0 : CWLS log ASCII Standard -VERSION 2.0
WRAP.    NO : One line per depth step
DLM . SPACE : Column Data Section Delimiter
~Well ------------------------------------------------------
STRT .F                  190.0 : START DEPTH
STOP .F                 4601.0 : STOP DEPTH
STEP .F                    0.5 : STEP
NULL .                -9999.25 : NULL VALUE
COMP .                         : COMPANY
WELL .                         : WELL
FLD  .                         : FIELD
LOC  .                         : LOCATION
PROV .                         : PROVINCE
CNTY .                         : COUNTY
STAT .                         : STATE
CTRY .                         : COUNTRY
SRVC .                         : SERVICE COMPANY
DATE .                         : DATE
UWI  .                         : UNIQUE WELL ID
API  .                         : API NUMBER
SLAT .WGS84 2.9034517340801003 : SURFACE LATITUDE
SLON .WGS84  9.383760901910009 : SURFACE LONGITUDE
DATUM.F                4236.02 : DEPTH DATUM ELEV
~Curve Information -----------------------------------------
DEPT.F     : 
DTCO.US/F  : COMPRESSIONAL-WAVE INTERVAL TRANSIT TIME ACOUSTIC SLOWNESS
DTSM.US/F  : SHEAR-WAVE INTERVAL TRANSIT TIME DELTA-T
HSGR.GAPI  : HIGH RESOLUTION STANDARD GAMMA RAY, SPECTROSCOPY GAMMA RAY
HCAL.IN    : HILT CALIPER
TNPH.DEC   : THERMAL NEUTRON POROSITY LIMESTONE
DPHZ.DEC   : DENSITY POROSITY LIMESTONE
HDRA.G/C3  : DELTA RHO HIP TOOL
PEFZ.B/E   : FORMATION PHETOELECTRIC FACTOR
RHOZ.G/C3  : HILT BULK DENSITY
~Params ----------------------------------------------------
~Other -----------------------------------------------------
~ASCII -----------------------------------------------------
# ...
 1905.50000   49.31060   87.70830   28.03020    9.15870    0.03290   -0.08540   -0.00860    3.70340    2.81760
 1906.00000   49.71920   87.56440   27.14460    9.16220    0.02570   -0.09500   -0.00730    3.83910    2.86690
 1906.50000   49.77930   87.61770   36.82560    9.16580    0.02280   -0.09350   -0.00610    3.84990    2.86350
 1907.00000   49.90260   88.77570   46.76980    9.16930    0.03330   -0.09020   -0.00480    3.74770    2.84300
 1907.50000   50.12840   89.93380   61.45450    9.17290    0.04400   -0.07790   -0.00350    3.66390    2.82340
 1908.00000   50.52180   91.09190   60.81320    9.17640    0.05690   -0.06130   -0.00140    3.61920    2.80980
 1908.50000   51.17070   92.89870   52.17940    9.18000    0.05690   -0.06690    0.00170    3.57870    2.80520
 1909.00000   52.29280   95.49550   44.99470    9.18260    0.05690   -0.08080    0.01190    3.55170    2.85420
 1909.50000   54.61580   95.86160   40.30770    9.18270    0.05690   -0.08660    0.00800    3.53690    2.84990
 1910.00000   57.29160   96.36680   43.98320    9.18280    0.06310   -0.05750   -0.00160    3.53050    2.83290
 1910.50000   60.00210   98.03220   50.34190    9.18270    0.06770   -0.03360   -0.00520    3.45570    2.79110
 1911.00000   60.91140   99.69770   58.67800    9.18270    0.06970   -0.00970   -0.00390    3.30210    2.75090
 1911.50000   61.86070  101.36320   58.01520    9.18270    0.06220    0.01420   -0.00300    3.14640    2.71220
 1912.00000   62.69380  103.02860   56.96090    9.18270    0.05490    0.03350   -0.00300    2.98940    2.67240
 1912.50000   63.08590  104.69410   57.55680    9.18270    0.05970    0.05250   -0.00540    2.90880    2.64270
 1913.00000   63.02760  104.69410   60.14280    9.18270    0.06430    0.05860   -0.00590    2.83760    2.62140
 1913.50000   62.16060  102.89670   62.61130    9.18260    0.06880    0.06570   -0.00380    2.76720    2.59980
 1914.00000   60.48190  100.96170   65.87130    9.18280    0.07340    0.07370   -0.00180    2.69930    2.58800
 1914.50000   58.10130   98.48610   69.05170    9.18240    0.07860    0.07690    0.00030    2.66700    2.58660
 1915.00000   55.70990   96.01050   69.79400    9.18520    0.08040    0.07350   -0.00050    2.71340    2.60050
 1915.50000   53.32710   93.53490   68.04710    9.19130    0.08260    0.06450   -0.00190    2.77040    2.62660
 1916.00000   51.52460   91.05930   64.26860    9.19700    0.08540    0.05000   -0.00440    2.86740    2.65270
 1916.50000   49.89970   89.40820   54.59770    9.20280    0.08240    0.03120   -0.00770    3.00200    2.67850
 1917.00000   49.24960   88.84880   43.14850    9.20860    0.07810    0.00660   -0.00750    3.11500    2.70400
 1917.50000   48.87660   88.05750   31.68060    9.21430    0.07330   -0.01810   -0.00600    3.24200    2.72950
 1918.00000   48.62270   87.13440   22.51040    9.22040    0.07120   -0.03510   -0.00300    3.32630    2.75490
 1918.50000   48.33500   86.33120   14.99350    9.22320    0.06890   -0.04470    0.00130    3.35540    2.78060
 1919.00000   48.22950   85.89330   13.36640    9.22280    0.06660   -0.04830    0.00130    3.38640    2.78860
 1919.50000   48.06010   85.45550   13.18460    9.22300    0.06420   -0.04660    0.00100    3.41520    2.78790
 1920.00000   47.87890   85.01770   13.64780    9.22290    0.06190   -0.04310    0.00070    3.43560    2.78610
 1920.50000   47.69680   84.57980   14.18030    9.22290    0.06180   -0.03670    0.00140    3.45300    2.77190
 1921.00000   47.51710   84.41190   15.11260    9.22290    0.06280   -0.03030    0.00220    3.47450    2.76170
 1921.50000   47.31190   85.08040   14.87440    9.22290    0.06370   -0.02330    0.00300    3.44870    2.74830
 1922.00000   47.38810   85.12370   14.54960    9.22290    0.06140   -0.02740    0.00380    3.42090    2.75780
 1922.50000   47.45920   84.03000   14.23160    9.22290    0.05900   -0.03890    0.00460    3.44990    2.77320
 1923.00000   47.53030   84.00140   15.03610    9.22290    0.05660   -0.05290    0.00450    3.47690    2.78720
 1923.50000   47.54010   83.97010   15.87830    9.22290    0.05410   -0.05720    0.00480    3.50590    2.80250
 1924.00000   47.52090   83.93850   15.43510    9.22290    0.05410   -0.06050    0.00240    3.52030    2.80370
 1924.50000   47.50200   83.90620   14.44790    9.22290    0.05410   -0.04840   -0.00300    3.52250    2.79040
 1925.00000   47.45900   83.87360   13.86220    9.22290    0.05520   -0.03820   -0.00420    3.52830    2.77400
 1925.50000   47.39190   83.84110   14.44050    9.22290    0.05620   -0.03060   -0.00410    3.52960    2.75730
 1926.00000   47.46340   83.65400   15.75030    9.22290    0.05730   -0.02780   -0.00290    3.54110    2.75530
 1926.50000   47.59290   83.40220   16.83450    9.22300    0.05850   -0.03420    0.00050    3.55730    2.75280
 1927.00000   47.73320   83.15050   16.80150    9.22280    0.05470   -0.04630    0.01820    3.56360    2.76580
 1927.50000   48.03410   82.89870   16.55570    9.22330    0.04930   -0.06340    0.03080    3.62600    2.79570
 1928.00000   48.17550   83.37010   17.19880    9.21920    0.04380   -0.07450    0.03410    3.67910    2.82640
 1928.50000   48.42730   85.00570   19.33090    9.21170    0.03970   -0.08190    0.01780    3.73840    2.84400
 1929.00000   48.69610   86.43930   21.31810    9.20530    0.03950   -0.08400    0.00860    3.77330    2.84400
 1929.50000   48.69610   86.15050   24.26820    9.19840    0.03930   -0.08310    0.00160    3.74800    2.84810
 1930.00000   48.72140   85.84060   27.29240    9.19170    0.04140   -0.08220   -0.00280    3.72470    2.84170
 1930.50000   48.95460   85.98190   30.11550    9.18500    0.04400   -0.07910   -0.00530    3.70000    2.82920
 1931.00000   49.47020   86.84730   32.55560    9.18150    0.04690   -0.07370   -0.00650    3.69120    2.81730
 1931.50000   49.83950   86.83760   33.91340    9.17980    0.04850   -0.06380   -0.00790    3.68550    2.80520
 1932.00000   49.83950   86.84410   33.89850    9.17800    0.05040   -0.05460   -0.00850    3.67830    2.79310
 1932.50000   49.64690   87.39070   36.00280    9.17630    0.05180   -0.04530   -0.00850    3.70250    2.78110
 1933.00000   49.05060   87.34520   40.25420    9.17460    0.05210   -0.03740   -0.00840    3.71530    2.76900
 1933.50000   48.33020   86.81520   43.97950    9.17280    0.05770   -0.03270   -0.00850    3.66690    2.76230
 1934.00000   47.70210   86.28560   47.79820    9.17110    0.06380   -0.03170   -0.00840    3.60250    2.76220
 1934.50000   47.58800   85.75770   44.82590    9.16940    0.06930   -0.03900   -0.00850    3.58090    2.76770
 1935.00000   47.86940   84.62050   40.58970    9.16760    0.06540   -0.04130   -0.00630    3.59360    2.77530
 1935.50000   48.21460   83.99200   33.18410    9.16590    0.06130   -0.04190    0.00040    3.60120    2.77650
 1936.00000   48.69250   84.41160   26.42520    9.16410    0.05850   -0.03070    0.01080    3.54180    2.77820
 1936.50000   48.99460   84.83450   20.13100    9.16270    0.06430   -0.01500    0.01900    3.42700    2.75690
 1937.00000   49.04990   84.06410   16.41790    9.16260    0.06940    0.00070    0.01510    3.36470    2.72070
 1937.50000   48.70470   83.52260   14.55790    9.16270    0.07440    0.01630    0.00380    3.34960    2.68840
 1938.00000   48.15210   84.03500   14.40260    9.16260    0.07600    0.03010   -0.00290    3.32210    2.66230
 1938.50000   47.54810   84.53760   14.52290    9.16270    0.07390    0.01760   -0.00470    3.32930    2.65910
 1939.00000   47.04310   84.62790   14.57690    9.16260    0.06900    0.00300   -0.00540    3.35290    2.66430
 1939.50000   46.99670   84.12440   14.98460    9.16290    0.05890   -0.01610   -0.00650    3.39430    2.70320
 1940.00000   47.22620   84.17620   15.98980    9.16020    0.04890   -0.03530   -0.00720    3.55830    2.73550
 1940.50000   47.45280   84.99660   19.34170    9.15500    0.03890   -0.05850   -0.00630    3.71360    2.77000
 1941.00000   47.94920   85.68390   22.05450    9.15030    0.03330   -0.06920   -0.00490    3.81570    2.80310
 1941.50000   48.72210   85.88650   24.70970    9.14540    0.03070   -0.08280   -0.00440    3.86420    2.83900
