~Version ---------------------------------------------------
VERS.   2.0 : CWLS log ASCII Standard -VERSION 2.0
WRAP.    NO : One line per depth step
DLM . SPACE : Column Data Section Delimiter
~Well ------------------------------------------------------
STRT .F                  190.0 : START DEPTH
STOP .F                 4601.0 : STOP DEPTH
STEP .F                    0.5 : STEP
NULL .                -9999.25 : NULL VALUE
COMP .                         : COMPANY
WELL .                         : WELL
FLD  .                         : FIELD
LOC  .                         : LOCATION
PROV .                         : PROVINCE
CNTY .                         : COUNTY
STAT .                         : STATE
CTRY .                         : COUNTRY
SRVC .                         : SERVICE COMPANY
DATE .                         : DATE
UWI  .                         : UNIQUE WELL ID
API  .                         : API NUMBER
SLAT .WGS84 2.9034517340801003 : SURFACE LATITUDE
SLON .WGS84  9.383760901910009 : SURFACE LONGITUDE
DATUM.F                4236.02 : DEPTH DATUM ELEV
~Curve Information -----------------------------------------
DEPT.F     : 
DTCO.US/F  : COMPRESSIONAL-WAVE INTERVAL TRANSIT TIME ACOUSTIC SLOWNESS
DTSM.US/F  : SHEAR-WAVE INTERVAL TRANSIT TIME DELTA-T
HSGR.GAPI  : HIGH RESOLUTION STANDARD GAMMA RAY, SPECTROSCOPY GAMMA RAY
HCAL.IN    : HILT CALIPER
TNPH.DEC   : THERMAL NEUTRON POROSITY LIMESTONE
DPHZ.DEC   : DENSITY POROSITY LIMESTONE
HDRA.G/C3  : DELTA RHO HIP TOOL
PEFZ.B/E   : FORMATION PHETOELECTRIC FACTOR
RHOZ.G/C3  : HILT BULK DENSITY
~Params ----------------------------------------------------
~Other -----------------------------------------------------
~ASCII -----------------------------------------------------
# ...
 2526.00000   45.55360   80.65660   21.23580    9.18810    0.02270   -0.08190   -0.00580    3.56940    2.85010
 2526.50000   45.51370   81.77750   19.64300    9.19090    0.02320   -0.08300   -0.00370    3.59700    2.84330
 2527.00000   45.78680   82.90390   18.87270    9.19370    0.02190   -0.08560   -0.00160    3.62330    2.84540
 2527.50000   46.12900   84.01640   19.53270    9.19650    0.02060   -0.08840    0.00020    3.64870    2.84910
 2528.00000   46.47120   83.85970   22.30650    9.19930    0.02010   -0.09050   -0.00310    3.67980    2.85340
 2528.50000   46.81340   82.92420   26.49170    9.20210    0.02030   -0.08810   -0.00710    3.71590    2.85320
 2529.00000   47.12100   82.22300   30.57770    9.20490    0.02290   -0.08350   -0.00770    3.73550    2.84660
 2529.50000   47.16350   82.22670   35.54560    9.20780    0.02740   -0.07890   -0.00790    3.76160    2.84100
 2530.00000   47.12020   82.68330   36.85560    9.21060    0.03190   -0.07440   -0.00800    3.76980    2.83450
 2530.50000   47.07700   83.21750   34.87770    9.21340    0.03570   -0.06970   -0.00850    3.71320    2.82900
 2531.00000   47.24610   83.75170   33.67290    9.21620    0.03490   -0.07920   -0.00670    3.65810    2.82300
 2531.50000   47.52820   84.03210   33.58660    9.21910    0.03190   -0.09110   -0.00320    3.62190    2.82830
 2532.00000   47.68520   84.03210   36.50450    9.22160    0.02900   -0.09580    0.00000    3.57820    2.84570
 2532.50000   47.72850   84.47540   40.43350    9.22520    0.02710   -0.09180   -0.00250    3.61040    2.86190
 2533.00000   47.65110   85.36650   44.08580    9.22950    0.02690   -0.07870   -0.00620    3.67440    2.85840
 2533.50000   47.55900   85.79510   47.11390    9.23350    0.02840   -0.08040   -0.00590    3.64930    2.85200
 2534.00000   47.46700   86.03810   48.23910    9.23750    0.03090   -0.08300   -0.00490    3.62250    2.84640
 2534.50000   47.37400   86.23870   47.71690    9.24160    0.02930   -0.08650    0.00150    3.58140    2.84110
 2535.00000   47.30380   85.71710   47.10820    9.24310    0.02700   -0.09000    0.00460    3.63730    2.84540
 2535.50000   47.27570   84.70810   44.92330    9.24290    0.02480   -0.09460    0.00320    3.75690    2.85150
 2536.00000   47.23880   84.01700   41.22870    9.24300    0.02270   -0.09860    0.00230    3.86060    2.85720
 2536.50000   47.13220   83.97110   37.58140    9.24300    0.02070   -0.09690    0.00140    3.95240    2.86310
 2537.00000   46.84800   83.92520   35.05340    9.24300    0.01970   -0.09240    0.00040    3.94370    2.86840
 2537.50000   46.54240   83.87940   35.11420    9.24300    0.01920   -0.08780   -0.00070    3.93220    2.86460
 2538.00000   46.40040   83.83150   34.56250    9.24300    0.02050   -0.08380   -0.00210    3.90750    2.85910
 2538.50000   46.30630   83.39310   33.61640    9.24300    0.02240   -0.08330    0.00000    3.78670    2.85400
 2539.00000   46.20130   83.06670   30.62970    9.24300    0.02470   -0.08300    0.00640    3.67620    2.84860
 2539.50000   46.03730   82.74560   26.45560    9.24300    0.02720   -0.08820    0.01090    3.58280    2.84380
 2540.00000   45.87340   82.42460   22.81390    9.24280    0.02970   -0.08440    0.01170    3.49710    2.84500
 2540.50000   45.70940   82.03310   18.87270    9.23950    0.03110   -0.08620    0.01120    3.41700    2.84710
 2541.00000   45.54540   81.52860   16.72790    9.23570    0.03140   -0.08780    0.00410    3.37330    2.84910
 2541.50000   45.38650   81.02410   15.25330    9.23200    0.03090   -0.08120   -0.00120    3.33820    2.85030
 2542.00000   45.27600   80.74610   14.10560    9.22820    0.02890   -0.07310   -0.00400    3.33260    2.83890
 2542.50000   45.32650   81.35870   13.16150    9.22450    0.02730   -0.06270   -0.00600    3.40780    2.82700
 2543.00000   45.37690   81.97130   12.18370    9.22070    0.02720   -0.06600   -0.00250    3.36700    2.80930
 2543.50000   45.68710   82.58400   12.14400    9.21700    0.02900   -0.07370    0.00050    3.32210    2.81480
 2544.00000   45.89330   83.19660   12.38590    9.21320    0.03030   -0.08140    0.00450    3.31570    2.83580
 2544.50000   46.09510   83.80920   14.51970    9.20950    0.03210   -0.08920    0.00610    3.31590    2.85450
 2545.00000   46.28890   83.84800   17.46320    9.20570    0.03320   -0.09670    0.01270    3.33330    2.87250
 2545.50000   46.32820   83.54600   20.31540    9.20200    0.03450   -0.10220    0.02100    3.38530    2.87430
 2546.00000   46.29800   83.25150   22.39940    9.19820    0.03870   -0.09940    0.01970    3.40620    2.86750
 2546.50000   46.18450   83.17320   23.08910    9.19450    0.04270   -0.08650    0.01570    3.32230    2.85410
 2547.00000   46.07100   83.77010   21.25140    9.19080    0.04530   -0.07500    0.00920    3.28280    2.84120
 2547.50000   46.10170   84.35900   18.18360    9.18710    0.04250   -0.07860    0.00640    3.24830    2.83040
 2548.00000   46.52550   84.43330   16.56170    9.18250    0.03930   -0.08630    0.00670    3.25840    2.83410
 2548.50000   46.93660   84.43330   15.20940    9.17050    0.03760   -0.09310    0.00640    3.29850    2.84160
 2549.00000   47.30470   84.43330   14.61480    9.15570    0.03970   -0.07850    0.00330    3.27010    2.84670
 2549.50000   47.75350   85.98660   14.13540    9.14140    0.04550   -0.06180   -0.00060    3.24730    2.85600
 2550.00000   47.94320   87.41500   13.82700    9.12670    0.05140   -0.04520   -0.00470    3.24520    2.83740
 2550.50000   48.11060   87.84350   13.43140    9.11250    0.05580   -0.03380   -0.00580    3.27410    2.78690
 2551.00000   48.27800   87.84350   13.30600    9.09750    0.05700   -0.03780   -0.00360    3.29480    2.76630
 2551.50000   48.39520   87.07200   14.14940    9.08390    0.05730   -0.04080   -0.00200    3.32300    2.77110
 2552.00000   48.25480   85.52890   15.22980    9.06760    0.05930   -0.04040   -0.00040    3.33610    2.77240
 2552.50000   48.05420   83.98040   15.63510    9.06800    0.06210   -0.04010   -0.00050    3.33020    2.77490
 2553.00000   47.76330   84.18870   14.83150    9.08940    0.06320   -0.04340   -0.00030    3.32620    2.77670
 2553.50000   47.38720   85.39670   14.53910    9.10900    0.06450   -0.04850   -0.00120    3.32200    2.78350
 2554.00000   46.93580   86.23870   14.44310    9.12940    0.06370   -0.05050   -0.00310    3.31980    2.79560
 2554.50000   46.53820   86.16710   13.37250    9.14990    0.05550   -0.05730   -0.00530    3.40660    2.80690
 2555.00000   46.22250   85.45060   12.42460    9.16930    0.04520   -0.06680   -0.00590    3.53570    2.81850
 2555.50000   46.16020   84.18250   11.30910    9.19180    0.03490   -0.07660   -0.00330    3.64860    2.83010
 2556.00000   46.09790   82.67800   10.52220    9.20290    0.03370   -0.08240    0.00240    3.67670    2.84070
 2556.50000   46.03570   81.64490   10.11220    9.19820    0.03250   -0.08500    0.01110    3.66620    2.84350
 2557.00000   45.97340   81.84550    9.58690    9.19600    0.03130   -0.08660    0.01140    3.64770    2.84610
 2557.50000   45.91120   82.04610    9.39580    9.19240    0.02860   -0.08700    0.00470    3.64810    2.84760
 2558.00000   45.82250   82.10630    9.38800    9.18960    0.02440   -0.08980   -0.00160    3.72880    2.85520
 2558.50000   45.59740   80.90270    9.55990    9.18640    0.01920   -0.09700   -0.00290    3.74030    2.86720
 2559.00000   45.29580   79.81950    9.78290    9.18300    0.01360   -0.10940   -0.00340    3.73510    2.87950
 2559.50000   44.72990   79.91980   10.62210    9.17810    0.01540   -0.10640   -0.00070    3.74250    2.88360
 2560.00000   44.29840   80.43800   11.51050    9.17220    0.01940   -0.09580    0.00550    3.69130    2.87690
 2560.50000   44.61700   82.61120   12.41330    9.16640    0.02350   -0.09670    0.01670    3.57660    2.87100
 2561.00000   46.08520   85.76230   12.99430    9.16060    0.02530   -0.09980    0.01360    3.47240    2.86590
 2561.50000   48.02120   89.02210   13.66540    9.15480    0.02580   -0.09900    0.00650    3.50960    2.86670
 2562.00000   49.04400   92.29130   14.41750    9.14900    0.02590   -0.09820   -0.00390    3.57650    2.86810
