~Version ---------------------------------------------------
VERS.   2.0 : CWLS log ASCII Standard -VERSION 2.0
WRAP.    NO : One line per depth step
DLM . SPACE : Column Data Section Delimiter
~Well ------------------------------------------------------
STRT .F                  190.0 : START DEPTH
STOP .F                 4601.0 : STOP DEPTH
STEP .F                    0.5 : STEP
NULL .                -9999.25 : NULL VALUE
COMP .                         : COMPANY
WELL .                         : WELL
FLD  .                         : FIELD
LOC  .                         : LOCATION
PROV .                         : PROVINCE
CNTY .                         : COUNTY
STAT .                         : STATE
CTRY .                         : COUNTRY
SRVC .                         : SERVICE COMPANY
DATE .                         : DATE
UWI  .                         : UNIQUE WELL ID
API  .                         : API NUMBER
SLAT .WGS84 2.9034517340801003 : SURFACE LATITUDE
SLON .WGS84  9.383760901910009 : SURFACE LONGITUDE
DATUM.F                4236.02 : DEPTH DATUM ELEV
~Curve Information -----------------------------------------
DEPT.F     : 
DTCO.US/F  : COMPRESSIONAL-WAVE INTERVAL TRANSIT TIME ACOUSTIC SLOWNESS
DTSM.US/F  : SHEAR-WAVE INTERVAL TRANSIT TIME DELTA-T
HSGR.GAPI  : HIGH RESOLUTION STANDARD GAMMA RAY, SPECTROSCOPY GAMMA RAY
HCAL.IN    : HILT CALIPER
TNPH.DEC   : THERMAL NEUTRON POROSITY LIMESTONE
DPHZ.DEC   : DENSITY POROSITY LIMESTONE
HDRA.G/C3  : DELTA RHO HIP TOOL
PEFZ.B/E   : FORMATION PHETOELECTRIC FACTOR
RHOZ.G/C3  : HILT BULK DENSITY
~Params ----------------------------------------------------
~Other -----------------------------------------------------
~ASCII -----------------------------------------------------
# ...
 3767.00000   51.52460   92.56440   26.14920    9.56390    0.01110   -0.15060   -0.02030    4.44830    2.99000
 3767.50000   51.60660   92.00600   32.24840    9.55550    0.03070   -0.13140   -0.01170    4.18350    2.95390
 3768.00000   51.17340   90.65200   39.28550    9.54740    0.04130   -0.10940   -0.00890    3.91170    2.91460
 3768.50000   50.38950   90.20790   38.40770    9.53910    0.05170   -0.08870   -0.00840    3.71390    2.87270
 3769.00000   49.60550   89.75110   37.57540    9.53080    0.05140   -0.07850   -0.00780    3.65090    2.86060
 3769.50000   48.96570   88.38470   36.51870    9.52250    0.04890   -0.06440   -0.00640    3.54120    2.84760
 3770.00000   48.58170   86.76960   34.38370    9.51430    0.04070   -0.06860   -0.00370    3.51620    2.83460
 3770.50000   48.27480   85.61810   29.91730    9.50620    0.03190   -0.08310   -0.00200    3.59500    2.81720
 3771.00000   48.07740   87.17220   23.82210    9.50370    0.02310   -0.09830   -0.00120    3.66170    2.82250
 3771.50000   47.95100   88.44530   24.52640    9.50410    0.01560   -0.10700   -0.00050    3.74040    2.84370
 3772.00000   48.39570   89.07600   26.39600    9.50390    0.01520   -0.10100   -0.00260    3.78400    2.86140
 3772.50000   49.36050   89.71550   33.62940    9.50400    0.02600   -0.08730   -0.00440    3.70280    2.87920
 3773.00000   50.20980   90.35510   39.65920    9.50400    0.03370   -0.07800   -0.00520    3.62300    2.86760
 3773.50000   50.52100   90.99460   46.65850    9.50400    0.03730   -0.07200   -0.00590    3.55130    2.85330
 3774.00000   50.62190   91.32020   43.16430    9.50400    0.03360   -0.07480   -0.00670    3.55770    2.84020
 3774.50000   50.34890   91.43180   35.78340    9.50400    0.02410   -0.07770   -0.00730    3.81320    2.82630
 3775.00000   50.07480   90.55170   29.65050    9.50400    0.01450   -0.09020   -0.00840    4.14150    2.85280
 3775.50000   49.40330   89.20690   24.55400    9.50410    0.00500   -0.09850   -0.00610    4.48120    2.87920
 3776.00000   48.63590   87.01410   18.98860    9.50400   -0.00440   -0.12590    0.00100    4.79630    2.90610
 3776.50000   47.83590   84.83450   15.58910    9.50410   -0.00800   -0.16430    0.00240    4.74280    2.93380
 3777.00000   47.03910   84.32900   18.24340    9.50390   -0.00260   -0.15460    0.00330    4.42500    2.97220
 3777.50000   46.28280   83.20960   22.63450    9.50440    0.00360   -0.13900    0.00300    4.05130    2.96380
 3778.00000   46.06580   81.62490   25.99610    9.50060    0.00980   -0.12340    0.00140    3.60730    2.94090
 3778.50000   46.10720   84.33080   29.34350    9.49360    0.01400   -0.11370   -0.00020    3.50640    2.92110
 3779.00000   46.03770   86.03810   30.52880    9.48750    0.01760   -0.11060   -0.00090    3.46640    2.89900
 3779.50000   45.96470   85.36680   30.85640    9.48110    0.01800   -0.11310   -0.00120    3.41710    2.89140
 3780.00000   46.10790   84.54450   28.74590    9.47480    0.01680   -0.11850   -0.00180    3.40960    2.89670
 3780.50000   46.53030   84.23270   26.98710    9.46850    0.01400   -0.12470   -0.00210    3.40610    2.90070
 3781.00000   47.28900   85.05440   25.04780    9.46220    0.01520   -0.11550   -0.00380    3.39580    2.90440
 3781.50000   48.03570   85.83750   24.67560    9.45580    0.01780   -0.10580   -0.00610    3.42290    2.90700
 3782.00000   48.78060   85.36300   28.25000    9.44950    0.02080   -0.09310   -0.00850    3.50560    2.88980
 3782.50000   49.05720   85.03510   34.19310    9.44320    0.02900   -0.07650   -0.00870    3.60500    2.87360
 3783.00000   48.69580   85.77450   42.93430    9.43690    0.03830   -0.08050   -0.00660    3.65040    2.85590
 3783.50000   47.96520   85.05980   42.35290    9.43060    0.04340   -0.08840   -0.00460    3.59830    2.83920
 3784.00000   47.25150   83.51360   37.19010    9.42400    0.04180   -0.09630   -0.00330    3.56150    2.83350
 3784.50000   46.63200   82.02610   32.22440    9.41910    0.03440   -0.10500   -0.00420    3.49850    2.86590
 3785.00000   46.30310   81.06990   28.86200    9.41410    0.02690   -0.10100   -0.00470    3.41940    2.87500
 3785.50000   45.98800   80.14860   29.73450    9.40900    0.02460   -0.09680   -0.00530    3.39210    2.87100
 3786.00000   45.93840   80.46540   31.09640    9.40390    0.02440   -0.09460   -0.00470    3.39050    2.86810
 3786.50000   45.89080   81.47040   30.91170    9.39890    0.02400   -0.09770   -0.00400    3.38520    2.86400
 3787.00000   45.84320   81.96990   29.70500    9.39390    0.02290   -0.10190   -0.00320    3.38190    2.86530
 3787.50000   45.83840   82.19330   28.75490    9.38880    0.02120   -0.10740   -0.00250    3.37700    2.87140
 3788.00000   45.96260   83.08120   28.41460    9.38380    0.01970   -0.10790   -0.00170    3.38120    2.87660
 3788.50000   46.08670   84.03210   28.23280    9.37870    0.01770   -0.11090   -0.00140    3.38740    2.88210
 3789.00000   46.21080   82.73750   28.10540    9.37370    0.01740   -0.11580   -0.00140    3.39440    2.88730
 3789.50000   46.22870   81.62490   29.09250    9.36870    0.01790   -0.12260   -0.00140    3.39410    2.89290
 3790.00000   46.22870   83.60880   30.28440    9.36300    0.01950   -0.12050   -0.00140    3.38590    2.89800
 3790.50000   46.26810   85.92040   31.26970    9.35120    0.02030   -0.11470   -0.00140    3.37870    2.90390
 3791.00000   46.46940   85.80540   30.79150    9.33840    0.01970   -0.10780   -0.00140    3.40190    2.90410
 3791.50000   46.81310   85.30290   30.06620    9.32590    0.01900   -0.10650   -0.00230    3.43730    2.89110
 3792.00000   47.16210   84.83450   29.54280    9.31310    0.01840   -0.10390   -0.00570    3.47200    2.87900
 3792.50000   47.60820   85.03510   30.40330    9.30070    0.02310   -0.09340   -0.00630    3.49190    2.86650
 3793.00000   47.72340   86.37910   32.39410    9.28770    0.02780   -0.08570   -0.00120    3.50660    2.85440
 3793.50000   47.84980   86.60530   35.02550    9.28260    0.03250   -0.07800    0.00890    3.52970    2.84190
 3794.00000   48.06210   85.68410   36.73470    9.28330    0.03610   -0.07180    0.02310    3.51640    2.83020
 3794.50000   48.20270   84.83450   35.18940    9.28300    0.03130   -0.07750    0.03560    3.47860    2.82330
 3795.00000   48.15960   86.18860   31.67610    9.28310    0.02320   -0.09110    0.04350    3.56200    2.82880
 3795.50000   48.25770   87.44520   27.28000    9.28310    0.01370   -0.10790    0.04350    3.83640    2.85810
 3796.00000   48.77750   88.70600   22.70710    9.28310    0.00460   -0.12810    0.02560    4.14880    2.88630
 3796.50000   49.28320   88.80680   19.14430    9.28310   -0.00150   -0.14710    0.00510    4.37650    2.91350
 3797.00000   49.78660   88.72220   18.93970    9.28310    0.00230   -0.13580   -0.00170    4.47920    2.95050
 3797.50000   49.82740   88.64590   20.90140    9.28320    0.00570   -0.12520   -0.00030    4.38050    2.94830
 3798.00000   49.47750   88.47020   20.25000    9.28310    0.00090   -0.11740   -0.00020    4.30380    2.92650
 3798.50000   48.56650   87.85690   17.49980    9.28320   -0.00460   -0.13040    0.00060    4.47380    2.90990
 3799.00000   47.71350   86.89390   13.70170    9.28280   -0.00950   -0.15010    0.00100    4.72260    2.89770
 3799.50000   46.79110   84.94190   14.77140    9.27960   -0.00920   -0.16790    0.00140    4.78580    2.98060
 3800.00000   45.72010   83.00130   19.62760    9.27620   -0.00180   -0.15070   -0.00010    4.57850    2.96620
 3800.50000   45.12050   82.62790   24.58650    9.27290    0.00490   -0.13140   -0.00220    4.22660    2.93910
 3801.00000   45.03760   83.15200   28.26670    9.26960    0.00810   -0.11420   -0.00400    3.98940    2.91300
 3801.50000   45.32090   83.83150   27.36010    9.26630    0.01080   -0.10140   -0.00630    3.89210    2.88320
 3802.00000   46.10660   85.30570   25.73090    9.26300    0.01290   -0.10050   -0.00710    3.79780    2.87740
 3802.50000   47.68620   88.56350   25.41620    9.25960    0.01470   -0.09960   -0.00560    3.72840    2.87310
 3803.00000   49.86620   91.82120   27.41510    9.25630    0.01800   -0.09870   -0.00430    3.63540    2.86990
