~Version ---------------------------------------------------
VERS.   2.0 : CWLS log ASCII Standard -VERSION 2.0
WRAP.    NO : One line per depth step
DLM . SPACE : Column Data Section Delimiter
~Well ------------------------------------------------------
STRT .F                  190.0 : START DEPTH
STOP .F                 4601.0 : STOP DEPTH
STEP .F                    0.5 : STEP
NULL .                -9999.25 : NULL VALUE
COMP .                         : COMPANY
WELL .                         : WELL
FLD  .                         : FIELD
LOC  .                         : LOCATION
PROV .                         : PROVINCE
CNTY .                         : COUNTY
STAT .                         : STATE
CTRY .                         : COUNTRY
SRVC .                         : SERVICE COMPANY
DATE .                         : DATE
UWI  .                         : UNIQUE WELL ID
API  .                         : API NUMBER
SLAT .WGS84 2.9034517340801003 : SURFACE LATITUDE
SLON .WGS84  9.383760901910009 : SURFACE LONGITUDE
DATUM.F                4236.02 : DEPTH DATUM ELEV
~Curve Information -----------------------------------------
DEPT.F     : 
DTCO.US/F  : COMPRESSIONAL-WAVE INTERVAL TRANSIT TIME ACOUSTIC SLOWNESS
DTSM.US/F  : SHEAR-WAVE INTERVAL TRANSIT TIME DELTA-T
HSGR.GAPI  : HIGH RESOLUTION STANDARD GAMMA RAY, SPECTROSCOPY GAMMA RAY
HCAL.IN    : HILT CALIPER
TNPH.DEC   : THERMAL NEUTRON POROSITY LIMESTONE
DPHZ.DEC   : DENSITY POROSITY LIMESTONE
HDRA.G/C3  : DELTA RHO HIP TOOL
PEFZ.B/E   : FORMATION PHETOELECTRIC FACTOR
RHOZ.G/C3  : HILT BULK DENSITY
~Params ----------------------------------------------------
~Other -----------------------------------------------------
~ASCII -----------------------------------------------------
# ...
 3329.00000   54.83450  104.03460   25.51110    9.54350    0.00120   -0.15470   -0.00060    5.20110    2.95910
 3329.50000   54.39190  103.40520   29.75220    9.53570    0.01390   -0.13930    0.00030    5.25610    2.94690
 3330.00000   54.07020  102.77580   31.09130    9.53050    0.02110   -0.11460    0.00110    5.29780    2.93020
 3330.50000   53.76810  102.15010   29.93720    9.52400    0.01990   -0.11700    0.00190    5.30290    2.91460
 3331.00000   53.42850  101.48990   26.59110    9.51820    0.01630   -0.12740    0.00260    5.29860    2.89950
 3331.50000   52.95290   99.45600   24.56640    9.51200    0.01140   -0.13950    0.00350    5.26790    2.90900
 3332.00000   52.42730   96.85000   23.67600    9.50590    0.00720   -0.14460    0.00420    5.33230    2.92260
 3332.50000   51.01500   93.39730   22.05680    9.49990    0.00440   -0.14940    0.00520    5.38420    2.93570
 3333.00000   49.23770   89.94470   19.66740    9.49380    0.00250   -0.15420    0.00560    5.25380    2.94950
 3333.50000   48.09430   88.21090   18.80750    9.48780    0.00080   -0.16230    0.00570    5.09980    2.96870
 3334.00000   47.29000   88.12310   20.54330    9.47850    0.00390   -0.15520    0.00430    4.85330    2.95990
 3334.50000   46.60060   87.31880   22.42270    9.46410    0.00850   -0.13190    0.00030    4.57130    2.93030
 3335.00000   46.37430   85.54610   24.24710    9.44980    0.01360   -0.11140   -0.00200    4.34550    2.90110
 3335.50000   46.44370   83.76730   26.81750    9.43530    0.01560   -0.10460   -0.00550    4.22650    2.88140
 3336.00000   46.60630   83.97270   30.34060    9.42100    0.01780   -0.10010    0.00070    4.15760    2.87290
 3336.50000   46.77030   85.58390   34.01480    9.40560    0.02000   -0.09480    0.00990    4.07740    2.86310
 3337.00000   46.77030   85.04310   36.92110    9.40960    0.02220   -0.08740    0.00720    3.99740    2.85420
 3337.50000   47.25930   83.02910   38.08440    9.41880    0.02430   -0.08390    0.00080    3.89360    2.84470
 3338.00000   47.87390   82.02610   38.26050    9.42680    0.02490   -0.07850   -0.00760    3.78490    2.84210
 3338.50000   48.67240   86.11380   38.68850    9.43560    0.02410   -0.07960   -0.00880    3.71620    2.84000
 3339.00000   49.47080   88.41550   40.12600    9.44300    0.02340   -0.08160   -0.00890    3.76900    2.83930
 3339.50000   50.07590   89.50130   42.43930    9.44390    0.02240   -0.08370   -0.00940    3.87560    2.85280
 3340.00000   50.37270   89.48520   42.02100    9.44360    0.02310   -0.09400   -0.00630    3.98800    2.86880
 3340.50000   50.30030   89.28500   38.81240    9.44390    0.02390   -0.10680   -0.00150    4.07350    2.88460
 3341.00000   49.86910   89.08310   35.99060    9.44330    0.02480   -0.12130    0.01310    4.18470    2.90010
 3341.50000   49.20450   88.88020   34.13980    9.44580    0.02480   -0.13890    0.02850    4.17140    2.91680
 3342.00000   48.44750   88.64590   38.20880    9.46220    0.02690   -0.12420    0.02310    4.06240    2.92840
 3342.50000   47.39020   87.68310   44.39040    9.47710    0.03040   -0.10100    0.01430    3.97110    2.90310
 3343.00000   46.72040   86.75350   45.34830    9.49230    0.02920   -0.08700    0.00690    3.88870    2.86710
 3343.50000   46.64990   86.43930   42.60050    9.50720    0.02600   -0.09030    0.00060    3.94400    2.85350
 3344.00000   47.19300   87.42470   38.92300    9.52230    0.02000   -0.09560   -0.00620    4.01290    2.86230
 3344.50000   47.98140   88.63310   35.76530    9.53730    0.01410   -0.10040   -0.00960    4.07850    2.86780
 3345.00000   48.95490   89.44430   34.36200    9.55230    0.00810   -0.10450   -0.00870    4.15470    2.87420
 3345.50000   49.75770   90.04860   34.00400    9.56730    0.00240   -0.10860   -0.00860    4.23850    2.88090
 3346.00000   50.24700   91.09630   32.51090    9.58350   -0.00040   -0.11270   -0.00800    4.37100    2.88670
 3346.50000   50.59440   92.38640   30.73100    9.59940   -0.00300   -0.11680   -0.00770    4.57050    2.89730
 3347.00000   50.67690   93.23680   28.32870    9.61680   -0.00570   -0.12220   -0.00720    4.77330    2.91270
 3347.50000   50.65800   93.60010   25.17130    9.63430   -0.00840   -0.12920   -0.00690    4.97370    2.92760
 3348.00000   50.63910   93.76410   22.49080    9.65150   -0.01090   -0.13880   -0.00610    5.17530    2.94270
 3348.50000   50.62190   93.36840   19.41440    9.66930   -0.01420   -0.15510   -0.00380    5.26340    2.95780
 3349.00000   50.29330   92.43950   16.08660    9.68390   -0.01720   -0.18200   -0.00090    5.27950    2.97250
 3349.50000   50.02010   91.24940   11.91840    9.68490   -0.01940   -0.18030    0.00070    5.28970    2.99400
 3350.00000   49.92970   90.36490    9.73020    9.68490   -0.01970   -0.17490    0.00030    5.29750    2.99180
 3350.50000   49.83950   89.78850    8.83090    9.68480   -0.02010   -0.16920    0.00020    5.28050    2.98130
 3351.00000   49.59880   89.20620    9.83160    9.68500   -0.02040   -0.16410   -0.00010    5.18260    2.97240
 3351.50000   49.01870   88.46400   13.06580    9.68460   -0.01940   -0.15950   -0.00020    5.07210    2.96310
 3352.00000   48.34050   87.22800   16.28540    9.68540   -0.01840   -0.15490   -0.00050    4.97520    2.95440
 3352.50000   48.02390   87.24170   19.61350    9.67870   -0.01250   -0.15040   -0.00150    4.89670    2.94140
 3353.00000   48.02970   88.77170   22.77360    9.66080   -0.00720   -0.14440   -0.00260    4.80730    2.92450
 3353.50000   49.10520   90.41600   26.21070    9.64330   -0.00190   -0.13290   -0.00340    4.70630    2.90860
 3354.00000   50.69890   92.06030   27.29930    9.62570    0.00050   -0.12090   -0.00390    4.52200    2.89170
 3354.50000   52.23380   93.70470   26.77630    9.60710    0.00060   -0.10660   -0.00440    4.48330    2.88280
 3355.00000   52.95200   95.34900   24.81130    9.61600    0.00070   -0.10620   -0.00480    4.64550    2.89330
 3355.50000   53.20960   96.49400   23.55520    9.63250    0.00080   -0.12850   -0.00530    4.79210    2.91390
 3356.00000   52.78840   97.27180   25.07700    9.64830    0.00890   -0.15510   -0.00570    4.91390    2.93350
 3356.50000   51.69950   95.92300   27.58780    9.66290    0.01920   -0.14250   -0.00620    4.77890    2.95350
 3357.00000   50.56170   94.73510   28.23010    9.68090    0.02720   -0.12150   -0.00660    4.59500    2.92500
 3357.50000   50.08020   93.86160   26.98850    9.67050    0.02670   -0.10020   -0.00710    4.57870    2.86400
 3358.00000   50.09950   94.23620   26.20100    9.63250    0.01730   -0.10050   -0.00740    4.67970    2.86790
 3358.50000   50.36210   95.05860   26.05490    9.59710    0.00960   -0.10110   -0.00710    4.74090    2.88950
 3359.00000   51.51710   96.54810   24.62060    9.56630    0.00210   -0.11680   -0.00680    4.75150    2.91160
 3359.50000   53.09790   98.03760   20.44120    9.56680   -0.00550   -0.14850   -0.00650    4.84740    2.93440
 3360.00000   54.41240   99.52720   14.07990    9.56950   -0.01260   -0.16870   -0.00620    5.03220    2.95550
 3360.50000   55.30630  100.68210   10.77960    9.57210   -0.01420   -0.16830   -0.00590    5.07270    2.97550
 3361.00000   55.61690   99.59990   13.16250    9.57450   -0.00740   -0.15390   -0.00560    5.13040    2.94990
 3361.50000   54.81000   98.07420   19.30430    9.57730    0.01250   -0.14020   -0.00510    5.06180    2.92610
 3362.00000   53.13020   94.93280   25.37330    9.57940    0.03120   -0.12680   -0.00450    4.86270    2.90110
 3362.50000   51.31390   92.28190   30.82050    9.58310    0.04810   -0.11330   -0.00390    4.68370    2.87640
 3363.00000   49.78020   90.76830   32.42740    9.58040    0.05010   -0.10310   -0.00330    4.48860    2.88160
 3363.50000   48.59410   89.38620   30.96280    9.54700    0.03950   -0.12290   -0.00260    4.34660    2.89140
 3364.00000   48.08230   88.37710   30.33520    9.51410    0.02690   -0.12170   -0.00210    4.20140    2.89980
 3364.50000   48.34940   89.63760   31.14430    9.48220    0.02480   -0.12350   -0.00140    4.05870    2.90730
 3365.00000   49.47310   92.01610   33.55170    9.44830    0.02930   -0.09190   -0.00190    4.00990    2.87500
