~Version ---------------------------------------------------
VERS.   2.0 : CWLS log ASCII Standard -VERSION 2.0
WRAP.    NO : One line per depth step
DLM . SPACE : Column Data Section Delimiter
~Well ------------------------------------------------------
STRT .F                  190.0 : START DEPTH
STOP .F                 4601.0 : STOP DEPTH
STEP .F                    0.5 : STEP
NULL .                -9999.25 : NULL VALUE
COMP .                         : COMPANY
WELL .                         : WELL
FLD  .                         : FIELD
LOC  .                         : LOCATION
PROV .                         : PROVINCE
CNTY .                         : COUNTY
STAT .                         : STATE
CTRY .                         : COUNTRY
SRVC .                         : SERVICE COMPANY
DATE .                         : DATE
UWI  .                         : UNIQUE WELL ID
API  .                         : API NUMBER
SLAT .WGS84 2.9034517340801003 : SURFACE LATITUDE
SLON .WGS84  9.383760901910009 : SURFACE LONGITUDE
DATUM.F                4236.02 : DEPTH DATUM ELEV
~Curve Information -----------------------------------------
DEPT.F     : 
DTCO.US/F  : COMPRESSIONAL-WAVE INTERVAL TRANSIT TIME ACOUSTIC SLOWNESS
DTSM.US/F  : SHEAR-WAVE INTERVAL TRANSIT TIME DELTA-T
HSGR.GAPI  : HIGH RESOLUTION STANDARD GAMMA RAY, SPECTROSCOPY GAMMA RAY
HCAL.IN    : HILT CALIPER
TNPH.DEC   : THERMAL NEUTRON POROSITY LIMESTONE
DPHZ.DEC   : DENSITY POROSITY LIMESTONE
HDRA.G/C3  : DELTA RHO HIP TOOL
PEFZ.B/E   : FORMATION PHETOELECTRIC FACTOR
RHOZ.G/C3  : HILT BULK DENSITY
~Params ----------------------------------------------------
~Other -----------------------------------------------------
~ASCII -----------------------------------------------------
# ...
 4570.00000   -9999.25   -9999.25  108.26920    9.00970    0.27290    0.02700    0.13690    3.93320    2.67480
 4570.50000   -9999.25   -9999.25  106.74060    8.92580    0.25370    0.00600    0.12390    3.91510    2.69440
 4571.00000   -9999.25   -9999.25  105.05060    8.92840    0.23530    0.00720    0.08680    3.88970    2.70390
 4571.50000   -9999.25   -9999.25  103.65540    8.90850    0.21690    0.00990    0.06050    3.83360    2.69570
 4572.00000   -9999.25   -9999.25  104.32940    8.90060    0.19950    0.01440    0.03620    3.77100    2.68720
 4572.50000   -9999.25   -9999.25  105.29700    8.88590    0.19500    0.02000    0.02300    3.74200    2.67900
 4573.00000   -9999.25   -9999.25  105.13390    8.88080    0.19790    0.02600    0.01320    3.77590    2.66960
 4573.50000   -9999.25   -9999.25  105.29450    8.88190    0.20050    0.02310    0.01600    3.80240    2.66830
 4574.00000   -9999.25   -9999.25  106.63810    8.88000    0.20250    0.01380    0.02930    3.83360    2.67580
 4574.50000   -9999.25   -9999.25  108.05170    8.89460    0.20470    0.01650    0.05360    3.86180    2.68180
 4575.00000   -9999.25   -9999.25  108.22420    8.92250    0.21430    0.02100    0.07770    3.89250    2.68860
 4575.50000   -9999.25   -9999.25  107.26280    8.94650    0.23010    0.01500    0.10230    3.91570    2.69490
 4576.00000   -9999.25   -9999.25  107.15670    8.97310    0.24360    0.00970    0.12790    3.90770    2.70180
 4576.50000   -9999.25   -9999.25  108.03880    8.98300    0.25200    0.00390    0.15110    3.89520    2.70630
 4577.00000   -9999.25   -9999.25  107.98920    8.98190    0.26040    0.01240    0.12440    3.88390    2.69260
 4577.50000   -9999.25   -9999.25  107.07760    8.98100    0.26870    0.02510    0.08760    3.87020    2.67740
 4578.00000   -9999.25   -9999.25  106.13710    8.95530    0.27740    0.03800    0.05160    3.84930    2.66140
 4578.50000   -9999.25   -9999.25  105.90860    8.92190    0.26920    0.03700    0.02790    3.82760    2.65460
 4579.00000   -9999.25   -9999.25  106.58000    8.89030    0.25820    0.03490    0.01250    3.80640    2.65710
 4579.50000   -9999.25   -9999.25  106.74950    8.85680    0.24730    0.03250    0.00860    3.78450    2.65680
 4580.00000   -9999.25   -9999.25  106.79570    8.83200    0.23630    0.03710    0.00480    3.76370    2.64910
 4580.50000   -9999.25   -9999.25  106.81920    8.81630    0.22730    0.04320    0.00370    3.73930    2.64060
 4581.00000   -9999.25   -9999.25  106.86830    8.79820    0.21800    0.04780    0.00360    3.74540    2.63230
 4581.50000   -9999.25   -9999.25  106.88210    8.78490    0.21790    0.04650    0.00360    3.76500    2.63540
 4582.00000   -9999.25   -9999.25  106.96510    8.80850    0.22380    0.04410    0.00310    3.77650    2.64390
 4582.50000   -9999.25   -9999.25  106.35110    8.84350    0.23250    0.03470    0.00260    3.76770    2.65140
 4583.00000   -9999.25   -9999.25  104.69570    8.87010    0.23310    0.02940    0.00090    3.75690    2.65890
 4583.50000   -9999.25   -9999.25  102.74990    8.89050    0.23360    0.02650   -0.00130    3.74170    2.66710
 4584.00000   -9999.25   -9999.25  100.92510    8.91130    0.23410    0.02690   -0.00330    3.74530    2.66730
 4584.50000   -9999.25   -9999.25   -9999.25    8.93480    0.24020    0.03290   -0.00550    3.80800    2.66070
 4585.00000   -9999.25   -9999.25   -9999.25    8.93100    0.24650    0.03880   -0.00710    3.86690    2.65580
 4585.50000   -9999.25   -9999.25   -9999.25    8.90510    0.25890    0.04460   -0.00500    3.90780    2.64970
 4586.00000   -9999.25   -9999.25   -9999.25    8.88380    0.25920    0.04650   -0.00180    3.84040    2.64480
 4586.50000   -9999.25   -9999.25   -9999.25    8.86080    0.25940    0.03950    0.00100    3.76390    2.63830
 4587.00000   -9999.25   -9999.25   -9999.25    8.83760    0.25970    0.03300    0.00430    3.72990    2.64300
 4587.50000   -9999.25   -9999.25   -9999.25    8.82200    0.26450    0.02660    0.00560    3.70010    2.65620
 4588.00000   -9999.25   -9999.25   -9999.25    8.82540   -9999.25    0.02150    0.00490    3.66910    2.66760
 4588.50000   -9999.25   -9999.25   -9999.25    8.82840   -9999.25    0.01960    0.00480    3.63830    2.67790
 4589.00000   -9999.25   -9999.25   -9999.25    8.83190   -9999.25    0.01760    0.00570    3.60770    2.67990
 4589.50000   -9999.25   -9999.25   -9999.25    8.83510   -9999.25    0.01870    0.00670    3.57600    2.68290
 4590.00000   -9999.25   -9999.25   -9999.25    8.83840   -9999.25    0.01960    0.00770    3.54610    2.67660
 4590.50000   -9999.25   -9999.25   -9999.25    8.84140   -9999.25    0.02560    0.00820    3.48850    2.66410
 4591.00000   -9999.25   -9999.25   -9999.25    8.84370   -9999.25    0.03510    0.00980    3.54290    2.65320
 4591.50000   -9999.25   -9999.25   -9999.25    8.84570   -9999.25    0.05090    0.01320    3.61960    2.64360
 4592.00000   -9999.25   -9999.25   -9999.25    8.84790   -9999.25    0.04410    0.01670    3.69050    2.63760
 4592.50000   -9999.25   -9999.25   -9999.25    8.84990   -9999.25    0.04690    0.01910    3.76530    2.63290
 4593.00000   -9999.25   -9999.25   -9999.25    8.85220   -9999.25    0.05130    0.01900    3.83150    2.62490
 4593.50000   -9999.25   -9999.25   -9999.25    8.85390   -9999.25    0.04430    0.02160    3.83580    2.62840
 4594.00000   -9999.25   -9999.25   -9999.25    8.85660   -9999.25    0.03370    0.02540    3.83130    2.64890
 4594.50000   -9999.25   -9999.25   -9999.25    8.85750   -9999.25    0.02240    0.03190    3.82880    2.67250
 4595.00000   -9999.25   -9999.25   -9999.25    8.86220   -9999.25    0.03100    0.02650    3.82530    2.66560
 4595.50000   -9999.25   -9999.25   -9999.25    8.84700   -9999.25    0.05490    0.00810    3.82240    2.64610
 4596.00000   -9999.25   -9999.25   -9999.25    8.80790   -9999.25    0.05530    0.01280    3.81910    2.62730
 4596.50000   -9999.25   -9999.25   -9999.25    8.76960   -9999.25    0.04150    0.02050    3.81780    2.63870
 4597.00000   -9999.25   -9999.25   -9999.25    8.74130   -9999.25    0.03030    0.02910    3.81800    2.66990
 4597.50000   -9999.25   -9999.25   -9999.25    8.74230   -9999.25    0.02200    0.03080    3.81800    2.67270
 4598.00000   -9999.25   -9999.25   -9999.25    8.73370   -9999.25    0.02400    0.02530    3.81410    2.66670
 4598.50000   -9999.25   -9999.25   -9999.25    8.65440   -9999.25    0.02830    0.01980    3.74520    2.66150
 4599.00000   -9999.25   -9999.25   -9999.25    8.58380   -9999.25    0.03470    0.01960    3.65860    2.65650
 4599.50000   -9999.25   -9999.25   -9999.25    8.56970   -9999.25    0.04010    0.02610    3.57230    2.65120
 4600.00000   -9999.25   -9999.25   -9999.25    8.56110   -9999.25    0.03380    0.05270    3.50120    2.65490
 4600.50000   -9999.25   -9999.25   -9999.25   -9999.25   -9999.25    0.02800    0.05630    3.49640    2.66440
 4601.00000   -9999.25   -9999.25   -9999.25   -9999.25   -9999.25    0.02400    0.05710   -9999.25    2.67260
