~Version ---------------------------------------------------
VERS.   2.0 : CWLS log ASCII Standard -VERSION 2.0
WRAP.    NO : One line per depth step
DLM . SPACE : Column Data Section Delimiter
~Well ------------------------------------------------------
STRT .F                  190.0 : START DEPTH
STOP .F                 4601.0 : STOP DEPTH
STEP .F                    0.5 : STEP
NULL .                -9999.25 : NULL VALUE
COMP .                         : COMPANY
WELL .                         : WELL
FLD  .                         : FIELD
LOC  .                         : LOCATION
PROV .                         : PROVINCE
CNTY .                         : COUNTY
STAT .                         : STATE
CTRY .                         : COUNTRY
SRVC .                         : SERVICE COMPANY
DATE .                         : DATE
UWI  .                         : UNIQUE WELL ID
API  .                         : API NUMBER
SLAT .WGS84 2.9034517340801003 : SURFACE LATITUDE
SLON .WGS84  9.383760901910009 : SURFACE LONGITUDE
DATUM.F                4236.02 : DEPTH DATUM ELEV
~Curve Information -----------------------------------------
DEPT.F     : 
DTCO.US/F  : COMPRESSIONAL-WAVE INTERVAL TRANSIT TIME ACOUSTIC SLOWNESS
DTSM.US/F  : SHEAR-WAVE INTERVAL TRANSIT TIME DELTA-T
HSGR.GAPI  : HIGH RESOLUTION STANDARD GAMMA RAY, SPECTROSCOPY GAMMA RAY
HCAL.IN    : HILT CALIPER
TNPH.DEC   : THERMAL NEUTRON POROSITY LIMESTONE
DPHZ.DEC   : DENSITY POROSITY LIMESTONE
HDRA.G/C3  : DELTA RHO HIP TOOL
PEFZ.B/E   : FORMATION PHETOELECTRIC FACTOR
RHOZ.G/C3  : HILT BULK DENSITY
~Params ----------------------------------------------------
~Other -----------------------------------------------------
~ASCII -----------------------------------------------------
# ...
 2307.00000   51.88570   89.80560   42.16660    9.08230    0.05930   -0.05840   -0.00310    3.69370    2.79210
 2307.50000   52.55550   90.39870   39.39710    9.08230    0.04000   -0.06920   -0.00190    3.73150    2.80760
 2308.00000   53.16370   91.15250   42.50620    9.08230    0.04110   -0.07900   -0.00120    3.79930    2.82360
 2308.50000   52.94010   91.40370   46.75980    9.08230    0.04290   -0.08680   -0.00020    3.82310    2.84860
 2309.00000   52.48630   90.64980   48.36920    9.08230    0.04590   -0.07220    0.00030    3.73290    2.84400
 2309.50000   52.36710   89.85560   43.69600    9.08230    0.04830   -0.05810   -0.00260    3.63910    2.82170
 2310.00000   52.25280   89.59160   38.87470    9.08230    0.05070   -0.04480   -0.00520    3.59650    2.80220
 2310.50000   51.43010   89.31830   35.17470    9.08240    0.05330   -0.04470   -0.00540    3.61110    2.78270
 2311.00000   50.44630   88.59980   35.69610    9.08210    0.05610   -0.04720   -0.00480    3.61430    2.78270
 2311.50000   49.30430   87.40630   39.77760    9.08150    0.05900   -0.05010   -0.00420    3.55160    2.78510
 2312.00000   48.47360   86.21290   44.28190    9.08100    0.06210   -0.05030   -0.00340    3.46160    2.78680
 2312.50000   47.96640   85.17980   49.28330    9.08040    0.05990   -0.05130   -0.00240    3.40770    2.79040
 2313.00000   47.62730   84.44530   47.95760    9.07980    0.05770   -0.06350   -0.00110    3.44950    2.81080
 2313.50000   47.43230   83.71090   43.56230    9.07930    0.04990   -0.07960    0.00000    3.50440    2.83200
 2314.00000   47.18570   82.97650   38.77630    9.07870    0.04090   -0.09580    0.00140    3.57420    2.85540
 2314.50000   46.92730   82.24200   37.15810    9.07810    0.04220   -0.09020   -0.00020    3.65830    2.86130
 2315.00000   46.68440   81.60700   38.20440    9.07760    0.04370   -0.08280   -0.00350    3.67990    2.85100
 2315.50000   46.52370   81.49110   36.35600    9.07700    0.04630   -0.07770   -0.00610    3.60760    2.84380
 2316.00000   46.36290   81.73070   31.92960    9.07650    0.04860   -0.07510   -0.00570    3.54660    2.83490
 2316.50000   46.23230   82.57170   27.03680    9.07590    0.05150   -0.07290   -0.00450    3.47660    2.82700
 2317.00000   46.25390   83.43030   24.03890    9.07540    0.05530   -0.06290   -0.00350    3.40710    2.81840
 2317.50000   46.27550   82.45740   22.61840    9.07480    0.05930   -0.06080   -0.00250    3.32670    2.81110
 2318.00000   46.28070   81.70110   21.05410    9.07420    0.05890   -0.05870   -0.00240    3.34040    2.80730
 2318.50000   46.25930   81.36610   19.44860    9.07370    0.05690   -0.05660   -0.00350    3.37660    2.80340
 2319.00000   46.23780   81.36810   18.15050    9.07310    0.05450   -0.05450   -0.00500    3.41110    2.80050
 2319.50000   46.32020   81.61940   18.08240    9.07260    0.05200   -0.06170   -0.00610    3.43190    2.79610
 2320.00000   46.47890   81.78380   18.37530    9.07200    0.04960   -0.07080   -0.00370    3.39440    2.81010
 2320.50000   46.63760   81.52830   18.49990    9.07140    0.04570   -0.08340   -0.00230    3.34670    2.83720
 2321.00000   46.79630   81.27700   17.91140    9.07090    0.04660   -0.08070   -0.00250    3.32640    2.84230
 2321.50000   46.83050   81.01790   17.93260    9.07030    0.04860   -0.07450   -0.00240    3.39460    2.83700
 2322.00000   46.65360   81.72990   19.94220    9.06980    0.05130   -0.06570   -0.00240    3.45860    2.83330
 2322.50000   46.35210   82.62900   22.00760    9.06920    0.05020   -0.06870   -0.00210    3.51120    2.82880
 2323.00000   46.05050   83.52870   24.15590    9.06870    0.04870   -0.07730   -0.00190    3.48150    2.82490
 2323.50000   46.25670   84.43330   25.80170    9.06810    0.04700   -0.07220   -0.00170    3.43520    2.82040
 2324.00000   46.70650   84.43330   26.47550    9.06750    0.04640   -0.06170   -0.00140    3.40020    2.81670
 2324.50000   47.38640   84.43330   25.21310    9.06700    0.04620   -0.06430   -0.00250    3.40160    2.80940
 2325.00000   47.69310   86.03810   22.21510    9.06640    0.04520   -0.07470   -0.00500    3.40990    2.81200
 2325.50000   48.14160   86.84050   18.01480    9.06590    0.04320   -0.08520   -0.00390    3.41330    2.83340
 2326.00000   48.65180   86.84050   18.48410    9.06530    0.04150   -0.09260   -0.00100    3.43350    2.85450
 2326.50000   49.18110   86.84050   22.75710    9.06470    0.04390   -0.09060    0.00130    3.45370    2.85690
 2327.00000   49.59330   86.84050   26.87570    9.06420    0.05440   -0.08690    0.00420    3.41300    2.85310
 2327.50000   49.88160   89.20400   30.73530    9.06360    0.06370   -0.07900    0.00570    3.36440    2.84340
 2328.00000   50.17000   93.25980   34.27900    9.06310    0.06860   -0.07350    0.00560    3.31610    2.82990
 2328.50000   50.45840   91.65860   41.35070    9.06250    0.06980   -0.07060    0.00560    3.26410    2.81710
 2329.00000   50.74220   89.04550   51.46750    9.06210    0.07130   -0.06310    0.00470    3.24290    2.80430
 2329.50000   50.62190   87.42430   57.35380    9.06170    0.07510   -0.04810    0.00350    3.21600    2.79080
 2330.00000   50.11030   87.00670   55.31630    9.06140    0.08010   -0.03670    0.00080    3.19890    2.77860
 2330.50000   49.63330   86.71960   48.39660    9.06110    0.07690   -0.04100   -0.00230    3.21410    2.76610
 2331.00000   49.24560   86.43670   44.94920    9.06070    0.07370   -0.05030   -0.00350    3.22900    2.78060
 2331.50000   48.55430   85.75240   46.27110    9.06040    0.07050   -0.06570   -0.00340    3.24500    2.81320
 2332.00000   48.29200   85.64120   46.52180    9.06010    0.06720   -0.06400   -0.00340    3.25500    2.80450
 2332.50000   48.39970   85.63690   42.85690    9.05970    0.06270   -0.05730   -0.00340    3.24500    2.80300
 2333.00000   48.61100   84.80800   39.83060    9.05940    0.05650   -0.06030   -0.00310    3.23700    2.81040
 2333.50000   48.85770   83.49370   37.48920    9.05910    0.05050   -0.06740   -0.00020    3.22200    2.82350
 2334.00000   48.99700   82.21840   39.29560    9.05880    0.04770   -0.07130    0.00040    3.21980    2.82140
 2334.50000   48.75630   83.17230   44.00250    9.05840    0.05020   -0.06670   -0.00040    3.22800    2.81710
 2335.00000   48.38070   84.13510   50.30850    9.05810    0.05260   -0.06170   -0.00090    3.23550    2.81210
 2335.50000   48.16820   84.56600   55.35550    9.05770    0.05490   -0.06530   -0.00140    3.22400    2.81260
 2336.00000   47.87360   84.63390   55.89520    9.05740    0.05180   -0.06950   -0.00220    3.21560    2.81990
 2336.50000   47.55480   84.56810   55.13410    9.05710    0.04900   -0.07220   -0.00290    3.19310    2.82500
 2337.00000   47.31640   84.30010   54.01540    9.05680    0.04620   -0.06950   -0.00360    3.26840    2.82080
 2337.50000   47.07830   84.03210   52.15600    9.05640    0.04330   -0.06010   -0.00430    3.40830    2.81450
 2338.00000   46.84030   83.73960   48.54640    9.05610    0.04050   -0.06220   -0.00250    3.52390    2.81010
 2338.50000   46.71010   83.37410   44.05360    9.05580    0.03770   -0.06770   -0.00080    3.56900    2.81620
 2339.00000   47.03870   83.02910   39.72740    9.05540    0.03600   -0.07460    0.00030    3.59160    2.82370
 2339.50000   47.47690   84.99990   35.41470    9.05510    0.03480   -0.07730    0.00050    3.62680    2.83090
 2340.00000   48.30420   86.86630   37.44780    9.05480    0.03360   -0.08250    0.00010    3.68340    2.83820
 2340.50000   49.54790   88.20090   43.72070    9.05440    0.03850   -0.09180    0.00000    3.69230    2.84510
 2341.00000   50.79160   88.04410   50.14360    9.05410    0.04550   -0.09270   -0.00030    3.57750    2.85280
 2341.50000   51.98830   90.41830   49.57620    9.05380    0.05410   -0.08950    0.00000    3.43360    2.86090
 2342.00000   53.05520   93.16540   48.50090    9.05340    0.05720   -0.07870    0.00100    3.35560    2.85670
 2342.50000   54.12210   96.26880   50.97640    9.05310    0.06050   -0.06800    0.00180    3.28220    2.82510
 2343.00000   55.03510   95.08930   57.75290    9.05280    0.06350   -0.05420    0.00280    3.20010    2.79520
