~Version ---------------------------------------------------
VERS.   2.0 : CWLS log ASCII Standard -VERSION 2.0
WRAP.    NO : One line per depth step
DLM . SPACE : Column Data Section Delimiter
~Well ------------------------------------------------------
STRT .F                  190.0 : START DEPTH
STOP .F                 4601.0 : STOP DEPTH
STEP .F                    0.5 : STEP
NULL .                -9999.25 : NULL VALUE
COMP .                         : COMPANY
WELL .                         : WELL
FLD  .                         : FIELD
LOC  .                         : LOCATION
PROV .                         : PROVINCE
CNTY .                         : COUNTY
STAT .                         : STATE
CTRY .                         : COUNTRY
SRVC .                         : SERVICE COMPANY
DATE .                         : DATE
UWI  .                         : UNIQUE WELL ID
API  .                         : API NUMBER
SLAT .WGS84 2.9034517340801003 : SURFACE LATITUDE
SLON .WGS84  9.383760901910009 : SURFACE LONGITUDE
DATUM.F                4236.02 : DEPTH DATUM ELEV
~Curve Information -----------------------------------------
DEPT.F     : 
DTCO.US/F  : COMPRESSIONAL-WAVE INTERVAL TRANSIT TIME ACOUSTIC SLOWNESS
DTSM.US/F  : SHEAR-WAVE INTERVAL TRANSIT TIME DELTA-T
HSGR.GAPI  : HIGH RESOLUTION STANDARD GAMMA RAY, SPECTROSCOPY GAMMA RAY
HCAL.IN    : HILT CALIPER
TNPH.DEC   : THERMAL NEUTRON POROSITY LIMESTONE
DPHZ.DEC   : DENSITY POROSITY LIMESTONE
HDRA.G/C3  : DELTA RHO HIP TOOL
PEFZ.B/E   : FORMATION PHETOELECTRIC FACTOR
RHOZ.G/C3  : HILT BULK DENSITY
~Params ----------------------------------------------------
~Other -----------------------------------------------------
~ASCII -----------------------------------------------------
# ...
 3949.50000   54.10510   96.54300   30.88670    9.21050    0.02850   -0.08460    0.02250    3.66690    2.85260
 3950.00000   55.91780   98.90430   37.64090    9.21450    0.03490   -0.08420    0.04570    3.76640    2.85020
 3950.50000   57.90370  100.28080   44.34170    9.21860    0.03020   -0.09840    0.04320    3.99610    2.86450
 3951.00000   57.84030  100.08020   39.35290    9.22260    0.02360   -0.13140    0.03010    4.41010    2.88710
 3951.50000   57.38130   99.41690   32.01580    9.22670    0.01840   -0.13320    0.02550    4.78570    2.90790
 3952.00000   56.18390   97.06720   27.50640    9.23080    0.02130   -0.13840    0.02040    4.90900    2.92950
 3952.50000   54.59380   94.71750   34.25870    9.23480    0.03780   -0.13180    0.01580    4.66730    2.91720
 3953.00000   51.69430   93.27550   41.12640    9.23900    0.06030   -0.10040    0.01070    4.37200    2.89510
 3953.50000   49.28710   92.18450   44.55110    9.24180    0.07250   -0.08800    0.00380    4.06910    2.87230
 3954.00000   48.11160   90.64270   41.81880    9.23030    0.05670   -0.07650   -0.00120    3.74690    2.84840
 3954.50000   47.14490   88.18810   35.93360    9.21650    0.03990   -0.07500   -0.00460    3.59500    2.83180
 3955.00000   46.61230   85.73350   34.66440    9.20310    0.02890   -0.07440   -0.00660    3.59230    2.83230
 3955.50000   46.28450   83.43030   32.23650    9.18950    0.02260   -0.07370   -0.00640    3.57300    2.82970
 3956.00000   46.25430   83.41530   29.56360    9.17580    0.01600   -0.09020   -0.00640    3.62530    2.84170
 3956.50000   46.20990   84.67400   26.95230    9.16400    0.01410   -0.10090   -0.00560    3.68630    2.85730
 3957.00000   46.19030   85.93280   27.67700    9.17220    0.01200   -0.10640   -0.00500    3.75270    2.87490
 3957.50000   46.75030   86.32340   29.12150    9.18560    0.01180   -0.10540   -0.00440    3.78430    2.88490
 3958.00000   48.44100   86.43930   29.29170    9.19790    0.01150   -0.10340   -0.00440    3.79490    2.87600
 3958.50000   50.48160   88.26770   28.46440    9.21080    0.01120   -0.09980   -0.00490    3.77990    2.86650
 3959.00000   52.52090   92.22930   28.00200    9.22320    0.01450   -0.09270   -0.00610    3.74050    2.85650
 3959.50000   54.17010  101.43630   28.36990    9.23650    0.01840   -0.08570   -0.00720    3.70640    2.84660
 3960.00000   54.97640  107.65460   32.57340    9.24690    0.03070   -0.07860   -0.00680    3.67320    2.83690
 3960.50000   55.37610  104.79060   40.16470    9.25480    0.04580   -0.07170   -0.00590    3.63370    2.82730
 3961.00000   54.72860  102.89870   47.18890    9.26270    0.06080   -0.06490   -0.00510    3.60900    2.81760
 3961.50000   53.43150  101.90390   54.09330    9.27140    0.07540   -0.06030   -0.00430    3.56550    2.80660
 3962.00000   52.10520  100.87610   50.86290    9.27810    0.06180   -0.08000   -0.00340    3.71140    2.82030
 3962.50000   50.85570   97.10470   39.51760    9.29680    0.03920   -0.09820   -0.00250    4.21030    2.85910
 3963.00000   49.93260   93.28920   27.64510    9.32650    0.01650   -0.13710   -0.00160    4.69650    2.89720
 3963.50000   49.00420   89.48490   17.35700    9.35530   -0.00930   -0.16170   -0.00060    4.98180    2.93650
 3964.00000   48.02290   85.68060   12.09050    9.36100   -0.01510   -0.18080    0.00030    5.01190    2.99550
 3964.50000   46.80880   81.87350   14.49250    9.35300   -0.01200   -0.17060    0.00040    4.82240    2.99150
 3965.00000   45.69800   79.38670   17.82370    9.34810   -0.00610   -0.14890   -0.00080    4.49460    2.96670
 3965.50000   44.66660   77.82060   20.61670    9.34180   -0.00030   -0.12730   -0.00390    4.23630    2.94340
 3966.00000   43.86830   79.73060   22.52530    9.33620    0.00520   -0.10970   -0.00770    3.92570    2.92130
 3966.50000   43.17340   81.63460   24.53550    9.33040    0.00650   -0.10320   -0.00880    3.77650    2.89940
 3967.00000   42.97890   83.50940   25.42910    9.32430    0.00770   -0.10370   -0.00630    3.76790    2.87540
 3967.50000   45.10930   86.06170   24.76080    9.33250    0.00740   -0.10260   -0.00200    3.74130    2.87530
 3968.00000   48.04800   88.72740   23.22550    9.34590    0.00650   -0.10390    0.00330    3.71140    2.87580
 3968.50000   50.68610   91.39300   21.03860    9.35820    0.00710   -0.10540    0.00510    3.66090    2.87620
 3969.00000   52.40810   93.60490   22.40530    9.37110    0.01110   -0.08720    0.00220    3.62530    2.86310
 3969.50000   53.80660   95.23130   33.36180    9.38360    0.01930   -0.05210    0.01120    3.56610    2.83610
 3970.00000   53.67600   96.16330   42.32990    9.39650    0.02970   -0.04170    0.04740    3.62590    2.80990
 3970.50000   52.96890   96.96900   47.62960    9.40890    0.02820   -0.06800    0.09200    3.82440    2.78170
 3971.00000   51.82810   97.77250   36.50780    9.42270    0.01590   -0.09740    0.08880    4.28180    2.85300
 3971.50000   50.75560   95.23970   25.75930    9.42040    0.00010   -0.18960    0.05440    4.71600    2.92640
 3972.00000   49.68310   91.86100   14.98100    9.41280   -0.01560   -0.18860    0.01370    4.95060    3.00900
 3972.50000   48.69610   89.06840    7.87170    9.40670   -0.02190   -0.18700   -0.00880    5.11370    3.00510
 3973.00000   47.93500   87.68330    8.86910    9.39990   -0.01900   -0.18190   -0.01460    5.04130    3.01370
 3973.50000   47.83670   86.42220   14.18250    9.39360   -0.01400   -0.16870   -0.01280    4.88820    2.96760
 3974.00000   47.97390   86.23870   20.59850    9.38670   -0.00020   -0.14670   -0.00690    4.59270    2.93960
 3974.50000   48.57850   88.25410   26.39530    9.38190    0.01160   -0.12040    0.00370    4.29300    2.91070
 3975.00000   49.37100   90.10030   30.86890    9.37910    0.01890   -0.09580    0.01480    3.97820    2.88110
 3975.50000   50.05720   90.41850   35.03240    9.37590    0.01770   -0.09990    0.03190    3.82790    2.86500
 3976.00000   50.56330   87.21440   36.03510    9.37290    0.01550   -0.11010    0.04270    3.80660    2.87630
 3976.50000   50.35020   85.63690   31.68920    9.36980    0.00720   -0.12280    0.03710    3.90980    2.89540
 3977.00000   50.04380   88.50950   23.52110    9.36680   -0.00300   -0.13770    0.02320    4.44830    2.91400
 3977.50000   49.80830   91.80740   16.92150    9.36310   -0.01320   -0.15290    0.01340    4.93750    2.93230
 3978.00000   49.73410   92.78640   12.69880    9.35310   -0.01820   -0.17030    0.00280    5.17960    2.95040
 3978.50000   49.64800   89.65340   11.68930    9.34160   -0.01630   -0.17710    0.00070    5.11260    2.96940
 3979.00000   49.56170   89.04710   13.77330    9.33050   -0.01450   -0.17600    0.00230    4.90360    2.99420
 3979.50000   49.34940   91.86360   17.92230    9.31920   -0.00520   -0.16900   -0.00060    4.69080    2.98140
 3980.00000   48.86470   92.91970   22.34040    9.30790    0.00560   -0.15140   -0.00320    4.40380    2.94890
 3980.50000   48.16970   89.46560   25.33990    9.29670    0.01900   -0.12810   -0.00440    4.08480    2.91780
 3981.00000   47.47310   86.99840   27.31400    9.28430    0.03140   -0.10180   -0.00360    3.91780    2.88760
 3981.50000   46.77950   84.53120   25.35760    9.27410    0.02930   -0.08180   -0.00320    3.78270    2.85600
 3982.00000   46.28120   83.43030   22.51880    9.26290    0.02540   -0.08990   -0.00260    3.73980    2.84100
 3982.50000   45.92780   84.98980   20.48740    9.25150    0.02180   -0.10030   -0.00260    3.70460    2.85050
 3983.00000   46.30070   87.65630   21.38960    9.24050    0.01950   -0.10580   -0.00330    3.71460    2.86610
 3983.50000   47.92220   90.33060   23.14680    9.22880    0.01840   -0.10220   -0.00400    3.75410    2.87950
 3984.00000   50.49010   93.00010   24.59020    9.21840    0.02050   -0.09020   -0.00470    3.78500    2.87060
 3984.50000   53.05800   95.67290   26.56840    9.20560    0.02340   -0.09240   -0.00530    3.81520    2.86280
 3985.00000   54.90170   97.65970   26.92090    9.21260    0.02800   -0.09620   -0.00480    3.86770    2.85440
 3985.50000   55.54700   99.47840   32.22740    9.23430    0.03410   -0.08250   -0.00430    3.89280    2.84550
