~Version ---------------------------------------------------
VERS.   2.0 : CWLS log ASCII Standard -VERSION 2.0
WRAP.    NO : One line per depth step
DLM . SPACE : Column Data Section Delimiter
~Well ------------------------------------------------------
STRT .F                  190.0 : START DEPTH
STOP .F                 4601.0 : STOP DEPTH
STEP .F                    0.5 : STEP
NULL .                -9999.25 : NULL VALUE
COMP .                         : COMPANY
WELL .                         : WELL
FLD  .                         : FIELD
LOC  .                         : LOCATION
PROV .                         : PROVINCE
CNTY .                         : COUNTY
STAT .                         : STATE
CTRY .                         : COUNTRY
SRVC .                         : SERVICE COMPANY
DATE .                         : DATE
UWI  .                         : UNIQUE WELL ID
API  .                         : API NUMBER
SLAT .WGS84 2.9034517340801003 : SURFACE LATITUDE
SLON .WGS84  9.383760901910009 : SURFACE LONGITUDE
DATUM.F                4236.02 : DEPTH DATUM ELEV
~Curve Information -----------------------------------------
DEPT.F     : 
DTCO.US/F  : COMPRESSIONAL-WAVE INTERVAL TRANSIT TIME ACOUSTIC SLOWNESS
DTSM.US/F  : SHEAR-WAVE INTERVAL TRANSIT TIME DELTA-T
HSGR.GAPI  : HIGH RESOLUTION STANDARD GAMMA RAY, SPECTROSCOPY GAMMA RAY
HCAL.IN    : HILT CALIPER
TNPH.DEC   : THERMAL NEUTRON POROSITY LIMESTONE
DPHZ.DEC   : DENSITY POROSITY LIMESTONE
HDRA.G/C3  : DELTA RHO HIP TOOL
PEFZ.B/E   : FORMATION PHETOELECTRIC FACTOR
RHOZ.G/C3  : HILT BULK DENSITY
~Params ----------------------------------------------------
~Other -----------------------------------------------------
~ASCII -----------------------------------------------------
# ...
 3146.50000   48.61620   85.17040   21.02500    9.11240    0.00710   -0.14960   -0.00370    4.78520    2.95300
 3147.00000   47.66320   84.43330   24.87190    9.09060    0.01470   -0.13740   -0.00240    4.44470    2.93280
 3147.50000   47.14100   83.63090   27.01380    9.07230    0.02240   -0.12110   -0.00100    4.13890    2.91270
 3148.00000   47.15190   82.71180   27.15830    9.05290    0.02820   -0.10140   -0.00110    3.83250    2.89230
 3148.50000   47.57500   82.60850   28.67980    9.03330    0.02860   -0.09350   -0.00400    3.58740    2.87190
 3149.00000   48.31610   84.00290   32.03950    9.01520    0.02900   -0.08470   -0.00690    3.51490    2.85170
 3149.50000   49.05710   85.39730   35.66530    8.99300    0.02910   -0.07590   -0.00920    3.52580    2.83140
 3150.00000   49.79820   86.79170   37.80280    8.98500    0.02850   -0.06970   -0.00890    3.58730    2.82330
 3150.50000   50.23130   88.06970   33.99430    9.00130    0.01880   -0.08300   -0.00840    3.71470    2.84580
 3151.00000   50.38150   88.32100   28.83040    9.01440    0.00920   -0.09520   -0.00690    3.96250    2.87470
 3151.50000   50.42190   88.57220   29.69660    9.03010    0.00760   -0.12560   -0.00510    4.37760    2.90620
 3152.00000   50.35850   88.84650   34.59770    9.04030    0.01460   -0.12180   -0.00330    4.33590    2.89510
 3152.50000   50.29500   88.04150   41.33750    9.03180    0.02230   -0.10220   -0.00170    4.10040    2.87490
 3153.00000   50.23150   87.60580   45.65810    9.02220    0.03000   -0.09090   -0.00270    3.89920    2.85260
 3153.50000   50.11750   88.10740   45.90480    9.01280    0.03460   -0.08020   -0.00440    3.81340    2.83050
 3154.00000   49.77160   87.93820   44.96040    9.00330    0.03720   -0.09020   -0.00230    3.72800    2.89150
 3154.50000   49.18240   86.33020   45.77770    8.99390    0.03830   -0.11140    0.00190    3.73310    2.87980
 3155.00000   48.43730   85.03510   46.69480    8.98450    0.03940   -0.10300    0.00090    3.83520    2.87640
 3155.50000   47.28150   84.40700   45.56450    8.98160    0.03710   -0.09300   -0.00290    3.90500    2.86790
 3156.00000   46.12580   83.94220   41.11130    8.98200    0.03120   -0.09550   -0.00410    3.97840    2.86200
 3156.50000   45.56670   82.79990   35.75530    8.98180    0.02410   -0.11770   -0.00250    3.88610    2.87990
 3157.00000   45.60340   81.37610   30.58460    8.98190    0.01660   -0.11330   -0.00120    3.74760    2.89560
 3157.50000   45.90570   80.58680   26.46260    8.98180    0.01430   -0.10870    0.00020    3.73100    2.89140
 3158.00000   46.21060   81.08930   25.09610    8.98190    0.01580   -0.10490    0.00140    3.68890    2.88420
 3158.50000   46.41420   81.59180   26.12590    8.98220    0.01830   -0.10010   -0.00110    3.65880    2.87650
 3159.00000   46.42930   82.09430   28.96370    8.99120    0.02080   -0.09880   -0.00080    3.62220    2.86930
 3159.50000   46.44440   82.89340   33.86730    9.00440    0.02330   -0.09440    0.00070    3.58410    2.86520
 3160.00000   46.45950   84.28770   37.57950    9.01660    0.02680   -0.10210    0.00220    3.56360    2.86770
 3160.50000   46.52090   84.42140   41.33250    9.02970    0.02870   -0.10700    0.00160    3.61470    2.88190
 3161.00000   46.72220   84.03710   38.28700    9.04150    0.02850   -0.10190   -0.00060    3.67140    2.87960
 3161.50000   47.25180   84.68110   33.11600    9.05580    0.02550   -0.10220   -0.00260    3.70930    2.87370
 3162.00000   47.94450   86.38190   28.66500    9.05970    0.02240   -0.11000   -0.00330    3.75830    2.88330
 3162.50000   48.75480   88.08270   26.54000    9.04870    0.01970   -0.11980   -0.00290    3.79150    2.89920
 3163.00000   49.62910   89.25260   25.65200    9.04390    0.01560   -0.11940   -0.00260    3.90130    2.90270
 3163.50000   50.38120   89.98960   23.83170    9.05560    0.01090   -0.11860   -0.00230    4.13210    2.90000
 3164.00000   50.96310   90.72660   20.81270    9.07020    0.00500   -0.12930   -0.00200    4.51900    2.90370
 3164.50000   51.38620   91.05320   17.93320    9.08310   -0.00100   -0.14260   -0.00170    4.82940    2.92000
 3165.00000   51.52370   90.61760   15.48130    9.09820   -0.00350   -0.15840   -0.00150    5.02200    2.93560
 3165.50000   51.34680   89.95170   16.67410    9.09660   -0.00400   -0.15940   -0.00280    5.09810    2.95350
 3166.00000   50.96910   89.12410   19.87870    9.08260   -0.00440   -0.14940   -0.00430    4.93650    2.95850
 3166.50000   50.51800   88.29640   26.65540    9.07210    0.00650   -0.13290   -0.00440    4.83490    2.93700
 3167.00000   50.01880   87.44230   31.63670    9.05830    0.01710   -0.11360   -0.00440    4.62260    2.91550
 3167.50000   49.30750   87.32070   37.42860    9.01530    0.02770   -0.10010   -0.00440    4.26950    2.89310
 3168.00000   48.93140   87.19510   41.27050    8.96700    0.03600   -0.08950   -0.00440    3.99600    2.87180
 3168.50000   48.81660   87.06950   38.54450    8.96090    0.04210   -0.07650   -0.00410    3.83240    2.84870
 3169.00000   48.70170   86.39250   33.50450    8.96210    0.04410   -0.08050   -0.00350    3.79450    2.83660
 3169.50000   48.58680   86.13470   31.71570    8.96150    0.04310   -0.08650   -0.00320    3.85630    2.84060
 3170.00000   48.44690   86.30220   32.45270    8.96180    0.04220   -0.09130   -0.00250    3.90660    2.84570
 3170.50000   48.26600   86.32980   33.94950    8.96160    0.04130   -0.09450   -0.00330    3.95270    2.85170
 3171.00000   48.08510   85.97140   34.78590    8.96180    0.04050   -0.09560   -0.00480    3.91800    2.85710
 3171.50000   47.90420   86.76560   33.98470    8.96160    0.03780   -0.09440   -0.00640    3.86940    2.86280
 3172.00000   47.81670   87.47240   33.42920    8.96200    0.03520   -0.09150   -0.00650    3.82390    2.86060
 3172.50000   47.91290   87.69800   34.99170    8.96110    0.03290   -0.08650   -0.00780    3.82250    2.85520
 3173.00000   48.38120   87.42810   37.59010    8.96700    0.03120   -0.08390   -0.00150    3.83630    2.85010
 3173.50000   49.01800   92.55300   40.12420    8.98530    0.02970   -0.08240    0.01280    3.82050    2.84510
 3174.00000   50.08020  110.01670   42.64400    9.00340    0.03200   -0.08090    0.02550    3.76970    2.83820
 3174.50000   51.41010  133.46710   45.24970    9.02170    0.03610   -0.07710    0.02180    3.70860    2.82660
 3175.00000   52.74540  147.22170   47.66180    9.04230    0.04010   -0.06690    0.00760    3.67740    2.81550
 3175.50000   53.92620  139.07020   50.35250    9.07850    0.04260   -0.05690   -0.00400    3.73530    2.80450
 3176.00000   54.45720  120.44000   51.17850    9.12020    0.04360   -0.06760   -0.00690    3.80870    2.81990
 3176.50000   54.83790  100.68210   49.41610    9.16070    0.04110   -0.09860   -0.00700    3.95870    2.84850
 3177.00000   54.38810   97.47240   46.52790    9.20250    0.03920   -0.10700   -0.00740    4.10850    2.87430
 3177.50000   53.75160   95.75030   42.19580    9.24240    0.03170   -0.12390   -0.00710    4.23160    2.90120
 3178.00000   53.27800   94.06220   37.22780    9.28570    0.02510   -0.12090   -0.00700    4.33390    2.90650
 3178.50000   52.84630   93.29940   32.06750    9.30690    0.01840   -0.11740   -0.00660    4.46870    2.90280
 3179.00000   52.14140   92.54560   26.75470    9.30990    0.01180   -0.12930   -0.00660    4.65990    2.89810
 3179.50000   51.06110   91.39850   23.44260    9.31510    0.00520   -0.14190   -0.00490    4.85360    2.90340
 3180.00000   49.90670   90.00690   24.64030    9.32190    0.00080   -0.15270   -0.00190    5.08520    2.92510
 3180.50000   48.75090   88.64590   27.78830    9.31730    0.00750   -0.15270    0.00020    5.02290    2.94820
 3181.00000   47.62610   86.21830   29.55220    9.24630    0.01340   -0.13620    0.00000    4.71520    2.93950
 3181.50000   46.60700   83.84280   29.13450    9.15080    0.01690   -0.11820   -0.00120    4.41030    2.91900
 3182.00000   46.03690   83.15310   27.49090    9.09130    0.01680   -0.11170    0.00060    4.05800    2.89980
 3182.50000   45.86280   82.80680   25.71510    9.07790    0.01540   -0.10600    0.00560    3.83250    2.88410
