~Version ---------------------------------------------------
VERS.   2.0 : CWLS log ASCII Standard -VERSION 2.0
WRAP.    NO : One line per depth step
DLM . SPACE : Column Data Section Delimiter
~Well ------------------------------------------------------
STRT .F                9796.0 : START DEPTH
STOP .F               11498.0 : STOP DEPTH
STEP .F                   0.5 : STEP
NULL .               -9999.25 : NULL VALUE
COMP .                        : COMPANY
WELL .                        : WELL
FLD  .                        : FIELD
LOC  .                        : LOCATION
PROV .                        : PROVINCE
CNTY .                        : COUNTY
STAT .                        : STATE
CTRY .                        : COUNTRY
SRVC .                        : SERVICE COMPANY
DATE .                        : DATE
UWI  .                        : UNIQUE WELL ID
API  .                        : API NUMBER
SLAT .WGS84 6.051501789112201 : SURFACE LATITUDE
SLON .WGS84  4.08531945818541 : SURFACE LONGITUDE
DATUM.F                2031.0 : DEPTH DATUM ELEV
~Curve Information -----------------------------------------
DEPT.F     : 
DTCO.US/F  : COMPRESSIONAL-WAVE INTERVAL TRANSIT TIME ACOUSTIC SLOWNESS
DTSM.US/F  : SHEAR-WAVE INTERVAL TRANSIT TIME DELTA-T
GRD .GAPI  : GAMMA RAY
NPHI.DEC   : NEUTRON POROSITY LIMESTONE
~Params ----------------------------------------------------
~Other -----------------------------------------------------
~ASCII -----------------------------------------------------
# ...
 11420.50000   72.58370  147.78960   83.79450    0.31480
 11421.00000   71.93340  147.74100   86.83130    0.30770
 11421.50000   72.53310  146.95590   84.46740    0.30140
 11422.00000   74.10290  143.73590   81.88340    0.28770
 11422.50000   75.32970  135.07840   79.35020    0.24280
 11423.00000   74.42750  130.68850   75.55770    0.19390
 11423.50000   72.31480  127.40040   72.36660    0.15850
 11424.00000   71.14420  126.77500   70.84700    0.13740
 11424.50000   70.84780  124.52550   71.13360    0.13380
 11425.00000   71.08790  123.65430   71.26090    0.13680
 11425.50000   71.70670  126.13400   71.56510    0.13920
 11426.00000   72.30010  129.32310   72.32180    0.14130
 11426.50000   72.66430  130.85720   72.41040    0.14220
 11427.00000   72.93380  132.19730   72.00820    0.14400
 11427.50000   73.20330  133.80670   72.64340    0.14870
 11428.00000   73.13480  135.60300   75.74350    0.15780
 11428.50000   72.42130  136.60380   79.57680    0.16410
 11429.00000   71.89160  137.98940   82.53660    0.16110
 11429.50000   72.75190  142.26210   81.54010    0.15300
 11430.00000   75.29800  148.96370   78.82100    0.15010
 11430.50000   77.97220  153.59570   76.47270    0.15920
 11431.00000   78.14800  153.20280   80.54640    0.17490
 11431.50000   77.45990  152.04790   86.57610    0.18590
 11432.00000   76.22010  149.95530   91.24440    0.18750
 11432.50000   75.23320  148.25410   90.95540    0.18200
 11433.00000   75.53400  147.78340   89.56960    0.17270
 11433.50000   76.65150  151.01810   88.32870    0.15800
 11434.00000   77.35280  151.52200   89.28690    0.14810
 11434.50000   77.69820  148.58600   91.19970    0.14560
 11435.00000   78.05810  145.68510   91.29670    0.16280
 11435.50000   78.34550  144.03680   90.14600    0.19210
 11436.00000   79.58530  142.00070   89.28560    0.19730
 11436.50000   78.73670  139.12140   90.09480    0.18340
 11437.00000   77.18800  132.67010   88.52660    0.17170
 11437.50000   75.93030  127.37590   85.56920    0.17540
 11438.00000   75.54480  124.02160   82.49810    0.18800
 11438.50000   75.18970  120.13670   80.27800    0.18470
 11439.00000   74.47560  115.11950   81.68270    0.17330
 11439.50000   73.07210  112.39470   97.20190    0.16390
 11440.00000   70.89520  104.72550  102.56770    0.17020
 11440.50000   64.35250   93.29110  111.00440    0.17930
 11441.00000   56.21670   85.66020  112.84940    0.18840
 11441.50000   54.81770   84.97620  101.74010    0.20040
 11442.00000   52.38230   86.19780   96.35960    0.20710
 11442.50000   49.17580   86.28180   90.72930    0.21300
 11443.00000   48.29260   88.06900   86.19350    0.22240
 11443.50000   52.10330   92.46210   82.42730    0.23850
 11444.00000   53.22520   93.43130   77.61250    0.23750
 11444.50000   49.05930   91.59830   68.99050    0.20250
 11445.00000   50.65230   94.84770   55.02740    0.13370
 11445.50000   54.23770  104.80090   39.25730    0.05530
 11446.00000   57.73300  110.09400   28.59050    0.02860
 11446.50000   61.56090  116.57790   26.76090    0.02680
 11447.00000   65.40910  121.34080   33.70920    0.03640
 11447.50000   69.20080  122.98010   44.78610    0.05440
 11448.00000   71.83640  119.00060   55.29800    0.08000
 11448.50000   72.05050  116.87840   63.28610    0.10870
 11449.00000   69.65950  115.18820   67.02410    0.12740
 11449.50000   65.13100  108.50850   63.15320    0.12430
 11450.00000   60.36120   99.98160   52.34050    0.10210
 11450.50000   58.17390   94.90710   40.37530    0.05930
 11451.00000   56.89370   91.41010   34.53990    0.02960
 11451.50000   55.74730   89.46700   33.36900    0.01710
 11452.00000   55.06510   92.80780   32.69730    0.01450
 11452.50000   58.83110   97.08140   31.98850    0.01400
 11453.00000   61.18580  100.28790   32.63030    0.01450
 11453.50000   62.77220  101.67840   34.90740    0.01860
 11454.00000   64.35870  102.34040   40.87090    0.02970
 11454.50000   66.16760  104.23210   49.92320    0.04760
 11455.00000   68.13100  106.79970   59.47820    0.06520
 11455.50000   70.05960  109.00390   66.62290    0.06760
 11456.00000   72.02950  110.55340   63.86370    0.06230
 11456.50000   73.99940  112.89890   59.24940    0.05910
 11457.00000   74.33130  115.26790   56.73990    0.06490
 11457.50000   73.67800  114.81040   60.20440    0.07340
 11458.00000   72.43690  113.10150   67.43920    0.07880
 11458.50000   70.65370  111.37490   74.38210    0.08160
 11459.00000   69.26210  112.11630   75.20640    0.08170
 11459.50000   68.22280  113.90850   69.57150    0.08020
 11460.00000   68.94670  115.68970   63.00290    0.07000
 11460.50000   70.73620  118.36930   57.57610    0.05780
 11461.00000   73.32690  122.47420   55.60280    0.04480
 11461.50000   74.87560  124.91810   55.16170    0.04000
 11462.00000   75.97350  126.56470   57.00880    0.04400
 11462.50000   77.07130  127.39750   61.17620    0.05620
 11463.00000   77.81140  127.45500   68.35450    0.07250
 11463.50000   78.08360  125.83700   76.23390    0.08430
 11464.00000   78.07340  124.98890   81.11340    0.08680
 11464.50000   77.35160  124.81220   83.51770    0.08720
 11465.00000   76.62980  123.82340   82.76610    0.09170
 11465.50000   75.59840  121.69170   80.67120    0.09920
 11466.00000   73.65280  117.36150   77.96950    0.10050
 11466.50000   72.64140  114.66830   74.37830    0.08760
 11467.00000   71.63000  114.42780   70.99670    0.07530
 11467.50000   70.90000  114.10240   69.54780    0.07060
 11468.00000   70.64560  114.12780   69.23910    0.07510
 11468.50000   70.64870  114.34950   69.50260    0.07600
 11469.00000   70.80770  114.58810   70.27990    0.07280
 11469.50000   71.22840  114.82660   71.32330    0.06870
 11470.00000   71.47710  115.28950   72.94830    0.06690
 11470.50000   71.56030  115.74390   75.09990    0.06900
 11471.00000   71.66010  115.89590   77.39570    0.07200
 11471.50000   71.84810  116.04800   78.54460    0.07580
 11472.00000   72.03620  115.99360   76.28660    0.07760
 11472.50000   72.06420  115.56500   73.02330    0.07950
 11473.00000   71.71240  114.93400   71.44740    0.08330
 11473.50000   71.18430  114.29140   73.82250    0.08540
 11474.00000   70.26210  113.64890   77.16650    0.08670
 11474.50000   68.63070  112.87220   79.57360    0.08670
 11475.00000   67.03440  111.89980   79.09410    0.08360
 11475.50000   65.60610  111.24700   76.78840    0.07730
 11476.00000   64.91140  111.25300   74.36840    0.07260
 11476.50000   65.08920  111.82770   71.94400    0.07280
 11477.00000   66.28800  112.73790   70.83270    0.07470
 11477.50000   67.86170  113.44990   69.66880    0.07410
 11478.00000   69.13910  114.10270   69.41580    0.07130
 11478.50000   69.85810  115.22090   70.59340    0.07010
 11479.00000   69.95460  117.04240   74.06630    0.06990
 11479.50000   69.77250  117.78400   77.94800    0.07050
 11480.00000   69.55630  117.93780   79.12680    0.07310
 11480.50000   69.53440  117.40930   77.98390    0.07650
 11481.00000   69.78100  117.68720   77.95260    0.07940
 11481.50000   70.10530  119.74340   79.39940    0.07940
 11482.00000   70.42970  119.67980   83.01640    0.07890
 11482.50000   70.55370  118.30970   87.70570    0.07890
 11483.00000   70.61970  116.42790   89.79780    0.08100
 11483.50000   70.64510  116.03350   88.66540    0.08250
 11484.00000   70.54210  116.21130   86.87360    0.08000
 11484.50000   70.31680  115.51530   86.74000    0.07540
 11485.00000   70.03340  114.28630   86.96360    0.07190
 11485.50000   69.71430  114.12410   85.53540    0.07040
 11486.00000   69.58260  115.03360   83.22670    0.07000
 11486.50000   69.49910  115.79250   83.08090    0.07220
 11487.00000   69.41820  117.23460   87.29630    0.07690
 11487.50000   69.54100  120.24600   91.36410    0.08190
 11488.00000   69.85740  122.80120   92.53050    0.08580
 11488.50000   70.28640  123.95420   88.72920    0.08420
 11489.00000   70.71530  124.62040   84.35980    0.08400
 11489.50000   71.03340  127.43920   83.98760    0.09160
 11490.00000   71.08170  128.61400   86.37060    0.10850
 11490.50000   70.96860  128.15180   91.09120    0.11980
