~Version ---------------------------------------------------
VERS.   2.0 : CWLS log ASCII Standard -VERSION 2.0
WRAP.    NO : One line per depth step
DLM . SPACE : Column Data Section Delimiter
~Well ------------------------------------------------------
STRT .F                9796.0 : START DEPTH
STOP .F               11498.0 : STOP DEPTH
STEP .F                   0.5 : STEP
NULL .               -9999.25 : NULL VALUE
COMP .                        : COMPANY
WELL .                        : WELL
FLD  .                        : FIELD
LOC  .                        : LOCATION
PROV .                        : PROVINCE
CNTY .                        : COUNTY
STAT .                        : STATE
CTRY .                        : COUNTRY
SRVC .                        : SERVICE COMPANY
DATE .                        : DATE
UWI  .                        : UNIQUE WELL ID
API  .                        : API NUMBER
SLAT .WGS84 6.051501789112201 : SURFACE LATITUDE
SLON .WGS84  4.08531945818541 : SURFACE LONGITUDE
DATUM.F                2031.0 : DEPTH DATUM ELEV
~Curve Information -----------------------------------------
DEPT.F     : 
DTCO.US/F  : COMPRESSIONAL-WAVE INTERVAL TRANSIT TIME ACOUSTIC SLOWNESS
DTSM.US/F  : SHEAR-WAVE INTERVAL TRANSIT TIME DELTA-T
GRD .GAPI  : GAMMA RAY
NPHI.DEC   : NEUTRON POROSITY LIMESTONE
~Params ----------------------------------------------------
~Other -----------------------------------------------------
~ASCII -----------------------------------------------------
# ...
 10574.50000   67.39060  128.82440   63.10060    0.07750
 10575.00000   65.78300  126.66160   62.12440    0.07310
 10575.50000   64.26490  124.80610   61.81310    0.07760
 10576.00000   63.42450  123.32470   60.65840    0.08320
 10576.50000   62.67380  122.03950   58.44530    0.08710
 10577.00000   62.46580  122.12870   55.66550    0.09280
 10577.50000   63.22920  123.04790   54.61040    0.09840
 10578.00000   64.02170  122.40770   55.17710    0.10200
 10578.50000   63.99610  121.35340   56.44260    0.10060
 10579.00000   63.78530  122.04620   57.99480    0.09120
 10579.50000   63.43260  123.36050   58.53290    0.08310
 10580.00000   63.37050  122.93490   58.16250    0.07990
 10580.50000   63.52870  121.27710   58.13290    0.07810
 10581.00000   63.86200  122.32650   59.09590    0.07650
 10581.50000   63.77790  123.49310   60.27370    0.07310
 10582.00000   62.88940  124.32180   59.53690    0.06870
 10582.50000   61.87100  120.95450   58.15690    0.07010
 10583.00000   61.19500  120.35040   56.57420    0.07710
 10583.50000   60.84230  121.12840   56.61480    0.09060
 10584.00000   60.96180  122.13280   58.77370    0.09980
 10584.50000   61.64190  123.25370   62.00290    0.10320
 10585.00000   62.38810  124.14060   64.02600    0.10330
 10585.50000   63.27500  124.06530   64.68580    0.10260
 10586.00000   63.95640  123.23950   63.63320    0.10040
 10586.50000   64.18150  124.37580   60.89050    0.09770
 10587.00000   63.96970  124.40500   56.89410    0.09410
 10587.50000   63.62970  123.73360   55.20340    0.09360
 10588.00000   63.52950  122.75530   55.40690    0.09330
 10588.50000   64.11490  121.96880   55.74290    0.09340
 10589.00000   64.40760  121.40400   56.23380    0.09480
 10589.50000   64.58290  120.12750   58.22560    0.09790
 10590.00000   64.57300  120.29740   61.64080    0.10120
 10590.50000   64.26670  121.05520   64.46650    0.10220
 10591.00000   63.68770  122.23880   66.28140    0.10000
 10591.50000   63.90870  122.51680   66.60050    0.09710
 10592.00000   64.48490  121.51080   65.73920    0.09430
 10592.50000   64.88590  120.66450   63.52410    0.09230
 10593.00000   64.77810  120.53660   60.58800    0.09040
 10593.50000   63.90960  119.75040   57.51270    0.08860
 10594.00000   63.04330  117.69750   58.04470    0.08760
 10594.50000   62.47460  117.10890   60.57210    0.08670
 10595.00000   61.97770  117.70750   63.00780    0.08640
 10595.50000   61.59820  114.03860   62.89370    0.08650
 10596.00000   61.76050  107.73900   62.45910    0.08630
 10596.50000   61.97060  102.74390   63.95720    0.08470
 10597.00000   62.29280  101.80380   66.40550    0.08050
 10597.50000   62.52050  101.76310   65.49160    0.07810
 10598.00000   62.47100  101.95360   62.36670    0.08100
 10598.50000   61.91480  102.32980   58.98860    0.09340
 10599.00000   61.32420  104.80790   56.48260    0.10510
 10599.50000   60.79570  108.58220   54.88670    0.10500
 10600.00000   60.96460  111.76770   55.82680    0.10080
 10600.50000   62.10120  114.05800   58.32090    0.09400
 10601.00000   61.56850  113.97810   61.26370    0.09390
 10601.50000   60.51470  113.87300   63.60300    0.09450
 10602.00000   59.68740  116.08680   64.85010    0.09480
 10602.50000   59.20750  116.98670   64.28650    0.09500
 10603.00000   58.72760  115.62900   63.93700    0.09630
 10603.50000   58.08410  114.00730   64.61540    0.09910
 10604.00000   58.33210  113.94650   64.32040    0.10060
 10604.50000   58.82920  115.73040   62.24070    0.10100
 10605.00000   58.73040  116.65260   59.79560    0.10300
 10605.50000   57.19100  116.13030   61.64130    0.11930
 10606.00000   58.75420  116.45920   65.89080    0.14160
 10606.50000   61.96890  122.92810   73.18090    0.17380
 10607.00000   64.14200  125.26590   79.65250    0.19370
 10607.50000   65.54740  123.48980   82.57950    0.19810
 10608.00000   69.58060  128.77200   82.62510    0.20200
 10608.50000   72.50290  136.34380   81.29900    0.20860
 10609.00000   73.45020  140.69260   79.83910    0.21530
 10609.50000   74.06650  141.87170   79.31090    0.22040
 10610.00000   75.48460  143.10490   80.14170    0.21740
 10610.50000   77.77800  145.11490   82.46520    0.20950
 10611.00000   79.74620  147.99600   85.41190    0.20390
 10611.50000   79.77490  151.61760   86.75190    0.19470
 10612.00000   78.80430  154.80720   85.91950    0.18480
 10612.50000   77.89630  157.98990   85.02770    0.18000
 10613.00000   77.66120  162.70730   85.58000    0.18270
 10613.50000   78.15650  163.79280   86.72550    0.18800
 10614.00000   78.22250  162.87700   86.68770    0.19290
 10614.50000   78.05620  160.28340   86.36330    0.19790
 10615.00000   77.24440  154.31880   87.65470    0.20260
 10615.50000   76.26920  147.19720   89.45320    0.19650
 10616.00000   76.06790  143.65290   88.33510    0.18080
 10616.50000   76.29620  141.41200   85.51410    0.16830
 10617.00000   76.62690  141.68280   82.97950    0.16690
 10617.50000   77.19990  144.03670   81.52020    0.17420
 10618.00000   77.28440  144.26860   78.77810    0.17960
 10618.50000   76.81720  141.74430   76.33470    0.18980
 10619.00000   76.02550  139.93670   76.86350    0.20330
 10619.50000   74.83840  138.13600   79.30030    0.21620
 10620.00000   74.30690  136.30430   80.21080    0.21020
 10620.50000   73.96740  135.70340   78.71740    0.19540
 10621.00000   73.62790  135.75930   76.79090    0.18060
 10621.50000   72.99050  136.60660   75.71320    0.17440
 10622.00000   72.13250  137.72520   74.97150    0.17910
 10622.50000   71.68440  138.84390   74.03990    0.18820
 10623.00000   72.90450  139.98680   72.61900    0.19090
 10623.50000   73.65840  141.21890   71.12350    0.19090
 10624.00000   73.72980  142.83580   72.03880    0.19550
 10624.50000   73.90700  143.75340   74.94440    0.19670
 10625.00000   74.25370  143.07070   77.82740    0.19500
 10625.50000   74.81660  142.20120   78.72860    0.18520
 10626.00000   75.31790  142.58800   76.57330    0.18110
 10626.50000   75.88310  143.05800   75.03810    0.18920
 10627.00000   76.44370  143.89000   75.62130    0.20180
 10627.50000   76.97170  145.03910   77.50590    0.20400
 10628.00000   77.49960  145.66650   78.01060    0.19670
 10628.50000   77.29260  144.90240   76.69100    0.19260
 10629.00000   76.16480  142.99440   76.06140    0.19340
 10629.50000   75.23990  140.37600   77.87970    0.19480
 10630.00000   73.53620  140.02990   79.52460    0.18960
 10630.50000   73.87100  140.03600   80.86090    0.18120
 10631.00000   74.85100  140.04200   81.22370    0.17580
 10631.50000   76.64480  140.04810   81.62090    0.17000
 10632.00000   77.25480  140.18970   81.62060    0.16570
 10632.50000   76.10850  140.54590   80.38810    0.16980
 10633.00000   75.04140  140.54250   76.97910    0.17690
 10633.50000   74.13830  140.19480   73.69040    0.18030
 10634.00000   73.59250  139.11230   72.69350    0.17940
 10634.50000   73.85080  138.54640   74.07980    0.18000
 10635.00000   74.20340  138.29570   75.76040    0.18100
 10635.50000   75.60050  138.44780   76.66220    0.18040
 10636.00000   75.63760  139.16210   76.95340    0.17540
 10636.50000   74.57520  138.83790   77.07590    0.16900
 10637.00000   73.04640  138.39500   77.14620    0.16730
 10637.50000   71.71430  137.94480   76.45870    0.16990
 10638.00000   72.25330  138.04960   75.44030    0.17410
 10638.50000   74.20540  138.17180   74.76170    0.17640
 10639.00000   74.60230  138.31910   75.72790    0.17660
 10639.50000   74.42480  138.08080   77.00190    0.17140
 10640.00000   66.66660  130.33510   77.69990    0.17040
 10640.50000   58.31110  111.68500   78.25660    0.17370
 10641.00000   54.24530  102.24460   78.92070    0.17670
 10641.50000   57.41960  112.12760   80.39440    0.17430
 10642.00000   64.87660  127.21300   83.01820    0.16520
 10642.50000   71.97110  139.79210   85.39320    0.15830
 10643.00000   73.71840  142.18540   85.96720    0.16450
 10643.50000   75.12290  140.69770   84.48860    0.17670
 10644.00000   75.54630  139.43490   81.88520    0.18140
 10644.50000   75.82740  139.87460   78.00720    0.17610
