~Version ---------------------------------------------------
VERS.   2.0 : CWLS log ASCII Standard -VERSION 2.0
WRAP.    NO : One line per depth step
DLM . SPACE : Column Data Section Delimiter
~Well ------------------------------------------------------
STRT .F                9796.0 : START DEPTH
STOP .F               11498.0 : STOP DEPTH
STEP .F                   0.5 : STEP
NULL .               -9999.25 : NULL VALUE
COMP .                        : COMPANY
WELL .                        : WELL
FLD  .                        : FIELD
LOC  .                        : LOCATION
PROV .                        : PROVINCE
CNTY .                        : COUNTY
STAT .                        : STATE
CTRY .                        : COUNTRY
SRVC .                        : SERVICE COMPANY
DATE .                        : DATE
UWI  .                        : UNIQUE WELL ID
API  .                        : API NUMBER
SLAT .WGS84 6.051501789112201 : SURFACE LATITUDE
SLON .WGS84  4.08531945818541 : SURFACE LONGITUDE
DATUM.F                2031.0 : DEPTH DATUM ELEV
~Curve Information -----------------------------------------
DEPT.F     : 
DTCO.US/F  : COMPRESSIONAL-WAVE INTERVAL TRANSIT TIME ACOUSTIC SLOWNESS
DTSM.US/F  : SHEAR-WAVE INTERVAL TRANSIT TIME DELTA-T
GRD .GAPI  : GAMMA RAY
NPHI.DEC   : NEUTRON POROSITY LIMESTONE
~Params ----------------------------------------------------
~Other -----------------------------------------------------
~ASCII -----------------------------------------------------
# ...
 10433.50000   86.30490  152.84580   88.55720    0.26900
 10434.00000   85.50570  153.21400   89.49350    0.25790
 10434.50000   85.94920  153.31640   87.42780    0.24400
 10435.00000   88.53470  153.26230   84.93300    0.23460
 10435.50000   91.52930  153.20830   86.18280    0.22660
 10436.00000   90.95670  152.44540   89.53840    0.21870
 10436.50000   87.94550  149.56470   90.90890    0.21260
 10437.00000   77.70590  133.46890   88.66090    0.20770
 10437.50000   68.47050  119.73330   86.08420    0.19160
 10438.00000   66.72570  118.15350   85.52320    0.17210
 10438.50000   68.40630  121.83780   88.08880    0.15990
 10439.00000   71.00100  126.70770   93.08310    0.16810
 10439.50000   71.35930  130.80870   95.04450    0.18290
 10440.00000   64.66940  134.52180   91.98930    0.20250
 10440.50000   60.90560  138.18300   86.45440    0.24170
 10441.00000   65.54800  144.25520   82.28420    0.26880
 10441.50000   71.05830  156.74830   82.26600    0.29720
 10442.00000   77.19070  172.53030   84.92790    0.29180
 10442.50000   81.88470  182.41440   84.73780    0.26320
 10443.00000   85.00490  186.93000   82.47420    0.24820
 10443.50000   87.78280  185.15370   83.21430    0.25030
 10444.00000   88.16180  183.34790   87.26600    0.26100
 10444.50000   86.03800  176.34850   91.51830    0.26170
 10445.00000   86.43150  157.28620   92.45650    0.25580
 10445.50000   88.50210  146.10230   91.10640    0.24680
 10446.00000   89.35250  145.36620   90.09100    0.23760
 10446.50000   89.99830  145.44640   89.78470    0.22310
 10447.00000   90.20440  145.48720   90.56510    0.20620
 10447.50000   90.26890  145.58270   91.51990    0.19950
 10448.00000   90.17770  145.68160   90.98450    0.20250
 10448.50000   89.52070  145.75340   88.95050    0.20440
 10449.00000   86.17390  145.82510   86.85350    0.19410
 10449.50000   83.31130  145.83410   87.10300    0.18110
 10450.00000   80.47210  145.81880   89.83490    0.17870
 10450.50000   77.87220  143.19540   92.13730    0.19040
 10451.00000   75.14580  139.71480   90.13900    0.20650
 10451.50000   74.33660  136.34160   84.75380    0.22180
 10452.00000   73.91190  135.99130   80.62390    0.23670
 10452.50000   73.08520  135.14350   79.72550    0.24670
 10453.00000   71.50940  132.21840   81.80120    0.25530
 10453.50000   70.53140  131.79600   83.99680    0.23960
 10454.00000   74.41250  137.98630   84.79410    0.22400
 10454.50000   77.51050  142.81300   85.96500    0.21510
 10455.00000   77.55270  142.65470   88.51520    0.22780
 10455.50000   77.11650  142.30540   91.17560    0.23490
 10456.00000   77.37490  142.88920   91.76780    0.23870
 10456.50000   78.00420  143.83230   90.04590    0.23440
 10457.00000   78.93710  145.86160   88.34320    0.22900
 10457.50000   79.78830  149.82890   89.51020    0.22360
 10458.00000   82.72400  151.13330   93.37370    0.21850
 10458.50000   84.17830  142.87950   95.77190    0.21680
 10459.00000   84.62340  127.95700   96.80580    0.22700
 10459.50000   84.04890  117.79010   93.70710    0.24480
 10460.00000   82.05920  114.43420   90.22370    0.25890
 10460.50000   80.62580  114.44410   87.51960    0.25690
 10461.00000   80.33000  115.51210   87.29950    0.25490
 10461.50000   80.57650  118.11770   90.05310    0.27090
 10462.00000   81.53360  122.24440   92.58540    0.29090
 10462.50000   82.73940  128.31390   94.76390    0.29890
 10463.00000   83.65490  132.30640   95.14030    0.29010
 10463.50000   85.51910  139.34990   94.32620    0.27850
 10464.00000   89.16120  149.58470   93.21640    0.26680
 10464.50000   89.18110  151.74310   93.30470    0.25000
 10465.00000   87.81380  147.72150   93.46220    0.22880
 10465.50000   85.03210  143.71840   91.80840    0.23120
 10466.00000   82.80110  140.40310   88.49430    0.24280
 10466.50000   82.30830  138.35530   86.02670    0.24490
 10467.00000   81.33000  136.70510   87.42510    0.23200
 10467.50000   76.78590  130.86740   89.43010    0.22200
 10468.00000   74.37230  123.86830   91.00830    0.23360
 10468.50000   76.55600  126.07390   91.54270    0.25070
 10469.00000   77.72450  127.68200   91.42990    0.24760
 10469.50000   76.45500  127.95380   91.01620    0.23380
 10470.00000   79.92540  133.90300   90.66410    0.23870
 10470.50000   87.64010  142.11130   91.31170    0.24640
 10471.00000   93.01570  149.08470   91.93220    0.23370
 10471.50000   90.39140  147.50170   91.73430    0.21520
 10472.00000   84.85130  141.64440   90.14300    0.19770
 10472.50000   81.85900  135.16290   87.68110    0.19050
 10473.00000   80.30830  133.18340   84.84500    0.17820
 10473.50000   76.85610  128.59190   81.29040    0.16320
 10474.00000   73.38910  119.48340   77.80590    0.14540
 10474.50000   69.03980  113.33130   75.22870    0.12630
 10475.00000   66.39510  109.80160   77.09840    0.12630
 10475.50000   63.78780  105.68490   80.02190    0.13530
 10476.00000   60.29810   99.02650   82.14470    0.14670
 10476.50000   59.19890   96.21580   83.46100    0.15760
 10477.00000   62.32700  102.20860   83.99770    0.16830
 10477.50000   64.21600  106.07130   84.95920    0.18250
 10478.00000   66.11730  109.46380   85.57950    0.20280
 10478.50000   69.85410  115.20870   85.81730    0.22000
 10479.00000   73.79110  121.45910   85.82020    0.23710
 10479.50000   77.28160  127.14320   86.60900    0.25040
 10480.00000   80.92020  131.59960   88.06770    0.24820
 10480.50000   80.30670  131.18740   90.36310    0.24030
 10481.00000   77.59830  115.94590   94.37440    0.22960
 10481.50000   78.85960   95.67750   95.71880    0.22130
 10482.00000   80.27330   84.15020   93.02200    0.22080
 10482.50000   81.71710   81.84720   86.44240    0.23120
 10483.00000   83.87570   81.98550   82.77490    0.24520
 10483.50000   85.17760   82.79040   84.99420    0.24190
 10484.00000   84.99150   82.87100   88.06620    0.22220
 10484.50000   84.00900   81.75800   89.47100    0.20210
 10485.00000   85.21480   80.65760   90.68300    0.20070
 10485.50000   85.76910   80.47960   92.09080    0.20630
 10486.00000   82.85300   79.92940   92.92460    0.20770
 10486.50000   80.54000   79.54600   93.55850    0.20550
 10487.00000   78.54180   79.34370   93.60540    0.21270
 10487.50000   77.89790   79.33560   93.99980    0.23300
 10488.00000   78.39060   79.72400   95.01900    0.24930
 10488.50000   80.51190   80.13730   96.09720    0.25060
 10489.00000   81.26420   80.53430   95.85440    0.24290
 10489.50000   81.38540   80.82870   93.14020    0.23420
 10490.00000   81.40880   80.71110   90.71220    0.22770
 10490.50000   81.45320   81.10340   88.18010    0.22290
 10491.00000   80.89070  101.88570   86.14740    0.22590
 10491.50000   79.93790  139.80940   83.90560    0.23900
 10492.00000   80.02460  162.57850   84.24970    0.24760
 10492.50000   82.10880  163.60170   86.10170    0.23820
 10493.00000   84.51710  163.75450   87.54230    0.23010
 10493.50000   84.73020  163.76600   87.05690    0.22830
 10494.00000   81.34900  163.76010   85.63070    0.22910
 10494.50000   79.48740  163.74510   84.27460    0.22590
 10495.00000   77.47680  163.76280   83.52100    0.22130
 10495.50000   77.13550  163.78400   84.37580    0.22300
 10496.00000   77.52000  163.79820   86.13820    0.23160
 10496.50000   79.48510  163.90110   88.21770    0.23420
 10497.00000   80.15660  165.17250   91.70620    0.22940
 10497.50000   80.48730  164.99500   95.53810    0.22790
 10498.00000   79.91040  162.42280   98.88730    0.23690
 10498.50000   79.19520  159.49750   99.67640    0.24620
 10499.00000   78.39500  157.13770   98.71050    0.25140
 10499.50000   78.55170  156.54170   95.81190    0.24940
 10500.00000   80.84350  160.18290   92.28250    0.23860
 10500.50000   84.49660  164.98270   89.21020    0.22750
 10501.00000   86.19800  167.79310   86.64800    0.22350
 10501.50000   87.67920  169.86260   86.03870    0.23260
 10502.00000   89.06280  170.40670   86.23460    0.23620
 10502.50000   88.49750  168.64240   84.94090    0.21930
 10503.00000   85.98770  164.24220   79.72250    0.16140
 10503.50000   83.28750  155.95230   72.74750    0.11060
