~Version ---------------------------------------------------
VERS.   2.0 : CWLS log ASCII Standard -VERSION 2.0
WRAP.    NO : One line per depth step
DLM . SPACE : Column Data Section Delimiter
~Well ------------------------------------------------------
STRT .F                9796.0 : START DEPTH
STOP .F               11498.0 : STOP DEPTH
STEP .F                   0.5 : STEP
NULL .               -9999.25 : NULL VALUE
COMP .                        : COMPANY
WELL .                        : WELL
FLD  .                        : FIELD
LOC  .                        : LOCATION
PROV .                        : PROVINCE
CNTY .                        : COUNTY
STAT .                        : STATE
CTRY .                        : COUNTRY
SRVC .                        : SERVICE COMPANY
DATE .                        : DATE
UWI  .                        : UNIQUE WELL ID
API  .                        : API NUMBER
SLAT .WGS84 6.051501789112201 : SURFACE LATITUDE
SLON .WGS84  4.08531945818541 : SURFACE LONGITUDE
DATUM.F                2031.0 : DEPTH DATUM ELEV
~Curve Information -----------------------------------------
DEPT.F     : 
DTCO.US/F  : COMPRESSIONAL-WAVE INTERVAL TRANSIT TIME ACOUSTIC SLOWNESS
DTSM.US/F  : SHEAR-WAVE INTERVAL TRANSIT TIME DELTA-T
GRD .GAPI  : GAMMA RAY
NPHI.DEC   : NEUTRON POROSITY LIMESTONE
~Params ----------------------------------------------------
~Other -----------------------------------------------------
~ASCII -----------------------------------------------------
# ...
 9939.00000   -9999.25   -9999.25   82.52520    0.24080
 9939.50000   -9999.25   -9999.25   87.65840    0.24140
 9940.00000   -9999.25   -9999.25   90.97110    0.26080
 9940.50000   -9999.25   -9999.25   92.66400    0.26280
 9941.00000   -9999.25   -9999.25   90.59340    0.25770
 9941.50000   -9999.25   -9999.25   87.51040    0.25330
 9942.00000   -9999.25   -9999.25   84.14570    0.23740
 9942.50000   -9999.25   -9999.25   76.53540    0.21010
 9943.00000   -9999.25   -9999.25   63.85450    0.19310
 9943.50000   -9999.25   -9999.25   52.56810    0.22610
 9944.00000   -9999.25   -9999.25   51.45350    0.28090
 9944.50000   -9999.25   -9999.25   56.05360    0.35370
 9945.00000   -9999.25   -9999.25   64.22130    0.36540
 9945.50000   -9999.25   -9999.25   71.10590    0.34030
 9946.00000   -9999.25   -9999.25   76.55690    0.31600
 9946.50000   -9999.25   -9999.25   81.43590    0.29100
 9947.00000   -9999.25   -9999.25   84.24480    0.27100
 9947.50000   -9999.25   -9999.25   83.71020    0.24690
 9948.00000   -9999.25   -9999.25   81.59740    0.23070
 9948.50000   -9999.25   -9999.25   78.32450    0.21280
 9949.00000   -9999.25   -9999.25   77.29680    0.20360
 9949.50000   -9999.25   -9999.25   78.73780    0.20740
 9950.00000   -9999.25   -9999.25   80.77500    0.21740
 9950.50000   -9999.25   -9999.25   82.09150    0.22500
 9951.00000   -9999.25   -9999.25   80.91220    0.21690
 9951.50000   -9999.25   -9999.25   80.24840    0.20540
 9952.00000   -9999.25   -9999.25   81.36180    0.20760
 9952.50000   -9999.25   -9999.25   83.13760    0.21750
 9953.00000   -9999.25   -9999.25   84.84280    0.23610
 9953.50000   -9999.25   -9999.25   84.94150    0.25210
 9954.00000   -9999.25   -9999.25   83.38550    0.24710
 9954.50000   -9999.25   -9999.25   80.51200    0.24040
 9955.00000   -9999.25   -9999.25   77.16370    0.23830
 9955.50000   -9999.25   -9999.25   73.59800    0.23280
 9956.00000   -9999.25   -9999.25   70.56070    0.20570
 9956.50000   -9999.25   -9999.25   67.94910    0.17590
 9957.00000   -9999.25   -9999.25   65.70870    0.16250
 9957.50000   -9999.25   -9999.25   61.53610    0.15360
 9958.00000   -9999.25   -9999.25   57.17100    0.14250
 9958.50000   -9999.25   -9999.25   56.83400    0.13270
 9959.00000   -9999.25   -9999.25   57.62830    0.12880
 9959.50000   -9999.25   -9999.25   58.15400    0.13290
 9960.00000   -9999.25   -9999.25   58.44260    0.13520
 9960.50000   -9999.25   -9999.25   59.60590    0.13670
 9961.00000   -9999.25   -9999.25   61.18870    0.13850
 9961.50000   -9999.25   -9999.25   62.62050    0.14470
 9962.00000   -9999.25   -9999.25   64.28230    0.15060
 9962.50000   -9999.25   -9999.25   66.70190    0.15200
 9963.00000   -9999.25   -9999.25   69.02480    0.15170
 9963.50000   -9999.25   -9999.25   69.96380    0.15540
 9964.00000   -9999.25   -9999.25   71.02560    0.16380
 9964.50000   -9999.25   -9999.25   73.09470    0.17080
 9965.00000   -9999.25   -9999.25   74.57430    0.17150
 9965.50000   -9999.25   -9999.25   74.34190    0.17640
 9966.00000   -9999.25   -9999.25   73.95600    0.18880
 9966.50000   -9999.25   -9999.25   73.94700    0.20620
 9967.00000   -9999.25   -9999.25   73.80780    0.19720
 9967.50000   -9999.25   -9999.25   71.63690    0.16720
 9968.00000   -9999.25   -9999.25   67.79060    0.12060
 9968.50000   -9999.25   -9999.25   63.37840    0.09450
 9969.00000   -9999.25   -9999.25   61.30820    0.08930
 9969.50000   -9999.25   -9999.25   60.54780    0.09230
 9970.00000   -9999.25   -9999.25   58.93660    0.09740
 9970.50000   -9999.25   -9999.25   57.95110    0.10150
 9971.00000   -9999.25   -9999.25   58.05030    0.10440
 9971.50000   -9999.25   -9999.25   59.41920    0.10850
 9972.00000   -9999.25   -9999.25   60.18690    0.11230
 9972.50000   -9999.25   -9999.25   60.57940    0.11580
 9973.00000   -9999.25   -9999.25   63.55150    0.12080
 9973.50000   -9999.25   -9999.25   70.12110    0.12550
 9974.00000   -9999.25   -9999.25   74.52330    0.12250
 9974.50000   -9999.25   -9999.25   74.92250    0.11640
 9975.00000   -9999.25   -9999.25   72.88150    0.11360
 9975.50000   -9999.25   -9999.25   71.29420    0.11680
 9976.00000   -9999.25   -9999.25   69.66650    0.11430
 9976.50000   -9999.25   -9999.25   67.21100    0.10630
 9977.00000   -9999.25   -9999.25   64.46330    0.10420
 9977.50000   -9999.25   -9999.25   64.52350    0.12030
 9978.00000   -9999.25   -9999.25   67.91120    0.14590
 9978.50000   -9999.25   -9999.25   76.74210    0.16850
 9979.00000   -9999.25   -9999.25   83.97140    0.18660
 9979.50000   -9999.25   -9999.25   87.59040    0.19730
 9980.00000   -9999.25   -9999.25   85.31160    0.20060
 9980.50000   -9999.25   -9999.25   79.47500    0.18890
 9981.00000   -9999.25   -9999.25   74.40320    0.17530
 9981.50000   -9999.25   -9999.25   71.58230    0.16860
 9982.00000   -9999.25   -9999.25   70.67660    0.16720
 9982.50000   -9999.25   -9999.25   71.95170    0.16290
 9983.00000   -9999.25   -9999.25   75.58690    0.15640
 9983.50000   -9999.25   -9999.25   81.08960    0.15610
 9984.00000   -9999.25   -9999.25   85.17780    0.16190
 9984.50000   -9999.25   -9999.25   87.89400    0.17060
 9985.00000   -9999.25   -9999.25   88.99960    0.18240
 9985.50000   -9999.25   -9999.25   88.49490    0.18660
 9986.00000   -9999.25   -9999.25   87.93990    0.18290
 9986.50000   -9999.25   -9999.25   88.00840    0.18090
 9987.00000   -9999.25   -9999.25   88.85350    0.19180
 9987.50000   -9999.25   -9999.25   89.42490    0.21140
 9988.00000   -9999.25   -9999.25   88.61480    0.22670
 9988.50000   -9999.25   -9999.25   87.84210    0.24120
 9989.00000   -9999.25   -9999.25   88.51850    0.25710
 9989.50000   -9999.25   -9999.25   90.11670    0.27000
 9990.00000   -9999.25   -9999.25   90.49230    0.26600
 9990.50000   -9999.25   -9999.25   88.32310    0.24630
 9991.00000   -9999.25   -9999.25   84.84880    0.20700
 9991.50000   -9999.25   -9999.25   81.57260    0.17010
 9992.00000   -9999.25   -9999.25   78.65080    0.15050
 9992.50000   -9999.25   -9999.25   76.67650    0.13910
 9993.00000   -9999.25   -9999.25   74.98190    0.13300
 9993.50000   -9999.25   -9999.25   74.85530    0.12490
 9994.00000   -9999.25   -9999.25   76.47110    0.11870
 9994.50000   -9999.25   -9999.25   78.71290    0.11690
 9995.00000   -9999.25   -9999.25   78.82000    0.11510
 9995.50000   -9999.25   -9999.25   76.09130    0.11400
 9996.00000   -9999.25   -9999.25   70.29180    0.11210
 9996.50000   -9999.25   -9999.25   62.13660    0.10720
 9997.00000   -9999.25   -9999.25   53.85750    0.09950
 9997.50000   -9999.25   -9999.25   48.73840    0.09180
 9998.00000   -9999.25   -9999.25   48.89770    0.08820
 9998.50000   -9999.25   -9999.25   51.93840    0.09230
 9999.00000   -9999.25   -9999.25   55.96130    0.10040
 9999.50000   -9999.25   -9999.25   60.60090    0.11060
 10000.00000   -9999.25   -9999.25   63.91210    0.11490
 10000.50000   -9999.25   -9999.25   63.39950    0.11210
 10001.00000   -9999.25   -9999.25   59.35780    0.10250
 10001.50000   -9999.25   -9999.25   55.45540    0.09900
 10002.00000   -9999.25   -9999.25   54.77420    0.10640
 10002.50000   -9999.25   -9999.25   56.26450    0.11770
 10003.00000   -9999.25   -9999.25   57.05870    0.11820
 10003.50000   -9999.25   -9999.25   56.69900    0.11160
 10004.00000   -9999.25   -9999.25   56.65150    0.10930
 10004.50000   -9999.25   -9999.25   57.13830    0.10710
 10005.00000   -9999.25   -9999.25   57.75860    0.10110
 10005.50000   -9999.25   -9999.25   57.88410    0.08870
 10006.00000   -9999.25   -9999.25   57.61370    0.07710
 10006.50000   -9999.25   -9999.25   58.28740    0.07160
 10007.00000   -9999.25   -9999.25   59.83070    0.07340
 10007.50000   -9999.25   -9999.25   62.04570    0.08120
 10008.00000   -9999.25   -9999.25   63.75610    0.08970
 10008.50000   -9999.25   -9999.25   63.41110    0.09400
 10009.00000   -9999.25   -9999.25   60.60610    0.08710
 10009.50000   -9999.25   -9999.25   57.42130    0.07890
 10010.00000   -9999.25   -9999.25   54.96550    0.07160
