~Version ---------------------------------------------------
VERS.   2.0 : CWLS log ASCII Standard -VERSION 2.0
WRAP.    NO : One line per depth step
DLM . SPACE : Column Data Section Delimiter
~Well ------------------------------------------------------
STRT .F                9796.0 : START DEPTH
STOP .F               11498.0 : STOP DEPTH
STEP .F                   0.5 : STEP
NULL .               -9999.25 : NULL VALUE
COMP .                        : COMPANY
WELL .                        : WELL
FLD  .                        : FIELD
LOC  .                        : LOCATION
PROV .                        : PROVINCE
CNTY .                        : COUNTY
STAT .                        : STATE
CTRY .                        : COUNTRY
SRVC .                        : SERVICE COMPANY
DATE .                        : DATE
UWI  .                        : UNIQUE WELL ID
API  .                        : API NUMBER
SLAT .WGS84 6.051501789112201 : SURFACE LATITUDE
SLON .WGS84  4.08531945818541 : SURFACE LONGITUDE
DATUM.F                2031.0 : DEPTH DATUM ELEV
~Curve Information -----------------------------------------
DEPT.F     : 
DTCO.US/F  : COMPRESSIONAL-WAVE INTERVAL TRANSIT TIME ACOUSTIC SLOWNESS
DTSM.US/F  : SHEAR-WAVE INTERVAL TRANSIT TIME DELTA-T
GRD .GAPI  : GAMMA RAY
NPHI.DEC   : NEUTRON POROSITY LIMESTONE
~Params ----------------------------------------------------
~Other -----------------------------------------------------
~ASCII -----------------------------------------------------
# ...
 11279.50000   65.01360  117.21260   44.31920    0.05420
 11280.00000   64.53130  117.32310   42.84560    0.05710
 11280.50000   64.37020  117.03240   41.23830    0.05720
 11281.00000   64.93670  116.61320   40.51610    0.05720
 11281.50000   64.84660  116.12780   41.20470    0.05760
 11282.00000   64.01200  116.38440   42.48540    0.05800
 11282.50000   63.96530  116.85400   42.84720    0.05860
 11283.00000   64.41060  117.03080   42.34280    0.05880
 11283.50000   64.79750  117.24870   42.64210    0.05810
 11284.00000   65.01610  117.46650   43.80080    0.05850
 11284.50000   65.20360  117.68440   45.12170    0.06030
 11285.00000   65.30360  117.84270   45.02850    0.06460
 11285.50000   65.30350  117.93450   43.95270    0.06880
 11286.00000   65.16190  117.94310   43.69750    0.07060
 11286.50000   65.02030  117.93710   44.20380    0.07070
 11287.00000   64.87870  117.86190   44.12870    0.06980
 11287.50000   64.80280  117.19260   43.93100    0.06870
 11288.00000   64.69010  116.41420   44.66850    0.06870
 11288.50000   64.48230  115.88620   46.11230    0.06890
 11289.00000   64.27190  115.93470   46.25470    0.06710
 11289.50000   64.16840  116.30590   43.65750    0.05830
 11290.00000   64.54630  117.17820   39.84860    0.05210
 11290.50000   65.75600  118.12100   36.69650    0.04930
 11291.00000   66.40630  118.29870   36.36060    0.05150
 11291.50000   65.83250  117.31740   38.51390    0.05460
 11292.00000   65.26890  116.96900   40.47760    0.05740
 11292.50000   64.89170  116.66020   41.62050    0.06120
 11293.00000   64.18080  116.73960   41.50570    0.06700
 11293.50000   63.88010  116.76350   41.58620    0.06810
 11294.00000   63.92340  116.78740   41.90630    0.06390
 11294.50000   64.37580  116.28750   41.87990    0.05780
 11295.00000   64.34910  116.18320   41.24230    0.05520
 11295.50000   63.90940  116.92230   40.77750    0.05500
 11296.00000   64.03220  117.00110   40.90600    0.05500
 11296.50000   64.87750  116.94780   41.43550    0.05470
 11297.00000   65.17370  117.04730   40.62090    0.05530
 11297.50000   64.64220  117.61460   38.59750    0.05720
 11298.00000   63.78760  118.05920   37.97770    0.05950
 11298.50000   63.06890  118.43970   39.00190    0.06060
 11299.00000   63.06250  118.15710   41.59580    0.06040
 11299.50000   63.07540  118.10650   44.70750    0.05930
 11300.00000   63.43690  118.66230   47.94470    0.05820
 11300.50000   63.76820  119.21810   50.53130    0.05890
 11301.00000   62.80290  119.56690   50.17360    0.06090
 11301.50000   60.85170  119.87800   47.98340    0.06330
 11302.00000   61.23930  119.88370   44.59530    0.06370
 11302.50000   62.06320  119.97210   41.60330    0.06290
 11303.00000   62.11480  120.02440   39.30350    0.06330
 11303.50000   60.97730  120.34000   41.47260    0.06510
 11304.00000   60.66130  121.08540   44.81780    0.06590
 11304.50000   63.22480  121.89810   46.81830    0.06720
 11305.00000   64.76500  122.66090   46.73080    0.06890
 11305.50000   64.74240  122.88390   46.26110    0.06880
 11306.00000   64.54220  122.96220   46.35800    0.06780
 11306.50000   64.81980  122.96920   46.67910    0.06870
 11307.00000   64.68410  121.68260   47.21460    0.07060
 11307.50000   63.02360  118.43430   46.84510    0.07390
 11308.00000   62.43370  118.66310   45.50330    0.07690
 11308.50000   64.54930  119.51490   43.86450    0.07860
 11309.00000   66.65640  120.25450   42.60560    0.07710
 11309.50000   67.62720  120.84930   41.53470    0.07320
 11310.00000   67.98790  121.63150   41.06410    0.07070
 11310.50000   68.03990  121.87580   41.79960    0.07110
 11311.00000   67.41150  121.19500   44.81860    0.07420
 11311.50000   65.87300  120.71830   49.52640    0.07800
 11312.00000   65.29320  120.50650   52.09240    0.07930
 11312.50000   65.19980  120.16650   51.38380    0.07980
 11313.00000   65.34170  119.68800   47.57200    0.07980
 11313.50000   65.01910  118.79190   43.61290    0.07940
 11314.00000   64.38210  118.09290   41.64510    0.07920
 11314.50000   64.38250  118.20620   41.73410    0.07910
 11315.00000   64.67440  118.70810   43.16830    0.07660
 11315.50000   64.97100  119.35870   44.44420    0.07320
 11316.00000   65.40340  120.13430   43.93140    0.07160
 11316.50000   65.78630  120.90980   41.88150    0.07100
 11317.00000   66.24810  121.55810   40.43980    0.07020
 11317.50000   66.59710  121.98480   41.48140    0.06850
 11318.00000   66.91030  121.89500   43.15290    0.06980
 11318.50000   66.94430  121.34770   44.25930    0.07220
 11319.00000   66.48520  121.30710   44.14420    0.07610
 11319.50000   66.09580  122.05620   43.87470    0.07670
 11320.00000   65.62970  122.76160   43.83020    0.07580
 11320.50000   65.65640  123.42490   44.43130    0.07450
 11321.00000   65.80370  124.21850   44.96940    0.07160
 11321.50000   66.34200  125.16690   45.18530    0.06890
 11322.00000   66.91820  126.11540   46.08520    0.06680
 11322.50000   67.49430  127.01520   47.67950    0.06870
 11323.00000   68.14060  127.70500   49.36780    0.07460
 11323.50000   68.77670  127.71010   48.26780    0.08360
 11324.00000   68.93420  127.42700   46.04420    0.08980
 11324.50000   68.44830  127.09590   43.92790    0.09330
 11325.00000   67.71460  125.97840   43.90720    0.09310
 11325.50000   67.20480  123.20640   46.00500    0.09060
 11326.00000   67.56690  120.05970   48.71160    0.08740
 11326.50000   67.94970  120.99770   50.14080    0.08400
 11327.00000   68.33250  125.86570   49.66500    0.08350
 11327.50000   68.80210  127.27080   48.57520    0.08460
 11328.00000   69.35890  126.92060   49.33100    0.08570
 11328.50000   69.70000  126.57190   51.12180    0.08460
 11329.00000   68.90700  126.19820   52.36410    0.08230
 11329.50000   68.21390  125.88730   50.87990    0.08120
 11330.00000   67.66470  125.67900   48.83000    0.08180
 11330.50000   67.51920  125.47070   49.49890    0.08230
 11331.00000   67.88170  125.67230   51.95160    0.08300
 11331.50000   68.18810  124.78510   54.53470    0.08270
 11332.00000   68.32030  121.32960   54.28510    0.08240
 11332.50000   68.21040  121.08510   51.96480    0.08270
 11333.00000   67.48060  121.61760   48.71550    0.08370
 11333.50000   67.40760  121.85720   46.20360    0.08160
 11334.00000   67.44270  122.09850   45.37910    0.07820
 11334.50000   68.02440  122.76440   46.09180    0.07500
 11335.00000   68.77310  123.41590   48.33640    0.07450
 11335.50000   68.68260  123.01460   50.49410    0.07510
 11336.00000   67.83450  121.76030   49.72100    0.07470
 11336.50000   67.21830  120.66740   47.66540    0.07340
 11337.00000   67.11490  120.72700   45.41910    0.07060
 11337.50000   67.37950  120.64810   44.95300    0.06790
 11338.00000   67.52600  119.16950   44.38460    0.06690
 11338.50000   66.82310  116.51290   43.07540    0.06810
 11339.00000   64.69250  112.72630   41.93890    0.07060
 11339.50000   63.77390  110.97010   42.18490    0.07190
 11340.00000   64.09910  113.58920   42.51020    0.07150
 11340.50000   64.86290  116.06840   41.51490    0.06940
 11341.00000   65.64090  119.58610   39.38850    0.06740
 11341.50000   66.47460  120.76220   38.75730    0.06390
 11342.00000   67.41880  118.93970   40.22360    0.06020
 11342.50000   68.65000  119.14180   42.30570    0.06360
 11343.00000   70.86000  122.30510   45.18650    0.07900
 11343.50000   70.32830  127.95250   48.26170    0.09590
 11344.00000   69.13280  133.35020   49.25490    0.10210
 11344.50000   69.01120  137.96930   48.59300    0.09540
 11345.00000   70.73290  141.80520   45.58520    0.08830
 11345.50000   72.78000  144.05270   44.21130    0.08650
 11346.00000   74.98800  145.25630   45.78080    0.09390
 11346.50000   75.22880  146.42380   50.00310    0.11150
 11347.00000   75.35340  146.98960   54.94660    0.12410
 11347.50000   75.34830  146.71740   58.36750    0.13160
 11348.00000   75.48770  144.54550   59.20660    0.13020
 11348.50000   76.05120  142.14700   56.70490    0.12400
 11349.00000   76.67610  139.97820   54.68870    0.12150
 11349.50000   76.94880  136.87170   55.57180    0.12770
