~Version ---------------------------------------------------
VERS.   2.0 : CWLS log ASCII Standard -VERSION 2.0
WRAP.    NO : One line per depth step
DLM . SPACE : Column Data Section Delimiter
~Well ------------------------------------------------------
STRT .F                9796.0 : START DEPTH
STOP .F               11498.0 : STOP DEPTH
STEP .F                   0.5 : STEP
NULL .               -9999.25 : NULL VALUE
COMP .                        : COMPANY
WELL .                        : WELL
FLD  .                        : FIELD
LOC  .                        : LOCATION
PROV .                        : PROVINCE
CNTY .                        : COUNTY
STAT .                        : STATE
CTRY .                        : COUNTRY
SRVC .                        : SERVICE COMPANY
DATE .                        : DATE
UWI  .                        : UNIQUE WELL ID
API  .                        : API NUMBER
SLAT .WGS84 6.051501789112201 : SURFACE LATITUDE
SLON .WGS84  4.08531945818541 : SURFACE LONGITUDE
DATUM.F                2031.0 : DEPTH DATUM ELEV
~Curve Information -----------------------------------------
DEPT.F     : 
DTCO.US/F  : COMPRESSIONAL-WAVE INTERVAL TRANSIT TIME ACOUSTIC SLOWNESS
DTSM.US/F  : SHEAR-WAVE INTERVAL TRANSIT TIME DELTA-T
GRD .GAPI  : GAMMA RAY
NPHI.DEC   : NEUTRON POROSITY LIMESTONE
~Params ----------------------------------------------------
~Other -----------------------------------------------------
~ASCII -----------------------------------------------------
# ...
 10363.00000   -9999.25   -9999.25   90.67030    0.18190
 10363.50000   -9999.25   -9999.25   90.09950    0.18890
 10364.00000   -9999.25   -9999.25   89.79400    0.18740
 10364.50000   -9999.25   -9999.25   89.22470    0.18400
 10365.00000   -9999.25   -9999.25   88.00910    0.18100
 10365.50000   -9999.25   -9999.25   86.50780    0.17900
 10366.00000   -9999.25   -9999.25   84.93120    0.17460
 10366.50000   -9999.25   -9999.25   82.96370    0.16580
 10367.00000   -9999.25   -9999.25   80.78400    0.15520
 10367.50000   -9999.25   -9999.25   78.81250    0.14870
 10368.00000   -9999.25   -9999.25   78.42650    0.15510
 10368.50000   -9999.25   -9999.25   80.58300    0.16820
 10369.00000   -9999.25   -9999.25   83.41210    0.17650
 10369.50000   -9999.25   -9999.25   84.40090    0.17600
 10370.00000   -9999.25   -9999.25   82.31730    0.17020
 10370.50000   -9999.25   -9999.25   80.45590    0.16360
 10371.00000   -9999.25   -9999.25   81.40510    0.16660
 10371.50000   -9999.25   -9999.25   85.54340    0.17760
 10372.00000   -9999.25   -9999.25   88.19990    0.20180
 10372.50000   -9999.25   -9999.25   87.39090    0.21790
 10373.00000   -9999.25   -9999.25   83.11010    0.21510
 10373.50000   -9999.25   -9999.25   79.13780    0.21000
 10374.00000   -9999.25   -9999.25   79.30820    0.22030
 10374.50000   -9999.25   -9999.25   81.71850    0.23650
 10375.00000   -9999.25   -9999.25   83.33850    0.24820
 10375.50000   -9999.25   -9999.25   83.42970    0.25330
 10376.00000   -9999.25   -9999.25   84.25380    0.24960
 10376.50000   -9999.25   -9999.25   87.54250    0.24010
 10377.00000   -9999.25   -9999.25   91.41480    0.22670
 10377.50000   -9999.25   -9999.25   92.85030    0.21490
 10378.00000   -9999.25   -9999.25   92.13830    0.21140
 10378.50000   -9999.25   -9999.25   90.75510    0.21040
 10379.00000   -9999.25   -9999.25   87.88410    0.20950
 10379.50000   -9999.25   -9999.25   84.52660    0.20240
 10380.00000   -9999.25   -9999.25   81.89650    0.18800
 10380.50000   -9999.25   -9999.25   80.54670    0.16830
 10381.00000   -9999.25   -9999.25   79.46810    0.16490
 10381.50000   -9999.25   -9999.25   78.46580    0.17370
 10382.00000   -9999.25   -9999.25   78.34670    0.18570
 10382.50000   -9999.25   -9999.25   80.16030    0.18290
 10383.00000   -9999.25   -9999.25   82.36510    0.17040
 10383.50000   -9999.25   -9999.25   84.24540    0.16170
 10384.00000   -9999.25   -9999.25   82.51970    0.15920
 10384.50000   -9999.25   -9999.25   79.45690    0.16330
 10385.00000   -9999.25   -9999.25   77.25260    0.17000
 10385.50000   -9999.25   -9999.25   78.15470    0.17620
 10386.00000   -9999.25   -9999.25   79.76600    0.17980
 10386.50000   -9999.25   -9999.25   81.26000    0.18330
 10387.00000   -9999.25   -9999.25   82.60710    0.18820
 10387.50000   -9999.25   -9999.25   83.98630    0.18910
 10388.00000   -9999.25   -9999.25   83.49310    0.18390
 10388.50000   -9999.25   -9999.25   81.34260    0.17410
 10389.00000   -9999.25   -9999.25   78.85280    0.16650
 10389.50000   -9999.25   -9999.25   77.34450    0.16220
 10390.00000   -9999.25   -9999.25   76.08590    0.16140
 10390.50000   -9999.25   -9999.25   76.14530    0.16170
 10391.00000   -9999.25   -9999.25   78.23260    0.16770
 10391.50000   -9999.25   -9999.25   81.96360    0.18010
 10392.00000   -9999.25   -9999.25   84.37290    0.18760
 10392.50000   -9999.25   -9999.25   83.27830    0.18600
 10393.00000   -9999.25   -9999.25   79.74540    0.18290
 10393.50000   -9999.25   -9999.25   76.76020    0.18810
 10394.00000   65.79070  115.87650   77.50660    0.19530
 10394.50000   60.32970  103.39190   80.52050    0.19880
 10395.00000   53.86420   92.10690   82.95770    0.19440
 10395.50000   51.61780   89.53410   83.96240    0.18440
 10396.00000   52.33700   90.64990   84.90490    0.17740
 10396.50000   53.23520   91.60440   86.75000    0.17430
 10397.00000   53.28390   91.91550   89.49850    0.17720
 10397.50000   53.08690   91.46130   91.45950    0.18210
 10398.00000   51.74890   89.35050   90.64190    0.18630
 10398.50000   50.65710   86.59800   88.52150    0.18780
 10399.00000   50.92220   83.52940   85.09680    0.18890
 10399.50000   51.64140   81.16120   82.04930    0.19080
 10400.00000   52.42980   80.84760   81.38280    0.19210
 10400.50000   53.21820   81.65290   81.69570    0.19220
 10401.00000   57.20900   85.52090   82.11910    0.18400
 10401.50000   62.54450   99.81560   82.09710    0.17080
 10402.00000   71.17070  111.25360   82.33440    0.15730
 10402.50000   77.07680  118.80590   83.62510    0.15180
 10403.00000   76.39980  118.38340   84.05810    0.15640
 10403.50000   75.48790  116.67260   83.18910    0.16850
 10404.00000   75.01620  116.16500   81.30190    0.17900
 10404.50000   74.84350  116.51420   78.98050    0.18590
 10405.00000   75.40890  116.91820   77.72310    0.18940
 10405.50000   76.40470  118.71620   79.15160    0.18880
 10406.00000   77.33400  119.70010   81.35230    0.18830
 10406.50000   78.12860  120.12750   83.42840    0.18930
 10407.00000   78.64370  121.08960   83.48260    0.19440
 10407.50000   78.61170  121.52160   82.68810    0.20280
 10408.00000   78.15020  120.00630   81.40530    0.20670
 10408.50000   77.56660  117.60750   80.03630    0.20330
 10409.00000   76.01300  114.68140   80.02150    0.19850
 10409.50000   74.74420  111.35210   80.60780    0.19440
 10410.00000   74.72230  110.73210   81.03760    0.19970
 10410.50000   76.70900  110.62250   81.08890    0.21110
 10411.00000   77.83020  110.57800   81.66110    0.21910
 10411.50000   78.84210  110.54640   84.27760    0.21240
 10412.00000   80.24240  110.55140   86.92130    0.19780
 10412.50000   79.70430  110.55640   86.43360    0.19330
 10413.00000   78.06260  110.56130   83.48250    0.20280
 10413.50000   77.02360  110.71400   81.72140    0.21040
 10414.00000   76.32330  110.85830   83.08770    0.21210
 10414.50000   75.00570  110.78130   83.89770    0.20750
 10415.00000   73.31410  110.70440   83.44880    0.20530
 10415.50000   72.27590  109.82560   82.26490    0.21340
 10416.00000   71.39060  107.47510   81.79860    0.23100
 10416.50000   71.39550  108.62020   81.91190    0.25220
 10417.00000   71.75840  110.74860   83.06860    0.26310
 10417.50000   72.30700  112.22710   84.84990    0.26720
 10418.00000   73.47250  112.23400   85.60100    0.26330
 10418.50000   74.93130  112.73940   86.18140    0.25610
 10419.00000   74.48580  114.85960   88.04630    0.24500
 10419.50000   69.07230  106.31890   92.51620    0.23420
 10420.00000   59.43280  107.87860   96.09960    0.22840
 10420.50000   54.57120  114.67410   93.73450    0.23300
 10421.00000   55.90810  119.36210   90.10280    0.25260
 10421.50000   56.33120  121.10910   85.06440    0.26570
 10422.00000   55.82110  119.33010   82.05590    0.26110
 10422.50000   55.09360  117.16680   81.90340    0.25970
 10423.00000   54.15640  114.17030   85.06780    0.27060
 10423.50000   54.09040  113.14450   89.12230    0.28490
 10424.00000   54.34200  115.79540   90.72940    0.29600
 10424.50000   54.48910  115.47650   89.30390    0.29730
 10425.00000   54.42170  114.16530   87.24120    0.29730
 10425.50000   53.08170  111.57780   87.10830    0.29920
 10426.00000   52.27790  101.76270   88.17250    0.34170
 10426.50000   61.04940  106.72280   89.00420    0.36940
 10427.00000   81.51980  137.62230   88.03880    0.37340
 10427.50000   89.76340  154.11220   87.29310    0.35020
 10428.00000   89.53800  155.04230   87.84250    0.31920
 10428.50000   89.10030  153.47520   88.27960    0.29910
 10429.00000   90.06880  151.91020   87.16240    0.29320
 10429.50000   87.02790  149.70880   86.04510    0.28920
 10430.00000   85.46890  149.00190   84.31370    0.28580
 10430.50000   84.84450  148.76780   82.16720    0.28250
 10431.00000   84.56520  147.87890   81.52680    0.28140
 10431.50000   84.60460  148.10740   83.20710    0.28210
 10432.00000   85.18840  149.13710   85.18620    0.27990
 10432.50000   85.93160  150.48450   85.56420    0.27720
 10433.00000   86.63350  151.84630   86.19790    0.27450
