~Version ---------------------------------------------------
VERS.   2.0 : CWLS log ASCII Standard -VERSION 2.0
WRAP.    NO : One line per depth step
DLM . SPACE : Column Data Section Delimiter
~Well ------------------------------------------------------
STRT .F                9796.0 : START DEPTH
STOP .F               11498.0 : STOP DEPTH
STEP .F                   0.5 : STEP
NULL .               -9999.25 : NULL VALUE
COMP .                        : COMPANY
WELL .                        : WELL
FLD  .                        : FIELD
LOC  .                        : LOCATION
PROV .                        : PROVINCE
CNTY .                        : COUNTY
STAT .                        : STATE
CTRY .                        : COUNTRY
SRVC .                        : SERVICE COMPANY
DATE .                        : DATE
UWI  .                        : UNIQUE WELL ID
API  .                        : API NUMBER
SLAT .WGS84 6.051501789112201 : SURFACE LATITUDE
SLON .WGS84  4.08531945818541 : SURFACE LONGITUDE
DATUM.F                2031.0 : DEPTH DATUM ELEV
~Curve Information -----------------------------------------
DEPT.F     : 
DTCO.US/F  : COMPRESSIONAL-WAVE INTERVAL TRANSIT TIME ACOUSTIC SLOWNESS
DTSM.US/F  : SHEAR-WAVE INTERVAL TRANSIT TIME DELTA-T
GRD .GAPI  : GAMMA RAY
NPHI.DEC   : NEUTRON POROSITY LIMESTONE
~Params ----------------------------------------------------
~Other -----------------------------------------------------
~ASCII -----------------------------------------------------
# ...
 10997.50000   67.98250  121.27230   61.97760    0.18280
 10998.00000   72.19210  130.95840   65.20490    0.20650
 10998.50000   75.97770  135.57230   66.08230    0.22260
 10999.00000   77.77930  139.69390   67.11250    0.22610
 10999.50000   78.77360  141.45320   69.73010    0.21580
 11000.00000   78.66750  141.08840   72.17560    0.20480
 11000.50000   78.26630  140.45910   70.93140    0.20340
 11001.00000   77.92610  140.89330   69.97100    0.21400
 11001.50000   77.73000  143.96540   71.39630    0.23230
 11002.00000   77.90670  145.06440   73.84220    0.25490
 11002.50000   78.75330  145.84660   74.28670    0.27630
 11003.00000   79.15250  145.99470   73.83510    0.27730
 11003.50000   78.10030  145.17210   72.96420    0.27800
 11004.00000   76.35780  144.24110   70.91010    0.28120
 11004.50000   75.77370  142.65690   67.15570    0.28380
 11005.00000   75.48720  142.00840   64.38750    0.28190
 11005.50000   75.20070  141.77920   63.89140    0.28850
 11006.00000   75.06270  141.78050   63.88170    0.29670
 11006.50000   75.34240  142.03360   62.61590    0.33270
 11007.00000   76.45700  144.02350   60.74210    0.36220
 11007.50000   77.57300  147.43180   61.65530    0.38750
 11008.00000   65.45860  128.52090   64.43950    0.38920
 11008.50000   54.69160  108.98750   66.94990    0.38810
 11009.00000   47.35530   88.34040   64.99120    0.39890
 11009.50000   47.26810   88.62690   60.84650    0.40090
 11010.00000   48.65090   92.81980   59.04210    0.37300
 11010.50000   49.40210   93.49430   60.73970    0.33500
 11011.00000   49.82210   93.78460   63.78960    0.29400
 11011.50000   50.73230   95.63760   62.73180    0.23640
 11012.00000   51.75470   97.52910   56.57340    0.16680
 11012.50000   52.60480   98.08580   48.39600    0.11240
 11013.00000   54.56590   99.80890   43.28150    0.07020
 11013.50000   58.00660  109.77990   45.45030    0.06290
 11014.00000   61.54830  115.73420   48.91750    0.06390
 11014.50000   63.45900  118.26140   51.73600    0.06730
 11015.00000   64.36040  119.15970   53.36060    0.07070
 11015.50000   65.19610  121.71010   53.18970    0.07340
 11016.00000   66.00890  122.06590   50.97070    0.06970
 11016.50000   66.24570  121.97950   48.72620    0.06620
 11017.00000   65.74240  122.17250   47.33900    0.06530
 11017.50000   65.39960  122.74280   48.60460    0.06890
 11018.00000   65.59730  122.90490   50.16490    0.07380
 11018.50000   65.79790  123.15180   50.62630    0.07610
 11019.00000   65.80700  123.47690   50.05590    0.07690
 11019.50000   65.68770  123.00690   50.59730    0.07720
 11020.00000   65.51740  122.90290   52.14430    0.07600
 11020.50000   65.66140  123.58720   53.52690    0.07160
 11021.00000   66.43330  125.10070   51.40120    0.06500
 11021.50000   67.04480  124.96240   47.81620    0.06000
 11022.00000   66.60650  124.34830   46.54670    0.05880
 11022.50000   65.76500  122.82290   47.42230    0.05520
 11023.00000   64.09910  119.92130   46.28630    0.04660
 11023.50000   62.47900  116.71080   42.39870    0.03670
 11024.00000   61.09990  113.97220   40.12530    0.03250
 11024.50000   59.56880  108.71150   38.77720    0.03000
 11025.00000   57.04080  102.75380   37.94520    0.02870
 11025.50000   54.78900   97.67810   36.40690    0.02690
 11026.00000   52.60570   97.43460   34.44280    0.02510
 11026.50000   50.87450   99.24040   32.98720    0.02500
 11027.00000   49.70860  100.49570   33.40900    0.02710
 11027.50000   50.60040  101.21190   38.53810    0.03250
 11028.00000   51.88470  101.80290   48.36130    0.03920
 11028.50000   52.79280  102.17110   59.88930    0.04440
 11029.00000   54.06940  102.43020   67.49160    0.04510
 11029.50000   57.86230  104.26870   68.43080    0.04050
 11030.00000   59.92960  107.61260   64.07680    0.03550
 11030.50000   61.30090  110.11900   57.53240    0.03400
 11031.00000   62.18290  110.99760   51.57400    0.04590
 11031.50000   62.81580  111.87630   47.59720    0.05760
 11032.00000   62.73540  114.19390   47.04360    0.06440
 11032.50000   62.49090  114.21960   47.53960    0.06380
 11033.00000   61.57980  110.93430   46.83820    0.05370
 11033.50000   59.98320  108.13390   44.42440    0.04900
 11034.00000   57.75500  105.79440   44.68090    0.04890
 11034.50000   55.52850  104.06360   49.39050    0.05750
 11035.00000   53.23530  103.13530   61.26910    0.08060
 11035.50000   51.16600  106.10390   70.65340    0.13130
 11036.00000   50.73590  109.88790   75.00090    0.19040
 11036.50000   54.60050  119.76120   73.49240    0.24990
 11037.00000   60.46890  127.63400   67.13830    0.24630
 11037.50000   62.91150  130.96410   57.96760    0.18390
 11038.00000   63.67020  131.66960   51.17260    0.10950
 11038.50000   63.22150  131.37840   48.49760    0.07140
 11039.00000   62.16780  127.02600   49.32250    0.06870
 11039.50000   61.71540  122.40420   51.01370    0.08080
 11040.00000   61.53840  119.90470   51.99760    0.08950
 11040.50000   63.55030  119.56480   50.16650    0.09040
 11041.00000   66.18520  121.54080   48.19340    0.07970
 11041.50000   68.19030  123.44850   47.36950    0.06970
 11042.00000   68.15040  122.83600   46.61730    0.06000
 11042.50000   66.61440  120.91710   46.31940    0.05180
 11043.00000   64.90780  118.49310   47.35100    0.04430
 11043.50000   63.52740  112.99170   48.61340    0.03870
 11044.00000   62.65740  110.94410   47.58670    0.03750
 11044.50000   61.87100  110.07920   44.79970    0.03840
 11045.00000   61.17710  109.70350   42.82230    0.04150
 11045.50000   60.58070  109.44690   42.07670    0.04380
 11046.00000   60.05700  109.62390   41.57610    0.04540
 11046.50000   60.06510  110.05050   41.50370    0.04790
 11047.00000   60.44210  110.25020   43.28220    0.05200
 11047.50000   61.29280  109.25740   46.28340    0.05540
 11048.00000   61.97820  108.58470   48.25970    0.05690
 11048.50000   61.87510  107.80750   48.43290    0.05570
 11049.00000   61.23000  107.53770   48.51960    0.05230
 11049.50000   60.37160  108.01300   48.54690    0.04970
 11050.00000   60.16450  108.00240   46.72900    0.04990
 11050.50000   59.89830  107.08000   44.16930    0.05220
 11051.00000   58.81070  105.68920   42.60360    0.05400
 11051.50000   57.67540  104.43870   43.56250    0.05470
 11052.00000   57.72990  104.40920   44.90160    0.05440
 11052.50000   58.67000  107.26410   45.41260    0.05410
 11053.00000   59.50840  109.96700   44.46700    0.05460
 11053.50000   60.27230  109.09960   43.20380    0.05530
 11054.00000   60.68970  108.16970   42.87090    0.05630
 11054.50000   60.78220  107.57990   43.89020    0.05740
 11055.00000   60.64580  108.02610   46.29760    0.05930
 11055.50000   60.35130  108.39150   47.98330    0.06150
 11056.00000   60.05680  108.38930   46.46240    0.06270
 11056.50000   60.29920  112.21090   43.48610    0.06260
 11057.00000   61.04180  113.91590   40.76690    0.05540
 11057.50000   60.59720  113.32120   39.73140    0.04830
 11058.00000   60.04140  114.43820   41.34810    0.04810
 11058.50000   59.90810  114.51280   44.13950    0.06070
 11059.00000   60.95030  114.60340   47.23750    0.07610
 11059.50000   62.39530  115.26610   48.71130    0.08420
 11060.00000   63.54410  116.92980   49.86950    0.08920
 11060.50000   64.65540  117.97480   50.67280    0.09620
 11061.00000   65.67870  118.54410   51.88360    0.09950
 11061.50000   66.70210  119.29610   53.70460    0.10170
 11062.00000   67.44880  120.60810   55.70420    0.10490
 11062.50000   67.32320  121.99740   56.83090    0.10920
 11063.00000   67.06980  122.11600   55.87320    0.11050
 11063.50000   66.82380  121.81370   54.11320    0.10720
 11064.00000   66.59390  121.31970   52.96380    0.10360
 11064.50000   65.98290  120.99550   52.86760    0.10500
 11065.00000   65.25170  120.23810   55.90710    0.11280
 11065.50000   64.76180  119.53110   61.59370    0.13840
 11066.00000   65.16920  120.14080   65.48710    0.17280
 11066.50000   70.30440  123.04020   66.63470    0.20930
 11067.00000   74.27900  133.89090   66.05510    0.22030
 11067.50000   76.92380  137.88910   64.91430    0.20710
