~Version ---------------------------------------------------
VERS.   2.0 : CWLS log ASCII Standard -VERSION 2.0
WRAP.    NO : One line per depth step
DLM . SPACE : Column Data Section Delimiter
~Well ------------------------------------------------------
STRT .F                9796.0 : START DEPTH
STOP .F               11498.0 : STOP DEPTH
STEP .F                   0.5 : STEP
NULL .               -9999.25 : NULL VALUE
COMP .                        : COMPANY
WELL .                        : WELL
FLD  .                        : FIELD
LOC  .                        : LOCATION
PROV .                        : PROVINCE
CNTY .                        : COUNTY
STAT .                        : STATE
CTRY .                        : COUNTRY
SRVC .                        : SERVICE COMPANY
DATE .                        : DATE
UWI  .                        : UNIQUE WELL ID
API  .                        : API NUMBER
SLAT .WGS84 6.051501789112201 : SURFACE LATITUDE
SLON .WGS84  4.08531945818541 : SURFACE LONGITUDE
DATUM.F                2031.0 : DEPTH DATUM ELEV
~Curve Information -----------------------------------------
DEPT.F     : 
DTCO.US/F  : COMPRESSIONAL-WAVE INTERVAL TRANSIT TIME ACOUSTIC SLOWNESS
DTSM.US/F  : SHEAR-WAVE INTERVAL TRANSIT TIME DELTA-T
GRD .GAPI  : GAMMA RAY
NPHI.DEC   : NEUTRON POROSITY LIMESTONE
~Params ----------------------------------------------------
~Other -----------------------------------------------------
~ASCII -----------------------------------------------------
# ...
 10010.50000   -9999.25   -9999.25   54.86800    0.07190
 10011.00000   -9999.25   -9999.25   56.73670    0.08090
 10011.50000   -9999.25   -9999.25   59.15690    0.09170
 10012.00000   -9999.25   -9999.25   57.63250    0.09480
 10012.50000   -9999.25   -9999.25   52.08290    0.08520
 10013.00000   -9999.25   -9999.25   46.51050    0.06870
 10013.50000   -9999.25   -9999.25   49.15350    0.06570
 10014.00000   -9999.25   -9999.25   59.63950    0.07860
 10014.50000   -9999.25   -9999.25   73.51460    0.09760
 10015.00000   -9999.25   -9999.25   79.00700    0.10880
 10015.50000   -9999.25   -9999.25   74.70870    0.10320
 10016.00000   -9999.25   -9999.25   65.53020    0.08380
 10016.50000   -9999.25   -9999.25   57.04880    0.06670
 10017.00000   -9999.25   -9999.25   57.62460    0.06430
 10017.50000   -9999.25   -9999.25   61.07410    0.07140
 10018.00000   -9999.25   -9999.25   60.48690    0.07210
 10018.50000   -9999.25   -9999.25   55.64420    0.06570
 10019.00000   -9999.25   -9999.25   49.16140    0.05710
 10019.50000   -9999.25   -9999.25   47.21550    0.06060
 10020.00000   -9999.25   -9999.25   48.31960    0.06550
 10020.50000   -9999.25   -9999.25   50.68300    0.07040
 10021.00000   -9999.25   -9999.25   54.47180    0.07620
 10021.50000   -9999.25   -9999.25   61.96700    0.08900
 10022.00000   -9999.25   -9999.25   69.35650    0.10470
 10022.50000   -9999.25   -9999.25   73.74860    0.11810
 10023.00000   -9999.25   -9999.25   75.76480    0.11770
 10023.50000   -9999.25   -9999.25   74.46490    0.10850
 10024.00000   -9999.25   -9999.25   70.02110    0.09550
 10024.50000   -9999.25   -9999.25   63.66910    0.08470
 10025.00000   -9999.25   -9999.25   58.96210    0.07840
 10025.50000   -9999.25   -9999.25   61.61670    0.08300
 10026.00000   -9999.25   -9999.25   66.10520    0.08790
 10026.50000   -9999.25   -9999.25   67.46270    0.08630
 10027.00000   -9999.25   -9999.25   59.40820    0.07340
 10027.50000   -9999.25   -9999.25   48.28820    0.06320
 10028.00000   -9999.25   -9999.25   42.25240    0.06030
 10028.50000   -9999.25   -9999.25   38.71920    0.05740
 10029.00000   -9999.25   -9999.25   40.02710    0.05450
 10029.50000   -9999.25   -9999.25   44.89290    0.05610
 10030.00000   -9999.25   -9999.25   52.44030    0.06220
 10030.50000   -9999.25   -9999.25   59.80810    0.07010
 10031.00000   -9999.25   -9999.25   62.86860    0.06460
 10031.50000   -9999.25   -9999.25   59.85790    0.05090
 10032.00000   -9999.25   -9999.25   54.25070    0.03960
 10032.50000   -9999.25   -9999.25   47.32400    0.03040
 10033.00000   -9999.25   -9999.25   41.21570    0.02750
 10033.50000   -9999.25   -9999.25   38.12390    0.02740
 10034.00000   -9999.25   -9999.25   38.78390    0.03070
 10034.50000   -9999.25   -9999.25   42.00380    0.03590
 10035.00000   -9999.25   -9999.25   48.53270    0.04500
 10035.50000   -9999.25   -9999.25   57.86010    0.06320
 10036.00000   -9999.25   -9999.25   63.86650    0.07970
 10036.50000   -9999.25   -9999.25   66.92740    0.09080
 10037.00000   -9999.25   -9999.25   67.03650    0.09610
 10037.50000   -9999.25   -9999.25   70.11050    0.10740
 10038.00000   -9999.25   -9999.25   74.96370    0.13760
 10038.50000   -9999.25   -9999.25   80.09530    0.17950
 10039.00000   -9999.25   -9999.25   82.20640    0.22130
 10039.50000   -9999.25   -9999.25   82.87430    0.24050
 10040.00000   -9999.25   -9999.25   83.44320    0.25450
 10040.50000   -9999.25   -9999.25   84.11030    0.25890
 10041.00000   -9999.25   -9999.25   84.28470    0.26520
 10041.50000   -9999.25   -9999.25   83.44980    0.27350
 10042.00000   -9999.25   -9999.25   82.09920    0.28360
 10042.50000   -9999.25   -9999.25   80.89070    0.28860
 10043.00000   -9999.25   -9999.25   79.93250    0.28440
 10043.50000   -9999.25   -9999.25   79.85350    0.27900
 10044.00000   -9999.25   -9999.25   80.30550    0.27640
 10044.50000   -9999.25   -9999.25   80.67470    0.28300
 10045.00000   -9999.25   -9999.25   79.34780    0.29870
 10045.50000   -9999.25   -9999.25   72.78420    0.29220
 10046.00000   -9999.25   -9999.25   61.21730    0.22670
 10046.50000   -9999.25   -9999.25   43.29970    0.14060
 10047.00000   -9999.25   -9999.25   28.51280    0.06630
 10047.50000   -9999.25   -9999.25   20.56390    0.03670
 10048.00000   -9999.25   -9999.25   18.84310    0.03770
 10048.50000   -9999.25   -9999.25   23.92310    0.05580
 10049.00000   -9999.25   -9999.25   37.30950    0.09640
 10049.50000   -9999.25   -9999.25   51.75710    0.15060
 10050.00000   -9999.25   -9999.25   62.32490    0.19460
 10050.50000   -9999.25   -9999.25   68.04640    0.21540
 10051.00000   -9999.25   -9999.25   66.28070    0.20170
 10051.50000   -9999.25   -9999.25   63.54250    0.16130
 10052.00000   -9999.25   -9999.25   61.46560    0.14030
 10052.50000   -9999.25   -9999.25   61.31680    0.12610
 10053.00000   -9999.25   -9999.25   62.48290    0.12520
 10053.50000   -9999.25   -9999.25   65.10000    0.14320
 10054.00000   -9999.25   -9999.25   73.28880    0.17790
 10054.50000   -9999.25   -9999.25   83.04510    0.21990
 10055.00000   -9999.25   -9999.25   96.26660    0.24900
 10055.50000   -9999.25   -9999.25  101.05950    0.25590
 10056.00000   -9999.25   -9999.25  100.95210    0.26550
 10056.50000   -9999.25   -9999.25  105.70840    0.29960
 10057.00000   -9999.25   -9999.25  117.14430    0.33580
 10057.50000   -9999.25   -9999.25  134.08500    0.35810
 10058.00000   -9999.25   -9999.25  142.86200    0.35870
 10058.50000   -9999.25   -9999.25  133.88460    0.34960
 10059.00000   -9999.25   -9999.25  104.59420    0.34820
 10059.50000   -9999.25   -9999.25   93.12090    0.35310
 10060.00000   -9999.25   -9999.25   83.47260    0.34210
 10060.50000   -9999.25   -9999.25   76.14330    0.32800
 10061.00000   -9999.25   -9999.25   73.44230    0.33030
 10061.50000   -9999.25   -9999.25   74.76350    0.35300
 10062.00000   -9999.25   -9999.25   77.73720    0.36460
 10062.50000   -9999.25   -9999.25   80.19950    0.36080
 10063.00000   -9999.25   -9999.25   81.34160    0.36950
 10063.50000   -9999.25   -9999.25   80.39120    0.39590
 10064.00000   -9999.25   -9999.25   78.37870    0.40820
 10064.50000   -9999.25   -9999.25   76.35330    0.40440
 10065.00000   -9999.25   -9999.25   76.02950    0.39580
 10065.50000   -9999.25   -9999.25   77.91520    0.39170
 10066.00000   -9999.25   -9999.25   79.00670    0.38270
 10066.50000   -9999.25   -9999.25   77.54440    0.37230
 10067.00000   -9999.25   -9999.25   75.59750    0.36250
 10067.50000   -9999.25   -9999.25   74.92820    0.34900
 10068.00000   -9999.25   -9999.25   76.55720    0.31950
 10068.50000   -9999.25   -9999.25   80.12410    0.27360
 10069.00000   -9999.25   -9999.25   82.66200    0.25500
 10069.50000   -9999.25   -9999.25   83.70710    0.25230
 10070.00000   -9999.25   -9999.25   83.70190    0.25110
 10070.50000   -9999.25   -9999.25   83.86050    0.24790
 10071.00000   -9999.25   -9999.25   84.67450    0.24370
 10071.50000   -9999.25   -9999.25   85.30710    0.23580
 10072.00000   -9999.25   -9999.25   84.91760    0.21920
 10072.50000   -9999.25   -9999.25   83.73260    0.19810
 10073.00000   -9999.25   -9999.25   82.77190    0.18480
 10073.50000   -9999.25   -9999.25   83.62820    0.18440
 10074.00000   -9999.25   -9999.25   87.06020    0.19740
 10074.50000   -9999.25   -9999.25   90.01000    0.21610
 10075.00000   -9999.25   -9999.25   89.58690    0.23660
 10075.50000   -9999.25   -9999.25   89.74130    0.25760
 10076.00000   -9999.25   -9999.25   92.24190    0.26570
 10076.50000   -9999.25   -9999.25   93.48470    0.25900
 10077.00000   -9999.25   -9999.25   94.45410    0.24940
 10077.50000   -9999.25   -9999.25   94.79470    0.24460
 10078.00000   -9999.25   -9999.25   91.94070    0.25360
 10078.50000   -9999.25   -9999.25   87.28530    0.26770
 10079.00000   -9999.25   -9999.25   84.11070    0.28160
 10079.50000   -9999.25   -9999.25   85.99210    0.29660
 10080.00000   -9999.25   -9999.25   90.02740    0.33800
 10080.50000   -9999.25   -9999.25   92.49940    0.37650
