~Version ---------------------------------------------------
VERS.   2.0 : CWLS log ASCII Standard -VERSION 2.0
WRAP.    NO : One line per depth step
DLM . SPACE : Column Data Section Delimiter
~Well ------------------------------------------------------
STRT .F                9796.0 : START DEPTH
STOP .F               11498.0 : STOP DEPTH
STEP .F                   0.5 : STEP
NULL .               -9999.25 : NULL VALUE
COMP .                        : COMPANY
WELL .                        : WELL
FLD  .                        : FIELD
LOC  .                        : LOCATION
PROV .                        : PROVINCE
CNTY .                        : COUNTY
STAT .                        : STATE
CTRY .                        : COUNTRY
SRVC .                        : SERVICE COMPANY
DATE .                        : DATE
UWI  .                        : UNIQUE WELL ID
API  .                        : API NUMBER
SLAT .WGS84 6.051501789112201 : SURFACE LATITUDE
SLON .WGS84  4.08531945818541 : SURFACE LONGITUDE
DATUM.F                2031.0 : DEPTH DATUM ELEV
~Curve Information -----------------------------------------
DEPT.F     : 
DTCO.US/F  : COMPRESSIONAL-WAVE INTERVAL TRANSIT TIME ACOUSTIC SLOWNESS
DTSM.US/F  : SHEAR-WAVE INTERVAL TRANSIT TIME DELTA-T
GRD .GAPI  : GAMMA RAY
NPHI.DEC   : NEUTRON POROSITY LIMESTONE
~Params ----------------------------------------------------
~Other -----------------------------------------------------
~ASCII -----------------------------------------------------
# ...
 10856.50000   55.28190   82.52460   81.49010    0.24170
 10857.00000   56.63570   83.56740   82.12400    0.26330
 10857.50000   57.57990   85.80010   87.56360    0.28870
 10858.00000   57.40010   87.86260   98.51510    0.31140
 10858.50000   56.99580   89.92510  101.69140    0.32160
 10859.00000   56.28540   94.03710  107.65770    0.32850
 10859.50000   55.74140   98.99380  117.22610    0.33760
 10860.00000   56.34880  101.57070  129.51470    0.34800
 10860.50000   56.73760  103.25330  137.91300    0.35850
 10861.00000   56.84590  103.13910  128.97960    0.36280
 10861.50000   56.71330  100.59860   99.85230    0.34230
 10862.00000   56.43510   98.60850   84.36230    0.29620
 10862.50000   56.23380   95.89350   70.25790    0.27030
 10863.00000   55.43420   90.17110   63.96870    0.29130
 10863.50000   55.15850   88.76250   61.65620    0.33890
 10864.00000   55.70910   89.01220   64.16430    0.34090
 10864.50000   56.58570   90.31520   71.30170    0.30350
 10865.00000   56.93280   91.77100   75.97630    0.25220
 10865.50000   56.99600   91.24390   76.39430    0.23400
 10866.00000   56.71650   89.26610   72.19530    0.22040
 10866.50000   56.01830   86.80990   65.92560    0.19800
 10867.00000   55.30230   84.72150   57.66560    0.17000
 10867.50000   55.41010   85.95320   49.76530    0.14440
 10868.00000   57.00270   91.09880   46.31330    0.13350
 10868.50000   57.82210   95.42030   48.49360    0.13280
 10869.00000   58.38420   95.77590   56.61960    0.15670
 10869.50000   58.65220   94.14790   65.03480    0.17260
 10870.00000   57.43020   91.21660   70.25230    0.17850
 10870.50000   55.05350   88.25040   72.91050    0.18440
 10871.00000   54.12690   85.33580   74.11800    0.19670
 10871.50000   53.87720   82.89280   77.41240    0.21280
 10872.00000   53.87370   83.59210   82.93230    0.22670
 10872.50000   54.41800   85.73460   88.22980    0.24490
 10873.00000   55.01910   88.02230   97.04260    0.28060
 10873.50000   55.09150   90.91570  103.50330    0.33440
 10874.00000   54.77210   94.57330  111.59480    0.35590
 10874.50000   54.45280   98.36520  123.62460    0.35760
 10875.00000   54.43690  102.32880  127.15660    0.34830
 10875.50000   54.98780  106.05050  107.61430    0.33790
 10876.00000   55.32120  108.93020  101.31540    0.31100
 10876.50000   54.93940  106.92760   95.01660    0.26030
 10877.00000   54.53400  103.62950   81.69790    0.20880
 10877.50000   53.74090  100.21800   70.13090    0.16950
 10878.00000   52.53270   98.52020   53.53820    0.14450
 10878.50000   52.89080   99.50470   42.89670    0.14330
 10879.00000   55.94790  100.56750   40.54160    0.16190
 10879.50000   56.52420   99.06700   46.69770    0.18800
 10880.00000   55.68740   96.39200   53.63920    0.21550
 10880.50000   54.96240   94.17670   59.65950    0.22210
 10881.00000   54.94890   93.15760   62.83910    0.22370
 10881.50000   55.77490   94.98180   63.71790    0.22050
 10882.00000   56.50960   94.17200   64.15010    0.21350
 10882.50000   56.61970   86.17770   64.73850    0.20940
 10883.00000   56.29840   79.39900   64.48490    0.22030
 10883.50000   55.99910   80.16110   63.19300    0.23490
 10884.00000   55.73770   82.35270   61.65680    0.23910
 10884.50000   55.42920   83.47030   62.23370    0.23300
 10885.00000   55.07690   84.11310   64.85320    0.24960
 10885.50000   54.90090   84.85280   68.10550    0.28330
 10886.00000   54.89050   85.57950   70.49670    0.38360
 10886.50000   54.98770   86.36350   70.96500    0.42410
 10887.00000   55.37150   87.15000   69.93530    0.42130
 10887.50000   55.67270   87.18840   68.55410    0.38790
 10888.00000   55.36160   86.26390   67.84020    0.39230
 10888.50000   55.01800   85.28160   67.26500    0.41390
 10889.00000   54.87110   84.66820   67.31650    0.43680
 10889.50000   54.69010   85.71370   68.76640    0.41870
 10890.00000   54.62980   88.50760   70.61670    0.40630
 10890.50000   54.54510   91.30160   71.78740    0.41660
 10891.00000   54.40240   93.89870   71.46210    0.44430
 10891.50000   54.28470   95.30880   71.00970    0.44840
 10892.00000   54.38480   95.14190   70.09130    0.44120
 10892.50000   54.67090   93.33330   69.09780    0.43500
 10893.00000   55.10900   89.89510   68.98030    0.45690
 10893.50000   55.37860   87.70510   70.41640    0.45890
 10894.00000   55.55870   90.23290   72.71260    0.46090
 10894.50000   55.73880   91.27860   75.81360    0.44740
 10895.00000   55.80870   93.97600   78.73350    0.42430
 10895.50000   55.56730   98.08640   79.72450    0.39950
 10896.00000   55.29650  100.20690   78.63600    0.35000
 10896.50000   55.14200   99.10320   77.57590    0.29890
 10897.00000   55.68620   94.60140   77.73280    0.28140
 10897.50000   55.84570   91.93630   78.52180    0.27230
 10898.00000   55.91810   90.39780   78.45210    0.27530
 10898.50000   55.99050   89.61570   78.20830    0.28360
 10899.00000   56.06290   88.73540   78.50020    0.28420
 10899.50000   55.96980   87.37400   80.99770    0.27330
 10900.00000   55.63000   86.05170   84.88870    0.25420
 10900.50000   55.21870   85.29770   86.08200    0.23700
 10901.00000   55.05630   84.90970   84.58810    0.22700
 10901.50000   54.99310   84.67930   82.31560    0.22080
 10902.00000   54.94210   84.00210   81.38210    0.21550
 10902.50000   55.01860   81.58580   81.16640    0.21690
 10903.00000   55.03710   80.61410   80.41290    0.22870
 10903.50000   55.19990   79.92890   79.31040    0.23550
 10904.00000   55.38740   79.73430   78.55520    0.23550
 10904.50000   55.54850   80.13100   78.23900    0.24330
 10905.00000   55.70950   81.00790   76.95810    0.26770
 10905.50000   55.90940   82.03090   73.20410    0.29430
 10906.00000   56.13800   82.29510   68.01910    0.32890
 10906.50000   56.38820   81.55280   64.44860    0.34760
 10907.00000   56.63830   83.40880   63.65660    0.35590
 10907.50000   57.09270   87.36360   64.69630    0.34350
 10908.00000   57.79350   91.32910   65.28760    0.28500
 10908.50000   58.09630   93.14110   64.55390    0.24350
 10909.00000   57.81970   94.23830   64.64150    0.18300
 10909.50000   57.22120   90.91590   68.12050    0.17500
 10910.00000   56.70770   85.25780   73.67320    0.19110
 10910.50000   56.32900   80.65360   79.99840    0.21030
 10911.00000   56.17310   79.59930   83.38070    0.21390
 10911.50000   56.36020   80.58050   83.96840    0.21100
 10912.00000   56.77830   83.44500   82.28670    0.20810
 10912.50000   57.52850   91.57470   79.97570    0.20280
 10913.00000   58.06390  103.88790   77.19020    0.18380
 10913.50000   58.38170  117.24570   73.94420    0.16420
 10914.00000   58.11810  125.26700   71.13130    0.15470
 10914.50000   57.44990  129.39670   71.57670    0.15000
 10915.00000   56.96550  128.46120   73.93890    0.15010
 10915.50000   56.61300  126.23940   77.61690    0.14490
 10916.00000   56.16590  123.25270   79.52790    0.15010
 10916.50000   56.09720  118.12330   77.71400    0.16610
 10917.00000   56.35130  110.09510   73.53940    0.20830
 10917.50000   57.16560   96.79890   69.35200    0.25550
 10918.00000   57.93350   88.63880   67.63720    0.26890
 10918.50000   58.67870   87.25550   66.16670    0.25580
 10919.00000   59.38260   90.31920   64.81300    0.23130
 10919.50000   59.73820   93.96580   64.87790    0.20680
 10920.00000   58.96110   99.76150   65.75410    0.18530
 10920.50000   57.20130  106.15010   66.78600    0.16840
 10921.00000   56.36020  111.63580   67.50360    0.14980
 10921.50000   55.92220  115.17000   68.81670    0.13270
 10922.00000   55.65030  115.67090   70.23430    0.13270
 10922.50000   55.37840  115.86740   71.31340    0.14330
 10923.00000   55.10660  117.45050   72.43650    0.15230
 10923.50000   54.83470  118.49780   73.16980    0.14930
 10924.00000   54.65450  119.59590   71.62290    0.13340
 10924.50000   54.59400  120.07320   68.36520    0.12100
 10925.00000   54.56310  115.75500   64.23880    0.13410
 10925.50000   54.66070  109.04660   62.66470    0.17560
 10926.00000   54.88490  100.94620   65.72370    0.21730
 10926.50000   55.01740   94.63370   71.83970    0.24430
