~Version ---------------------------------------------------
VERS.   2.0 : CWLS log ASCII Standard -VERSION 2.0
WRAP.    NO : One line per depth step
DLM . SPACE : Column Data Section Delimiter
~Well ------------------------------------------------------
STRT .F                9796.0 : START DEPTH
STOP .F               11498.0 : STOP DEPTH
STEP .F                   0.5 : STEP
NULL .               -9999.25 : NULL VALUE
COMP .                        : COMPANY
WELL .                        : WELL
FLD  .                        : FIELD
LOC  .                        : LOCATION
PROV .                        : PROVINCE
CNTY .                        : COUNTY
STAT .                        : STATE
CTRY .                        : COUNTRY
SRVC .                        : SERVICE COMPANY
DATE .                        : DATE
UWI  .                        : UNIQUE WELL ID
API  .                        : API NUMBER
SLAT .WGS84 6.051501789112201 : SURFACE LATITUDE
SLON .WGS84  4.08531945818541 : SURFACE LONGITUDE
DATUM.F                2031.0 : DEPTH DATUM ELEV
~Curve Information -----------------------------------------
DEPT.F     : 
DTCO.US/F  : COMPRESSIONAL-WAVE INTERVAL TRANSIT TIME ACOUSTIC SLOWNESS
DTSM.US/F  : SHEAR-WAVE INTERVAL TRANSIT TIME DELTA-T
GRD .GAPI  : GAMMA RAY
NPHI.DEC   : NEUTRON POROSITY LIMESTONE
~Params ----------------------------------------------------
~Other -----------------------------------------------------
~ASCII -----------------------------------------------------
# ...
 10786.00000   84.56000  150.90400   68.10920    0.30700
 10786.50000   84.09570  150.32210   67.75530    0.30390
 10787.00000   83.68010  149.71510   67.46170    0.30970
 10787.50000   83.59480  150.58710   68.08570    0.32030
 10788.00000   84.16260  151.62720   69.05680    0.32760
 10788.50000   85.57940  150.83080   69.89770    0.30020
 10789.00000   86.81660  148.75610   69.32040    0.28920
 10789.50000   87.92550  147.77860   68.36300    0.26880
 10790.00000   88.66270  147.78610   67.87830    0.25170
 10790.50000   89.38610  144.08350   68.18270    0.23650
 10791.00000   90.10950  136.93120   70.83460    0.23390
 10791.50000   91.01470  132.64290   73.59720    0.23470
 10792.00000   91.57060  132.09770   73.80810    0.22390
 10792.50000   90.03560  132.08420   70.18350    0.21360
 10793.00000   88.06020  131.79510   65.33100    0.19960
 10793.50000   84.89500  127.18970   62.29860    0.19070
 10794.00000   80.00470  116.23160   62.75250    0.17940
 10794.50000   75.26740  109.73650   64.29230    0.17400
 10795.00000   74.66100  116.89780   65.32890    0.18210
 10795.50000   74.02320  128.34320   66.32400    0.20510
 10796.00000   76.11090  138.96640   67.98270    0.22050
 10796.50000   78.55910  147.85880   71.09860    0.22940
 10797.00000   81.24310  148.05810   73.62250    0.23010
 10797.50000   82.62730  145.66780   74.45730    0.22760
 10798.00000   83.44970  143.87710   74.71350    0.22710
 10798.50000   83.61600  143.45840   74.62480    0.23490
 10799.00000   82.97280  142.24430   73.42780    0.25240
 10799.50000   82.30480  141.40040   71.27280    0.26820
 10800.00000   84.09620  143.17190   67.98430    0.26810
 10800.50000   85.44180  144.73210   64.15240    0.25680
 10801.00000   85.79890  144.44720   62.07920    0.24860
 10801.50000   85.24470  142.79230   61.46560    0.25950
 10802.00000   84.90700  141.77990   61.59520    0.27120
 10802.50000   84.98910  141.56610   62.77410    0.27170
 10803.00000   85.38460  142.30550   66.34430    0.26090
 10803.50000   86.71810  143.99580   70.69670    0.25220
 10804.00000   86.38750  144.12370   71.96400    0.25650
 10804.50000   86.03570  142.47370   71.51920    0.26700
 10805.00000   86.53120  143.80440   72.06410    0.28570
 10805.50000   89.09990  145.20330   73.66080    0.29850
 10806.00000   92.12080  140.93830   72.74090    0.29590
 10806.50000   93.48530  138.33460   70.51370    0.28750
 10807.00000   91.29640  137.85040   70.30810    0.27950
 10807.50000   86.06630  137.94180   72.68880    0.28330
 10808.00000   84.07330  138.23250   78.15220    0.29070
 10808.50000   84.11590  139.70770   83.56700    0.29440
 10809.00000   85.78830  141.89820   86.61070    0.28700
 10809.50000   86.56740  143.17760   83.87540    0.26270
 10810.00000   86.27580  143.02960   78.65520    0.23380
 10810.50000   84.59230  141.97170   75.66080    0.19950
 10811.00000   82.78670  139.42270   78.13070    0.18460
 10811.50000   81.30070  137.36230   79.34770    0.17490
 10812.00000   79.48220  135.40990   73.02020    0.16340
 10812.50000   75.14900  133.84620   62.02930    0.15410
 10813.00000   70.22020  132.19300   53.70340    0.15450
 10813.50000   66.36900  127.83420   53.66900    0.16780
 10814.00000   64.21780  122.97870   59.66530    0.17890
 10814.50000   67.61090  128.01510   67.60360    0.17810
 10815.00000   71.79910  133.60720   71.90680    0.17110
 10815.50000   74.20420  134.43690   73.71760    0.17100
 10816.00000   75.52410  132.97810   75.69540    0.18340
 10816.50000   76.78480  131.92210   77.29420    0.20130
 10817.00000   78.03330  130.13320   77.20930    0.21210
 10817.50000   80.25760  129.72840   75.38030    0.21040
 10818.00000   83.00990  133.88270   72.67960    0.20270
 10818.50000   84.74070  141.17960   70.10660    0.19450
 10819.00000   83.90200  142.97590   70.04060    0.19570
 10819.50000   80.81540  140.48260   70.63410    0.20880
 10820.00000   79.23050  138.08130   71.36980    0.22120
 10820.50000   78.95390  137.66920   72.14640    0.22350
 10821.00000   79.76190  139.60440   73.05500    0.22160
 10821.50000   82.30000  144.01360   74.36470    0.23530
 10822.00000   84.00190  148.66630   76.95140    0.24900
 10822.50000   85.27860  149.82040   80.76190    0.25810
 10823.00000   85.57920  150.06500   83.98390    0.26060
 10823.50000   85.10750  150.02910   86.47480    0.25290
 10824.00000   85.41140  150.54930   87.55140    0.23900
 10824.50000   86.61890  152.23950   86.64110    0.22520
 10825.00000   86.98850  151.85260   84.25800    0.23450
 10825.50000   85.06820  149.65710   78.82110    0.25260
 10826.00000   85.26750  150.26650   72.71360    0.26530
 10826.50000   86.04960  151.57500   68.61100    0.26250
 10827.00000   86.48500  152.49850   68.55210    0.25030
 10827.50000   86.63090  152.60090   70.05590    0.24380
 10828.00000   85.76980  151.70280   72.28430    0.25440
 10828.50000   83.64380  141.73490   75.77480    0.26870
 10829.00000   81.19800  123.19460   78.98580    0.26170
 10829.50000   80.95310  115.00220   79.85770    0.24220
 10830.00000   83.64270  117.68910   79.40060    0.22570
 10830.50000   85.86880  121.33670   80.30870    0.22660
 10831.00000   87.40850  122.88560   83.88520    0.24010
 10831.50000   88.80340  118.58140   86.94660    0.26590
 10832.00000   89.35450  109.63580   88.87580    0.29470
 10832.50000   87.31120  104.52680   90.42160    0.32760
 10833.00000   79.45510  103.68610   91.08190    0.35110
 10833.50000   73.44780  106.70650   87.88560    0.35550
 10834.00000   72.42570  105.68810   81.20940    0.34000
 10834.50000   70.77240  101.69220   73.89810    0.31760
 10835.00000   67.51930   98.53920   65.26000    0.28790
 10835.50000   60.95500   95.53840   57.91520    0.29450
 10836.00000   57.91630   96.76300   53.95890    0.34880
 10836.50000   57.03050  102.30500   52.58310    0.39550
 10837.00000   56.89800  109.12790   54.16310    0.42290
 10837.50000   56.82900  110.53980   57.29740    0.40520
 10838.00000   56.75100  103.99470   61.10050    0.38260
 10838.50000   56.86140  101.27990   64.30250    0.36600
 10839.00000   57.94910  103.83750   63.58490    0.34330
 10839.50000   59.17410  106.11210   60.61960    0.31170
 10840.00000   59.60490  102.91270   60.39920    0.29600
 10840.50000   58.96380   98.25250   63.30990    0.29240
 10841.00000   58.26790   91.11410   66.95080    0.29150
 10841.50000   57.12980   84.36230   69.08830    0.29100
 10842.00000   55.99990   81.20700   71.49490    0.29710
 10842.50000   54.73580   80.46840   74.60050    0.29960
 10843.00000   53.59600   80.27830   76.96570    0.28050
 10843.50000   53.83910   80.48000   75.60490    0.26440
 10844.00000   54.59730   82.36570   72.56870    0.25850
 10844.50000   55.50490   84.81640   69.57630    0.26260
 10845.00000   55.84340   88.18720   67.61800    0.25580
 10845.50000   56.15960   90.48050   66.35620    0.24410
 10846.00000   56.47590   91.88970   65.64350    0.22760
 10846.50000   56.46650   91.32660   66.33290    0.21190
 10847.00000   56.29800   87.20600   67.64450    0.20050
 10847.50000   55.55940   83.54860   69.67290    0.20100
 10848.00000   54.60600   81.60920   70.88140    0.21660
 10848.50000   54.37130   80.49810   69.56680    0.23790
 10849.00000   54.58780   80.32600   67.83670    0.24870
 10849.50000   55.70360   80.46880   66.00710    0.25100
 10850.00000   56.55370   83.25140   64.64160    0.25130
 10850.50000   56.02430   84.60490   66.14840    0.25120
 10851.00000   55.01500   84.69590   70.55980    0.24950
 10851.50000   54.60160   86.89520   76.09590    0.24060
 10852.00000   55.22330   88.51650   79.10160    0.22920
 10852.50000   55.45890   85.89680   78.81590    0.22250
 10853.00000   55.41530   84.96410   76.41050    0.23070
 10853.50000   55.37160   83.09160   73.80800    0.24110
 10854.00000   55.27370   82.73190   74.34010    0.24570
 10854.50000   55.12460   82.90220   79.86370    0.23960
 10855.00000   54.97560   83.66310   87.91730    0.23120
 10855.50000   54.74210   84.53240   90.59250    0.22570
 10856.00000   54.75130   83.72520   86.73040    0.23060
