~Version ---------------------------------------------------
VERS.   2.0 : CWLS log ASCII Standard -VERSION 2.0
WRAP.    NO : One line per depth step
DLM . SPACE : Column Data Section Delimiter
~Well ------------------------------------------------------
STRT .F                9796.0 : START DEPTH
STOP .F               11498.0 : STOP DEPTH
STEP .F                   0.5 : STEP
NULL .               -9999.25 : NULL VALUE
COMP .                        : COMPANY
WELL .                        : WELL
FLD  .                        : FIELD
LOC  .                        : LOCATION
PROV .                        : PROVINCE
CNTY .                        : COUNTY
STAT .                        : STATE
CTRY .                        : COUNTRY
SRVC .                        : SERVICE COMPANY
DATE .                        : DATE
UWI  .                        : UNIQUE WELL ID
API  .                        : API NUMBER
SLAT .WGS84 6.051501789112201 : SURFACE LATITUDE
SLON .WGS84  4.08531945818541 : SURFACE LONGITUDE
DATUM.F                2031.0 : DEPTH DATUM ELEV
~Curve Information -----------------------------------------
DEPT.F     : 
DTCO.US/F  : COMPRESSIONAL-WAVE INTERVAL TRANSIT TIME ACOUSTIC SLOWNESS
DTSM.US/F  : SHEAR-WAVE INTERVAL TRANSIT TIME DELTA-T
GRD .GAPI  : GAMMA RAY
NPHI.DEC   : NEUTRON POROSITY LIMESTONE
~Params ----------------------------------------------------
~Other -----------------------------------------------------
~ASCII -----------------------------------------------------
 9796.00000   -9999.25   -9999.25   84.00130    0.34980
 9796.50000   -9999.25   -9999.25   83.19280    0.35340
 9797.00000   -9999.25   -9999.25   81.88520    0.36310
 9797.50000   -9999.25   -9999.25   80.93270    0.36930
 9798.00000   -9999.25   -9999.25   81.64840    0.36860
 9798.50000   -9999.25   -9999.25   82.29930    0.36470
 9799.00000   -9999.25   -9999.25   80.15730    0.36020
 9799.50000   -9999.25   -9999.25   76.98890    0.35200
 9800.00000   -9999.25   -9999.25   74.56460    0.34480
 9800.50000   -9999.25   -9999.25   73.60770    0.35370
 9801.00000   -9999.25   -9999.25   74.65790    0.36810
 9801.50000   -9999.25   -9999.25   78.25180    0.36810
 9802.00000   -9999.25   -9999.25   82.63010    0.34590
 9802.50000   -9999.25   -9999.25   85.54600    0.33360
 9803.00000   -9999.25   -9999.25   84.25180    0.32140
 9803.50000   -9999.25   -9999.25   80.97210    0.31060
 9804.00000   -9999.25   -9999.25   78.57690    0.31460
 9804.50000   -9999.25   -9999.25   76.94020    0.33420
 9805.00000   -9999.25   -9999.25   76.36920    0.35910
 9805.50000   -9999.25   -9999.25   76.69000    0.36530
 9806.00000   -9999.25   -9999.25   76.89580    0.36830
 9806.50000   -9999.25   -9999.25   76.58030    0.37440
 9807.00000   -9999.25   -9999.25   76.47680    0.36960
 9807.50000   -9999.25   -9999.25   76.90610    0.35210
 9808.00000   -9999.25   -9999.25   76.27080    0.32480
 9808.50000   -9999.25   -9999.25   74.54570    0.29620
 9809.00000   -9999.25   -9999.25   75.75910    0.28910
 9809.50000   -9999.25   -9999.25   79.60760    0.29200
 9810.00000   -9999.25   -9999.25   81.59800    0.29910
 9810.50000   -9999.25   -9999.25   79.33450    0.36020
 9811.00000   -9999.25   -9999.25   76.92200    0.37760
 9811.50000   -9999.25   -9999.25   79.52380    0.37100
 9812.00000   -9999.25   -9999.25   84.60210    0.34670
 9812.50000   -9999.25   -9999.25   88.87980    0.33250
 9813.00000   -9999.25   -9999.25   88.73810    0.32660
 9813.50000   -9999.25   -9999.25   86.00900    0.32190
 9814.00000   -9999.25   -9999.25   84.86170    0.30790
 9814.50000   -9999.25   -9999.25   86.71180    0.29370
 9815.00000   -9999.25   -9999.25   88.78800    0.27990
 9815.50000   -9999.25   -9999.25   87.93570    0.28090
 9816.00000   -9999.25   -9999.25   85.40120    0.28670
 9816.50000   -9999.25   -9999.25   83.33560    0.29770
 9817.00000   -9999.25   -9999.25   82.86020    0.32080
 9817.50000   -9999.25   -9999.25   82.72850    0.33070
 9818.00000   -9999.25   -9999.25   82.71650    0.31580
 9818.50000   -9999.25   -9999.25   82.89180    0.29570
 9819.00000   -9999.25   -9999.25   82.69550    0.29140
 9819.50000   -9999.25   -9999.25   80.93150    0.33050
 9820.00000   -9999.25   -9999.25   78.51200    0.35280
 9820.50000   -9999.25   -9999.25   76.57600    0.33980
 9821.00000   -9999.25   -9999.25   77.36920    0.31880
 9821.50000   -9999.25   -9999.25   79.94160    0.30620
 9822.00000   -9999.25   -9999.25   82.61810    0.30460
 9822.50000   -9999.25   -9999.25   82.40500    0.30580
 9823.00000   -9999.25   -9999.25   80.38380    0.31360
 9823.50000   -9999.25   -9999.25   80.27910    0.32780
 9824.00000   -9999.25   -9999.25   84.25920    0.35170
 9824.50000   -9999.25   -9999.25   90.57190    0.37800
 9825.00000   -9999.25   -9999.25   93.44480    0.37970
 9825.50000   -9999.25   -9999.25   89.59570    0.34560
 9826.00000   -9999.25   -9999.25   84.74870    0.30780
 9826.50000   -9999.25   -9999.25   79.09370    0.28910
 9827.00000   -9999.25   -9999.25   76.31500    0.27950
 9827.50000   -9999.25   -9999.25   74.99180    0.28050
 9828.00000   -9999.25   -9999.25   76.42590    0.28370
 9828.50000   -9999.25   -9999.25   80.34830    0.28990
 9829.00000   -9999.25   -9999.25   84.10100    0.29950
 9829.50000   -9999.25   -9999.25   86.40690    0.33500
 9830.00000   -9999.25   -9999.25   85.51320    0.35820
 9830.50000   -9999.25   -9999.25   83.97650    0.35260
 9831.00000   -9999.25   -9999.25   82.50230    0.32670
 9831.50000   -9999.25   -9999.25   81.06070    0.30330
 9832.00000   -9999.25   -9999.25   80.26720    0.30050
 9832.50000   -9999.25   -9999.25   81.19970    0.33100
 9833.00000   -9999.25   -9999.25   81.77350    0.35570
 9833.50000   -9999.25   -9999.25   80.56840    0.36210
 9834.00000   -9999.25   -9999.25   80.34400    0.34440
 9834.50000   -9999.25   -9999.25   81.11020    0.31730
 9835.00000   -9999.25   -9999.25   82.11740    0.30270
 9835.50000   -9999.25   -9999.25   80.58690    0.30280
 9836.00000   -9999.25   -9999.25   78.94510    0.31860
 9836.50000   -9999.25   -9999.25   80.56250    0.33440
 9837.00000   -9999.25   -9999.25   83.85240    0.34510
 9837.50000   -9999.25   -9999.25   86.11960    0.33960
 9838.00000   -9999.25   -9999.25   83.78030    0.31990
 9838.50000   -9999.25   -9999.25   80.72580    0.29360
 9839.00000   -9999.25   -9999.25   79.25150    0.29040
 9839.50000   -9999.25   -9999.25   79.89600    0.29870
 9840.00000   -9999.25   -9999.25   80.36290    0.35170
 9840.50000   -9999.25   -9999.25   78.58940    0.36330
 9841.00000   -9999.25   -9999.25   76.63020    0.33920
 9841.50000   -9999.25   -9999.25   76.77100    0.30950
 9842.00000   -9999.25   -9999.25   78.43500    0.27810
 9842.50000   -9999.25   -9999.25   77.22840    0.24350
 9843.00000   -9999.25   -9999.25   74.47420    0.21340
 9843.50000   -9999.25   -9999.25   72.28400    0.19120
 9844.00000   -9999.25   -9999.25   72.04720    0.18110
 9844.50000   -9999.25   -9999.25   73.43360    0.19040
 9845.00000   -9999.25   -9999.25   76.08090    0.22110
 9845.50000   -9999.25   -9999.25   78.52700    0.26080
 9846.00000   -9999.25   -9999.25   79.71100    0.29320
 9846.50000   -9999.25   -9999.25   77.28540    0.30640
 9847.00000   -9999.25   -9999.25   73.32280    0.31250
 9847.50000   -9999.25   -9999.25   70.30040    0.31710
 9848.00000   -9999.25   -9999.25   69.21810    0.31560
 9848.50000   -9999.25   -9999.25   71.50410    0.31110
 9849.00000   -9999.25   -9999.25   73.77680    0.30850
 9849.50000   -9999.25   -9999.25   76.57940    0.30270
 9850.00000   -9999.25   -9999.25   79.95730    0.27540
 9850.50000   -9999.25   -9999.25   83.35120    0.22070
 9851.00000   -9999.25   -9999.25   83.19960    0.18100
 9851.50000   -9999.25   -9999.25   79.79560    0.14880
 9852.00000   -9999.25   -9999.25   75.69830    0.13720
 9852.50000   -9999.25   -9999.25   71.78100    0.13280
 9853.00000   -9999.25   -9999.25   68.98080    0.13660
 9853.50000   -9999.25   -9999.25   68.88770    0.15260
 9854.00000   -9999.25   -9999.25   72.49280    0.17980
 9854.50000   -9999.25   -9999.25   79.47420    0.21040
 9855.00000   -9999.25   -9999.25   87.81760    0.21830
 9855.50000   -9999.25   -9999.25   91.19620    0.20340
 9856.00000   -9999.25   -9999.25   88.36060    0.18440
 9856.50000   -9999.25   -9999.25   83.81680    0.18570
 9857.00000   -9999.25   -9999.25   79.84440    0.20870
 9857.50000   -9999.25   -9999.25   78.02360    0.22860
 9858.00000   -9999.25   -9999.25   77.42330    0.21810
 9858.50000   -9999.25   -9999.25   77.32590    0.20830
 9859.00000   -9999.25   -9999.25   77.78340    0.20760
 9859.50000   -9999.25   -9999.25   78.82940    0.21800
 9860.00000   -9999.25   -9999.25   79.82470    0.22130
 9860.50000   -9999.25   -9999.25   80.10620    0.21330
 9861.00000   -9999.25   -9999.25   80.38760    0.19480
 9861.50000   -9999.25   -9999.25   80.53670    0.18050
 9862.00000   -9999.25   -9999.25   79.13970    0.17560
 9862.50000   -9999.25   -9999.25   77.82370    0.17660
 9863.00000   -9999.25   -9999.25   78.83730    0.17990
 9863.50000   -9999.25   -9999.25   81.46630    0.18680
 9864.00000   -9999.25   -9999.25   84.10410    0.19490
 9864.50000   -9999.25   -9999.25   83.14550    0.20120
 9865.00000   -9999.25   -9999.25   81.01160    0.20630
 9865.50000   -9999.25   -9999.25   79.18430    0.21350
 9866.00000   -9999.25   -9999.25   79.66400    0.22480
 9866.50000   -9999.25   -9999.25   81.68190    0.22530
 9867.00000   -9999.25   -9999.25   83.18950    0.22060
