~Version ---------------------------------------------------
VERS.   2.0 : CWLS log ASCII Standard -VERSION 2.0
WRAP.    NO : One line per depth step
DLM . SPACE : Column Data Section Delimiter
~Well ------------------------------------------------------
STRT .F                9796.0 : START DEPTH
STOP .F               11498.0 : STOP DEPTH
STEP .F                   0.5 : STEP
NULL .               -9999.25 : NULL VALUE
COMP .                        : COMPANY
WELL .                        : WELL
FLD  .                        : FIELD
LOC  .                        : LOCATION
PROV .                        : PROVINCE
CNTY .                        : COUNTY
STAT .                        : STATE
CTRY .                        : COUNTRY
SRVC .                        : SERVICE COMPANY
DATE .                        : DATE
UWI  .                        : UNIQUE WELL ID
API  .                        : API NUMBER
SLAT .WGS84 6.051501789112201 : SURFACE LATITUDE
SLON .WGS84  4.08531945818541 : SURFACE LONGITUDE
DATUM.F                2031.0 : DEPTH DATUM ELEV
~Curve Information -----------------------------------------
DEPT.F     : 
DTCO.US/F  : COMPRESSIONAL-WAVE INTERVAL TRANSIT TIME ACOUSTIC SLOWNESS
DTSM.US/F  : SHEAR-WAVE INTERVAL TRANSIT TIME DELTA-T
GRD .GAPI  : GAMMA RAY
NPHI.DEC   : NEUTRON POROSITY LIMESTONE
~Params ----------------------------------------------------
~Other -----------------------------------------------------
~ASCII -----------------------------------------------------
# ...
 11068.00000   79.00870  139.65220   62.41740    0.18270
 11068.50000   80.42070  141.22950   58.15770    0.16590
 11069.00000   80.59800  141.85750   53.81750    0.16480
 11069.50000   78.38840  142.73830   51.77580    0.17460
 11070.00000   78.53180  143.83530   53.77850    0.18580
 11070.50000   80.01180  145.21260   56.56030    0.19060
 11071.00000   79.68280  144.67060   57.29430    0.17840
 11071.50000   77.49840  143.77340   55.57950    0.15540
 11072.00000   75.72510  143.91370   53.71310    0.12540
 11072.50000   74.82950  144.29450   53.96000    0.11490
 11073.00000   74.34320  140.70420   55.55990    0.12230
 11073.50000   74.03620  133.91430   58.46040    0.13800
 11074.00000   74.22990  131.10990   60.93790    0.14750
 11074.50000   76.44220  128.99850   62.12960    0.14530
 11075.00000   76.37130  129.76350   62.50840    0.13040
 11075.50000   75.53870  131.64630   62.70480    0.11610
 11076.00000   73.69500  131.75890   61.48850    0.11060
 11076.50000   72.00220  129.47130   58.92130    0.10940
 11077.00000   70.30940  126.32460   55.37650    0.11380
 11077.50000   69.30760  125.56410   52.77060    0.12240
 11078.00000   69.06220  126.46550   51.21550    0.13490
 11078.50000   69.06540  127.57260   51.33200    0.14300
 11079.00000   69.30290  128.98210   53.72600    0.14160
 11079.50000   69.75440  127.80240   57.66770    0.13830
 11080.00000   70.12390  129.02210   61.64380    0.15200
 11080.50000   70.91670  130.79060   64.59130    0.17510
 11081.00000   71.88810  134.36100   66.45030    0.19110
 11081.50000   73.85810  140.43320   66.44360    0.19490
 11082.00000   76.74770  145.77200   64.69800    0.19250
 11082.50000   78.74860  149.86420   63.44440    0.19000
 11083.00000   79.84980  150.28090   65.02360    0.18600
 11083.50000   80.04560  149.53910   68.00540    0.17240
 11084.00000   79.76660  146.72860   66.69040    0.16170
 11084.50000   78.22750  144.73950   62.86900    0.15520
 11085.00000   76.50500  142.90140   60.31410    0.15650
 11085.50000   74.74040  142.30540   60.57760    0.16230
 11086.00000   74.41970  143.84810   61.22520    0.16870
 11086.50000   74.70440  144.01350   60.16660    0.17770
 11087.00000   75.29860  142.75770   58.78430    0.18280
 11087.50000   76.00130  143.71860   59.20970    0.18230
 11088.00000   76.44140  144.09920   60.32140    0.17540
 11088.50000   76.08030  143.52140   61.26720    0.16440
 11089.00000   74.90400  142.24580   60.71720    0.15410
 11089.50000   73.94580  140.97040   59.03640    0.14900
 11090.00000   72.90060  140.22910   57.04730    0.15120
 11090.50000   72.57160  139.71560   57.38030    0.15640
 11091.00000   72.47040  139.44110   60.42060    0.16110
 11091.50000   72.44760  139.76300   63.51620    0.16230
 11092.00000   72.64020  140.14790   64.66100    0.15790
 11092.50000   73.42700  141.15010   65.06490    0.15690
 11093.00000   74.50670  143.49190   65.21070    0.15930
 11093.50000   75.22130  145.10540   65.00510    0.16230
 11094.00000   74.97370  143.00630   63.62040    0.15720
 11094.50000   74.09030  140.85000   61.80220    0.15010
 11095.00000   73.66770  140.11460   60.88280    0.14570
 11095.50000   73.57880  140.12570   60.36310    0.14820
 11096.00000   74.07670  140.58150   60.49740    0.15160
 11096.50000   76.33080  142.98850   61.07020    0.15180
 11097.00000   76.45420  144.69110   62.51090    0.14850
 11097.50000   75.24450  143.21340   63.91590    0.14210
 11098.00000   74.17850  140.49890   65.63260    0.13990
 11098.50000   74.25680  141.92400   67.77120    0.14370
 11099.00000   74.87810  144.44630   66.85100    0.15040
 11099.50000   75.46560  146.89320   64.02430    0.16260
 11100.00000   76.20410  147.47690   60.74030    0.17540
 11100.50000   76.75870  146.39210   61.12890    0.17430
 11101.00000   77.01550  144.48600   62.50140    0.16120
 11101.50000   76.14660  142.30650   63.58950    0.13970
 11102.00000   74.60810  139.06280   63.97810    0.12350
 11102.50000   73.03740  135.84810   63.13140    0.11510
 11103.00000   71.86330  133.10860   61.01390    0.11040
 11103.50000   70.57950  132.12270   57.43140    0.10630
 11104.00000   70.21170  131.24950   53.16970    0.10630
 11104.50000   69.95250  130.87210   51.54840    0.10830
 11105.00000   69.38590  129.79820   54.04720    0.11140
 11105.50000   68.80390  129.38610   56.62780    0.11310
 11106.00000   67.99410  128.99490   54.46490    0.10750
 11106.50000   66.49730  124.93180   49.04790    0.10000
 11107.00000   64.07670  120.09360   43.34630    0.08850
 11107.50000   63.08920  119.16330   41.94490    0.07840
 11108.00000   64.19940  122.96440   43.03570    0.08480
 11108.50000   64.62880  124.84690   45.43530    0.09810
 11109.00000   64.20790  124.62290   49.11610    0.11600
 11109.50000   64.43680  125.91070   51.85160    0.12530
 11110.00000   66.45830  125.89990   53.77770    0.12720
 11110.50000   67.82830  124.56750   54.20000    0.11980
 11111.00000   68.40350  123.18760   54.04110    0.11200
 11111.50000   69.35450  121.84910   54.06510    0.10860
 11112.00000   71.02450  120.20260   54.80360    0.11980
 11112.50000   72.35980  118.65520   56.63750    0.13480
 11113.00000   72.98710  118.77880   58.55550    0.14150
 11113.50000   73.02390  123.00320   59.28960    0.14120
 11114.00000   72.70720  127.60380   59.30520    0.14410
 11114.50000   72.27760  131.23730   59.76350    0.14970
 11115.00000   71.38040  131.72680   61.85970    0.15310
 11115.50000   70.21400  132.08130   65.71620    0.15030
 11116.00000   69.07730  133.60010   70.22360    0.15150
 11116.50000   67.49940  135.50400   72.92500    0.16820
 11117.00000   66.71400  133.91600   71.67900    0.19890
 11117.50000   67.13630  131.50180   70.07040    0.24190
 11118.00000   68.26530  128.51700   71.04010    0.27270
 11118.50000   68.45310  124.59750   74.34930    0.28210
 11119.00000   66.75700  118.05470   78.72790    0.26050
 11119.50000   65.22690  112.43990   81.48980    0.22990
 11120.00000   69.02610  115.00990   79.83140    0.21190
 11120.50000   75.11350  121.55220   76.78350    0.20950
 11121.00000   77.14580  125.12770   72.82430    0.21520
 11121.50000   70.88760  114.98520   69.03500    0.22050
 11122.00000   58.01400   95.56550   64.17360    0.20710
 11122.50000   48.52770   82.93140   56.66800    0.16380
 11123.00000   47.51320   86.66380   48.18350    0.11410
 11123.50000   49.45520   91.17350   40.75520    0.06790
 11124.00000   51.03360   93.47050   34.60300    0.04760
 11124.50000   52.11950   95.07180   30.85970    0.03390
 11125.00000   52.53070   97.60550   27.76460    0.03270
 11125.50000   51.81580   99.95930   26.52330    0.03300
 11126.00000   51.36520  100.65250   28.23020    0.03890
 11126.50000   51.46430  101.12420   31.48870    0.04540
 11127.00000   53.16960  101.83030   37.50360    0.05870
 11127.50000   55.61710  102.87470   45.18430    0.06960
 11128.00000   58.06050  103.89930   52.88940    0.07340
 11128.50000   59.65520  105.30950   56.59080    0.06870
 11129.00000   61.08290  106.40590   54.97150    0.06210
 11129.50000   62.50690  106.99530   49.44240    0.05790
 11130.00000   63.99860  106.96930   43.99260    0.05740
 11130.50000   65.49760  106.73740   41.76480    0.06150
 11131.00000   65.89320  106.45080   42.66720    0.06650
 11131.50000   65.06340  108.26570   42.48050    0.06760
 11132.00000   64.08570  108.73910   40.75350    0.06320
 11132.50000   63.78100  107.92580   39.28200    0.05650
 11133.00000   63.18880  106.88130   38.97410    0.05100
 11133.50000   60.98980  105.50190   38.87140    0.04180
 11134.00000   58.86390  103.46430   37.53130    0.03830
 11134.50000   57.93030  100.67120   36.10600    0.03570
 11135.00000   57.75400   98.32240   35.00960    0.03780
 11135.50000   57.63570   97.35430   34.68890    0.04100
 11136.00000   57.95210   98.90570   34.65660    0.03920
 11136.50000   59.06680  101.18320   33.97010    0.03390
 11137.00000   59.40080  103.36710   32.10260    0.02630
 11137.50000   57.03340  100.49610   29.06100    0.02070
 11138.00000   55.07350   95.78030   26.69140    0.01810
