~Version ---------------------------------------------------
VERS.   2.0 : CWLS log ASCII Standard -VERSION 2.0
WRAP.    NO : One line per depth step
DLM . SPACE : Column Data Section Delimiter
~Well ------------------------------------------------------
STRT .F                9796.0 : START DEPTH
STOP .F               11498.0 : STOP DEPTH
STEP .F                   0.5 : STEP
NULL .               -9999.25 : NULL VALUE
COMP .                        : COMPANY
WELL .                        : WELL
FLD  .                        : FIELD
LOC  .                        : LOCATION
PROV .                        : PROVINCE
CNTY .                        : COUNTY
STAT .                        : STATE
CTRY .                        : COUNTRY
SRVC .                        : SERVICE COMPANY
DATE .                        : DATE
UWI  .                        : UNIQUE WELL ID
API  .                        : API NUMBER
SLAT .WGS84 6.051501789112201 : SURFACE LATITUDE
SLON .WGS84  4.08531945818541 : SURFACE LONGITUDE
DATUM.F                2031.0 : DEPTH DATUM ELEV
~Curve Information -----------------------------------------
DEPT.F     : 
DTCO.US/F  : COMPRESSIONAL-WAVE INTERVAL TRANSIT TIME ACOUSTIC SLOWNESS
DTSM.US/F  : SHEAR-WAVE INTERVAL TRANSIT TIME DELTA-T
GRD .GAPI  : GAMMA RAY
NPHI.DEC   : NEUTRON POROSITY LIMESTONE
~Params ----------------------------------------------------
~Other -----------------------------------------------------
~ASCII -----------------------------------------------------
# ...
 11209.00000   66.70690  123.65120   41.75180    0.07960
 11209.50000   66.56840  123.96230   41.65680    0.07970
 11210.00000   66.38810  124.28200   41.31960    0.08080
 11210.50000   66.18150  124.43490   40.64240    0.08180
 11211.00000   66.16910  123.46870   39.59650    0.08240
 11211.50000   66.44120  123.55790   39.35840    0.08340
 11212.00000   66.79970  123.30520   40.54620    0.08370
 11212.50000   67.20110  122.67690   40.91360    0.08390
 11213.00000   67.66320  123.09660   40.26300    0.08480
 11213.50000   68.15070  124.62090   40.20550    0.08580
 11214.00000   68.63820  125.57600   41.31700    0.08660
 11214.50000   68.68790  126.08230   44.17870    0.08940
 11215.00000   68.20300  126.84280   46.27450    0.09530
 11215.50000   67.87640  127.07550   46.37410    0.09920
 11216.00000   67.92740  127.18160   45.04010    0.09770
 11216.50000   68.51370  127.18610   43.72900    0.09570
 11217.00000   69.51050  127.06120   43.36420    0.09600
 11217.50000   69.62380  126.85890   43.67460    0.09500
 11218.00000   69.24450  126.20180   43.08710    0.09220
 11218.50000   68.64900  125.76220   41.93680    0.09110
 11219.00000   67.77780  125.33430   41.34240    0.09320
 11219.50000   66.97940  125.49650   40.83470    0.09440
 11220.00000   67.35070  125.65860   40.46540    0.09440
 11220.50000   68.14900  125.81030   41.01500    0.09630
 11221.00000   68.95690  125.94710   42.67170    0.09890
 11221.50000   69.76470  124.05390   43.89810    0.09700
 11222.00000   69.76440  121.91350   43.06240    0.09090
 11222.50000   69.47400  122.73160   42.33540    0.08720
 11223.00000   69.02840  124.24550   43.87850    0.09100
 11223.50000   68.55350  125.05630   46.47560    0.09890
 11224.00000   68.12530  125.06800   47.38240    0.09900
 11224.50000   68.08250  124.98560   47.30490    0.09260
 11225.00000   68.07810  124.87240   46.89430    0.08710
 11225.50000   68.16060  124.11880   45.36930    0.09080
 11226.00000   68.57620  124.06170   42.70490    0.10000
 11226.50000   69.51140  124.82240   40.92910    0.10500
 11227.00000   69.04530  125.07520   40.58720    0.10070
 11227.50000   68.26270  124.81360   40.97960    0.09390
 11228.00000   67.76180  124.49780   41.47340    0.08650
 11228.50000   67.01120  123.33620   42.59190    0.08220
 11229.00000   66.32090  121.58920   43.24960    0.08630
 11229.50000   66.27890  122.96780   43.21890    0.09580
 11230.00000   67.25310  124.17340   42.56620    0.10540
 11230.50000   68.20120  125.21560   41.46010    0.11160
 11231.00000   68.87640  125.66130   39.91620    0.10470
 11231.50000   68.69420  125.54730   38.70600    0.09640
 11232.00000   67.70530  123.86680   39.59900    0.09340
 11232.50000   66.86730  121.92290   41.71710    0.09260
 11233.00000   65.58590  119.99610   41.33640    0.09040
 11233.50000   64.37100  119.96710   38.67160    0.08660
 11234.00000   64.56890  120.87290   39.30620    0.08650
 11234.50000   65.80540  122.07010   44.29330    0.09280
 11235.00000   67.43230  123.81340   50.14270    0.09740
 11235.50000   68.69050  124.57060   51.85050    0.08940
 11236.00000   69.33030  124.40990   49.12100    0.07090
 11236.50000   68.95660  123.66780   47.12520    0.06000
 11237.00000   67.31550  120.91690   49.57800    0.06090
 11237.50000   65.65260  117.56590   51.62330    0.06950
 11238.00000   64.20660  116.32120   50.21580    0.08030
 11238.50000   63.27360  116.34590   45.61150    0.07880
 11239.00000   63.29560  117.34860   41.79460    0.07550
 11239.50000   63.82250  118.21880   42.89390    0.07080
 11240.00000   63.81110  118.71260   46.15170    0.07460
 11240.50000   64.33980  119.77850   48.60050    0.08440
 11241.00000   65.40540  122.64810   49.43630    0.09310
 11241.50000   66.62160  125.31870   50.35880    0.09850
 11242.00000   67.59930  126.89810   51.85280    0.09940
 11242.50000   68.57700  127.27680   53.47800    0.09960
 11243.00000   69.38050  127.41120   53.82870    0.09940
 11243.50000   69.92930  127.03160   54.03590    0.09880
 11244.00000   69.80030  126.65200   54.28400    0.09700
 11244.50000   69.07780  125.79600   54.08070    0.09280
 11245.00000   68.09750  123.76540   53.84980    0.08950
 11245.50000   67.13250  121.98150   54.77300    0.09450
 11246.00000   66.64340  121.71250   56.73150    0.10210
 11246.50000   66.73920  122.89530   58.92170    0.10820
 11247.00000   67.18930  123.81950   60.65540    0.10200
 11247.50000   67.62060  123.05170   62.23080    0.09280
 11248.00000   68.33250  123.28660   63.64490    0.08910
 11248.50000   69.01370  124.01710   63.89180    0.09180
 11249.00000   68.07990  122.11620   62.42610    0.09130
 11249.50000   66.27350  119.18180   58.28500    0.08660
 11250.00000   66.25610  118.39420   53.17740    0.08410
 11250.50000   66.92920  119.22560   53.41900    0.08680
 11251.00000   67.37710  121.38590   56.33790    0.09800
 11251.50000   66.12810  123.55950   59.62820    0.11000
 11252.00000   66.19950  125.14050   59.47080    0.11280
 11252.50000   67.61080  126.62330   57.07790    0.10990
 11253.00000   68.89160  128.36340   55.36260    0.10610
 11253.50000   69.49950  130.10360   54.98200    0.10460
 11254.00000   69.85780  131.84330   54.62610    0.10400
 11254.50000   70.22610  133.24610   54.36940    0.10340
 11255.00000   70.73510  134.54580   56.15400    0.10500
 11255.50000   71.33160  136.23980   60.50230    0.10890
 11256.00000   71.93880  137.38870   64.33990    0.11250
 11256.50000   72.59980  138.37480   65.90040    0.11880
 11257.00000   73.63150  138.98240   65.28060    0.12690
 11257.50000   74.36130  137.53860   65.69190    0.13370
 11258.00000   74.25380  134.38270   65.79480    0.12650
 11258.50000   73.31070  131.46180   63.25710    0.10790
 11259.00000   72.01340  128.92150   53.35490    0.07870
 11259.50000   69.26960  124.00850   37.80040    0.04670
 11260.00000   61.76570  112.38130   26.58890    0.02510
 11260.50000   55.13900  101.17800   19.58710    0.01470
 11261.00000   49.66530   97.43010   18.79640    0.01200
 11261.50000   49.17100   94.53410   22.92490    0.01280
 11262.00000   50.92690   96.03870   28.23860    0.01800
 11262.50000   53.66230  100.50120   35.10790    0.02860
 11263.00000   56.67240  104.99000   39.29680    0.04280
 11263.50000   59.83140  111.03100   40.42930    0.05280
 11264.00000   62.43240  115.63290   41.11460    0.05590
 11264.50000   64.11920  116.73550   42.82650    0.05550
 11265.00000   65.69910  114.64200   45.06390    0.05380
 11265.50000   66.55660  113.90320   44.57070    0.05310
 11266.00000   65.68310  113.25890   42.55850    0.05330
 11266.50000   64.62380  112.93550   42.85960    0.05380
 11267.00000   64.34060  113.34520   44.84170    0.05440
 11267.50000   64.75950  113.95920   47.39230    0.05450
 11268.00000   64.55010  113.93320   50.01220    0.05330
 11268.50000   63.82050  113.85430   52.96620    0.05140
 11269.00000   62.91760  113.59290   52.39290    0.04950
 11269.50000   62.76130  113.45680   48.19980    0.04810
 11270.00000   63.24030  114.47310   42.95300    0.04700
 11270.50000   63.82950  115.84650   42.47250    0.04620
 11271.00000   63.89480  115.69660   43.03870    0.04650
 11271.50000   63.70800  114.68590   43.69300    0.04850
 11272.00000   63.12060  113.78430   44.19380    0.05070
 11272.50000   63.21730  112.88280   44.62760    0.05160
 11273.00000   63.47650  111.82380   44.37830    0.05050
 11273.50000   62.65520  110.61310   43.87400    0.04850
 11274.00000   61.00150  109.40090   43.85330    0.04520
 11274.50000   59.06470  108.18870   44.10650    0.04260
 11275.00000   57.45880  106.42440   44.01750    0.04340
 11275.50000   56.56150  104.94060   42.55850    0.04520
 11276.00000   57.34910  106.76410   38.69870    0.04440
 11276.50000   58.98830  108.84750   34.97020    0.04170
 11277.00000   60.79520  110.82560   32.91810    0.04070
 11277.50000   61.75720  113.18970   34.71740    0.04060
 11278.00000   62.02710  114.27040   38.33120    0.04130
 11278.50000   62.66440  115.29540   41.81740    0.04260
 11279.00000   64.34460  116.32660   43.87320    0.04770
