~Version ---------------------------------------------------
VERS.   2.0 : CWLS log ASCII Standard -VERSION 2.0
WRAP.    NO : One line per depth step
DLM . SPACE : Column Data Section Delimiter
~Well ------------------------------------------------------
STRT .F                9796.0 : START DEPTH
STOP .F               11498.0 : STOP DEPTH
STEP .F                   0.5 : STEP
NULL .               -9999.25 : NULL VALUE
COMP .                        : COMPANY
WELL .                        : WELL
FLD  .                        : FIELD
LOC  .                        : LOCATION
PROV .                        : PROVINCE
CNTY .                        : COUNTY
STAT .                        : STATE
CTRY .                        : COUNTRY
SRVC .                        : SERVICE COMPANY
DATE .                        : DATE
UWI  .                        : UNIQUE WELL ID
API  .                        : API NUMBER
SLAT .WGS84 6.051501789112201 : SURFACE LATITUDE
SLON .WGS84  4.08531945818541 : SURFACE LONGITUDE
DATUM.F                2031.0 : DEPTH DATUM ELEV
~Curve Information -----------------------------------------
DEPT.F     : 
DTCO.US/F  : COMPRESSIONAL-WAVE INTERVAL TRANSIT TIME ACOUSTIC SLOWNESS
DTSM.US/F  : SHEAR-WAVE INTERVAL TRANSIT TIME DELTA-T
GRD .GAPI  : GAMMA RAY
NPHI.DEC   : NEUTRON POROSITY LIMESTONE
~Params ----------------------------------------------------
~Other -----------------------------------------------------
~ASCII -----------------------------------------------------
# ...
 10222.00000   -9999.25   -9999.25   94.01940    0.14740
 10222.50000   -9999.25   -9999.25   92.15440    0.15150
 10223.00000   -9999.25   -9999.25   89.84130    0.15110
 10223.50000   -9999.25   -9999.25   88.34690    0.14090
 10224.00000   -9999.25   -9999.25   88.28100    0.13370
 10224.50000   -9999.25   -9999.25   88.99150    0.12950
 10225.00000   -9999.25   -9999.25   89.68440    0.12850
 10225.50000   -9999.25   -9999.25   88.84080    0.13370
 10226.00000   -9999.25   -9999.25   87.20920    0.14200
 10226.50000   -9999.25   -9999.25   83.82590    0.14760
 10227.00000   -9999.25   -9999.25   80.07070    0.14360
 10227.50000   -9999.25   -9999.25   78.00200    0.13690
 10228.00000   -9999.25   -9999.25   80.54630    0.14390
 10228.50000   -9999.25   -9999.25   83.96930    0.15340
 10229.00000   -9999.25   -9999.25   85.82150    0.16670
 10229.50000   -9999.25   -9999.25   87.17300    0.17660
 10230.00000   -9999.25   -9999.25   89.89520    0.18000
 10230.50000   -9999.25   -9999.25   94.21760    0.18250
 10231.00000   -9999.25   -9999.25   96.80120    0.19010
 10231.50000   -9999.25   -9999.25   94.07030    0.19890
 10232.00000   -9999.25   -9999.25   90.13010    0.19750
 10232.50000   -9999.25   -9999.25   86.02990    0.18330
 10233.00000   -9999.25   -9999.25   87.13830    0.16580
 10233.50000   -9999.25   -9999.25   91.13860    0.15960
 10234.00000   -9999.25   -9999.25   94.31440    0.17460
 10234.50000   -9999.25   -9999.25   95.50310    0.19590
 10235.00000   -9999.25   -9999.25   93.27510    0.20150
 10235.50000   -9999.25   -9999.25   90.60810    0.18260
 10236.00000   -9999.25   -9999.25   87.58920    0.16730
 10236.50000   -9999.25   -9999.25   84.81400    0.15680
 10237.00000   -9999.25   -9999.25   85.66660    0.16220
 10237.50000   -9999.25   -9999.25   89.80530    0.16630
 10238.00000   -9999.25   -9999.25   93.43380    0.16710
 10238.50000   -9999.25   -9999.25   95.88010    0.16820
 10239.00000   -9999.25   -9999.25   95.87530    0.17010
 10239.50000   -9999.25   -9999.25   93.14540    0.17380
 10240.00000   -9999.25   -9999.25   90.27920    0.18330
 10240.50000   -9999.25   -9999.25   89.25010    0.19450
 10241.00000   -9999.25   -9999.25   90.31850    0.19800
 10241.50000   -9999.25   -9999.25   91.75800    0.18850
 10242.00000   -9999.25   -9999.25   92.21250    0.18240
 10242.50000   -9999.25   -9999.25   92.85280    0.18800
 10243.00000   -9999.25   -9999.25   94.14190    0.19610
 10243.50000   -9999.25   -9999.25   95.08660    0.19820
 10244.00000   -9999.25   -9999.25   94.46010    0.19600
 10244.50000   -9999.25   -9999.25   93.65120    0.20100
 10245.00000   -9999.25   -9999.25   94.64520    0.21440
 10245.50000   -9999.25   -9999.25   96.92620    0.22610
 10246.00000   -9999.25   -9999.25   99.11790    0.22830
 10246.50000   -9999.25   -9999.25   98.59440    0.23110
 10247.00000   -9999.25   -9999.25   97.02890    0.23970
 10247.50000   -9999.25   -9999.25   95.84760    0.25330
 10248.00000   -9999.25   -9999.25   94.70230    0.26060
 10248.50000   -9999.25   -9999.25   92.84460    0.25750
 10249.00000   -9999.25   -9999.25   91.10240    0.24900
 10249.50000   -9999.25   -9999.25   91.92740    0.23900
 10250.00000   -9999.25   -9999.25   94.21970    0.23090
 10250.50000   -9999.25   -9999.25   96.85130    0.22660
 10251.00000   -9999.25   -9999.25   95.93350    0.22610
 10251.50000   -9999.25   -9999.25   94.30080    0.22840
 10252.00000   -9999.25   -9999.25   92.95490    0.23590
 10252.50000   -9999.25   -9999.25   92.63670    0.24830
 10253.00000   -9999.25   -9999.25   93.32550    0.26120
 10253.50000   -9999.25   -9999.25   93.27380    0.25430
 10254.00000   -9999.25   -9999.25   91.90830    0.23390
 10254.50000   -9999.25   -9999.25   89.89150    0.21600
 10255.00000   -9999.25   -9999.25   88.01810    0.21630
 10255.50000   -9999.25   -9999.25   87.09590    0.23410
 10256.00000   -9999.25   -9999.25   88.89470    0.24930
 10256.50000   -9999.25   -9999.25   93.22410    0.25080
 10257.00000   -9999.25   -9999.25   95.72020    0.22990
 10257.50000   -9999.25   -9999.25   96.99150    0.20910
 10258.00000   -9999.25   -9999.25   99.05100    0.20400
 10258.50000   -9999.25   -9999.25  101.11050    0.20360
 10259.00000   -9999.25   -9999.25  100.15530    0.19680
 10259.50000   -9999.25   -9999.25   97.27540    0.19000
 10260.00000   -9999.25   -9999.25   96.10510    0.18760
 10260.50000   -9999.25   -9999.25   99.80920    0.19410
 10261.00000   -9999.25   -9999.25  100.81660    0.20450
 10261.50000   -9999.25   -9999.25   99.67110    0.21110
 10262.00000   -9999.25   -9999.25   98.52560    0.21200
 10262.50000   -9999.25   -9999.25   95.81200    0.20940
 10263.00000   -9999.25   -9999.25   95.19370    0.20890
 10263.50000   -9999.25   -9999.25   96.94760    0.21330
 10264.00000   -9999.25   -9999.25  100.27940    0.21560
 10264.50000   -9999.25   -9999.25  100.39370    0.21230
 10265.00000   -9999.25   -9999.25  101.66570    0.20770
 10265.50000   -9999.25   -9999.25  102.93770    0.21760
 10266.00000   -9999.25   -9999.25  103.18810    0.23830
 10266.50000   -9999.25   -9999.25   99.94230    0.25300
 10267.00000   -9999.25   -9999.25   98.33020    0.24620
 10267.50000   -9999.25   -9999.25   97.02340    0.22230
 10268.00000   -9999.25   -9999.25   96.26510    0.20590
 10268.50000   -9999.25   -9999.25   95.73400    0.20750
 10269.00000   -9999.25   -9999.25   95.20290    0.21850
 10269.50000   -9999.25   -9999.25   94.67170    0.23530
 10270.00000   -9999.25   -9999.25   93.98100    0.25350
 10270.50000   -9999.25   -9999.25   92.72320    0.26830
 10271.00000   -9999.25   -9999.25   91.31150    0.27230
 10271.50000   -9999.25   -9999.25   89.91740    0.26500
 10272.00000   -9999.25   -9999.25   89.73550    0.26350
 10272.50000   -9999.25   -9999.25   92.22390    0.27030
 10273.00000   -9999.25   -9999.25   95.30290    0.27460
 10273.50000   -9999.25   -9999.25   97.33860    0.26830
 10274.00000   -9999.25   -9999.25   96.48850    0.26310
 10274.50000   -9999.25   -9999.25   95.44700    0.26880
 10275.00000   -9999.25   -9999.25   96.53050    0.27340
 10275.50000   -9999.25   -9999.25   97.76590    0.26020
 10276.00000   -9999.25   -9999.25   98.51090    0.24640
 10276.50000   -9999.25   -9999.25   98.77480    0.23580
 10277.00000   -9999.25   -9999.25   98.78450    0.23890
 10277.50000   -9999.25   -9999.25   99.02820    0.24470
 10278.00000   -9999.25   -9999.25   98.99190    0.24030
 10278.50000   -9999.25   -9999.25   99.03770    0.23330
 10279.00000   -9999.25   -9999.25   98.25730    0.22940
 10279.50000   -9999.25   -9999.25   97.60840    0.22710
 10280.00000   -9999.25   -9999.25   98.67850    0.22530
 10280.50000   -9999.25   -9999.25   99.37240    0.22710
 10281.00000   -9999.25   -9999.25   98.27450    0.24030
 10281.50000   -9999.25   -9999.25   95.43150    0.25290
 10282.00000   -9999.25   -9999.25   93.25120    0.24600
 10282.50000   -9999.25   -9999.25   99.18930    0.23510
 10283.00000   -9999.25   -9999.25  102.56950    0.23530
 10283.50000   -9999.25   -9999.25  105.63100    0.25430
 10284.00000   -9999.25   -9999.25   99.72800    0.27800
 10284.50000   -9999.25   -9999.25   98.16700    0.28730
 10285.00000   -9999.25   -9999.25   94.78500    0.28080
 10285.50000   -9999.25   -9999.25   95.54520    0.26790
 10286.00000   -9999.25   -9999.25   99.35230    0.25260
 10286.50000   -9999.25   -9999.25  103.52020    0.23890
 10287.00000   -9999.25   -9999.25  104.58820    0.24810
 10287.50000   -9999.25   -9999.25  103.30460    0.26470
 10288.00000   -9999.25   -9999.25  101.85430    0.27680
 10288.50000   -9999.25   -9999.25  100.60120    0.26040
 10289.00000   -9999.25   -9999.25   99.34810    0.24940
 10289.50000   -9999.25   -9999.25   98.03600    0.26130
 10290.00000   -9999.25   -9999.25   95.98230    0.28320
 10290.50000   -9999.25   -9999.25   92.99510    0.28280
 10291.00000   -9999.25   -9999.25   91.56300    0.27740
 10291.50000   -9999.25   -9999.25   91.10720    0.28540
 10292.00000   -9999.25   -9999.25   91.64850    0.30010
