~Version ---------------------------------------------------
VERS.   2.0 : CWLS log ASCII Standard -VERSION 2.0
WRAP.    NO : One line per depth step
DLM . SPACE : Column Data Section Delimiter
~Well ------------------------------------------------------
STRT .F                9796.0 : START DEPTH
STOP .F               11498.0 : STOP DEPTH
STEP .F                   0.5 : STEP
NULL .               -9999.25 : NULL VALUE
COMP .                        : COMPANY
WELL .                        : WELL
FLD  .                        : FIELD
LOC  .                        : LOCATION
PROV .                        : PROVINCE
CNTY .                        : COUNTY
STAT .                        : STATE
CTRY .                        : COUNTRY
SRVC .                        : SERVICE COMPANY
DATE .                        : DATE
UWI  .                        : UNIQUE WELL ID
API  .                        : API NUMBER
SLAT .WGS84 6.051501789112201 : SURFACE LATITUDE
SLON .WGS84  4.08531945818541 : SURFACE LONGITUDE
DATUM.F                2031.0 : DEPTH DATUM ELEV
~Curve Information -----------------------------------------
DEPT.F     : 
DTCO.US/F  : COMPRESSIONAL-WAVE INTERVAL TRANSIT TIME ACOUSTIC SLOWNESS
DTSM.US/F  : SHEAR-WAVE INTERVAL TRANSIT TIME DELTA-T
GRD .GAPI  : GAMMA RAY
NPHI.DEC   : NEUTRON POROSITY LIMESTONE
~Params ----------------------------------------------------
~Other -----------------------------------------------------
~ASCII -----------------------------------------------------
# ...
 10645.00000   75.82890  143.33580   73.44250    0.16760
 10645.50000   75.63970  143.68410   69.88570    0.17610
 10646.00000   75.68770  143.53490   68.30200    0.18770
 10646.50000   76.08480  144.64690   70.21280    0.19780
 10647.00000   76.46190  147.33780   73.18200    0.19790
 10647.50000   76.77690  148.20540   77.24570    0.19400
 10648.00000   77.24750  147.06270   80.25180    0.18500
 10648.50000   77.47420  149.36710   80.12160    0.17490
 10649.00000   76.40050  151.65840   77.51180    0.16560
 10649.50000   76.44580  150.75990   76.61740    0.16390
 10650.00000   77.29150  147.45860   78.30080    0.16630
 10650.50000   76.99620  144.67860   80.37930    0.17210
 10651.00000   75.95820  142.93700   80.52340    0.18440
 10651.50000   75.07430  142.09770   79.78990    0.19480
 10652.00000   74.74040  141.97710   80.09660    0.19730
 10652.50000   74.89170  143.32800   80.37810    0.19350
 10653.00000   75.54150  144.74140   80.31020    0.19040
 10653.50000   74.78460  144.68200   79.89400    0.19030
 10654.00000   73.73970  142.83620   79.85730    0.18960
 10654.50000   73.39040  142.38330   80.16550    0.18600
 10655.00000   73.82560  142.55680   81.93680    0.17980
 10655.50000   73.85890  142.77240   84.38310    0.17200
 10656.00000   73.33340  142.85630   85.61520    0.16640
 10656.50000   73.86770  142.93180   84.81780    0.16120
 10657.00000   74.71540  142.98930   83.20700    0.15860
 10657.50000   75.33430  144.51640   82.75990    0.16530
 10658.00000   75.50000  146.27740   83.65900    0.18070
 10658.50000   75.13280  146.41430   85.45530    0.19310
 10659.00000   74.23520  143.51170   88.21290    0.19430
 10659.50000   74.04390  143.89750   90.48960    0.19010
 10660.00000   74.75560  145.14380   91.97000    0.18780
 10660.50000   75.78110  145.91800   92.76110    0.18550
 10661.00000   76.88530  146.64910   92.07540    0.18090
 10661.50000   77.82560  148.58090   88.99880    0.17670
 10662.00000   78.31670  149.78120   85.45010    0.18390
 10662.50000   78.46690  149.64120   83.50190    0.18970
 10663.00000   77.37470  149.73250   83.74410    0.19730
 10663.50000   76.61990  150.04820   83.30330    0.19490
 10664.00000   76.86000  151.34340   81.30010    0.18910
 10664.50000   77.00100  152.64880   79.03150    0.18500
 10665.00000   77.35880  152.56470   78.02150    0.18840
 10665.50000   78.13190  152.02560   78.62570    0.19220
 10666.00000   79.02630  152.82780   79.22100    0.18980
 10666.50000   79.79070  157.20620   79.22230    0.18240
 10667.00000   79.53000  157.68330   78.58130    0.17570
 10667.50000   78.79450  154.39660   78.40290    0.17520
 10668.00000   78.22640  151.30510   79.28400    0.18380
 10668.50000   77.99210  147.67650   80.75510    0.19100
 10669.00000   78.23970  145.82060   82.07180    0.19090
 10669.50000   78.91440  145.32700   82.49720    0.18130
 10670.00000   79.51420  144.83350   82.71030    0.17280
 10670.50000   79.24950  144.33990   83.22280    0.16580
 10671.00000   78.56120  142.67380   84.46640    0.17240
 10671.50000   78.27370  140.31030   85.53200    0.18840
 10672.00000   78.59780  139.28950   84.68620    0.20600
 10672.50000   79.60140  141.34410   84.07700    0.21180
 10673.00000   79.56440  141.13960   84.93110    0.20250
 10673.50000   77.54050  138.78560   85.45330    0.19240
 10674.00000   76.26640  137.20990   83.63560    0.19150
 10674.50000   76.56780  138.56110   79.73780    0.19480
 10675.00000   77.84740  140.18700   77.70220    0.19830
 10675.50000   78.65160  142.07620   79.92450    0.20100
 10676.00000   81.07870  145.14250   83.37370    0.20250
 10676.50000   82.01910  148.86350   85.30130    0.20520
 10677.00000   82.21750  150.82480   83.61200    0.20760
 10677.50000   81.88230  149.45830   82.36840    0.20290
 10678.00000   80.96980  148.62720   84.19990    0.19270
 10678.50000   80.05730  148.45250   86.27480    0.18330
 10679.00000   77.86490  148.13840   86.36070    0.18020
 10679.50000   77.51940  147.76530   85.45380    0.18860
 10680.00000   78.15530  147.61740   85.28320    0.19550
 10680.50000   78.07280  147.47290   86.17860    0.20010
 10681.00000   76.81750  146.88510   88.25140    0.20480
 10681.50000   75.51910  144.99640   89.35410    0.20220
 10682.00000   74.89530  144.63460   88.63480    0.20110
 10682.50000   75.39140  146.62810   86.78440    0.21290
 10683.00000   76.60690  148.99780   84.68230    0.22370
 10683.50000   76.22990  146.43430   83.34510    0.23180
 10684.00000   71.17200  138.46130   81.16470    0.22220
 10684.50000   70.81880  135.35010   78.07860    0.21010
 10685.00000   72.79770  139.06070   75.64690    0.21160
 10685.50000   76.19950  144.81450   76.99980    0.22590
 10686.00000   77.95700  144.26340   79.65480    0.23740
 10686.50000   79.39730  140.82450   81.26610    0.23590
 10687.00000   79.59750  137.10690   79.47550    0.21910
 10687.50000   79.49190  133.02950   78.76230    0.20570
 10688.00000   79.00460  127.51860   78.66630    0.19900
 10688.50000   78.71310  123.85640   77.98350    0.20200
 10689.00000   79.18280  121.21020   77.13060    0.20850
 10689.50000   80.24420  117.93300   78.91140    0.20750
 10690.00000   81.34560  116.60810   81.63220    0.19700
 10690.50000   82.17550  116.72000   84.39570    0.19210
 10691.00000   82.17210  117.25390   86.00280    0.20290
 10691.50000   81.76990  119.59260   85.93440    0.22050
 10692.00000   81.29570  124.90800   83.12300    0.21840
 10692.50000   80.72740  132.16980   79.19490    0.20670
 10693.00000   80.13640  135.82960   77.66960    0.18950
 10693.50000   79.54550  137.68960   79.75460    0.19570
 10694.00000   79.06100  140.44930   83.22970    0.20990
 10694.50000   78.59790  143.33870   85.62770    0.22300
 10695.00000   77.86100  146.06930   86.92910    0.22320
 10695.50000   77.05720  147.59840   87.48930    0.22000
 10696.00000   75.91830  151.00430   86.52220    0.22170
 10696.50000   77.89260  155.29110   83.60430    0.22420
 10697.00000   79.65790  160.67560   79.77580    0.22670
 10697.50000   80.21660  159.77890   78.14210    0.22650
 10698.00000   80.05480  158.09560   79.30900    0.22210
 10698.50000   79.71650  157.15020   81.66530    0.21480
 10699.00000   79.64070  156.60300   80.60830    0.20990
 10699.50000   79.79400  157.76720   78.10470    0.20640
 10700.00000   80.08870  157.02430   77.12710    0.20430
 10700.50000   80.26230  154.62390   79.29590    0.20690
 10701.00000   80.14230  152.22360   81.26410    0.22120
 10701.50000   79.76380  148.76140   82.49950    0.24470
 10702.00000   79.97190  147.89410   83.61880    0.24910
 10702.50000   80.51850  147.42830   85.10040    0.23350
 10703.00000   80.54430  147.11890   85.64930    0.21230
 10703.50000   80.54980  147.06180   85.18190    0.20770
 10704.00000   80.62140  148.54880   85.38650    0.21020
 10704.50000   80.60010  149.07330   85.67250    0.21610
 10705.00000   80.27970  148.02770   85.39850    0.22240
 10705.50000   79.32980  146.75580   86.26120    0.22810
 10706.00000   78.79410  146.57930   89.10010    0.22930
 10706.50000   79.28660  147.91890   91.50530    0.22680
 10707.00000   80.67400  150.44980   91.63450    0.22060
 10707.50000   82.09460  153.48420   90.33670    0.21980
 10708.00000   82.46550  155.14520   88.21790    0.22050
 10708.50000   81.94810  153.62710   85.64890    0.21820
 10709.00000   81.15240  152.66970   83.12590    0.21050
 10709.50000   80.52600  152.49790   82.87310    0.19920
 10710.00000   80.20670  153.13950   83.93250    0.18630
 10710.50000   80.01870  156.03360   84.95370    0.18370
 10711.00000   79.97710  157.56360   85.29930    0.19190
 10711.50000   80.44280  157.74480   85.74740    0.20390
 10712.00000   80.76100  157.54230   86.17340    0.21000
 10712.50000   81.05620  157.04150   87.42210    0.21770
 10713.00000   81.26800  157.36680   89.64910    0.22590
 10713.50000   81.14950  158.85480   91.13300    0.23220
 10714.00000   80.38870  160.85890   91.06240    0.22990
 10714.50000   79.22830  159.40560   89.33820    0.22590
 10715.00000   77.77220  156.52800   85.58270    0.22850
