~Version ---------------------------------------------------
VERS.   2.0 : CWLS log ASCII Standard -VERSION 2.0
WRAP.    NO : One line per depth step
DLM . SPACE : Column Data Section Delimiter
~Well ------------------------------------------------------
STRT .F                9796.0 : START DEPTH
STOP .F               11498.0 : STOP DEPTH
STEP .F                   0.5 : STEP
NULL .               -9999.25 : NULL VALUE
COMP .                        : COMPANY
WELL .                        : WELL
FLD  .                        : FIELD
LOC  .                        : LOCATION
PROV .                        : PROVINCE
CNTY .                        : COUNTY
STAT .                        : STATE
CTRY .                        : COUNTRY
SRVC .                        : SERVICE COMPANY
DATE .                        : DATE
UWI  .                        : UNIQUE WELL ID
API  .                        : API NUMBER
SLAT .WGS84 6.051501789112201 : SURFACE LATITUDE
SLON .WGS84  4.08531945818541 : SURFACE LONGITUDE
DATUM.F                2031.0 : DEPTH DATUM ELEV
~Curve Information -----------------------------------------
DEPT.F     : 
DTCO.US/F  : COMPRESSIONAL-WAVE INTERVAL TRANSIT TIME ACOUSTIC SLOWNESS
DTSM.US/F  : SHEAR-WAVE INTERVAL TRANSIT TIME DELTA-T
GRD .GAPI  : GAMMA RAY
NPHI.DEC   : NEUTRON POROSITY LIMESTONE
~Params ----------------------------------------------------
~Other -----------------------------------------------------
~ASCII -----------------------------------------------------
# ...
 10151.50000   -9999.25   -9999.25  101.08840    0.13340
 10152.00000   -9999.25   -9999.25   99.09290    0.13880
 10152.50000   -9999.25   -9999.25   97.09730    0.14760
 10153.00000   -9999.25   -9999.25   90.46480    0.14970
 10153.50000   -9999.25   -9999.25   84.01400    0.14440
 10154.00000   -9999.25   -9999.25   81.40400    0.13820
 10154.50000   -9999.25   -9999.25   80.54650    0.13250
 10155.00000   -9999.25   -9999.25   79.04830    0.12320
 10155.50000   -9999.25   -9999.25   78.48200    0.11030
 10156.00000   -9999.25   -9999.25   80.03670    0.10410
 10156.50000   -9999.25   -9999.25   82.61980    0.10840
 10157.00000   -9999.25   -9999.25   85.53050    0.12830
 10157.50000   -9999.25   -9999.25   87.54190    0.14770
 10158.00000   -9999.25   -9999.25   89.82660    0.16110
 10158.50000   -9999.25   -9999.25   91.09090    0.16930
 10159.00000   -9999.25   -9999.25   89.98480    0.17510
 10159.50000   -9999.25   -9999.25   88.70840    0.17970
 10160.00000   -9999.25   -9999.25   88.85310    0.18160
 10160.50000   -9999.25   -9999.25   90.03740    0.18040
 10161.00000   -9999.25   -9999.25   91.92570    0.17730
 10161.50000   -9999.25   -9999.25   93.61040    0.17370
 10162.00000   -9999.25   -9999.25   94.32340    0.17360
 10162.50000   -9999.25   -9999.25   93.51080    0.18180
 10163.00000   -9999.25   -9999.25   92.05660    0.19210
 10163.50000   -9999.25   -9999.25   91.50770    0.19870
 10164.00000   -9999.25   -9999.25   92.01830    0.19730
 10164.50000   -9999.25   -9999.25   92.84380    0.19430
 10165.00000   -9999.25   -9999.25   93.07610    0.19230
 10165.50000   -9999.25   -9999.25   92.13240    0.18940
 10166.00000   -9999.25   -9999.25   90.89270    0.18040
 10166.50000   -9999.25   -9999.25   89.60030    0.17070
 10167.00000   -9999.25   -9999.25   91.08900    0.16650
 10167.50000   -9999.25   -9999.25   94.13360    0.16670
 10168.00000   -9999.25   -9999.25   94.93540    0.16750
 10168.50000   -9999.25   -9999.25   91.67220    0.16440
 10169.00000   -9999.25   -9999.25   86.29190    0.15900
 10169.50000   -9999.25   -9999.25   84.69150    0.15220
 10170.00000   -9999.25   -9999.25   86.99660    0.15220
 10170.50000   -9999.25   -9999.25   90.24780    0.16140
 10171.00000   -9999.25   -9999.25   92.85870    0.17550
 10171.50000   -9999.25   -9999.25   93.30700    0.18700
 10172.00000   -9999.25   -9999.25   91.87010    0.18910
 10172.50000   -9999.25   -9999.25   90.64450    0.18540
 10173.00000   -9999.25   -9999.25   91.05570    0.18360
 10173.50000   -9999.25   -9999.25   92.43450    0.18550
 10174.00000   -9999.25   -9999.25   93.60670    0.18670
 10174.50000   -9999.25   -9999.25   93.29080    0.18790
 10175.00000   -9999.25   -9999.25   90.01640    0.19690
 10175.50000   -9999.25   -9999.25   84.99600    0.20240
 10176.00000   -9999.25   -9999.25   80.86010    0.18910
 10176.50000   -9999.25   -9999.25   78.26250    0.17920
 10177.00000   -9999.25   -9999.25   77.34480    0.19210
 10177.50000   -9999.25   -9999.25   77.49450    0.20720
 10178.00000   -9999.25   -9999.25   79.01640    0.18670
 10178.50000   -9999.25   -9999.25   81.37800    0.15110
 10179.00000   -9999.25   -9999.25   84.18330    0.12630
 10179.50000   -9999.25   -9999.25   86.68550    0.11350
 10180.00000   -9999.25   -9999.25   87.35620    0.10790
 10180.50000   -9999.25   -9999.25   87.00000    0.10290
 10181.00000   -9999.25   -9999.25   87.12720    0.10740
 10181.50000   -9999.25   -9999.25   89.09840    0.12680
 10182.00000   -9999.25   -9999.25   92.17500    0.15060
 10182.50000   -9999.25   -9999.25   95.16970    0.16870
 10183.00000   -9999.25   -9999.25   96.59640    0.18110
 10183.50000   -9999.25   -9999.25   95.85130    0.17800
 10184.00000   -9999.25   -9999.25   95.36440    0.16280
 10184.50000   -9999.25   -9999.25   99.57370    0.14870
 10185.00000   -9999.25   -9999.25  102.43760    0.14190
 10185.50000   -9999.25   -9999.25   98.05290    0.13480
 10186.00000   -9999.25   -9999.25   93.66810    0.11980
 10186.50000   -9999.25   -9999.25   85.84940    0.09970
 10187.00000   -9999.25   -9999.25   78.36640    0.08800
 10187.50000   -9999.25   -9999.25   72.63880    0.08910
 10188.00000   -9999.25   -9999.25   72.41260    0.09950
 10188.50000   -9999.25   -9999.25   74.95310    0.10990
 10189.00000   -9999.25   -9999.25   76.37490    0.10630
 10189.50000   -9999.25   -9999.25   72.15170    0.09310
 10190.00000   -9999.25   -9999.25   64.64290    0.07990
 10190.50000   -9999.25   -9999.25   59.05820    0.06950
 10191.00000   -9999.25   -9999.25   56.52370    0.06800
 10191.50000   -9999.25   -9999.25   54.54910    0.07000
 10192.00000   -9999.25   -9999.25   53.03630    0.07200
 10192.50000   -9999.25   -9999.25   53.70510    0.07520
 10193.00000   -9999.25   -9999.25   57.05760    0.08140
 10193.50000   -9999.25   -9999.25   61.10310    0.08710
 10194.00000   -9999.25   -9999.25   64.68840    0.09110
 10194.50000   -9999.25   -9999.25   68.60710    0.09460
 10195.00000   -9999.25   -9999.25   76.77820    0.09820
 10195.50000   -9999.25   -9999.25   83.70790    0.10110
 10196.00000   -9999.25   -9999.25   85.84650    0.10120
 10196.50000   -9999.25   -9999.25   82.10080    0.09970
 10197.00000   -9999.25   -9999.25   76.74250    0.09940
 10197.50000   -9999.25   -9999.25   75.30110    0.10220
 10198.00000   -9999.25   -9999.25   75.12430    0.10470
 10198.50000   -9999.25   -9999.25   74.68530    0.10690
 10199.00000   -9999.25   -9999.25   74.13790    0.10690
 10199.50000   -9999.25   -9999.25   74.22430    0.10340
 10200.00000   -9999.25   -9999.25   74.20320    0.10200
 10200.50000   -9999.25   -9999.25   73.50530    0.10780
 10201.00000   -9999.25   -9999.25   72.85050    0.12120
 10201.50000   -9999.25   -9999.25   73.37560    0.12890
 10202.00000   -9999.25   -9999.25   75.30310    0.12610
 10202.50000   -9999.25   -9999.25   79.68760    0.12250
 10203.00000   -9999.25   -9999.25   82.59400    0.11850
 10203.50000   -9999.25   -9999.25   81.15100    0.11380
 10204.00000   -9999.25   -9999.25   77.24230    0.10590
 10204.50000   -9999.25   -9999.25   74.58230    0.09530
 10205.00000   -9999.25   -9999.25   74.75690    0.08950
 10205.50000   -9999.25   -9999.25   76.44580    0.08680
 10206.00000   -9999.25   -9999.25   80.05770    0.08820
 10206.50000   -9999.25   -9999.25   85.10270    0.09330
 10207.00000   -9999.25   -9999.25   83.61470    0.09900
 10207.50000   -9999.25   -9999.25   77.62380    0.10360
 10208.00000   -9999.25   -9999.25   73.18310    0.10430
 10208.50000   -9999.25   -9999.25   70.43090    0.10150
 10209.00000   -9999.25   -9999.25   68.61210    0.09600
 10209.50000   -9999.25   -9999.25   65.33320    0.09160
 10210.00000   -9999.25   -9999.25   63.13460    0.09360
 10210.50000   -9999.25   -9999.25   64.24190    0.09530
 10211.00000   -9999.25   -9999.25   68.70760    0.09350
 10211.50000   -9999.25   -9999.25   72.26200    0.09140
 10212.00000   -9999.25   -9999.25   72.79040    0.08950
 10212.50000   -9999.25   -9999.25   72.16620    0.08610
 10213.00000   -9999.25   -9999.25   71.16840    0.07930
 10213.50000   -9999.25   -9999.25   69.29730    0.07110
 10214.00000   -9999.25   -9999.25   63.99500    0.06740
 10214.50000   -9999.25   -9999.25   56.68280    0.06790
 10215.00000   -9999.25   -9999.25   52.29420    0.07080
 10215.50000   -9999.25   -9999.25   56.95740    0.08030
 10216.00000   -9999.25   -9999.25   68.12830    0.09380
 10216.50000   -9999.25   -9999.25   81.27240    0.10720
 10217.00000   -9999.25   -9999.25   86.75850    0.11600
 10217.50000   -9999.25   -9999.25   83.79700    0.12140
 10218.00000   -9999.25   -9999.25   80.12170    0.12890
 10218.50000   -9999.25   -9999.25   81.69490    0.13750
 10219.00000   -9999.25   -9999.25   86.23750    0.14250
 10219.50000   -9999.25   -9999.25   86.73170    0.13970
 10220.00000   -9999.25   -9999.25   84.02640    0.13770
 10220.50000   -9999.25   -9999.25   83.41310    0.13860
 10221.00000   -9999.25   -9999.25   88.73890    0.14050
 10221.50000   -9999.25   -9999.25   93.17450    0.14230
