~Version ---------------------------------------------------
VERS.   2.0 : CWLS log ASCII Standard -VERSION 2.0
WRAP.    NO : One line per depth step
DLM . SPACE : Column Data Section Delimiter
~Well ------------------------------------------------------
STRT .FT                145.0 : START DEPTH
STOP .FT               4376.0 : STOP DEPTH
STEP .FT                  0.5 : STEP
NULL .               -9999.25 : NULL VALUE
COMP .                        : COMPANY
WELL .                        : WELL
FLD  .                        : FIELD
LOC  .                        : LOCATION
PROV .                        : PROVINCE
CNTY .                        : COUNTY
STAT .                        : STATE
CTRY .                        : COUNTRY
SRVC .                        : SERVICE COMPANY
DATE .                        : DATE
UWI  .                        : UNIQUE WELL ID
API  .                        : API NUMBER
SLAT .WGS84 3.091432220729395 : SURFACE LATITUDE
SLON .WGS84 8.486743172162008 : SURFACE LONGITUDE
DATUM.F               3945.22 : DEPTH DATUM ELEV
~Curve Information -----------------------------------------
DEPT   .FT    : 
CAL1R  .IN    : CALIPER 1 FROM RESISTIVITY LOG
CALD   .IN    : CALIPER FROM DENSITY LOG
CALSR  .IN    : MICRO RESISTIVITY CALIPER FROM RESISTIVITY
CGRD   .GAPI  : CORRECTED GAMMA RAY FROM DENSITY LOG
DPHI_LS.DEC   : DENSITY POROSITY LIMESTONE
DRHO   .G/C3  : BULK DENSITY CORRECTION
DT     .US/F  : DELTA-T (INTERVAL TRANSIT TIME)
DTCO   .US/F  : DELTA-T COMPRESSIONAL
DTL    .US/F  : DELTA-T LONG SPACING
DTSM   .US/F  : DELTA-T SHEAR
GRR    .GAPI  : GAMMA RAY FROM RESISTIVITY LOG
GRS    .GAPI  : GAMMA RAY FROM SONIC LOG
LLD    .OHMM  : LATEROLOG DEEP RESISTIVITY
LLS    .OHMM  : LATEROLOG SHALLOW RESISTIVITY
MSFL   .OHMM  : MICRO SPHERICALLY FOCUSED RESISTIVITY
NPHI_LS.DEC   : NEUTRON POROSITY LIMESTONE
PEF    .B/E   : PHOTOELECTRIC FACTOR
SGRDD  .GAPI  : SPECTROSCOPY GAMMA RAY FROM DENSITY LOG
TEND   .LBF   : TENSION FROM DENSITY LOG
TENR   .LBF   : TENSION FROM RESISTIVITY LOG
~Params ----------------------------------------------------
~Other -----------------------------------------------------
~ASCII -----------------------------------------------------
# ...
 2542.50000    9.96290   11.21710    9.90730   16.80820   -0.08700    0.00440   -9999.25   -9999.25   -9999.25   -9999.25   18.13850   -9999.25   75.21910   95.03670  145.31500    0.02270    4.59990   20.51730 1988.59080 1869.15810
 2543.00000    9.90940   11.23600    9.86970   16.13910   -0.08950    0.00030   -9999.25   -9999.25   -9999.25   -9999.25   18.66970   -9999.25   53.01130  101.91580   53.50200    0.02110    4.69700   20.83210 1984.00500 1862.47160
 2543.50000    9.88790   11.25490    9.84770   15.96620   -0.08880    0.00000   -9999.25   -9999.25   -9999.25   -9999.25   20.80070   -9999.25   54.49170  100.51140   73.64660    0.01980    4.99960   21.13710 1979.41920 1864.29670
 2544.00000    9.88230   11.27080    9.84640   15.79320   -0.08770    0.00100   -9999.25   -9999.25   -9999.25   -9999.25   22.93170   -9999.25   71.81970   90.36550   82.45560    0.01930    5.30890   21.58990 1974.83340 1866.12180
 2544.50000    9.88440   11.28200    9.84510   17.05000   -0.08960    0.00210   -9999.25   -9999.25   -9999.25   -9999.25   22.49180   -9999.25   69.85700   78.26230   28.86600    0.01960    5.37670   22.84400 1970.24750 1867.94690
 2545.00000    9.89010   11.31110    9.84380   16.82360   -0.09530    0.00550   -9999.25   -9999.25   -9999.25   -9999.25   19.76780   -9999.25   60.06380   67.95030   40.91600    0.01990    5.21170   22.86090 1969.33040 1873.21280
 2545.50000    9.89570   11.35300    9.84250   15.69180   -0.09960    0.01050   -9999.25   -9999.25   -9999.25   -9999.25   17.65010   -9999.25   62.86480   75.76060   13.81810    0.01910    5.00900   20.95520 1992.69360 1883.63970
 2546.00000    9.90140   11.38700    9.86320   14.99260   -0.12300    0.01450   -9999.25   -9999.25   -9999.25   -9999.25   15.93640   -9999.25   78.53980   85.52360   26.32090    0.01460    4.94080   18.91270 1999.09080 1894.06670
 2546.50000    9.90700   11.40380    9.87410   14.58170   -0.13730    0.01530   -9999.25   -9999.25   -9999.25   -9999.25   17.19620   -9999.25   81.67010   84.73380   22.71400    0.01000    4.91980   16.33500 1997.82620 1904.49360
 2547.00000    9.91260   11.42430    9.87610   15.75860   -0.12830    0.01050   -9999.25   -9999.25   -9999.25   -9999.25   20.66830   -9999.25   70.70290   78.42110   33.43410    0.01170    4.88870   19.78250 1989.50790 1914.92050
 2547.50000    9.91820   11.45750    9.87810   21.62360   -0.10510    0.00440   -9999.25   -9999.25   -9999.25   -9999.25   25.95220   -9999.25   57.34930   62.19340   25.12700    0.02930    4.80420   28.60300 1999.27400 1918.38830
 2548.00000    9.92340   11.49410    9.87840   27.48850   -0.04570    0.00160   -9999.25   -9999.25   -9999.25   -9999.25   32.56590   -9999.25   43.99570   46.34200   12.30010    0.05370    4.55750   38.50190 1993.17020 1922.35080
 2548.50000    9.90190   11.53170    9.86750   33.35350   -0.00050    0.00120   -9999.25   -9999.25   -9999.25   -9999.25   41.73970   -9999.25   30.64210   31.99550    9.53890    0.09010    4.26430   46.80040 1991.92850 1916.59430
 2549.00000    9.85500   11.55730    9.83630   35.89320    0.04050    0.00420   -9999.25   -9999.25   -9999.25   -9999.25   42.75090   -9999.25   19.95890   20.51790    9.46800    0.11480    4.01120   52.50860 1997.71180 1908.71490
 2549.50000    9.80610   11.51460    9.78520   36.24420    0.05170    0.00600   -9999.25   -9999.25   -9999.25   -9999.25   40.26920   -9999.25   19.95730   32.71330    6.08550    0.12010    3.73000   52.49320 1994.01550 1900.83540
 2550.00000    9.75400   11.45930    9.73360   32.10870    0.03230    0.00770   -9999.25   -9999.25   -9999.25   -9999.25   35.06630   -9999.25   24.73260   91.79070 1009.64620    0.10710    3.58200   44.04470 1990.31920 1892.95600
 2550.50000    9.70190   11.39730    9.66040   29.18020   -0.00520    0.00890   -9999.25   -9999.25   -9999.25   -9999.25   30.52620   -9999.25   64.08750  150.86810 1511.38070    0.06520    3.66000   35.30870 1986.62290 1885.07650
 2551.00000    9.66530   11.33200    9.62560   25.27140   -0.04930    0.00770   -9999.25   -9999.25   -9999.25   -9999.25   26.09380   -9999.25  125.41700  209.94550   20.13680    0.02320    3.86710   30.05590 1973.01740 1886.74220
 2551.50000    9.65440   11.30580    9.61470   21.36250   -0.08370    0.00640   -9999.25   -9999.25   -9999.25   -9999.25   22.09230   -9999.25  186.74650  269.02290  100.51480    0.01040    4.11190   24.96640 1978.16580 1898.98490
 2552.00000    9.65420   11.28900    9.62550   17.45370   -0.09990    0.00560   -9999.25   -9999.25   -9999.25   -9999.25   18.09080   -9999.25  248.07590  310.12020  300.52670    0.00060    4.48380   20.19520 1983.31430 1891.37910
 2552.50000    9.67800   11.25690    9.65280   14.42180   -0.12510    0.00540   -9999.25   -9999.25   -9999.25   -9999.25   14.88920   -9999.25  275.11880  324.71470  500.53860   -0.00200    4.72380   15.28080 1975.69000 1900.07490
 2553.00000    9.71780   11.21650    9.68000   13.51290   -0.13220    0.00480   -9999.25   -9999.25   -9999.25   -9999.25   17.12640   -9999.25  262.72380  292.72260  208.70340   -0.00190    4.90550   14.63410 1969.58820 1899.51940
 2553.50000    9.76020   11.21720    9.70730   12.73840   -0.09900    0.00430   -9999.25   -9999.25   -9999.25   -9999.25   21.21270   -9999.25  201.60270  244.38270  819.77620   -0.00120    4.92970   15.11730 1961.77760 1898.96390
 2554.00000    9.78590   11.21790    9.73460   12.68350   -0.08250    0.00380   -9999.25   -9999.25   -9999.25   -9999.25   28.17890   -9999.25  139.98140  196.04270  965.72560    0.00220    4.93140   19.79830 1956.18680 1898.40850
 2554.50000    9.82000   11.21850    9.76190   13.48970   -0.04140    0.00330   -9999.25   -9999.25   -9999.25   -9999.25   38.13130   -9999.25   78.36020  147.70280   10.37110    0.04500    4.93540   29.28250 1959.47520 1897.85300
 2555.00000    9.85410   11.21920    9.78910   21.87760    0.00270    0.00270   -9999.25   -9999.25   -9999.25   -9999.25   43.56240   -9999.25   16.73890   99.36290   11.82060    0.08780    4.93780   38.76670 1962.76350 1886.96460
 2555.50000    9.88820   11.21980    9.83600   30.26560    0.02930    0.00220   -9999.25   -9999.25   -9999.25   -9999.25   50.99770   -9999.25   15.90470   51.02290   13.17430    0.13060    4.93780   48.25090 1966.05180 1876.07630
 2556.00000    9.92220   11.22050    9.87850   38.65360    0.04470    0.00170   -9999.25   -9999.25   -9999.25   -9999.25   54.79090   -9999.25   15.07040   12.20770    9.36980    0.18080    4.76820   57.73510 1969.34010 1865.18800
 2556.50000    9.95630   11.22110    9.92200   47.04160    0.05200    0.00120   -9999.25   -9999.25   -9999.25   -9999.25   57.20980   -9999.25   14.23620   11.49150    7.25400    0.22090    4.52020   65.28030 1972.62850 1888.94900
 2557.00000    9.98280   11.21940    9.93250   46.55470    0.05400    0.00070   -9999.25   -9999.25   -9999.25   -9999.25   55.03420   -9999.25   13.40200   10.77520    8.31120    0.21730    4.27210   64.30850 1975.91680 1920.11650
 2557.50000    9.99330   11.21490    9.92160   46.14870    0.04820    0.00270   -9999.25   -9999.25   -9999.25   -9999.25   52.57820   -9999.25   12.56770   10.05890    7.76050    0.21230    4.02410   60.91480 1979.20510 1919.86250
 2558.00000    9.94350   11.21050    9.85500   45.90390    0.04380    0.00840   -9999.25   -9999.25   -9999.25   -9999.25   52.25180   -9999.25   11.79100    9.62890    5.39050    0.22020    3.77600   60.34620 1982.49340 1904.92570
 2558.50000    9.85550   11.19860    9.78970   45.17490    0.04660    0.01650   -9999.25   -9999.25   -9999.25   -9999.25   52.09000   -9999.25   11.79000    9.53980    4.44230    0.24120    3.68600   59.80780 1985.78180 1902.51290
 2559.00000    9.76740   11.16060    9.72200   44.28490    0.04310    0.02330   -9999.25   -9999.25   -9999.25   -9999.25   47.99120   -9999.25   13.11670   14.74670    4.94740    0.20820    3.66990   57.60440 1989.07010 1900.10010
 2559.50000    9.67940   11.14420    9.65100   35.48830   -0.00460    0.02740   -9999.25   -9999.25   -9999.25   -9999.25   38.01410   -9999.25   19.20880   21.25560  445.88480    0.15000    3.74460   47.86520 1992.35840 1890.09750
