~Version ---------------------------------------------------
VERS.   2.0 : CWLS log ASCII Standard -VERSION 2.0
WRAP.    NO : One line per depth step
DLM . SPACE : Column Data Section Delimiter
~Well ------------------------------------------------------
STRT .FT                145.0 : START DEPTH
STOP .FT               4376.0 : STOP DEPTH
STEP .FT                  0.5 : STEP
NULL .               -9999.25 : NULL VALUE
COMP .                        : COMPANY
WELL .                        : WELL
FLD  .                        : FIELD
LOC  .                        : LOCATION
PROV .                        : PROVINCE
CNTY .                        : COUNTY
STAT .                        : STATE
CTRY .                        : COUNTRY
SRVC .                        : SERVICE COMPANY
DATE .                        : DATE
UWI  .                        : UNIQUE WELL ID
API  .                        : API NUMBER
SLAT .WGS84 3.091432220729395 : SURFACE LATITUDE
SLON .WGS84 8.486743172162008 : SURFACE LONGITUDE
DATUM.F               3945.22 : DEPTH DATUM ELEV
~Curve Information -----------------------------------------
DEPT   .FT    : 
CAL1R  .IN    : CALIPER 1 FROM RESISTIVITY LOG
CALD   .IN    : CALIPER FROM DENSITY LOG
CALSR  .IN    : MICRO RESISTIVITY CALIPER FROM RESISTIVITY
CGRD   .GAPI  : CORRECTED GAMMA RAY FROM DENSITY LOG
DPHI_LS.DEC   : DENSITY POROSITY LIMESTONE
DRHO   .G/C3  : BULK DENSITY CORRECTION
DT     .US/F  : DELTA-T (INTERVAL TRANSIT TIME)
DTCO   .US/F  : DELTA-T COMPRESSIONAL
DTL    .US/F  : DELTA-T LONG SPACING
DTSM   .US/F  : DELTA-T SHEAR
GRR    .GAPI  : GAMMA RAY FROM RESISTIVITY LOG
GRS    .GAPI  : GAMMA RAY FROM SONIC LOG
LLD    .OHMM  : LATEROLOG DEEP RESISTIVITY
LLS    .OHMM  : LATEROLOG SHALLOW RESISTIVITY
MSFL   .OHMM  : MICRO SPHERICALLY FOCUSED RESISTIVITY
NPHI_LS.DEC   : NEUTRON POROSITY LIMESTONE
PEF    .B/E   : PHOTOELECTRIC FACTOR
SGRDD  .GAPI  : SPECTROSCOPY GAMMA RAY FROM DENSITY LOG
TEND   .LBF   : TENSION FROM DENSITY LOG
TENR   .LBF   : TENSION FROM RESISTIVITY LOG
~Params ----------------------------------------------------
~Other -----------------------------------------------------
~ASCII -----------------------------------------------------
# ...
 2035.00000   10.86490   10.89530   10.79800   -9999.25   -9999.25   -9999.25   -9999.25   -9999.25   -9999.25   -9999.25   33.84860   -9999.25   11.82200   15.49010    9.09650    0.07690   -9999.25   35.35300 1906.92410 1725.18310
 2035.50000   11.10090   10.99690   10.99410   -9999.25   -9999.25   -9999.25   -9999.25   -9999.25   -9999.25   -9999.25   36.87600   -9999.25    9.15190   12.42800    7.98280    0.10410   -9999.25   37.38570 1878.95640 1721.97670
 2036.00000   11.02890   11.09850   10.99200   -9999.25   -9999.25   -9999.25   -9999.25   -9999.25   -9999.25   -9999.25   40.46670   -9999.25    6.48190    9.36600    5.39720    0.13610   -9999.25   38.90970 1874.40720 1747.56230
 2036.50000   10.98370   11.12020   10.93490   -9999.25   -9999.25   -9999.25   -9999.25   -9999.25   -9999.25   -9999.25   44.92780   -9999.25    5.77970    6.69990    2.81160    0.16350   -9999.25   44.15630 1869.85810 1759.85810
 2037.00000   11.03690   11.11940   10.96910   -9999.25   -9999.25   -9999.25   -9999.25   -9999.25   -9999.25   -9999.25   50.68560   -9999.25    5.07750    5.61770    2.86580    0.20470   -9999.25   52.33330 1865.30890 1768.45900
 2037.50000   11.00490   11.10130   10.97780   -9999.25   -9999.25   -9999.25   -9999.25   -9999.25   -9999.25   -9999.25   55.11890   -9999.25    4.37530    4.75250    2.81090    0.24590   -9999.25   62.02130 1838.82550 1775.40190
 2038.00000   10.90820   11.05730   10.84350   -9999.25   -9999.25   -9999.25   -9999.25   -9999.25   -9999.25   -9999.25   59.55220   -9999.25    4.45960    4.86590    2.47780    0.28710   -9999.25   65.79140 1822.76720 1765.13010
 2038.50000   10.72840   11.01330   10.65100   -9999.25   -9999.25   -9999.25   -9999.25   -9999.25   -9999.25   -9999.25   55.76270   -9999.25    4.99910    5.20000    2.63350    0.29530   -9999.25   65.29660 1829.48350 1738.88990
 2039.00000   10.58700   10.95170   10.49880   -9999.25   -9999.25   -9999.25   -9999.25   -9999.25   -9999.25   -9999.25   46.15540   -9999.25    6.23800   10.51060    2.78910    0.23030   -9999.25   57.16830 1836.19980 1712.62100
 2039.50000   10.47140   10.81990   10.40670   -9999.25   -9999.25   -9999.25   -9999.25   -9999.25   -9999.25   -9999.25   34.18840   -9999.25   10.20640   17.06540  971.59270    0.13690   -9999.25   39.04150 1842.91600 1691.69700
 2040.00000   10.35570   10.69770   10.31470   -9999.25   -9999.25   -9999.25   -9999.25   -9999.25   -9999.25   -9999.25   22.50440   -9999.25   18.03790   23.62020 1940.39620    0.07590   -9999.25   21.97630 1849.47540 1697.40130
 2040.50000   10.31650   10.64850   10.25160   -9999.25   -9999.25   -9999.25   -9999.25   -9999.25   -9999.25   -9999.25   12.62600   -9999.25   25.86950   26.98800 1715.57310    0.01500   -9999.25   13.52110 1849.47100 1715.38650
 2041.00000   10.27740   10.59940   10.22580   -9999.25   -9999.25   -9999.25   -9999.25   -9999.25   -9999.25   -9999.25   12.50100   -9999.25   26.11590   29.55910  764.89580    0.01970   -9999.25   13.35290 1849.46920 1725.93100
 2041.50000   10.24820   10.56800   10.20000   -9999.25   -9999.25   -9999.25   -9999.25   -9999.25   -9999.25   -9999.25   12.05050   -9999.25   35.04670   47.73520    4.35400    0.03040   -9999.25   15.61210 1840.80130 1726.65760
 2042.00000   10.21900   10.56330   10.18480   -9999.25   -9999.25   -9999.25   -9999.25   -9999.25   -9999.25   -9999.25   10.99940   -9999.25   64.45080   89.31870 1143.93770    0.01940   -9999.25   13.35030 1824.87470 1728.34660
 2042.50000   10.19980   10.55170   10.17570   -9999.25   -9999.25   -9999.25   -9999.25   -9999.25   -9999.25   -9999.25    8.69830   -9999.25   93.85500  130.90210 2017.58180    0.00630   -9999.25    9.40760 1812.31090 1730.03560
 2043.00000   10.20040   10.56480   10.16510   -9999.25   -9999.25   -9999.25   -9999.25   -9999.25   -9999.25   -9999.25    7.37240   -9999.25  123.25910  172.48560 1765.16350   -0.00430   -9999.25    7.11450 1836.84510 1731.72460
 2043.50000   10.19990   10.54780   10.16590   -9999.25   -9999.25   -9999.25   -9999.25   -9999.25   -9999.25   -9999.25    6.96890   -9999.25  152.66330  197.46150  683.46310   -0.00420   -9999.25    6.39940 1854.03010 1732.49150
 2044.00000   10.19940   10.54330   10.17430   -9999.25   -9999.25   -9999.25   -9999.25   -9999.25   -9999.25   -9999.25    8.16600   -9999.25  116.24410  183.21310  715.16890    0.00130   -9999.25    7.70370 1868.59610 1718.80350
 2044.50000   10.19900   10.53880   10.17730   -9999.25   -9999.25   -9999.25   -9999.25   -9999.25   -9999.25   -9999.25   11.79370   -9999.25   38.90140  120.74680  532.26010    0.01620   -9999.25   11.43970 1885.94660 1696.67470
 2045.00000   10.19850   10.54370   10.18030   -9999.25   -9999.25   -9999.25   -9999.25   -9999.25   -9999.25   -9999.25   15.96440   -9999.25   21.18820   58.28060   90.94220    0.04710   -9999.25   17.17030 1869.04470 1681.95650
 2045.50000   10.19820   10.53860   10.18340   -9999.25   -9999.25   -9999.25   -9999.25   -9999.25   -9999.25   -9999.25   19.08650   -9999.25   19.32810   20.61250    2.67910    0.06350   -9999.25   20.88120 1857.45910 1688.20440
 2046.00000   10.19540   10.55530   10.18070   -9999.25   -9999.25   -9999.25   -9999.25   -9999.25   -9999.25   -9999.25   20.18070   -9999.25   19.33360   23.48370 1277.94090    0.05470   -9999.25   19.60920 1857.45910 1699.23280
 2046.50000   10.17850   10.56880   10.15480   -9999.25   -9999.25   -9999.25   -9999.25   -9999.25   -9999.25   -9999.25   14.79940   -9999.25   23.35950   34.93320 1916.03890    0.02580   -9999.25   15.84600 1857.45910 1705.59010
 2047.00000   10.16150   10.56980   10.12900   -9999.25   -9999.25   -9999.25   -9999.25   -9999.25   -9999.25   -9999.25   10.70220   -9999.25   28.16760   46.38280  688.63930    0.00680   -9999.25   11.82490 1860.47820 1712.64590
 2047.50000   10.14460   10.57080   10.10320   -9999.25   -9999.25   -9999.25   -9999.25   -9999.25   -9999.25   -9999.25    9.41430   -9999.25   32.97580   57.83230  309.69540    0.00250   -9999.25   11.23660 1860.47820 1719.70170
 2048.00000   10.13160   10.57190   10.09340   -9999.25   -9999.25   -9999.25   -9999.25   -9999.25   -9999.25   -9999.25    9.65150   -9999.25   42.53100   69.28180    6.54060    0.00360   -9999.25   11.57900 1860.47820 1726.75740
 2048.50000   10.12550   10.55210   10.09420   -9999.25   -9999.25   -9999.25   -9999.25   -9999.25   -9999.25   -9999.25    9.30240   -9999.25   52.08620   80.73130  786.38460    0.00470   -9999.25    9.65360 1860.47820 1733.81320
 2049.00000   10.11930   10.55180   10.08960   -9999.25   -9999.25   -9999.25   -9999.25   -9999.25   -9999.25   -9999.25    8.90310   -9999.25   61.64140   92.18080 1761.18920   -0.00100   -9999.25    6.93730 1860.47820 1736.65280
 2049.50000   10.11310   10.56480   10.08100   -9999.25   -9999.25   -9999.25   -9999.25   -9999.25   -9999.25   -9999.25    8.81090   -9999.25   71.19660  102.28260 1993.11620   -0.00100   -9999.25    5.50730 1860.47820 1722.62800
 2050.00000   10.10690   10.56120   10.07240   -9999.25   -9999.25   -9999.25   -9999.25   -9999.25   -9999.25   -9999.25    8.56550   -9999.25   78.36660  102.31410 1973.59700    0.00210   -9999.25    5.29740 1865.08620 1708.60310
 2050.50000   10.10490   10.56410   10.06380   -9999.25   -9999.25   -9999.25   -9999.25   -9999.25   -9999.25   -9999.25    8.62960   -9999.25   76.96150   86.25240 1940.50960    0.01470   -9999.25    5.41080 1862.38110 1696.22730
 2051.00000   10.10610   10.56700   10.05520   -9999.25   -9999.25   -9999.25   -9999.25   -9999.25   -9999.25   -9999.25   10.57800   -9999.25   52.52320   70.19060 1549.93910    0.03570   -9999.25    5.52410 1859.67610 1699.78160
 2051.50000   10.09840   10.56990   10.04670   -9999.25   -9999.25   -9999.25   -9999.25   -9999.25   -9999.25   -9999.25   12.67770   -9999.25   28.08490   54.12890  957.12950    0.04810   -9999.25    5.68900 1856.97100 1703.33590
 2052.00000   10.09070   10.57280   10.03810   -9999.25   -9999.25   -9999.25   -9999.25   -9999.25   -9999.25   -9999.25   14.51900   -9999.25   13.42300   21.63620  364.31980    0.04100   -9999.25    6.61990 1854.26590 1688.19060
