~Version ---------------------------------------------------
VERS.   2.0 : CWLS log ASCII Standard -VERSION 2.0
WRAP.    NO : One line per depth step
DLM . SPACE : Column Data Section Delimiter
~Well ------------------------------------------------------
STRT .FT                145.0 : START DEPTH
STOP .FT               4376.0 : STOP DEPTH
STEP .FT                  0.5 : STEP
NULL .               -9999.25 : NULL VALUE
COMP .                        : COMPANY
WELL .                        : WELL
FLD  .                        : FIELD
LOC  .                        : LOCATION
PROV .                        : PROVINCE
CNTY .                        : COUNTY
STAT .                        : STATE
CTRY .                        : COUNTRY
SRVC .                        : SERVICE COMPANY
DATE .                        : DATE
UWI  .                        : UNIQUE WELL ID
API  .                        : API NUMBER
SLAT .WGS84 3.091432220729395 : SURFACE LATITUDE
SLON .WGS84 8.486743172162008 : SURFACE LONGITUDE
DATUM.F               3945.22 : DEPTH DATUM ELEV
~Curve Information -----------------------------------------
DEPT   .FT    : 
CAL1R  .IN    : CALIPER 1 FROM RESISTIVITY LOG
CALD   .IN    : CALIPER FROM DENSITY LOG
CALSR  .IN    : MICRO RESISTIVITY CALIPER FROM RESISTIVITY
CGRD   .GAPI  : CORRECTED GAMMA RAY FROM DENSITY LOG
DPHI_LS.DEC   : DENSITY POROSITY LIMESTONE
DRHO   .G/C3  : BULK DENSITY CORRECTION
DT     .US/F  : DELTA-T (INTERVAL TRANSIT TIME)
DTCO   .US/F  : DELTA-T COMPRESSIONAL
DTL    .US/F  : DELTA-T LONG SPACING
DTSM   .US/F  : DELTA-T SHEAR
GRR    .GAPI  : GAMMA RAY FROM RESISTIVITY LOG
GRS    .GAPI  : GAMMA RAY FROM SONIC LOG
LLD    .OHMM  : LATEROLOG DEEP RESISTIVITY
LLS    .OHMM  : LATEROLOG SHALLOW RESISTIVITY
MSFL   .OHMM  : MICRO SPHERICALLY FOCUSED RESISTIVITY
NPHI_LS.DEC   : NEUTRON POROSITY LIMESTONE
PEF    .B/E   : PHOTOELECTRIC FACTOR
SGRDD  .GAPI  : SPECTROSCOPY GAMMA RAY FROM DENSITY LOG
TEND   .LBF   : TENSION FROM DENSITY LOG
TENR   .LBF   : TENSION FROM RESISTIVITY LOG
~Params ----------------------------------------------------
~Other -----------------------------------------------------
~ASCII -----------------------------------------------------
# ...
 3942.50000    8.43100    8.33310    8.37730   15.08900   -0.01300    0.01090   47.51080   53.80780   44.53000   92.60620   41.04750   39.63590  133.31460  123.63490   77.62380    0.09100    3.07200   47.57430 2501.99580 2476.29920
 3943.00000    8.44130    8.33250    8.38380   22.86830   -0.02200    0.01050   47.12270   53.98930   46.23530   92.45450   44.95250   35.59720  117.32090  102.56190  703.05420    0.08070    3.08720   54.85530 2501.19530 2481.82810
 3943.50000    8.44760    8.33190    8.39020   24.71340   -0.03420    0.00940   47.12890   54.22410   46.61080   92.27830   45.94580   29.35690  113.69840   93.54830 1024.42740    0.07340    3.00410   56.11470 2500.39490 2483.04610
 3944.00000    8.45390    8.33130    8.39670   23.79350   -0.04480    0.00880   47.22220   54.32590   46.95210   92.06170   40.57440   23.55600  119.73210  107.57730   51.20540    0.07230    3.11490   52.05170 2499.59440 2482.77280
 3944.50000    8.46020    8.33070    8.40310   19.45960   -0.05180    0.00950   47.34860   54.16080   47.29330   91.73740   32.50840   20.24250  131.93950  121.60630  286.81920    0.07290    3.11030   40.02270 2498.79400 2469.66580
 3945.00000    8.46650    8.33010    8.40830   15.12560   -0.04380    0.00740   47.32920   53.67590   47.21470   91.25330   26.51510   19.61700  144.14690  135.63530  284.03660    0.07520    2.99220   28.51700 2497.99350 2472.32440
 3945.50000    8.47270    8.32950    8.41620   13.27790   -0.02610    0.00540   47.21620   52.90670   46.89320   90.71590   20.52180   20.74400  150.36530  138.38760   61.49650    0.08070    2.94490   22.06620 2505.61170 2473.81760
 3946.00000    8.47900    8.32890    8.42400   13.08760   -0.01380    0.00480   46.70080   52.01250   46.59080   90.01880   17.54950   23.54740  142.99040  115.28340  121.22630    0.08500    2.96240   22.75100 2515.33440 2470.45490
 3946.50000    8.48410    8.32870    8.43190   13.00400   -0.00840    0.00440   46.13610   51.90120   46.28840   89.26880   19.97770   26.34400  136.99810   91.33520   78.99140    0.08920    3.04440   23.80660 2525.05720 2473.12250
 3947.00000    8.48410    8.32870    8.43980   13.14740   -0.01910    0.00450   45.81520   52.15200   45.98590   88.51770   23.93640   27.55950  143.08200  106.72020   69.87940    0.08190    2.96540   26.75670 2530.75910 2475.79000
 3947.50000    8.48260    8.32870    8.44760   12.99160   -0.03590    0.00490   45.65660   52.37090   45.68210   88.56730   28.14720   27.11420  150.70350  163.04550  501.56370    0.07070    2.94270   32.81920 2510.47290 2478.45760
 3948.00000    8.47910    8.32870    8.45180   12.61830   -0.04780    0.00370   45.39870   51.63260   45.37280   88.51010   33.80820   26.61230  158.32490  165.25030  414.32840    0.06190    2.98900   38.20670 2476.95510 2481.12510
 3948.50000    8.47560    8.32870    8.45370   11.06130   -0.05320    0.00300   45.11600   51.40170   45.14760   88.07930   33.69730   26.57650  170.37310  169.01370  135.82210    0.05110    3.06940   40.68310 2443.43740 2483.79260
 3949.00000    8.47340    8.32870    8.45550    9.50440   -0.05690    0.00250   45.30930   52.16420   45.26910   88.50230   31.40240   26.67560  200.12820  178.52690   80.09990    0.04730    3.13120   38.18340 2443.04330 2486.46020
 3949.50000    8.47320    8.32870    8.45730    8.63000   -0.06060    0.00450   45.85760   52.85270   45.86210   89.24470   29.11540   25.97250  229.88330  196.82580  408.29390    0.04550    3.09850   36.14280 2457.12140 2484.84580
 3950.00000    8.47280    8.32870    8.45910    7.74330   -0.05980    0.00650   46.74630   53.29960   46.45500   89.86630   27.66260   24.67920  259.63840  214.43300  819.46300    0.05130    3.04420   34.10230 2480.80570 2476.80870
 3950.50000    8.47250    8.32870    8.46090    6.67760   -0.05470    0.00850   47.50920   53.38380   47.04790   90.55100   27.53580   23.84820  277.48330  210.50530  657.82590    0.06050    2.99000   32.06170 2504.48990 2468.77150
 3951.00000    8.47210    8.32870    8.45790    5.67240   -0.04720    0.00890   47.76910   53.41560   47.64090   90.87420   27.76620   23.83850  253.60190  192.01010  184.98800    0.07510    2.93570   30.29870 2472.59390 2459.33420
 3951.50000    8.47170    8.32650    8.44760    4.66720   -0.02540    0.00850   47.84100   53.08390   47.72090   90.93220   27.13950   24.55000  200.28720  168.89430  257.67660    0.08980    2.93320   27.83660 2473.55070 2447.79680
 3952.00000    8.47130    8.32650    8.43730    4.11120   -0.00870    0.00710   47.37860   52.78150   47.48630   90.93610   26.55140   25.21310  146.97250  145.77850  264.87440    0.10090    3.01230   25.78110 2474.50740 2436.25930
 3952.50000    8.47090    8.32650    8.42670    6.10950    0.00120    0.00570   46.98560   52.47910   46.91330   90.69120   27.51910   24.74950  146.96570  136.52850  163.17870    0.10420    3.09290   27.44380 2475.46420 2416.56820
 3953.00000    8.47060    8.32650    8.41550    8.75380   -0.00640    0.00600   46.61010   52.20940   46.34020   90.45070   29.73420   23.58500  222.86930  141.64370  416.57360    0.09870    3.09500   29.58700 2497.79700 2433.40400
 3953.50000    8.46820    8.32650    8.40420    8.65770   -0.01940    0.00750   46.26490   52.07580   45.82640   90.04180   29.95770   22.21440  298.77300  226.46080  623.41570    0.08400    2.97100   30.14440 2496.50900 2464.36740
 3954.00000    8.46440    8.32650    8.39300    7.84100   -0.03110    0.00760   46.10990   52.11240   45.54960   89.56560   27.42420   23.01730  374.67660  324.14320  494.24070    0.07830    2.90900   28.16210 2500.29870 2495.33070
 3954.50000    8.46070    8.32650    8.38180    7.11850   -0.03460    0.00670   45.71310   52.77560   45.27280   89.56960   24.71230   24.46670  439.41780  389.85130  404.38040    0.07490    2.86060   25.61270 2504.96180 2495.33070
 3955.00000    8.44000    8.32650    8.37060    7.35150   -0.03490    0.00580   45.42580   53.50890   45.16210   90.10690   22.36110   25.79090  443.44870  382.70660  934.39800    0.07040    2.91470   24.48490 2507.48740 2495.33070
 3955.50000    8.41930    8.32650    8.35940    8.06550   -0.03640    0.00380   45.95970   52.55390   45.80750   91.03040   23.49410   25.79020  427.37140  334.01950  365.37060    0.06250    3.05530   24.70120 2507.28890 2477.98930
 3956.00000    8.39870    8.32650    8.34810    9.57430   -0.03900    0.00160   47.31690   53.19930   46.92120   92.16760   26.32050   25.25360  406.00140  285.33230  361.99230    0.05520    3.09660   26.06170 2507.09030 2444.72780
 3956.50000    8.37800    8.32650    8.32790   10.39650   -0.03870    0.00020   48.67420   53.41750   48.03500   93.18480   28.22860   24.16510  355.85000  236.64520  900.41940    0.06320    3.11510   27.04540 2506.89170 2392.23120
 3957.00000    8.36150    8.32650    8.30170   10.66160   -0.02790   -0.00200   49.87570   53.42260   49.14870   94.12190   28.38600   23.09470  299.83630  187.95810 1775.19320    0.07290    3.15380   28.02080 2491.16320 2365.36070
 3957.50000    8.36720    8.32460    8.30740    9.96840   -0.00760   -0.00280   50.32600   53.77940   50.07970   95.13360   26.87750   21.72430  243.82260  132.82280 1420.86100    0.08380    3.13600   27.18830 2471.55220 2399.45790
 3958.00000    8.41540    8.32460    8.34870    8.84920    0.00720    0.00200   50.37360   54.33840   49.99240   95.90750   25.00970   22.14990  187.80900   76.07550   52.87470    0.09650    3.11090   25.04160 2462.46920 2442.10460
 3958.50000    8.42630    8.32460    8.38240    8.34480    0.01330    0.00440   50.23870   53.70440   49.88340   96.69370   22.53000   24.47690  131.79530   52.88740   51.91020    0.10810    3.08400   22.64960 2440.78770 2484.75120
 3959.00000    8.42400    8.32460    8.38810    8.96340    0.00880    0.00750   50.09420   54.40240   49.58280   97.01770   21.38100   27.70010   75.78160   51.02870   78.53940    0.11670    3.10050   24.25490 2447.95860 2480.41070
 3959.50000    8.42120    8.32460    8.38540   11.35200    0.00010    0.01060   49.72660   53.34120   49.20010   97.02160   22.58560   28.72860   52.40270   46.38210   52.56490    0.12070    3.12410   27.85510 2457.33410 2470.35990
