~Version ---------------------------------------------------
VERS.   2.0 : CWLS log ASCII Standard -VERSION 2.0
WRAP.    NO : One line per depth step
DLM . SPACE : Column Data Section Delimiter
~Well ------------------------------------------------------
STRT .FT                145.0 : START DEPTH
STOP .FT               4376.0 : STOP DEPTH
STEP .FT                  0.5 : STEP
NULL .               -9999.25 : NULL VALUE
COMP .                        : COMPANY
WELL .                        : WELL
FLD  .                        : FIELD
LOC  .                        : LOCATION
PROV .                        : PROVINCE
CNTY .                        : COUNTY
STAT .                        : STATE
CTRY .                        : COUNTRY
SRVC .                        : SERVICE COMPANY
DATE .                        : DATE
UWI  .                        : UNIQUE WELL ID
API  .                        : API NUMBER
SLAT .WGS84 3.091432220729395 : SURFACE LATITUDE
SLON .WGS84 8.486743172162008 : SURFACE LONGITUDE
DATUM.F               3945.22 : DEPTH DATUM ELEV
~Curve Information -----------------------------------------
DEPT   .FT    : 
CAL1R  .IN    : CALIPER 1 FROM RESISTIVITY LOG
CALD   .IN    : CALIPER FROM DENSITY LOG
CALSR  .IN    : MICRO RESISTIVITY CALIPER FROM RESISTIVITY
CGRD   .GAPI  : CORRECTED GAMMA RAY FROM DENSITY LOG
DPHI_LS.DEC   : DENSITY POROSITY LIMESTONE
DRHO   .G/C3  : BULK DENSITY CORRECTION
DT     .US/F  : DELTA-T (INTERVAL TRANSIT TIME)
DTCO   .US/F  : DELTA-T COMPRESSIONAL
DTL    .US/F  : DELTA-T LONG SPACING
DTSM   .US/F  : DELTA-T SHEAR
GRR    .GAPI  : GAMMA RAY FROM RESISTIVITY LOG
GRS    .GAPI  : GAMMA RAY FROM SONIC LOG
LLD    .OHMM  : LATEROLOG DEEP RESISTIVITY
LLS    .OHMM  : LATEROLOG SHALLOW RESISTIVITY
MSFL   .OHMM  : MICRO SPHERICALLY FOCUSED RESISTIVITY
NPHI_LS.DEC   : NEUTRON POROSITY LIMESTONE
PEF    .B/E   : PHOTOELECTRIC FACTOR
SGRDD  .GAPI  : SPECTROSCOPY GAMMA RAY FROM DENSITY LOG
TEND   .LBF   : TENSION FROM DENSITY LOG
TENR   .LBF   : TENSION FROM RESISTIVITY LOG
~Params ----------------------------------------------------
~Other -----------------------------------------------------
~ASCII -----------------------------------------------------
# ...
 3067.50000   -9999.25   10.92210   -9999.25   -9999.25   -9999.25   -9999.25  133.73040   66.38940    3.43340  103.73840   -9999.25   24.50830   -9999.25   -9999.25   -9999.25    0.00440   -9999.25   16.69410 2152.27990   -9999.25
 3068.00000   10.72450   10.90070   10.68360   -9999.25   -9999.25   -9999.25  149.11030   65.58170    1.20640  103.84360   17.90100   26.38740  382.61840  567.63690   95.34350    0.00860   -9999.25   19.99950 2133.11040 2061.99420
 3068.50000   10.70650   10.86350   10.67310   -9999.25   -9999.25   -9999.25  148.76500   64.02750   -4.51990  103.53300   20.91920   27.01060  231.50380  365.54510  141.13830    0.01070   -9999.25   23.72490 2121.90420 2061.99420
 3069.00000   10.68400   10.83170   10.65570   -9999.25   -9999.25   -9999.25  147.24500   62.38040   -9.21220  103.04070   23.08460   27.18180   80.38920  163.45330   19.52620    0.01380   -9999.25   26.08760 2122.64270 2063.91170
 3069.50000   10.64920   10.80000   10.62150   -9999.25   -9999.25   -9999.25  143.62550   60.56890  -10.48070  102.88190   24.86050   27.74880   80.30410   85.61980   24.31710    0.01500   -9999.25   27.09660 2145.49840 2070.45050
 3070.00000   10.59590   10.76820   10.56220   -9999.25   -9999.25   -9999.25  137.54670   59.91820  -10.44040  102.75400   25.52260   28.28380   83.15810   96.95980   47.71100    0.01300   -9999.25   27.08540 2161.50320 2076.98930
 3070.50000   10.54270   10.75180   10.50290   -9999.25   -9999.25   -9999.25  128.32000   58.27690   -7.52440  102.43340   25.71510   28.00450   93.99390  108.29970   54.35880    0.01100   -9999.25   26.97650 2168.09180 2083.52820
 3071.00000   10.48620   10.71140   10.43870   -9999.25   -9999.25   -9999.25  120.12720   56.88360   -3.51140  101.73340   26.74210   25.41970  104.82980  113.88410  296.24480    0.00900   -9999.25   27.48250 2166.93250 2090.06700
 3071.50000   10.42970   10.65750   10.37990   -9999.25   -9999.25   -9999.25  118.17280   55.92910    2.07580  100.99210   27.99310   22.05600  105.80690  116.00830  422.18330    0.00630   -9999.25   27.36400 2169.25110 2096.60580
 3072.00000   10.37320   10.60350   10.32110   -9999.25   -9999.25   -9999.25  116.94810   56.36090   -0.47640  100.13850   29.18810   18.82400  111.82420  150.07630   68.65220    0.00370   -9999.25   25.91510 2167.14140 2103.14460
 3072.50000   10.31670   10.54960   10.26410   -9999.25   -9999.25   -9999.25  115.41320   56.72900   -9.64480   99.33850   27.26370   17.19120  161.54400  203.25830  118.31770    0.00040   -9999.25   24.36480 2147.80190 2109.68340
 3073.00000   10.26020   10.50960   10.20970   -9999.25   -9999.25   -9999.25  114.70480   57.32890  -18.81320   98.59170   23.20370   16.24120  211.26380  256.44030  201.08870   -0.00200   -9999.25   22.59880 2146.02200 2111.65540
 3073.50000   10.20370   10.45160   10.15540   -9999.25   -9999.25   -9999.25  114.96350   57.62120  -14.70980   98.21790   17.89840   16.34490  260.98350  309.62230 1047.04200   -0.00460   -9999.25   17.62620 2158.97780 2106.84250
 3074.00000   10.14720   10.36700   10.10100   -9999.25   -9999.25   -9999.25  115.45650   59.97740   -8.13710   99.39050   12.09610   16.70610  310.70330  362.80430  570.36970   -0.00700   -9999.25   12.03530 2171.93360 2102.02950
 3074.50000   10.08300   10.33200   10.04660   -9999.25   -9999.25   -9999.25  116.03860   61.99170   -1.45700   99.28340   10.35680   16.36780  313.59050  398.36950 1945.89200   -0.00820   -9999.25    9.67180 2164.97170 2097.21660
 3075.00000   10.03880   10.29280    9.99230   -9999.25   -9999.25   -9999.25  116.30850   61.95130    2.94050   98.32310    8.96660   15.19810  291.49360  383.98540 1626.12590   -0.00820   -9999.25    8.75950 2165.32350 2092.40370
 3075.50000    9.99460   10.25100    9.94220   -9999.25   -9999.25   -9999.25  116.11230   60.19770    7.90390   97.57600    9.19830   13.98400  286.04380  373.54380  204.74300   -0.00830   -9999.25    8.61580 2163.27160 2087.59070
 3076.00000    9.91030   10.21600    9.88520   -9999.25   -9999.25   -9999.25  115.96220   59.14570   14.21910   97.36220    9.58560   14.00790  546.63310  373.55870  213.73930   -0.00880   -9999.25    8.30270 2153.45270 2082.77780
 3076.50000    9.87050   10.21330    9.82820   -9999.25   -9999.25   -9999.25  115.99440   59.64680    6.66950   97.48770    9.84680   14.94210 1157.48780  573.43490 1933.98940   -0.00960   -9999.25    7.96030 2144.44340 2077.96480
 3077.00000    9.81170   10.21070    9.77120    8.70220   -9999.25   -9999.25  116.27900   60.51360   -9.10980   97.80240    9.91900   15.49910 1768.34250  900.79530 1949.28660   -0.01030   -9999.25    7.61790 2146.89290 2073.15190
 3077.50000    9.75280   10.20800    9.71420    8.33330   -9999.25   -9999.25  116.72490   61.10440   -8.98070   98.05390    9.80610   16.14970 2031.29110 1228.15570 1954.93500   -0.01000   -9999.25    7.27550 2155.14720 2068.33890
 3078.00000    9.70800   10.20770    9.66390    8.33330   -9999.25   -9999.25  116.90500   61.17180   -2.55860   97.14690   10.14390   17.50120 2050.06850 1555.51610 1960.58330   -0.00920   -9999.25    6.89400 2162.81250 2063.52600
 3078.50000    9.63100   10.20890    9.61790    8.41400   -9999.25   -9999.25  117.18740   61.85390   12.01830   96.34650   10.28630   19.78560 1834.51800 1584.41820 1966.23160   -0.00830   -9999.25    7.00160 2168.50890 2058.71310
 3079.00000    9.59020   10.21020    9.57190    9.22110   -9999.25   -9999.25  117.96340   62.94220   16.63470   97.20680   11.14290   22.81120 1537.57510 1371.01250 1971.88000   -0.00690   -9999.25    9.12800 2156.18540 2053.90010
 3079.50000    9.54640   10.21140    9.52590   10.27030   -9999.25   -9999.25  118.84130   62.69830   15.05140   98.42520   13.19950   28.52260 1211.04890 1122.39390 1977.52830   -0.00390   -9999.25   11.51690 2143.86180 2056.04570
 3080.00000    9.50260   10.20020    9.47990   12.20740   -9999.25   -9999.25  119.35250   62.13900   11.50850   98.37140   15.63830   34.70990  864.80060  873.77540 1982.04700   -0.00160   -9999.25   14.37090 2131.20050 2059.93090
 3080.50000    9.47430   10.18900    9.45880   14.95150   -9999.25   -9999.25  118.63490   60.97880    9.87980   96.44360   24.75010   39.35560  518.55220  625.15680 1350.48290    0.00570   -9999.25   19.56500 2103.61610 2063.81620
 3081.00000    9.47730   10.19690    9.44380   21.46210   -9999.25   -9999.25  116.65590   60.28120    7.34940   94.64830   34.34690   38.59540  172.30390  376.53820  318.08710    0.01460   -9999.25   28.69340 2069.26800 2067.70140
 3081.50000    9.48030   10.19540    9.44360   28.99510   -9999.25   -9999.25  113.59730   59.45640    4.21790   93.63460   39.11280   35.45180   69.38050  127.91960   47.40210    0.03090   -9999.25   37.98560 2052.18760 2071.58660
 3082.00000    9.48340   10.19350    9.43810   35.04840   -9999.25   -9999.25  111.81710   58.68910    1.08640   92.71700   43.87880   32.09420   69.38050   78.91870   71.55320    0.03690   -9999.25   46.78130 2094.94050 2075.47190
 3082.50000    9.48640   10.19160    9.45270   36.25900   -9999.25   -9999.25  111.62660   58.02880   -0.69310   92.02320   44.11480   29.77430   95.27190  144.60310  270.63150    0.03420   -9999.25   49.07850 2177.24430 2096.15250
 3083.00000    9.48940   10.18980    9.46720   34.48340   -9999.25   -9999.25  112.02530   57.52890   -1.57130   91.86300   41.92740   30.48310  201.65000  210.28750  779.38850    0.02400   -9999.25   46.69750 2181.51910 2106.11480
 3083.50000    9.49240   10.18790    9.48180   32.07380   -9999.25   -9999.25  112.51330   57.32890   -1.65160   92.02220   39.29290   33.03840  308.02820  275.97190 1363.35360    0.01820   -9999.25   42.53290 2200.41420 2106.50620
 3084.00000    9.52940   10.20830    9.49040   28.14940   -9999.25   -9999.25  113.28940   58.07230   -1.41070   93.39040   36.92610   34.66760  409.70060  328.51940 1898.73630    0.01340   -9999.25   38.64000 2221.55390 2102.53150
 3084.50000    9.56700   10.22980    9.50710   29.18010   -9999.25   -9999.25  116.28100   59.91220   17.51690   96.60380   35.63050   36.78420  417.30980  331.55610 1429.73750    0.01140   -9999.25   38.31710 2211.46510 2108.90740
