~Version ---------------------------------------------------
VERS.   2.0 : CWLS log ASCII Standard -VERSION 2.0
WRAP.    NO : One line per depth step
DLM . SPACE : Column Data Section Delimiter
~Well ------------------------------------------------------
STRT .FT                145.0 : START DEPTH
STOP .FT               4376.0 : STOP DEPTH
STEP .FT                  0.5 : STEP
NULL .               -9999.25 : NULL VALUE
COMP .                        : COMPANY
WELL .                        : WELL
FLD  .                        : FIELD
LOC  .                        : LOCATION
PROV .                        : PROVINCE
CNTY .                        : COUNTY
STAT .                        : STATE
CTRY .                        : COUNTRY
SRVC .                        : SERVICE COMPANY
DATE .                        : DATE
UWI  .                        : UNIQUE WELL ID
API  .                        : API NUMBER
SLAT .WGS84 3.091432220729395 : SURFACE LATITUDE
SLON .WGS84 8.486743172162008 : SURFACE LONGITUDE
DATUM.F               3945.22 : DEPTH DATUM ELEV
~Curve Information -----------------------------------------
DEPT   .FT    : 
CAL1R  .IN    : CALIPER 1 FROM RESISTIVITY LOG
CALD   .IN    : CALIPER FROM DENSITY LOG
CALSR  .IN    : MICRO RESISTIVITY CALIPER FROM RESISTIVITY
CGRD   .GAPI  : CORRECTED GAMMA RAY FROM DENSITY LOG
DPHI_LS.DEC   : DENSITY POROSITY LIMESTONE
DRHO   .G/C3  : BULK DENSITY CORRECTION
DT     .US/F  : DELTA-T (INTERVAL TRANSIT TIME)
DTCO   .US/F  : DELTA-T COMPRESSIONAL
DTL    .US/F  : DELTA-T LONG SPACING
DTSM   .US/F  : DELTA-T SHEAR
GRR    .GAPI  : GAMMA RAY FROM RESISTIVITY LOG
GRS    .GAPI  : GAMMA RAY FROM SONIC LOG
LLD    .OHMM  : LATEROLOG DEEP RESISTIVITY
LLS    .OHMM  : LATEROLOG SHALLOW RESISTIVITY
MSFL   .OHMM  : MICRO SPHERICALLY FOCUSED RESISTIVITY
NPHI_LS.DEC   : NEUTRON POROSITY LIMESTONE
PEF    .B/E   : PHOTOELECTRIC FACTOR
SGRDD  .GAPI  : SPECTROSCOPY GAMMA RAY FROM DENSITY LOG
TEND   .LBF   : TENSION FROM DENSITY LOG
TENR   .LBF   : TENSION FROM RESISTIVITY LOG
~Params ----------------------------------------------------
~Other -----------------------------------------------------
~ASCII -----------------------------------------------------
# ...
 3697.50000    8.29180    8.31520    8.26120   25.73060   -0.03860    0.01110   45.36340   51.22880   44.63060   85.47400   56.97310   35.75180   75.65650   23.18360  184.03560    0.08270    3.25350   61.15850 2368.42920 2359.73510
 3698.00000    8.29180    8.31970    8.26500   16.43920   -0.06400    0.01330   45.00900   51.66630   44.51070   85.84730   50.89110   35.02580  149.66150   72.14700  119.09080    0.04270    3.29270   51.35910 2374.71850 2354.35600
 3698.50000    8.29180    8.32420    8.26910   15.36100   -0.07720    0.01210   45.12310   52.22860   44.72870   86.78050   45.99600   36.44360  194.08220  131.77070  113.17040    0.01730    3.30020   49.65860 2381.00790 2359.68860
 3699.00000    8.29860    8.32870    8.27040   16.01120   -0.07760    0.00830   45.06730   51.51670   44.94680   87.39370   46.98590   37.53910  179.46200  161.47970  149.97880    0.01690    3.26100   50.63690 2387.29730 2367.19760
 3699.50000    8.30090    8.33310    8.27160   16.84080   -0.07430    0.00440   45.02770   50.33010   44.99040   84.98070   48.61550   37.26180  151.69810  132.10690  151.40040    0.02030    3.22180   51.95080 2393.58660 2376.15750
 3700.00000    8.30290    8.33440    8.27290   17.50410   -0.07500    0.00050   44.96270   50.29940   44.83050   83.98090   49.71410   35.62340  123.93420   85.59440   50.66740    0.02210    3.18030   53.68580 2399.87600 2326.13110
 3700.50000    8.30490    8.33570    8.27420   15.60830   -0.07600   -0.00070   44.76890   51.86580   44.67050   85.66950   48.26950   33.15500  112.83330   84.04420   56.27980    0.02400    3.14370   52.60510 2380.56100 2298.31920
 3701.00000    8.30690    8.33700    8.27650   11.57930   -0.07840    0.00060   44.94730   52.38570   44.87700   86.64720   46.66220   34.70050  132.90470   88.89790  163.03180    0.02270    3.13870   43.81950 2361.24590 2298.18080
 3701.50000    8.30890    8.33830    8.27870    7.55040   -0.08100    0.00260   45.46360   51.55030   45.51010   87.07380   47.40780   38.14270  156.68760  116.99160  100.16490    0.01910    3.19970   41.15010 2347.38970 2303.50600
 3702.00000    8.31090    8.33960    8.28100    9.49560   -0.08030    0.00470   46.49200   50.33570   46.14310   87.94830   51.01890   43.86770  180.47040  140.75810  130.52540    0.01830    3.29110   47.06960 2355.36830 2293.62370
 3702.50000    8.31300    8.34090    8.28330   14.35040   -0.07880    0.00680   47.52040   50.30600   46.77610   89.38810   55.84740   45.58780  170.89130  135.67840  204.83180    0.02040    3.28760   53.37990 2363.34690 2288.16570
 3703.00000    8.31100    8.34220    8.28510   19.20520   -0.07650    0.00880   47.70700   51.69250   47.10920   90.53990   61.88370   41.62610  131.22240   95.58580  103.79190    0.02480    3.25570   64.32110 2371.32550 2282.70780
 3703.50000    8.30910    8.34350    8.28260   24.05990   -0.07250    0.01050   47.10520   51.31880   46.57500   89.79330   65.40820   35.68120   91.55360   32.88390   22.96050    0.03190    3.26120   71.03250 2372.17200 2277.24980
 3704.00000    8.30720    8.34470    8.28000   26.00390   -0.06850    0.01080   46.02080   50.47840   45.53910   88.65410   61.24820   29.73640   59.27240   32.58590   15.60070    0.04280    3.28380   65.45410 2362.32040 2278.11030
 3704.50000    8.30520    8.34600    8.27740   20.51390   -0.06810    0.01110   45.33270   50.30630   44.71040   87.51490   51.77660   25.62020   88.40460   38.45740   60.14920    0.03980    3.24990   50.97000 2384.18870 2283.18300
 3705.00000    8.30330    8.34730    8.27480   14.41820   -0.07320    0.01290   45.06610   50.20920   44.75040   86.75380   40.99000   24.60980  137.86000   60.12880  170.79330    0.02730    3.17790   40.14940 2383.00370 2292.29200
 3705.50000    8.30140    8.34860    8.27230    8.32260   -0.07790    0.01470   45.38120   50.11210   45.19020   87.32260   34.13870   25.97830  187.31550  125.41810  110.82710    0.02020    3.16450   32.94320 2381.81860 2317.54630
 3706.00000    8.29940    8.34950    8.26970    8.03450   -0.08110    0.01530   45.87260   49.18620   45.59000   88.56690   30.68320   28.37110  187.32610  164.67970  161.63700    0.01660    3.21820   33.65250 2380.63350 2337.21030
 3706.50000    8.29750    8.36310    8.26710    9.32690   -0.08490    0.01660   46.03080   49.74400   45.55000   89.81110   32.65680   30.82500  189.06860  142.44740  133.35920    0.01820    3.21970   37.40880 2379.44840 2352.24910
 3707.00000    8.29560    8.37540    8.27040   12.00850   -0.08900    0.01810   45.64080   50.76250   45.03030   90.27330   35.18940   31.16620  128.46660  105.38370   66.35190    0.02000    3.20920   41.85120 2378.26340 2354.37750
 3707.50000    8.29360    8.38770    8.27410   14.05130   -0.09110    0.01820   45.09720   50.25180   44.43060   88.47090   37.72190   28.02860  126.13210   88.50350   56.12550    0.02150    3.24750   43.90060 2378.36110 2356.50580
 3708.00000    8.29730    8.40000    8.27780   11.66920   -0.09010    0.01540   44.56360   48.08210   43.83090   85.83130   36.41120   25.09260  205.90260   86.49620   67.45090    0.01830    3.26740   39.96930 2380.38310 2347.04210
 3708.50000    8.30240    8.38650    8.28150    7.69620   -0.09210    0.01230   44.33570   47.22940   43.39110   84.08750   32.69980   22.85430  305.61360  120.81790  247.45580    0.01550    3.18960   33.24370 2382.40500 2334.68030
 3709.00000    8.30750    8.38630    8.28510    5.12190   -0.09470    0.00920   44.64830   47.11340   43.48310   84.30080   28.98740   26.16400  405.32460  250.71220  322.41930    0.01240    3.07290   28.59160 2384.42700 2322.31860
 3709.50000    8.31250    8.38610    8.28880    5.01110   -0.09410    0.00610   45.31830   46.66120   44.14280   88.86550   27.55630   32.36550  505.03570  380.60650  334.52190    0.00930    3.10740   28.48160 2386.44890 2319.92370
 3710.00000    8.31760    8.38590    8.29250    7.93450   -0.08850    0.00270   46.72160   47.20560   45.51510   91.98700   37.78640   46.91510  549.97700  345.54280  549.84050    0.00860    3.20800   36.26100 2388.47090 2320.02060
 3710.50000    8.32270    8.38570    8.29700   13.31210   -0.08470    0.00020   50.49410   48.84550   49.73800   94.66250   47.67420   58.13540  516.38900  272.38160  503.75280    0.00970    3.29180   47.94960 2390.49290 2320.11750
 3711.00000    8.32780    8.38550    8.30150   18.68960   -0.07560    0.00080   54.68990   53.48440   53.96090  103.31310   63.79730   69.99630  422.87930  199.22040  322.99830    0.01500    3.30790   60.46650 2392.51480 2320.21440
 3711.50000    8.33220    8.38530    8.30600   30.18890   -0.05790    0.00180   60.03270   59.26020   58.18380  110.80190   77.18400   74.30250  329.36960  126.05920  142.24380    0.03380    3.32110   80.60020 2394.53680 2320.31130
 3712.00000    8.34300    8.38510    8.31040   43.99680   -0.02420    0.00280   64.57710   63.80590   62.40680  113.31040   89.40150   74.17110  235.86000   52.89810   67.99430    0.06140    3.29830  100.62710 2396.55870 2316.76430
 3712.50000    8.35380    8.38490    8.31490   50.71430    0.01120    0.00380   65.89600   64.73920   65.06040  109.71590   99.44080   69.29920  142.35030    9.00170    9.33700    0.08910    3.23680  109.98310 2398.58070 2286.34580
 3713.00000    8.36460    8.38470    8.31940   53.39820    0.03290    0.00480   63.40110   61.56270   58.53370  105.13740   95.30670   58.85240   48.84060    8.92010    8.16570    0.12940    3.06870  109.72970 2400.60260 2341.44250
 3713.50000    8.37540    8.38560    8.32390   50.30310    0.04350    0.00470   56.25350   56.97200   43.01640   99.64890   88.32820   42.51850   11.43750    9.87990    5.52680    0.15890    2.89160  103.69760 2402.62460 2341.66160
 3714.00000    8.38530    8.38660    8.32690   46.62730    0.03200    0.00430   52.39200   53.52780   39.11710   95.16670   81.34960   29.89150   11.75860   11.86390   56.58280    0.16120    2.81490   94.23040 2404.64650 2334.82010
 3714.50000    8.39510    8.38760    8.33200   41.24400   -0.00300    0.00350   49.19500   50.92850   40.07660   91.32930   60.48110   21.25180   83.23710   49.62290  141.59050    0.12430    2.79950   74.95170 2406.66850 2327.97860
