~Version ---------------------------------------------------
VERS.   2.0 : CWLS log ASCII Standard -VERSION 2.0
WRAP.    NO : One line per depth step
DLM . SPACE : Column Data Section Delimiter
~Well ------------------------------------------------------
STRT .FT                145.0 : START DEPTH
STOP .FT               4376.0 : STOP DEPTH
STEP .FT                  0.5 : STEP
NULL .               -9999.25 : NULL VALUE
COMP .                        : COMPANY
WELL .                        : WELL
FLD  .                        : FIELD
LOC  .                        : LOCATION
PROV .                        : PROVINCE
CNTY .                        : COUNTY
STAT .                        : STATE
CTRY .                        : COUNTRY
SRVC .                        : SERVICE COMPANY
DATE .                        : DATE
UWI  .                        : UNIQUE WELL ID
API  .                        : API NUMBER
SLAT .WGS84 3.091432220729395 : SURFACE LATITUDE
SLON .WGS84 8.486743172162008 : SURFACE LONGITUDE
DATUM.F               3945.22 : DEPTH DATUM ELEV
~Curve Information -----------------------------------------
DEPT   .FT    : 
CAL1R  .IN    : CALIPER 1 FROM RESISTIVITY LOG
CALD   .IN    : CALIPER FROM DENSITY LOG
CALSR  .IN    : MICRO RESISTIVITY CALIPER FROM RESISTIVITY
CGRD   .GAPI  : CORRECTED GAMMA RAY FROM DENSITY LOG
DPHI_LS.DEC   : DENSITY POROSITY LIMESTONE
DRHO   .G/C3  : BULK DENSITY CORRECTION
DT     .US/F  : DELTA-T (INTERVAL TRANSIT TIME)
DTCO   .US/F  : DELTA-T COMPRESSIONAL
DTL    .US/F  : DELTA-T LONG SPACING
DTSM   .US/F  : DELTA-T SHEAR
GRR    .GAPI  : GAMMA RAY FROM RESISTIVITY LOG
GRS    .GAPI  : GAMMA RAY FROM SONIC LOG
LLD    .OHMM  : LATEROLOG DEEP RESISTIVITY
LLS    .OHMM  : LATEROLOG SHALLOW RESISTIVITY
MSFL   .OHMM  : MICRO SPHERICALLY FOCUSED RESISTIVITY
NPHI_LS.DEC   : NEUTRON POROSITY LIMESTONE
PEF    .B/E   : PHOTOELECTRIC FACTOR
SGRDD  .GAPI  : SPECTROSCOPY GAMMA RAY FROM DENSITY LOG
TEND   .LBF   : TENSION FROM DENSITY LOG
TENR   .LBF   : TENSION FROM RESISTIVITY LOG
~Params ----------------------------------------------------
~Other -----------------------------------------------------
~ASCII -----------------------------------------------------
# ...
 4327.50000    7.89020    7.93510    7.87000    6.07180    0.00780    0.01610   -9999.25   -9999.25   -9999.25   -9999.25   23.42790   -9999.25   52.22360   47.70780  105.24770    0.12420    3.31150   27.83010 2623.15000 2524.05620
 4328.00000    7.89320    7.93740    7.87000    6.70900    0.00780    0.01720   -9999.25   -9999.25   -9999.25   -9999.25   25.47760   -9999.25   37.25490   47.27960   13.27440    0.11830    3.18160   29.55370 2592.76870 2520.05930
 4328.50000    7.89620    7.92830    7.87000    7.34630   -0.00620    0.01860   -9999.25   -9999.25   -9999.25   -9999.25   27.09510   -9999.25   34.26500   47.28840   49.97330    0.11200    3.11950   31.42840 2564.03740 2516.06240
 4329.00000    7.89860    7.90480    7.87000    8.62060   -0.02350    0.01860   -9999.25   -9999.25   -9999.25   -9999.25   28.63700   -9999.25   35.31400   48.65330   87.60510    0.11100    3.22890   34.25640 2552.75460 2512.06550
 4329.50000    7.89880    7.89550    7.87000    9.59210   -0.03100    0.01860   -9999.25   -9999.25   -9999.25   -9999.25   31.27740   -9999.25   38.94350   50.01820   26.97700    0.12010    3.39020   37.18420 2553.32960 2508.06860
 4330.00000    7.90280    7.89550    7.87000    8.74990   -0.03490    0.01670   -9999.25   -9999.25   -9999.25   -9999.25   34.70320   -9999.25   42.57310   51.38310   33.74730    0.12780    3.46500   38.22130 2553.90460 2511.73080
 4330.50000    7.90670    7.89800    7.87000    8.50190   -0.03480    0.01450   -9999.25   -9999.25   -9999.25   -9999.25   -9999.25   -9999.25   46.20260   52.74790   42.20900    0.12550    3.39350   37.36800 2554.47960 2517.30780
 4331.00000    7.91070    7.89800    7.87240    8.90440   -0.03470    0.01270   -9999.25   -9999.25   -9999.25   -9999.25   -9999.25   -9999.25   49.33420   53.84190   50.67070    0.12170    3.32260   38.24500 2551.79640 2522.88480
 4331.50000    7.91460    7.89030    7.87390    9.78610   -0.03220    0.01340   -9999.25   -9999.25   -9999.25   -9999.25   -9999.25   -9999.25   50.02790   53.35860   53.34390    0.11860    3.33820   39.97280 2549.11320 2528.46170
 4332.00000    7.91850    7.88720    7.86920   11.86590   -0.02870    0.01410   -9999.25   -9999.25   -9999.25   -9999.25   -9999.25   -9999.25   47.79870   50.97490   46.87360    0.12020    3.40530   42.57970 2546.43000 2534.03870
 4332.50000    7.92250    7.88920    7.86450   13.48730   -0.02550    0.01780   -9999.25   -9999.25   -9999.25   -9999.25   -9999.25   -9999.25   46.49390   49.58760   33.11570    0.12420    3.45100   44.39060 2570.82640 2539.61560
 4333.00000    7.92640    7.89160    7.86280   14.42860   -0.02860    0.02400   -9999.25   -9999.25   -9999.25   -9999.25   -9999.25   -9999.25   46.50260   49.59690   30.65450    0.12760    3.40970   45.92410 2601.99280 2545.19260
 4333.50000    7.92740    7.89410    7.84940   13.50110   -0.03530    0.03470   -9999.25   -9999.25   -9999.25   -9999.25   -9999.25   -9999.25   46.94130   55.23900   59.61840    0.12350    3.34350   45.03630 2633.15910 2550.76960
 4334.00000    7.90110    7.89650    7.82610   11.82550   -0.04560    0.04390   -9999.25   -9999.25   -9999.25   -9999.25   -9999.25   -9999.25   52.91890   60.55360  224.43150    0.11850    3.30350   43.55660 2624.44230 2540.09530
 4334.50000    7.87040    7.89080    7.81570   -9999.25   -0.05370    0.05820   -9999.25   -9999.25   -9999.25   -9999.25   -9999.25   -9999.25   58.89640   64.80770  222.42110    0.10870    3.28110   -9999.25 2585.14500 2531.88910
 4335.00000    7.83970    7.88720    7.78210   -9999.25   -0.05530    0.06720   -9999.25   -9999.25   -9999.25   -9999.25   -9999.25   -9999.25   64.87400   64.82010   53.41420    0.10380    3.25990   -9999.25 2587.56740 2528.44320
 4335.50000    7.80900    7.86570    7.74560   -9999.25   -0.05170    0.07010   -9999.25   -9999.25   -9999.25   -9999.25   -9999.25   -9999.25   70.85150   66.03710  129.26900    0.10330    3.24940   -9999.25 2589.98990 2517.18290
 4336.00000    7.77820    7.84420    7.70910   -9999.25   -0.04890    0.06340   -9999.25   -9999.25   -9999.25   -9999.25   -9999.25   -9999.25   76.35480   67.34180  113.46030    0.10400    3.24490   -9999.25 2592.41240 2498.55140
 4336.50000    7.74750    7.87650    7.68940   -9999.25   -0.05010    0.05040   -9999.25   -9999.25   -9999.25   -9999.25   -9999.25   -9999.25   81.14670   68.49020   40.23640    0.10450    3.24040   -9999.25 2594.83490 2479.91980
 4337.00000    7.71680    7.90870    7.67370   -9999.25   -0.05110    0.04520   -9999.25   -9999.25   -9999.25   -9999.25   -9999.25   -9999.25   85.93860   71.20960   25.36080    0.10270    3.27270   -9999.25 2573.64190 2487.65740
 4337.50000    7.69580    7.93030    7.66330   -9999.25   -0.04970    0.03630   -9999.25   -9999.25   -9999.25   -9999.25   -9999.25   -9999.25   90.73050   76.28560  237.37640    0.09430    3.28810   -9999.25 2557.05200 2507.30650
 4338.00000    7.69080    7.93030    7.65820   -9999.25   -0.04850    0.02660   -9999.25   -9999.25   -9999.25   -9999.25   -9999.25   -9999.25   95.52240   80.34980  346.48520    0.09020    3.21890   -9999.25 2563.48280 2526.93500
 4338.50000    7.69090    7.90870    7.66380   -9999.25   -0.04990    0.02380   -9999.25   -9999.25   -9999.25   -9999.25   -9999.25   -9999.25   96.42470   79.21810   54.47640    0.09230    3.10740   -9999.25 2602.41340 2527.77140
 4339.00000    7.70190    7.91950    7.68530   -9999.25   -0.04720    0.02190   -9999.25   -9999.25   -9999.25   -9999.25   -9999.25   -9999.25   81.84580   73.50760   36.19610    0.09440    3.14290   -9999.25 2644.25950 2529.30110
 4339.50000    7.74460    7.96100    7.71040   -9999.25   -0.03630    0.01170   -9999.25   -9999.25   -9999.25   -9999.25   -9999.25   -9999.25   64.76510   67.79710   35.32860    0.10000    3.36480   -9999.25 2673.51420 2530.83090
 4340.00000    7.77900    7.98410    7.73550   -9999.25   -0.02300    0.00710   -9999.25   -9999.25   -9999.25   -9999.25   -9999.25   -9999.25   54.02300   62.08660   39.13270    0.10840    3.47780   -9999.25 2660.28570 2532.36060
 4340.50000    7.80370    7.98450    7.76060   -9999.25   -0.01770    0.00150   -9999.25   -9999.25   -9999.25   -9999.25   -9999.25   -9999.25   52.07740   57.83780   32.55740    0.11550    3.44760   -9999.25 2638.09510 2531.52190
 4341.00000    7.80420    7.95560    7.76640   -9999.25   -0.01740    0.00040   -9999.25   -9999.25   -9999.25   -9999.25   -9999.25   -9999.25   46.21060   53.95440   62.02240    0.12160    3.42830   -9999.25 2603.95300 2525.35810
 4341.50000    7.77290    7.91930    7.72970   -9999.25   -0.01250    0.00160   -9999.25   -9999.25   -9999.25   -9999.25   -9999.25   -9999.25   39.78890   50.07100   55.23320    0.12380    3.48910   -9999.25 2578.55670 2525.41720
 4342.00000    7.70400    7.88300    7.66970   -9999.25   -0.00580    0.00600   -9999.25   -9999.25   -9999.25   -9999.25   -9999.25   -9999.25   30.93420   40.92450   39.66830    0.12470    3.59660   -9999.25 2566.27900 2525.47620
 4342.50000    7.63510    7.84670    7.60120   -9999.25    0.00220    0.01530   -9999.25   -9999.25   -9999.25   -9999.25   -9999.25   -9999.25   22.07960   30.46210   24.10340    0.12350    3.63560   -9999.25 2554.00130 2525.53530
 4343.00000    7.57800    7.84720    7.55080   -9999.25    0.00290    0.02760   -9999.25   -9999.25   -9999.25   -9999.25   -9999.25   -9999.25   13.22490   19.99980    6.39050    0.12260    3.53760   -9999.25 2578.39110 2560.25350
 4343.50000    7.57850    7.84770    7.55660   -9999.25   -0.00290    0.04720   -9999.25   -9999.25   -9999.25   -9999.25   -9999.25   -9999.25   11.52820   12.95430    7.45690    0.13570    3.49710   -9999.25 2581.21220 2516.59760
 4344.00000    7.64110    7.84250    7.60310   -9999.25   -0.00740    0.06640   -9999.25   -9999.25   -9999.25   -9999.25   -9999.25   -9999.25   10.51100   11.31400    9.23390    0.15940    3.52760   -9999.25 2558.28260 2479.31820
 4344.50000    7.70610    7.83580    7.66550   -9999.25   -0.00100    0.07040   -9999.25   -9999.25   -9999.25   -9999.25   -9999.25   -9999.25   10.51320   11.10990   14.22110    0.17580    3.55120   -9999.25 2547.80470 2442.03890
