~Version ---------------------------------------------------
VERS.   2.0 : CWLS log ASCII Standard -VERSION 2.0
WRAP.    NO : One line per depth step
DLM . SPACE : Column Data Section Delimiter
~Well ------------------------------------------------------
STRT .FT                145.0 : START DEPTH
STOP .FT               4376.0 : STOP DEPTH
STEP .FT                  0.5 : STEP
NULL .               -9999.25 : NULL VALUE
COMP .                        : COMPANY
WELL .                        : WELL
FLD  .                        : FIELD
LOC  .                        : LOCATION
PROV .                        : PROVINCE
CNTY .                        : COUNTY
STAT .                        : STATE
CTRY .                        : COUNTRY
SRVC .                        : SERVICE COMPANY
DATE .                        : DATE
UWI  .                        : UNIQUE WELL ID
API  .                        : API NUMBER
SLAT .WGS84 3.091432220729395 : SURFACE LATITUDE
SLON .WGS84 8.486743172162008 : SURFACE LONGITUDE
DATUM.F               3945.22 : DEPTH DATUM ELEV
~Curve Information -----------------------------------------
DEPT   .FT    : 
CAL1R  .IN    : CALIPER 1 FROM RESISTIVITY LOG
CALD   .IN    : CALIPER FROM DENSITY LOG
CALSR  .IN    : MICRO RESISTIVITY CALIPER FROM RESISTIVITY
CGRD   .GAPI  : CORRECTED GAMMA RAY FROM DENSITY LOG
DPHI_LS.DEC   : DENSITY POROSITY LIMESTONE
DRHO   .G/C3  : BULK DENSITY CORRECTION
DT     .US/F  : DELTA-T (INTERVAL TRANSIT TIME)
DTCO   .US/F  : DELTA-T COMPRESSIONAL
DTL    .US/F  : DELTA-T LONG SPACING
DTSM   .US/F  : DELTA-T SHEAR
GRR    .GAPI  : GAMMA RAY FROM RESISTIVITY LOG
GRS    .GAPI  : GAMMA RAY FROM SONIC LOG
LLD    .OHMM  : LATEROLOG DEEP RESISTIVITY
LLS    .OHMM  : LATEROLOG SHALLOW RESISTIVITY
MSFL   .OHMM  : MICRO SPHERICALLY FOCUSED RESISTIVITY
NPHI_LS.DEC   : NEUTRON POROSITY LIMESTONE
PEF    .B/E   : PHOTOELECTRIC FACTOR
SGRDD  .GAPI  : SPECTROSCOPY GAMMA RAY FROM DENSITY LOG
TEND   .LBF   : TENSION FROM DENSITY LOG
TENR   .LBF   : TENSION FROM RESISTIVITY LOG
~Params ----------------------------------------------------
~Other -----------------------------------------------------
~ASCII -----------------------------------------------------
# ...
 2280.00000   10.24550   10.96170   10.20460   33.94520    0.01270    0.01700   -9999.25   -9999.25   -9999.25   -9999.25   31.42720   -9999.25   20.16510   35.43310 1299.37100    0.20070    3.60730   42.77250 1885.22960 1704.61200
 2280.50000   10.15750   10.77710   10.13710   16.89130   -0.04780    0.01820   -9999.25   -9999.25   -9999.25   -9999.25   23.19520   -9999.25   27.08650   47.24670  547.22120    0.11230    3.57500   30.00330 1881.90730 1684.47880
 2281.00000   10.11500   10.64930   10.08070   11.37830   -0.09650    0.01820   -9999.25   -9999.25   -9999.25   -9999.25   16.64950   -9999.25   34.00780   59.06030 1196.05630    0.04210    4.12150   20.13310 1889.15780 1678.95310
 2281.50000   10.09920   10.59260   10.06220   10.60040   -0.07350    0.00880   -9999.25   -9999.25   -9999.25   -9999.25   20.83220   -9999.25   33.38790   57.98340  857.68520    0.03420    4.72990   18.36020 1888.19230 1730.03240
 2282.00000   10.08340   10.54990   10.04380   16.11080   -0.03010    0.00040   -9999.25   -9999.25   -9999.25   -9999.25   29.53300   -9999.25   29.46550   45.09730   11.80680    0.09840    4.66530   24.63370 1887.22690 1793.90810
 2282.50000   10.08360   10.54440   10.03860   23.94770    0.03810   -0.00550   -9999.25   -9999.25   -9999.25   -9999.25   37.19280   -9999.25   25.54310   32.21120    9.04230    0.16540    4.18330   37.01410 1886.26140 1806.05150
 2283.00000   10.08380   10.52310   10.04680   31.78460    0.08870   -0.00160   -9999.25   -9999.25   -9999.25   -9999.25   42.48920   -9999.25   21.62070   19.32500    9.21030    0.19560    3.72490   45.05550 1885.29590 1805.26170
 2283.50000   10.08400   10.47810   10.06030   35.45020    0.09250    0.00130   -9999.25   -9999.25   -9999.25   -9999.25   43.41110   -9999.25   17.69830   15.89760   15.70350    0.19190    3.37780   50.13210 1884.33050 1804.47200
 2284.00000   10.10020   10.43300   10.08290   38.18980    0.08660    0.00630   -9999.25   -9999.25   -9999.25   -9999.25   43.57680   -9999.25   16.19790   14.83490   11.97580    0.18470    3.40180   50.26410 1890.97870 1799.41830
 2284.50000   10.12710   10.42210   10.10250   41.21080    0.09270    0.00920   -9999.25   -9999.25   -9999.25   -9999.25   44.02980   -9999.25   14.69760   13.77220    7.31610    0.18210    3.48570   50.93340 1902.70260 1787.96870
 2285.00000   10.15390   10.51880   10.12560   43.02260    0.10770    0.00990   -9999.25   -9999.25   -9999.25   -9999.25   44.49180   -9999.25   13.19720   12.70940    5.40240    0.19500    3.46180   55.24040 1905.04740 1785.01490
 2285.50000   10.18080   10.65850   10.15410   42.92020    0.11650    0.01140   -9999.25   -9999.25   -9999.25   -9999.25   44.61520   -9999.25   11.69680   11.64670    6.20180    0.21020    3.34770   57.94940 1905.04740 1784.18500
 2286.00000   10.20770   10.58930   10.18270   42.53510    0.11740    0.01320   -9999.25   -9999.25   -9999.25   -9999.25   44.11020   -9999.25   10.19650   10.58400    5.65110    0.22290    3.23030   55.04050 1905.04740 1783.35520
 2286.50000   10.22650   10.45910   10.21620   42.17030    0.11500    0.01350   -9999.25   -9999.25   -9999.25   -9999.25   42.34160   -9999.25    9.21120    9.73380    4.66330    0.25320    3.14050   51.83590 1906.97890 1745.77420
 2287.00000   10.26670   10.32890   10.22700   41.56330    0.10420    0.01140   -9999.25   -9999.25   -9999.25   -9999.25   39.36050   -9999.25    9.37720    9.93250    5.45270    0.25320    3.07430   50.35310 1903.81060 1731.97100
 2287.50000   10.28290   10.27400   10.22730   38.40220    0.07310    0.01010   -9999.25   -9999.25   -9999.25   -9999.25   34.39290   -9999.25   10.20660   10.92500    4.21470    0.22160    3.11470   45.20490 1900.64240 1718.16790
 2288.00000   10.25640   10.25790   10.21680   29.06050    0.01780    0.01470   -9999.25   -9999.25   -9999.25   -9999.25   30.06600   -9999.25   10.97070   11.91760  459.34290    0.15890    3.26810   36.82290 1905.16250 1704.36480
 2288.50000   10.16920   10.24940   10.13700   21.26450   -0.02710    0.02800   -9999.25   -9999.25   -9999.25   -9999.25   27.31330   -9999.25   11.59330   14.21970 1141.84640    0.09630    3.73920   28.44090 1910.31790 1710.41170
 2289.00000   10.09800   10.24100   10.05720   19.66890   -0.04450    0.03440   -9999.25   -9999.25   -9999.25   -9999.25   25.94860   -9999.25   14.45030   16.52180  489.95560    0.06740    4.31240   28.54110 1908.73790 1715.20320
 2289.50000   10.02670   10.19950    9.97740   18.38670   -0.04730    0.03620   -9999.25   -9999.25   -9999.25   -9999.25   23.24120   -9999.25   16.92120   27.95620    1.04130    0.05600    4.37460   28.38060 1895.51250 1718.11150
 2290.00000    9.95540   10.08860    9.90680   16.50880   -0.08300    0.03760   -9999.25   -9999.25   -9999.25   -9999.25   18.26040   -9999.25   26.50600   75.91960  819.70100    0.03090    4.16450   22.66430 1864.81920 1721.01980
 2290.50000    9.88420    9.98970    9.84990   13.56740   -0.14210    0.04140   -9999.25   -9999.25   -9999.25   -9999.25   11.90640   -9999.25   65.51310  123.88300 1911.24730    0.00570    4.19680   12.64270 1834.12590 1723.92810
 2291.00000    9.89720    9.91170    9.84930   10.62600   -0.17030    0.04480   -9999.25   -9999.25   -9999.25   -9999.25    8.16250   -9999.25  104.52030  171.84650 1945.26380   -0.00180    4.54930    7.23500 1834.04070 1726.83640
 2291.50000    9.92940    9.83370    9.86090    8.16520   -0.14500    0.04000   -9999.25   -9999.25   -9999.25   -9999.25    8.07110   -9999.25  127.92960  178.14960 2001.72990    0.01320    4.90170    7.96140 1859.25330 1729.74460
 2292.00000    9.95940    9.83880    9.89710    8.00380   -0.10020    0.02590   -9999.25   -9999.25   -9999.25   -9999.25   12.30450   -9999.25   95.93600  124.78750 1587.14770    0.07390    4.90750   10.78630 1880.75350 1742.36990
 2292.50000    9.93290    9.83630    9.90400    9.08000   -0.05460    0.01860   -9999.25   -9999.25   -9999.25   -9999.25   16.53780   -9999.25   21.76380   71.42540  596.15630    0.13400    4.51090   17.00110 1872.01170 1731.60370
 2293.00000    9.87530    9.83370    9.83910   10.15610    0.01220    0.01820   -9999.25   -9999.25   -9999.25   -9999.25   20.89340   -9999.25    6.86630   18.06320    1.56150    0.17230    3.95870   21.78610 1881.18340 1720.83750
 2293.50000    9.81640    9.82040    9.77640   10.80950    0.00770    0.02430   -9999.25   -9999.25   -9999.25   -9999.25   22.70420   -9999.25    6.99430    7.39120  268.46830    0.14440    3.64940   24.74940 1885.99860 1718.36460
 2294.00000    9.75230    9.81400    9.69660   11.50130   -0.03910    0.03230   -9999.25   -9999.25   -9999.25   -9999.25   19.68600   -9999.25   19.87930   27.40510  935.73530    0.07530    3.61690   24.58790 1848.16540 1749.06520
 2294.50000    9.70980    9.80750    9.66560   10.77490   -0.10060    0.03230   -9999.25   -9999.25   -9999.25   -9999.25   15.32120   -9999.25   35.82310   47.41890 1603.00230    0.03310    3.95950   19.42040 1878.34360 1779.76570
 2295.00000    9.69930    9.80110    9.64900    9.76600   -0.13420    0.02670   -9999.25   -9999.25   -9999.25   -9999.25   11.54890   -9999.25   51.76680   62.14530 2021.97380    0.00440    4.46190   15.14470 1877.90100 1777.39560
 2295.50000    9.70190    9.79470    9.65040   11.42060   -0.14650    0.02010   -9999.25   -9999.25   -9999.25   -9999.25   10.54670   -9999.25   61.33530   66.01930 1766.15430    0.00550    4.72490   15.57520 1856.08610 1740.46860
 2296.00000    9.70510    9.79340    9.65270   14.24550   -0.14020    0.01250   -9999.25   -9999.25   -9999.25   -9999.25   11.52620   -9999.25   60.77920  112.44820  670.40790    0.01040    4.78640   18.53460 1849.95540 1740.46870
 2296.50000    9.70820    9.79340    9.65500   15.05260   -0.12870    0.00500   -9999.25   -9999.25   -9999.25   -9999.25   12.41700   -9999.25   56.47200  347.59110   12.96050    0.00800    4.72990   18.21180 1851.30770 1752.28200
 2297.00000    9.71080    9.80790    9.67820   13.59980   -0.13190    0.00260   -9999.25   -9999.25   -9999.25   -9999.25   11.19750   -9999.25  103.37690  582.73400 1399.53580    0.00430    4.67330   14.20200 1866.31230 1766.57210
