~Version ---------------------------------------------------
VERS.   2.0 : CWLS log ASCII Standard -VERSION 2.0
WRAP.    NO : One line per depth step
DLM . SPACE : Column Data Section Delimiter
~Well ------------------------------------------------------
STRT .FT                145.0 : START DEPTH
STOP .FT               4376.0 : STOP DEPTH
STEP .FT                  0.5 : STEP
NULL .               -9999.25 : NULL VALUE
COMP .                        : COMPANY
WELL .                        : WELL
FLD  .                        : FIELD
LOC  .                        : LOCATION
PROV .                        : PROVINCE
CNTY .                        : COUNTY
STAT .                        : STATE
CTRY .                        : COUNTRY
SRVC .                        : SERVICE COMPANY
DATE .                        : DATE
UWI  .                        : UNIQUE WELL ID
API  .                        : API NUMBER
SLAT .WGS84 3.091432220729395 : SURFACE LATITUDE
SLON .WGS84 8.486743172162008 : SURFACE LONGITUDE
DATUM.F               3945.22 : DEPTH DATUM ELEV
~Curve Information -----------------------------------------
DEPT   .FT    : 
CAL1R  .IN    : CALIPER 1 FROM RESISTIVITY LOG
CALD   .IN    : CALIPER FROM DENSITY LOG
CALSR  .IN    : MICRO RESISTIVITY CALIPER FROM RESISTIVITY
CGRD   .GAPI  : CORRECTED GAMMA RAY FROM DENSITY LOG
DPHI_LS.DEC   : DENSITY POROSITY LIMESTONE
DRHO   .G/C3  : BULK DENSITY CORRECTION
DT     .US/F  : DELTA-T (INTERVAL TRANSIT TIME)
DTCO   .US/F  : DELTA-T COMPRESSIONAL
DTL    .US/F  : DELTA-T LONG SPACING
DTSM   .US/F  : DELTA-T SHEAR
GRR    .GAPI  : GAMMA RAY FROM RESISTIVITY LOG
GRS    .GAPI  : GAMMA RAY FROM SONIC LOG
LLD    .OHMM  : LATEROLOG DEEP RESISTIVITY
LLS    .OHMM  : LATEROLOG SHALLOW RESISTIVITY
MSFL   .OHMM  : MICRO SPHERICALLY FOCUSED RESISTIVITY
NPHI_LS.DEC   : NEUTRON POROSITY LIMESTONE
PEF    .B/E   : PHOTOELECTRIC FACTOR
SGRDD  .GAPI  : SPECTROSCOPY GAMMA RAY FROM DENSITY LOG
TEND   .LBF   : TENSION FROM DENSITY LOG
TENR   .LBF   : TENSION FROM RESISTIVITY LOG
~Params ----------------------------------------------------
~Other -----------------------------------------------------
~ASCII -----------------------------------------------------
# ...
 2157.50000    9.90640   10.27190    9.88460    4.69850   -0.15670    0.01000   -9999.25   -9999.25   -9999.25   -9999.25    7.19850   -9999.25 1954.05050 2004.62500 1993.04370   -0.01170    5.26740    5.98850 1854.40580 1698.81180
 2158.00000    9.89990   10.26950    9.87600    4.65550   -0.15260    0.00750   -9999.25   -9999.25   -9999.25   -9999.25    6.94790   -9999.25 1950.35180 1991.40480 1995.91900   -0.01140    5.28610    5.64170 1860.78590 1697.74310
 2158.50000    9.89480   10.26710    9.86750    4.65550   -0.15410    0.00490   -9999.25   -9999.25   -9999.25   -9999.25    7.00700   -9999.25 1946.65310 1978.18460 1998.79430   -0.01030    5.29190    5.54020 1866.62930 1696.67430
 2159.00000    9.89480   10.26470    9.85500    5.09500   -0.16100    0.00540   -9999.25   -9999.25   -9999.25   -9999.25    8.71190   -9999.25 1824.34940 1964.96430 2001.07880   -0.00710    5.03050    5.84380 1872.47270 1695.60560
 2159.50000    9.89480   10.26230    9.85760    6.32490   -0.15670    0.00750   -9999.25   -9999.25   -9999.25   -9999.25   12.27580   -9999.25 1302.32630 1951.74410 2001.01130    0.00090    4.60520    9.22740 1878.31610 1694.53680
 2160.00000    9.89480   10.25870    9.86420    7.84740   -0.13520    0.00910   -9999.25   -9999.25   -9999.25   -9999.25   17.93300   -9999.25  780.30330 1819.78690 1015.52080    0.01640    4.29240   13.73130 1884.15950 1699.36250
 2160.50000    9.89440   10.25320    9.87070    8.76960   -0.09910    0.00850   -9999.25   -9999.25   -9999.25   -9999.25   21.78270   -9999.25  258.28030 1608.67180   28.77340    0.02230    4.02770   26.93970 1890.00290 1694.49590
 2161.00000    9.91030   10.24770    9.88130    7.66560   -0.07950    0.00790   -9999.25   -9999.25   -9999.25   -9999.25   25.13220   -9999.25   49.46960 1397.55670   22.33250    0.01880    3.86590   29.14250 1905.60560 1694.49590
 2161.50000    9.94220   10.24520    9.91320    5.81130   -0.10040    0.00820   -9999.25   -9999.25   -9999.25   -9999.25   24.02680   -9999.25   48.56490 1186.44160   12.09910    0.00760    3.85970   25.87830 1927.71440 1685.50090
 2162.00000   10.01580   10.30350    9.97180    3.52380   -0.10780    0.01560   -9999.25   -9999.25   -9999.25   -9999.25   22.41090   -9999.25   43.70770  975.32650 1006.30120    0.00330    4.22500   19.70070 1949.82320 1670.21420
 2162.50000   10.11990   10.36810   10.05170    2.66340   -0.10480    0.03190   -9999.25   -9999.25   -9999.25   -9999.25   27.69890   -9999.25   37.07280  764.21140 2000.48760    0.02740    4.64080   18.64730 1971.93200 1654.92750
 2163.00000   10.24450   10.47790   10.12090   10.91440   -0.00190    0.05640   -9999.25   -9999.25   -9999.25   -9999.25   37.28670   -9999.25   25.95640  553.09620 1429.08350    0.09040    4.86700   30.87560 1969.96590 1654.92750
 2163.50000   10.42440   10.63060   10.32250   21.83200    0.08310    0.08090   -9999.25   -9999.25   -9999.25   -9999.25   49.44150   -9999.25   14.84010  341.98110    0.69110    0.21610    4.29650   44.22170 1911.34460 1654.92750
 2164.00000   10.60430   10.84780   10.52110   32.54320    0.12540    0.08260   -9999.25   -9999.25   -9999.25   -9999.25   57.18740   -9999.25    3.72380  130.86600    0.37300    0.27390    3.60330   60.01350 1880.38390 1690.68560
 2164.50000   10.78950   11.03280   10.68850   40.00800    0.13760    0.07550   -9999.25   -9999.25   -9999.25   -9999.25   60.68250   -9999.25    3.75800    4.15840    1.27240    0.30770    3.35780   63.90200 1895.85990 1693.59960
 2165.00000   10.82670   11.00360   10.79240   41.73740    0.12290    0.06430   -9999.25   -9999.25   -9999.25   -9999.25   59.13340   -9999.25    4.01620    4.68560    3.74110    0.29920    3.21170   64.00080 1932.77600 1696.51360
 2165.50000   10.79320   10.93040   10.73560   41.75920    0.10560    0.03600   -9999.25   -9999.25   -9999.25   -9999.25   56.78610   -9999.25    4.27440    7.32260    4.77500    0.22060    3.10070   63.69940 1939.78200 1699.42760
 2166.00000   10.70580   10.87880   10.63860   40.97400    0.08380    0.02030   -9999.25   -9999.25   -9999.25   -9999.25   55.65290   -9999.25    7.03130    9.82070    6.63300    0.17250    3.07820   61.99920 1946.78790 1713.73380
 2166.50000   10.61320   10.82730   10.54150   38.10420    0.06790    0.01450   -9999.25   -9999.25   -9999.25   -9999.25   55.32320   -9999.25    9.78830   11.76310   10.43810    0.14970    3.12880   60.51080 1892.81320 1735.63490
 2167.00000   10.48450   10.75430   10.36920   35.22180    0.04310    0.01380   -9999.25   -9999.25   -9999.25   -9999.25   49.94950   -9999.25   12.54520   14.43420    7.30200    0.14140    3.26120   56.25480 1868.68000 1737.86350
 2167.50000   10.26820   10.64890   10.19680   29.61120   -0.01020    0.01350   -9999.25   -9999.25   -9999.25   -9999.25   40.23350   -9999.25   13.44570   40.17620   18.43850    0.09850    3.43150   48.29030 1879.60350 1748.65560
 2168.00000   10.11170   10.54350   10.07730   10.52410   -0.07810    0.01390   -9999.25   -9999.25   -9999.25   -9999.25   27.50630   -9999.25   23.47210   81.29870 1633.04960    0.04070    3.71650   34.76300 1890.52700 1759.44770
 2168.50000   10.10090   10.43810   10.06130   -0.15100   -0.10540    0.01380   -9999.25   -9999.25   -9999.25   -9999.25   18.94200   -9999.25   62.60840  122.42130  741.35810    0.01060    4.33970   18.05900 1894.21410 1737.69200
 2169.00000   10.10080   10.35440   10.06120   -0.12030   -0.13580    0.01200   -9999.25   -9999.25   -9999.25   -9999.25   14.29570   -9999.25  101.74470  163.54380 1396.38790    0.00150    5.04760   10.04610 1887.04670 1738.03620
 2169.50000   10.11670   10.33510   10.06640    0.05250   -0.12230    0.01020   -9999.25   -9999.25   -9999.25   -9999.25   13.06600   -9999.25  124.07680  145.34740 1266.24620    0.00470    5.63840   12.04260 1879.87930 1736.47380
 2170.00000   10.14320   10.34820   10.11430    2.78420   -0.09890    0.00840   -9999.25   -9999.25   -9999.25   -9999.25   18.02620   -9999.25   95.25360  117.52490 1099.10710    0.01130    5.49740   17.39280 1874.79230 1734.43480
 2170.50000   10.18570   10.37950   10.13800    8.44110   -0.06330    0.00730   -9999.25   -9999.25   -9999.25   -9999.25   27.94410   -9999.25   60.64700   89.70230   30.04310    0.02240    4.86170   23.80500 1876.10880 1732.39580
 2171.00000   10.24240   10.40310   10.16160   14.82920   -0.03410    0.02070   -9999.25   -9999.25   -9999.25   -9999.25   40.50550   -9999.25   30.12110   61.87980   45.43790    0.03340    4.22600   32.67560 1867.37430 1730.35680
 2171.50000   10.34120   10.46810   10.27870   23.32000    0.03240    0.06780   -9999.25   -9999.25   -9999.25   -9999.25   50.70290   -9999.25   15.91790   36.41160   47.19350    0.07420    3.71620   50.47490 1856.51540 1728.31780
 2172.00000   10.62380   10.96360   10.49960   33.21250    0.07500    0.08490   -9999.25   -9999.25   -9999.25   -9999.25   58.99770   -9999.25    4.47020   20.36100    2.06410    0.14090    3.49060   63.99090 1869.29660 1726.94300
 2172.50000   10.96430   11.15920   10.85920   39.99690    0.10340    0.09720   -9999.25   -9999.25   -9999.25   -9999.25   59.42030   -9999.25    4.04450    4.31030    2.77090    0.21410    3.43920   68.49900 1885.24230 1726.56460
 2173.00000   11.10150   11.31980   11.07780   37.94430    0.11530    0.09800   -9999.25   -9999.25   -9999.25   -9999.25   55.72030   -9999.25    3.78890    4.31000    2.22980    0.28720    3.39430   65.76020 1912.17660 1726.18620
 2173.50000   11.10120   11.34180   10.86840   34.51910    0.11290    0.08500   -9999.25   -9999.25   -9999.25   -9999.25   47.56530   -9999.25    4.31010  166.90790    2.14110    0.31040    3.27630   61.64870 1927.45410 1725.80780
 2174.00000   10.63890   11.20380   10.53040   29.38860    0.08040    0.06810   -9999.25   -9999.25   -9999.25   -9999.25   39.93000   -9999.25  103.70230  573.10120    4.57270    0.27320    3.15830   50.73080 1896.10440 1725.42940
 2174.50000   10.42310   11.04620   10.39010   21.37320    0.02860    0.05120   -9999.25   -9999.25   -9999.25   -9999.25   25.71230   -9999.25  596.07090  979.29450 1053.39710    0.15310    3.09400   38.09120 1828.82820 1725.05090
