~Version ---------------------------------------------------
VERS.   2.0 : CWLS log ASCII Standard -VERSION 2.0
WRAP.    NO : One line per depth step
DLM . SPACE : Column Data Section Delimiter
~Well ------------------------------------------------------
STRT .FT                145.0 : START DEPTH
STOP .FT               4376.0 : STOP DEPTH
STEP .FT                  0.5 : STEP
NULL .               -9999.25 : NULL VALUE
COMP .                        : COMPANY
WELL .                        : WELL
FLD  .                        : FIELD
LOC  .                        : LOCATION
PROV .                        : PROVINCE
CNTY .                        : COUNTY
STAT .                        : STATE
CTRY .                        : COUNTRY
SRVC .                        : SERVICE COMPANY
DATE .                        : DATE
UWI  .                        : UNIQUE WELL ID
API  .                        : API NUMBER
SLAT .WGS84 3.091432220729395 : SURFACE LATITUDE
SLON .WGS84 8.486743172162008 : SURFACE LONGITUDE
DATUM.F               3945.22 : DEPTH DATUM ELEV
~Curve Information -----------------------------------------
DEPT   .FT    : 
CAL1R  .IN    : CALIPER 1 FROM RESISTIVITY LOG
CALD   .IN    : CALIPER FROM DENSITY LOG
CALSR  .IN    : MICRO RESISTIVITY CALIPER FROM RESISTIVITY
CGRD   .GAPI  : CORRECTED GAMMA RAY FROM DENSITY LOG
DPHI_LS.DEC   : DENSITY POROSITY LIMESTONE
DRHO   .G/C3  : BULK DENSITY CORRECTION
DT     .US/F  : DELTA-T (INTERVAL TRANSIT TIME)
DTCO   .US/F  : DELTA-T COMPRESSIONAL
DTL    .US/F  : DELTA-T LONG SPACING
DTSM   .US/F  : DELTA-T SHEAR
GRR    .GAPI  : GAMMA RAY FROM RESISTIVITY LOG
GRS    .GAPI  : GAMMA RAY FROM SONIC LOG
LLD    .OHMM  : LATEROLOG DEEP RESISTIVITY
LLS    .OHMM  : LATEROLOG SHALLOW RESISTIVITY
MSFL   .OHMM  : MICRO SPHERICALLY FOCUSED RESISTIVITY
NPHI_LS.DEC   : NEUTRON POROSITY LIMESTONE
PEF    .B/E   : PHOTOELECTRIC FACTOR
SGRDD  .GAPI  : SPECTROSCOPY GAMMA RAY FROM DENSITY LOG
TEND   .LBF   : TENSION FROM DENSITY LOG
TENR   .LBF   : TENSION FROM RESISTIVITY LOG
~Params ----------------------------------------------------
~Other -----------------------------------------------------
~ASCII -----------------------------------------------------
# ...
 4082.50000    7.98220    8.13810    7.94330    8.31000   -0.00420    0.00610   53.65310   58.59420   50.73870   97.87310   24.49810   22.84610   81.09030  103.39210   26.53480    0.11910    3.12740   24.08730 2471.65500 2426.32100
 4083.00000    7.97420    8.13360    7.93540    7.84900    0.00240    0.00650   52.58890   58.69710   45.92770   97.28250   23.03670   23.16760   55.42480   62.46810   53.24140    0.11870    2.98520   22.95420 2470.34340 2426.12780
 4083.50000    7.96630    8.12900    7.93450    7.27280   -0.00030    0.00620   51.81420   58.69070   46.74510   96.61180   21.76360   23.16950   54.92480   61.90470   71.04920    0.11230    2.95150   22.56210 2457.13030 2425.93460
 4084.00000    7.96230    8.12900    7.93560    6.69660   -0.00520    0.00590   51.01990   57.68130   48.58860   95.94110   21.08710   22.50520   71.83950   72.66750   44.85280    0.10690    3.03880   22.46930 2462.09350 2431.76890
 4084.50000    7.96390    8.12090    7.93670    6.52030   -0.01600    0.00670   50.31490   56.12080   49.32610   95.13720   22.49360   22.33030   92.98090  108.87160   85.33730    0.09750    3.17440   23.19430 2467.05680 2445.60240
 4085.00000    7.96390    8.12340    7.93780    6.79150   -0.02140    0.01050   49.59490   55.06700   46.87730   94.31540   24.18460   22.33030  120.74240  145.07560  105.59110    0.08850    3.31620   24.51940 2472.02000 2462.08970
 4085.50000    7.96930    8.12650    7.93900    7.06260   -0.02250    0.01810   48.98130   54.08450   40.95520   93.04940   25.09830   22.78290  150.15890  181.27970  104.64010    0.07940    3.49960   25.90000 2476.98330 2475.76700
 4086.00000    7.98080    8.12960    7.94010    7.33380   -0.02640    0.03390   48.61660   53.53360   36.06690   91.91540   25.63780   23.13910  179.57540  217.48370  371.77620    0.06720    3.58040   26.73150 2496.68560 2478.20420
 4086.50000    7.98130    8.13270    7.94120    8.22860   -0.03160    0.04790   48.36210   52.95520   33.36430   90.96210   26.60470   23.17820  214.46570  250.34040  813.75170    0.05880    3.62400   27.72160 2493.81650 2465.10920
 4087.00000    7.97460    8.13580    7.94310    9.83220   -0.04100    0.05800   50.70590   52.78980   34.65460   91.11800   29.80470   22.23590  271.25110  282.36020 1178.17860    0.06250    3.62400   30.84310 2473.77330 2463.97480
 4087.50000    7.96790    8.13900    7.94820   10.61480   -0.05440    0.05920   53.97390   53.08390   37.58040   91.98880   32.38610   21.09030  282.64270  314.38000  272.71620    0.06900    3.62400   33.73680 2471.89360 2462.84050
 4088.00000    7.97870    8.14210    7.95330    9.80810   -0.06100    0.04700   51.99090   53.55840   39.92100   93.37120   32.27360   20.17060  276.95320  346.39980  272.76560    0.06900    3.61250   34.28010 2452.87160 2461.70620
 4088.50000    7.97980    8.14520    7.95840    8.07950   -0.05820    0.03130   48.79240   54.07390   48.86630   94.51850   29.87590   19.74610  254.81690  378.41950  397.90580    0.06600    3.58360   30.76710 2455.47080 2460.57190
 4089.00000    7.98090    8.15670    7.95530    6.35080   -0.05430    0.01860   49.00370   54.65090   52.61010   94.62130   24.16070   20.12920  230.66790  410.43930  343.47530    0.06100    3.55260   27.51350 2463.68450 2459.43750
 4089.50000    7.98200    8.16940    7.95030    5.31460   -0.05370    0.00870   52.56340   55.21800   55.43730   94.61760   20.91310   21.19690  206.51880  405.55070  487.35580    0.06140    3.53080   24.69910 2457.73260 2458.30320
 4090.00000    7.98300    8.14520    7.94530    4.93640   -0.05270    0.00770   56.84410   55.15410   56.04270   94.45370   20.38550   22.51470  182.36980  323.97340  158.56980    0.06390    3.52830   23.95940 2451.78070 2457.16890
 4090.50000    7.98410    8.06980    7.94180    6.00000   -0.05030    0.00800   62.26490   54.81170   49.44760   94.16500   22.08200   24.06650  163.05050  242.39620  158.56980    0.07280    3.53120   25.47330 2457.62270 2456.03460
 4091.00000    7.98520    8.04020    7.94460    7.86920   -0.04510    0.01060   62.73460   54.84360   49.36880   94.16890   24.16480   25.22260  163.05050  177.13440  231.28020    0.07680    3.53420   28.42040 2470.72360 2454.90030
 4091.50000    7.98630    8.04080    7.94750   10.17700   -0.04520    0.01320   62.15290   55.22230   49.45030   94.17240   26.84140   25.61540  174.78220  190.15500  163.01010    0.07530    3.45110   31.07440 2468.17660 2432.42030
 4092.00000    7.98730    8.04340    7.95030   12.30500   -0.04890    0.01460   59.35550   55.28020   50.30800   94.49630   28.14690   24.87690  188.82160  211.85610 1037.22890    0.07150    3.25060   32.73200 2453.86970 2430.25360
 4092.50000    7.98840    8.04600    7.95320   11.32160   -0.05120    0.01400   53.87560   55.17900   50.81370   94.76700   28.19120   23.96330  202.86100  229.21700 1736.60390    0.06940    3.17000   29.01850 2463.68450 2436.46930
 4093.00000    7.98950    8.04870    7.95600   11.07580   -0.04690    0.01230   48.74490   55.29050   51.11470   95.03780   28.46270   22.95530  216.90040  225.03540  178.72880    0.07000    3.16390   26.45280 2458.64010 2425.20640
 4093.50000    7.99040    8.05130    7.96250   11.33190   -0.03890    0.01010   49.10470   56.14830   52.01460   95.14870   27.92810   22.21090  199.65410  220.19830  119.55640    0.07070    3.18050   26.18470 2454.50830 2418.65070
 4094.00000    7.99100    8.05390    7.96250   11.45990   -0.03340    0.00770   50.14740   55.60210   55.81390   95.31230   26.15590   21.18480  194.93210  214.15200  108.71820    0.06710    3.15820   26.11110 2456.02920 2430.43910
 4094.50000    7.99180    8.05660    7.96250   11.49130   -0.03620    0.00700   50.44760   54.61170   55.80180   95.63660   23.71880   20.86920  183.12700  212.94280  214.85950    0.06370    3.11030   24.64900 2457.55020 2442.22740
 4095.00000    7.99090    8.05920    7.96250   11.40030   -0.03990    0.00650   50.23810   54.61680   51.83180   95.74690   22.96340   20.85720  171.32190  190.84040  181.76660    0.06140    3.05480   23.39220 2473.77330 2454.01580
 4095.50000    7.98340    8.06180    7.96250   11.60050   -0.04180    0.00600   49.86330   55.20830   50.05620   95.80460   23.36150   20.84520  159.51680  150.08550  147.31140    0.06050    2.99930   23.34640 2478.81770 2456.37350
 4096.00000    7.98890    8.06450    7.96250   11.84870   -0.04090    0.00510   49.08520   54.02690   48.90260   94.95530   23.86570   19.97700  157.15570  150.08550  197.77550    0.05940    2.94370   24.35930 2483.86200 2456.37350
 4096.50000    8.00180    8.06650    7.96250   11.99770   -0.03870    0.00420   48.00560   53.16020   47.90440   93.45550   22.33590   19.55250  192.33780  170.91210  175.43810    0.05570    2.97600   24.56780 2474.03040 2456.37350
 4097.00000    8.00920    8.05640    7.96250   11.99770   -0.04160    0.00300   46.87630   52.55690   46.90630   92.04610   20.23670   19.37850  227.51980  232.42950  115.02180    0.04370    3.09320   23.91030 2464.19880 2457.32130
 4097.50000    8.01660    8.05020    7.96250   10.15380   -0.05340    0.00500   46.40560   52.73560   46.10800   91.55420   19.54030   19.75490  262.70190  293.94690  217.11360    0.03030    3.21100   23.04990 2457.77430 2459.69090
 4098.00000    8.02400    8.05950    7.97100    9.69290   -0.06520    0.01800   47.15180   53.26100   46.44280   93.13690   20.38300   20.31690  297.88390  355.46430  432.51640    0.02190    3.39710   22.03380 2491.15320 2462.06040
 4098.50000    8.03140    8.06880    7.98160    9.72920   -0.07380    0.03450   48.00450   52.51880   47.17790   94.98080   21.63650   20.87880  258.35830  416.98170  253.58200    0.02390    3.55040   23.24450 2479.54080 2464.43000
 4099.00000    8.03880    8.09670    7.99220   10.95380   -0.07420    0.04670   48.85710   52.52450   47.81550   96.20570   21.63650   21.11800  287.45960  413.16070  356.48770    0.03280    3.67780   25.21380 2469.63060 2467.04960
 4099.50000    8.04620    8.13910    7.99880    9.75960   -0.06600    0.05810   49.41070   54.12920   48.56650   97.16950   20.26240   21.26820  304.92030  314.45640  127.13590    0.05530    3.61270   25.31940 2459.61550 2470.66980
