~Version ---------------------------------------------------
VERS.   2.0 : CWLS log ASCII Standard -VERSION 2.0
WRAP.    NO : One line per depth step
DLM . SPACE : Column Data Section Delimiter
~Well ------------------------------------------------------
STRT .FT                145.0 : START DEPTH
STOP .FT               4376.0 : STOP DEPTH
STEP .FT                  0.5 : STEP
NULL .               -9999.25 : NULL VALUE
COMP .                        : COMPANY
WELL .                        : WELL
FLD  .                        : FIELD
LOC  .                        : LOCATION
PROV .                        : PROVINCE
CNTY .                        : COUNTY
STAT .                        : STATE
CTRY .                        : COUNTRY
SRVC .                        : SERVICE COMPANY
DATE .                        : DATE
UWI  .                        : UNIQUE WELL ID
API  .                        : API NUMBER
SLAT .WGS84 3.091432220729395 : SURFACE LATITUDE
SLON .WGS84 8.486743172162008 : SURFACE LONGITUDE
DATUM.F               3945.22 : DEPTH DATUM ELEV
~Curve Information -----------------------------------------
DEPT   .FT    : 
CAL1R  .IN    : CALIPER 1 FROM RESISTIVITY LOG
CALD   .IN    : CALIPER FROM DENSITY LOG
CALSR  .IN    : MICRO RESISTIVITY CALIPER FROM RESISTIVITY
CGRD   .GAPI  : CORRECTED GAMMA RAY FROM DENSITY LOG
DPHI_LS.DEC   : DENSITY POROSITY LIMESTONE
DRHO   .G/C3  : BULK DENSITY CORRECTION
DT     .US/F  : DELTA-T (INTERVAL TRANSIT TIME)
DTCO   .US/F  : DELTA-T COMPRESSIONAL
DTL    .US/F  : DELTA-T LONG SPACING
DTSM   .US/F  : DELTA-T SHEAR
GRR    .GAPI  : GAMMA RAY FROM RESISTIVITY LOG
GRS    .GAPI  : GAMMA RAY FROM SONIC LOG
LLD    .OHMM  : LATEROLOG DEEP RESISTIVITY
LLS    .OHMM  : LATEROLOG SHALLOW RESISTIVITY
MSFL   .OHMM  : MICRO SPHERICALLY FOCUSED RESISTIVITY
NPHI_LS.DEC   : NEUTRON POROSITY LIMESTONE
PEF    .B/E   : PHOTOELECTRIC FACTOR
SGRDD  .GAPI  : SPECTROSCOPY GAMMA RAY FROM DENSITY LOG
TEND   .LBF   : TENSION FROM DENSITY LOG
TENR   .LBF   : TENSION FROM RESISTIVITY LOG
~Params ----------------------------------------------------
~Other -----------------------------------------------------
~ASCII -----------------------------------------------------
# ...
 3575.00000    8.61110    8.56370    8.57490    5.70460   -0.07460    0.00020   59.20500   48.79000   48.42920   94.33290    8.74010   11.28680  269.12500  309.16250  116.56200    0.00480    3.50590    7.37160 2391.14400 2235.94340
 3575.50000    8.58580    8.56370    8.55690    4.55480   -0.07990    0.00290   59.59310   50.37450   46.44870   97.97780   10.14530   11.95460  193.39950  303.55360  306.28500    0.00440    3.45860    6.77050 2391.14400 2235.94340
 3576.00000    8.56040    8.56370    8.53880    5.07540   -0.08680    0.00630   59.97830   53.00270   53.94350  105.31610   10.86840   12.52150  228.61820  298.04630  150.12050    0.00490    3.30050    7.16920 2391.25980 2235.94340
 3576.50000    8.53500    8.56370    8.52080    5.71770   -0.10070    0.00810   60.12830   53.94730   61.37840  106.57160   10.07900   14.13380  287.30520  306.41510  167.18850    0.00560    3.13810    8.07290 2395.24810 2235.94340
 3577.00000    8.52160    8.56370    8.50270    5.75780   -0.10590    0.01030   59.85870   52.19520   61.20360  102.06260    9.36760   15.19410  284.69980  285.24450  485.32260    0.00640    3.09770    8.82850 2395.24810 2234.84880
 3577.50000    8.51610    8.56370    8.48960    6.41950   -0.10710    0.01140   59.66830   51.70760   60.76900   97.92850   11.22200   15.74980  213.51690  193.31160  331.92110    0.00720    3.13700    9.67210 2395.24810 2233.68040
 3578.00000    8.51060    8.59690    8.48380    7.14340   -0.10280    0.00950   59.86620   51.63300   60.53430   95.63650   14.11100   15.31510  131.02070  101.37880   90.96900    0.00840    3.15240   11.79520 2395.24810 2238.86900
 3578.50000    8.50510    8.59170    8.47800    8.48420   -0.09320    0.00730   60.09470   50.42790   60.59280   99.14220   16.86740   14.87500  113.47980   86.02500  142.79310    0.01120    3.13900   14.66460 2395.24810 2228.50250
 3579.00000    8.49960    8.60120    8.47220   10.90040   -0.08780    0.00650   59.98160   51.28110   60.73120  104.18460   18.31400   15.18260  117.37480  104.97090   23.09710    0.01260    3.17270   17.64310 2395.24810 2218.13600
 3579.50000    8.49410    8.61440    8.46640   11.11290   -0.08980    0.00740   59.97260   52.13420   60.86300  106.04750   17.16490   15.75420  136.81410  123.91680  762.15630    0.01150    3.25970   17.23860 2395.24810 2251.05970
 3580.00000    8.48860    8.62760    8.46400   10.83020   -0.09540    0.00880   60.00410   51.10770   61.06800  105.14230   16.35830   15.88270  152.36810  142.86280  491.32470    0.01040    3.26570   15.63760 2395.24810 2250.10170
 3580.50000    8.48420    8.63000    8.45970   10.54760   -0.09940    0.01010   60.09290   49.99450   63.66370   98.93050   16.13950   16.23870  153.81220  149.62970  220.49310    0.01060    3.24450   15.03270 2325.67870 2253.80000
 3581.00000    8.47460    8.62960    8.45550   10.46260   -0.10570    0.01150   60.92620   51.19050   70.00530   96.73360   16.36250   16.65810  148.28810  146.93500   68.48940    0.01220    3.26820   14.74800 2333.09080 2256.61360
 3581.50000    8.47590    8.62930    8.45120   10.26070   -0.09950    0.01010   61.71390   52.37120   76.34680   96.73360   15.55480   17.11790  144.98670  137.48740  111.48620    0.01380    3.33200   14.15660 2340.50290 2256.13950
 3582.00000    8.47730    8.63130    8.44820    9.17780   -0.08690    0.00780   61.98330   52.55410   77.40400   95.61380   14.69560   17.08980  141.68540  121.73020  116.66810    0.01580    3.39580   13.63720 2342.77360 2245.61530
 3582.50000    8.47860    8.64280    8.44430    9.06930   -0.08020    0.00640   61.45390   50.09220   76.35280   94.17400   14.93270   16.12160  116.01510  105.97310  126.87150    0.02020    3.31630   15.09060 2341.61660 2233.69730
 3583.00000    8.48010    8.65430    8.44050    9.22600   -0.07380    0.00570   60.17060   48.63230   74.57950   92.88190   16.45370   14.04110   90.34470   90.21590   94.43430    0.02490    3.17320   18.28690 2340.45970 2242.30150
 3583.50000    8.48230    8.66270    8.43670    9.32000   -0.07070    0.00600   59.01970   47.39610   72.80620   91.58980   18.28510   13.14500   69.80850   74.45870   31.21740    0.02990    3.10970   20.46010 2339.30270 2250.90580
 3584.00000    8.48460    8.69240    8.44340    8.02320   -0.07570    0.00830   58.48700   46.24040   72.63030   90.08320   19.72180   13.18770   69.82760   89.08250   38.99500    0.02370    3.09790   18.75240 2340.30440 2249.46390
 3584.50000    8.48690    8.70070    8.45280    6.65500   -0.08210    0.00960   57.99620   45.46190   72.98860   88.29300   19.31410   13.68140   98.86310  127.32180  165.82380    0.02080    3.09890   16.44970 2338.17090 2249.55730
 3585.00000    8.48910    8.70670    8.46220    5.37770   -0.08440    0.00950   54.71990   45.19520   73.28690   87.29510   17.54430   13.73560  147.24510  165.56110   79.44420    0.01650    3.10000   14.05570 2328.02460 2251.70900
 3585.50000    8.49100    8.71780    8.47150    4.43560   -0.08580    0.00880   47.55440   45.03530   73.58530   87.08180   15.68090   12.94280  195.62700  203.80040  318.83470    0.01370    3.12380   13.05660 2332.34040 2230.98880
 3586.00000    8.49500    8.72890    8.47910    4.24680   -0.09210    0.00880   43.34230   45.49880   73.70380   87.50840   14.45890   12.07360  244.00900  242.03970  170.58210    0.01080    3.13580   12.29290 2327.85430 2224.05920
 3586.50000    8.50480    8.74000    8.48360    4.10530   -0.09810    0.01000   43.13030   46.25760   71.00370   88.51090   13.43670   10.80980  292.39090  299.07690  417.34080    0.00930    3.13380   10.40880 2334.07230 2224.38920
 3587.00000    8.51800    8.75110    8.48920    4.12930   -0.10380    0.01000   43.71470   47.01650   65.43820   90.37730   12.12770   10.34980  340.77280  356.11420  828.57910    0.00830    3.13140    8.84190 2340.29030 2251.61500
 3587.50000    8.52540    8.76220    8.49480    4.73670   -0.10430    0.00830   44.28100   47.27490   59.60620   92.21700   10.97460   10.27540  373.25490  405.47610  696.60400    0.00950    3.10360    8.51310 2346.50840 2244.93570
 3588.00000    8.53280    8.78500    8.50040    5.24350   -0.10060    0.00630   44.89540   47.27490   59.48480   93.74740   10.58560   10.23190  320.69990  413.10190  268.00260    0.01070    3.03960    9.18850 2352.72640 2248.02070
 3588.50000    8.54030    8.78650    8.50610    6.23340   -0.08930    0.00490   45.29190   47.27490   60.04150   93.96070   10.85460   10.13160  268.13050  349.00520  383.78280    0.01190    3.07740    9.76120 2343.30980 2230.72130
 3589.00000    8.54770    8.80470    8.51170    6.70230   -0.08340    0.00430   45.34040   47.26490   60.66280   94.17400   11.16400    9.51220  286.71290  291.34380  237.26840    0.01300    3.26760    9.62020 2329.72560 2213.42200
 3589.50000    8.55510    8.80460    8.51730    6.32810   -0.08090    0.00460   45.43410   47.21470   61.15950   95.18720   10.78630    9.11220  317.64260  322.73530  266.30280    0.01350    3.38410    8.57590 2327.59300 2196.12260
 3590.00000    8.56250    8.82080    8.52330    4.47480   -0.08280    0.00570   45.85190   47.16450   61.09800   95.34710    9.66460    9.08790  348.57220  394.38010  432.64280    0.01450    3.29460    7.36350 2315.01720 2185.64880
 3590.50000    8.57000    8.81990    8.53090    4.13070   -0.08380    0.00710   46.41880   47.11430   54.03230   95.18670    8.82700    9.30420  379.50190  466.02490  474.56400    0.01480    3.12590    6.22590 2311.73900 2214.80100
 3591.00000    8.57370    8.83440    8.53840    3.68600   -0.08410    0.00660   49.27740   47.32760   46.94230   95.40000    8.38900   10.30290  410.43160  474.68020  436.84840    0.01490    3.02890    6.22250 2317.94910 2250.26060
 3591.50000    8.57180    8.84900    8.54590    3.52310   -0.08470    0.00670   55.25850   47.78460   47.24080   96.48290    8.71630   12.15740  422.70430  474.68020  549.02120    0.01450    2.93180    6.26230 2311.04150 2257.35250
 3592.00000    8.57000    8.85050    8.55200    3.36020   -0.08370    0.00680   59.84330   48.27980   47.98910   97.75450    8.94800   14.79720  406.99170  461.75660  363.42160    0.01480    2.95100    6.98810 2308.01700 2253.33480
