~Version ---------------------------------------------------
VERS.   2.0 : CWLS log ASCII Standard -VERSION 2.0
WRAP.    NO : One line per depth step
DLM . SPACE : Column Data Section Delimiter
~Well ------------------------------------------------------
STRT .FT                145.0 : START DEPTH
STOP .FT               4376.0 : STOP DEPTH
STEP .FT                  0.5 : STEP
NULL .               -9999.25 : NULL VALUE
COMP .                        : COMPANY
WELL .                        : WELL
FLD  .                        : FIELD
LOC  .                        : LOCATION
PROV .                        : PROVINCE
CNTY .                        : COUNTY
STAT .                        : STATE
CTRY .                        : COUNTRY
SRVC .                        : SERVICE COMPANY
DATE .                        : DATE
UWI  .                        : UNIQUE WELL ID
API  .                        : API NUMBER
SLAT .WGS84 3.091432220729395 : SURFACE LATITUDE
SLON .WGS84 8.486743172162008 : SURFACE LONGITUDE
DATUM.F               3945.22 : DEPTH DATUM ELEV
~Curve Information -----------------------------------------
DEPT   .FT    : 
CAL1R  .IN    : CALIPER 1 FROM RESISTIVITY LOG
CALD   .IN    : CALIPER FROM DENSITY LOG
CALSR  .IN    : MICRO RESISTIVITY CALIPER FROM RESISTIVITY
CGRD   .GAPI  : CORRECTED GAMMA RAY FROM DENSITY LOG
DPHI_LS.DEC   : DENSITY POROSITY LIMESTONE
DRHO   .G/C3  : BULK DENSITY CORRECTION
DT     .US/F  : DELTA-T (INTERVAL TRANSIT TIME)
DTCO   .US/F  : DELTA-T COMPRESSIONAL
DTL    .US/F  : DELTA-T LONG SPACING
DTSM   .US/F  : DELTA-T SHEAR
GRR    .GAPI  : GAMMA RAY FROM RESISTIVITY LOG
GRS    .GAPI  : GAMMA RAY FROM SONIC LOG
LLD    .OHMM  : LATEROLOG DEEP RESISTIVITY
LLS    .OHMM  : LATEROLOG SHALLOW RESISTIVITY
MSFL   .OHMM  : MICRO SPHERICALLY FOCUSED RESISTIVITY
NPHI_LS.DEC   : NEUTRON POROSITY LIMESTONE
PEF    .B/E   : PHOTOELECTRIC FACTOR
SGRDD  .GAPI  : SPECTROSCOPY GAMMA RAY FROM DENSITY LOG
TEND   .LBF   : TENSION FROM DENSITY LOG
TENR   .LBF   : TENSION FROM RESISTIVITY LOG
~Params ----------------------------------------------------
~Other -----------------------------------------------------
~ASCII -----------------------------------------------------
# ...
 3312.50000   10.48960   10.64430   10.43770   11.18330   -0.14600    0.00500   51.69290   57.00670   49.31280   97.41580   14.87370   19.35600 1131.29200 1010.32060 1291.92950   -0.00720    4.77270   15.78870 2203.23820 2145.96540
 3313.00000   10.49870   10.66450   10.45120   10.45260   -0.15300    0.00890   55.86090   57.59590   50.13890   97.83810   14.52170   24.83160 1140.39450 1087.07280 2008.32150   -0.00800    4.46290   14.92980 2194.56180 2144.45190
 3313.50000   10.50780   10.68470   10.46470    9.74270   -0.16030    0.01160   60.50870   58.54310   51.11590   98.32060   13.44200   32.49580 1274.41770 1476.03250 2015.66460   -0.00810    4.43110   13.49500 2217.01560 2134.21100
 3314.00000   10.51690   10.68880   10.47820    9.17560   -0.15750    0.01260   64.18570   58.35200   52.09280   98.72610   14.11100   37.56880 1326.96930 1552.14530 2009.12850   -0.00600    4.90500   12.06020 2199.06480 2110.67890
 3314.50000   10.52600   10.68880   10.49440    9.63940   -0.13300    0.01280   65.13610   58.12480   53.06980   99.20940   19.31560   38.32860 1069.79600 1319.85930 2002.59240   -0.00370    5.37880   14.95470 2186.66140 2116.07630
 3315.00000   10.53510   10.68880   10.50530   10.29260   -0.09940    0.01530   65.94330   59.32860   54.04670  101.07070   28.71630   36.49460  682.71840 1047.82290 1985.32030    0.00640    5.40100   22.90350 2191.40360 2118.29000
 3315.50000   10.54420   10.69970   10.51440   20.94570   -0.06380    0.01580   65.68130   60.12330   55.02370  103.37620   38.11700   35.24560  295.64080  775.78650 1669.66100    0.01350    4.56000   44.20310 2183.73820 2120.50370
 3316.00000   10.55500   10.72380   10.52350   31.44520   -0.04650    0.01340   63.97160   60.97120   55.86820  104.47310   43.99690   34.95590  117.94650  503.75010 1165.63190    0.01260    3.80390   52.32520 2190.48590 2122.71740
 3316.50000   10.56590   10.74800   10.53260   29.47880   -0.03350    0.01130   62.43740   61.83700   56.51400  104.25530   44.55700   34.83220   79.84120  231.71360  661.60280    0.00950    3.39190   48.32090 2197.23370 2124.93120
 3317.00000   10.57130   10.76570   10.53200   27.34280   -0.04100    0.00980   60.86860   62.56150   57.15990  103.42720   43.09760   34.68840   56.95860   67.84010  157.57370    0.00640    3.39260   43.50890 2189.81100 2127.14490
 3317.50000   10.57130   10.78180   10.53120   25.93370   -0.04720    0.00730   63.44430   63.94290   57.34900  102.85830   41.63820   35.01560   61.25070   67.79270  136.48640    0.00920    3.73190   39.98180 2177.29420 2129.35860
 3318.00000   10.57190   10.79790   10.53050   24.52470   -0.04570    0.00620   67.43400   64.95080   57.34900  103.44060   40.17880   35.23890   64.09150   75.89150   95.38980    0.01360    3.99700   39.01270 2177.29420 2131.57230
 3318.50000   10.56430   10.78850   10.52970   24.94300   -0.04050    0.00510   70.31210   63.43170   56.36380  103.96840   39.22410   34.57350   60.03980   86.03000   58.04700    0.01750    4.03880   39.11400 2177.29420 2133.78610
 3319.00000   10.55130   10.79060   10.52890   25.99590   -0.03650    0.00550   70.58310   61.53370   54.38040  103.42410   40.15150   32.42120   84.32600   96.16850  106.45660    0.01950    3.97750   41.69080 2177.29420 2135.99980
 3319.50000   10.53840   10.79160   10.51820   26.67240   -0.03690    0.00690   70.73410   60.93650   52.29500  101.93790   42.06920   28.44340   82.71310  103.15820   65.10430    0.02150    3.82360   45.14120 2177.29420 2138.21350
 3320.00000   10.52550   10.75190   10.49300   25.86310   -0.03890    0.00830   69.15340   60.98490   51.36820  100.96710   43.25090   25.96130   73.99950  102.11720  117.94500    0.02360    3.66970   45.55150 2176.02500 2140.42720
 3320.50000   10.50060   10.71400   10.46820   23.90630   -0.04710    0.00960   67.52480   60.43340   50.81200  100.91240   39.55180   24.57450   73.33500   88.76730   65.46930    0.02330    3.54650   40.86280 2188.54780 2142.64100
 3321.00000   10.48220   10.67500   10.44340   21.29360   -0.06490    0.01090   66.52420   59.49170   50.99170  102.27940   35.32610   27.12940   79.10670   82.67420   85.68750    0.02020    3.53580   35.99640 2201.07070 2144.85470
 3321.50000   10.46390   10.64730   10.42320   19.38280   -0.08960    0.01230   66.08700   59.33170   53.15010  103.93690   30.42650   30.36850  101.08870   98.68720  395.86100    0.01500    3.70490   28.63740 2211.49740 2147.06840
 3322.00000   10.45120   10.63640   10.39960   15.25040   -0.10070    0.01200   66.70780   60.12960   55.84820  106.05130   24.40070   32.73940  123.07070  132.90660 1865.85590    0.00920    4.02010   22.68450 2202.14070 2145.68450
 3322.50000   10.41540   10.62360   10.37800   17.58600   -0.10670    0.01110   68.73260   61.75930   58.54620  108.27980   25.56650   34.02130  127.48960  142.37130 1331.77110    0.00890    4.28720   24.24510 2201.40730 2141.90230
 3323.00000   10.39050   10.60790   10.35640   20.26700   -0.07710    0.01060   70.15960   63.45250   59.66120  109.81540   29.33660   34.57600  118.83420  134.37460   52.87920    0.01630    4.36560   28.87530 2200.67390 2150.54710
 3323.50000   10.36560   10.59210   10.33480   25.75560   -0.05390    0.01080   69.24250   64.72920   60.38050  110.80050   34.66980   34.95350   97.15350  111.04520   96.48740    0.03020    4.16370   35.33210 2180.39360 2153.45490
 3324.00000   10.35570   10.55480   10.31310   30.12170   -0.03400    0.01100   67.99930   65.60480   60.58390  111.24680   39.83250   35.00270   75.47280   87.71580   29.17960    0.04540    3.74670   42.67790 2189.26000 2150.70440
 3324.50000   10.30770   10.51740   10.28550   33.67160   -0.01520    0.01120   67.54740   65.88620   60.40350  110.52560   42.68660   34.89570   53.79200   64.38640   57.49610    0.05410    3.24100   45.26290 2200.36770 2147.95390
 3325.00000   10.26500   10.48000   10.23360   33.48140   -0.00750    0.01140   70.03660   65.13910   56.08640  110.12410   43.96740   35.20140   43.49510   50.39320  126.46410    0.05840    3.04470   46.76130 2211.47530 2147.25540
 3325.50000   10.22230   10.44260   10.18170   32.38960   -0.01120    0.01030   71.30920   65.62930   49.19130  110.86910   42.67650   36.12150   43.50470   50.40430   30.29490    0.05940    2.99740   45.28950 2220.84700 2117.91180
 3326.00000   10.17960   10.40520   10.12980   31.17140   -0.01640    0.00830   71.58450   66.79120   40.25720  111.24100   40.65770   36.77400   43.91650   49.49840   37.80870    0.06000    3.20990   44.56350 2245.45700 2123.78050
 3326.50000   10.12610   10.35420   10.07800   29.95320   -0.02190    0.00730   70.87410   66.47080   48.49710  110.86610   38.63890   35.48940   43.13080   48.58340   70.63300    0.06040    3.44860   43.38760 2247.87080 2133.85280
 3327.00000   10.06970   10.27200   10.01020   29.46590   -0.02310    0.00640   68.86190   64.94330   58.72210  109.33600   38.49790   32.26210   42.35010   46.23230   90.88820    0.05820    3.68460   42.04220 2220.03510 2143.92500
 3327.50000    9.99100   10.18970    9.93830   31.00530   -0.01980    0.00550   64.75250   63.41580   57.89950  107.47170   41.40380   28.81020   41.49350   43.94710   67.12000    0.06060    3.85830   43.60750 2223.72470 2147.95390
 3328.00000    9.90670   10.13210    9.86650   33.56560   -0.01610    0.00380   56.50070   62.62990   53.78840  104.83580   43.72860   25.82470   40.63690   43.95680   29.33520    0.06220    3.82320   46.54680 2229.94070 2174.31820
 3328.50000    9.82240   10.07780    9.79610   33.15780   -0.02690    0.00240   53.64390   62.36270   52.84610  104.21230   41.81780   25.74500   40.47270   51.14560   21.91620    0.05670    3.71900   45.10180 2224.02070 2149.63290
 3329.00000    9.74700    9.98750    9.72770   25.48770   -0.05250    0.00320   52.80300   61.88230   52.60590  103.07330   36.64480   27.32750   45.39090   60.36490   97.62310    0.04580    3.75660   37.68930 2226.28610 2152.95710
 3329.50000    9.68490    9.89710    9.65930   18.27850   -0.07350    0.00420   53.07760   61.10330   51.52890  101.95190   31.47990   28.61330   66.18700   77.70610   98.54900    0.03490    3.97730   30.02150 2222.46250 2156.28140
