~Version ---------------------------------------------------
VERS.   2.0 : CWLS log ASCII Standard -VERSION 2.0
WRAP.    NO : One line per depth step
DLM . SPACE : Column Data Section Delimiter
~Well ------------------------------------------------------
STRT .FT                145.0 : START DEPTH
STOP .FT               4376.0 : STOP DEPTH
STEP .FT                  0.5 : STEP
NULL .               -9999.25 : NULL VALUE
COMP .                        : COMPANY
WELL .                        : WELL
FLD  .                        : FIELD
LOC  .                        : LOCATION
PROV .                        : PROVINCE
CNTY .                        : COUNTY
STAT .                        : STATE
CTRY .                        : COUNTRY
SRVC .                        : SERVICE COMPANY
DATE .                        : DATE
UWI  .                        : UNIQUE WELL ID
API  .                        : API NUMBER
SLAT .WGS84 3.091432220729395 : SURFACE LATITUDE
SLON .WGS84 8.486743172162008 : SURFACE LONGITUDE
DATUM.F               3945.22 : DEPTH DATUM ELEV
~Curve Information -----------------------------------------
DEPT   .FT    : 
CAL1R  .IN    : CALIPER 1 FROM RESISTIVITY LOG
CALD   .IN    : CALIPER FROM DENSITY LOG
CALSR  .IN    : MICRO RESISTIVITY CALIPER FROM RESISTIVITY
CGRD   .GAPI  : CORRECTED GAMMA RAY FROM DENSITY LOG
DPHI_LS.DEC   : DENSITY POROSITY LIMESTONE
DRHO   .G/C3  : BULK DENSITY CORRECTION
DT     .US/F  : DELTA-T (INTERVAL TRANSIT TIME)
DTCO   .US/F  : DELTA-T COMPRESSIONAL
DTL    .US/F  : DELTA-T LONG SPACING
DTSM   .US/F  : DELTA-T SHEAR
GRR    .GAPI  : GAMMA RAY FROM RESISTIVITY LOG
GRS    .GAPI  : GAMMA RAY FROM SONIC LOG
LLD    .OHMM  : LATEROLOG DEEP RESISTIVITY
LLS    .OHMM  : LATEROLOG SHALLOW RESISTIVITY
MSFL   .OHMM  : MICRO SPHERICALLY FOCUSED RESISTIVITY
NPHI_LS.DEC   : NEUTRON POROSITY LIMESTONE
PEF    .B/E   : PHOTOELECTRIC FACTOR
SGRDD  .GAPI  : SPECTROSCOPY GAMMA RAY FROM DENSITY LOG
TEND   .LBF   : TENSION FROM DENSITY LOG
TENR   .LBF   : TENSION FROM RESISTIVITY LOG
~Params ----------------------------------------------------
~Other -----------------------------------------------------
~ASCII -----------------------------------------------------
# ...
 3190.00000   10.62020   10.73010   10.57190   31.79860   -0.05420   -0.00010   69.18750   70.70960   94.80640  100.75500   39.05100   35.88870  104.61880   74.58440  237.45330    0.00470    3.83760   38.18090 2177.87450 2097.16420
 3190.50000   10.55550   10.66030   10.50590   33.68680   -0.03920   -0.00120   70.37460   69.10430  100.28490   99.63600   37.28770   32.75370  119.48870   79.16180  150.46460    0.00590    4.08510   40.40280 2164.22540 2098.16710
 3191.00000   10.49560   10.59720   10.44590   34.88330   -0.02220   -0.00070   75.94200   68.94630  104.01180  103.37730   36.28090   28.43640  127.77260   76.73440   63.47510    0.00870    3.99210   43.16310 2165.11760 2125.17130
 3191.50000   10.43570   10.56070   10.40980   36.35770   -0.01530    0.00270   78.85800   68.08120   99.99320  107.58460   37.39350   25.39870  109.30650   74.26700  123.16130    0.01210    3.75620   46.14940 2166.00990 2125.45640
 3192.00000   10.41370   10.52420   10.37380   35.45620   -0.02490    0.00720   78.90130   66.94320   79.40890  107.63980   39.24250   24.98490   68.95430   71.79970   92.12900    0.01480    3.57420   45.82650 2166.90210 2103.71420
 3192.50000   10.40210   10.48760   10.35460   33.06720   -0.05690    0.00900   80.19600   65.48310   84.00450  106.30890   38.35880   26.13740   52.33230   69.33230   20.15420    0.01190    3.52040   38.11870 2167.79430 2088.07700
 3193.00000   10.39130   10.45110   10.35060   25.53800   -0.09170    0.01060   82.47030   64.64950   95.24810  105.93730   33.92420   26.80170   75.55460   68.34870 1087.96420    0.00560    4.12100   30.81440 2168.68650 2072.25360
 3193.50000   10.38050   10.41460   10.34550   18.00890   -0.11170    0.00960   84.50930   63.65370   96.38110  106.41920   28.08260   27.19590  107.09290   70.91800  102.48200    0.00170    4.43120   22.33990 2169.57870 2089.65750
 3194.00000   10.37420   10.37810   10.33800   17.54790   -0.12130    0.00820   84.58880   62.74060   96.68780  108.38750   25.40800   28.49430  120.95740   96.44650 1095.49750    0.00090    4.62200   20.72570 2160.85800 2098.78120
 3194.50000   10.36960   10.34160   10.32430   18.37380   -0.12170    0.00740   81.53410   61.07230   94.81680  109.72950   25.78240   29.34370  122.08440   96.62560   63.90390    0.00340    4.81290   22.74340 2161.64990 2094.24230
 3195.00000   10.35720   10.30510   10.31060   20.19850   -0.12160    0.00740   75.95880   59.35460   89.43080  107.81170   26.44230   28.76750   84.63090   84.30110 1692.37520    0.00470    4.82520   23.30840 2162.44180 2062.43000
 3195.50000   10.34460   10.26860   10.30490   21.23570   -0.12150    0.00820   72.65510   58.08360   83.25790  104.73430   25.68870   26.57480   58.07750   71.97660 1253.27870    0.00950    4.89910   21.77490 2163.23360 2073.72010
 3196.00000   10.32940   10.22880   10.29500   22.41370   -0.10870    0.00960   74.33290   56.91680   83.41830  103.81650   25.46060   24.52540   48.29720   59.65210  814.18220    0.01550    4.95300   22.60770 2164.02550 2085.01020
 3196.50000   10.29830   10.18690   10.25840   23.50210   -0.09940    0.00960   80.48600   56.37200   97.34050  104.37160   27.21820   24.72140   40.10290   47.32760  375.08560    0.02430    4.81900   26.36840 2164.81730 2082.51710
 3197.00000   10.23420   10.15940   10.19940   24.15510   -0.08910    0.00960   84.98330   57.14780  108.30520  104.94030   28.13440   27.25830   62.56660   51.42180   23.66300    0.02650    4.52530   30.16540 2191.28760 2065.95730
 3197.50000   10.17010   10.14280   10.14050   19.82200   -0.09610    0.00960   87.22410   57.76610  113.38830  104.46220   26.44430   30.73410  118.72020   63.80880  459.87530    0.02350    4.23170   26.18590 2179.75750 2060.32290
 3198.00000   10.10600   10.12660   10.08150   14.16750   -0.11290    0.00960   87.18880   57.78970  114.40590  103.82420   24.44350   32.98990  174.87380   76.19580 1186.89350    0.01500    4.16720   22.17840 2165.34500 2065.27330
 3198.50000   10.05290   10.11730   10.02950   14.37870   -0.11410    0.00850   86.11620   57.59500   95.19250  103.98640   23.60790   35.50130  158.89100   86.10670 1131.04310    0.01240    4.51540   22.70930 2150.93250 2086.54240
 3199.00000   10.01650   10.11840    9.97750   15.51790   -0.10590    0.00570   90.25510   59.61700   69.73050  107.47600   26.33520   38.83980  102.74250   75.88260  668.50160    0.02570    5.04200   27.29010 2144.62700 2108.40540
 3199.50000    9.98000   10.11950    9.94140   16.54550   -0.06100    0.00100  100.05560   61.59360   64.59890  109.80300   30.20560   42.90750   68.35550   60.15260  205.96010    0.05510    5.15820   33.76240 2154.35570 2113.61360
 3200.00000    9.97940   10.12070    9.93550   17.10520   -0.04110    0.00260   99.79220   59.99380   77.82430  110.14530   32.89310   46.97510   64.86010   58.52080   62.79680    0.08910    4.51540   35.78110 2168.50500 2119.49310
 3200.50000    9.97890   10.12180    9.93540   17.71100   -0.02400    0.00600   83.20840   57.67480   91.35610  109.82190   36.29930   49.81280   63.57340   57.45370   60.15830    0.08500    3.83310   36.81220 2188.17600 2112.46640
 3201.00000    9.97830   10.12290    9.93540   18.70360   -0.02030    0.00800   76.55240   55.41810   93.08890  108.96550   40.48810   45.24550   58.35980   51.21580   43.19560    0.06700    3.32610   42.18050 2192.03380 2105.43970
 3201.50000    9.97820   10.12410    9.93370   20.20920   -0.01210    0.00700   72.46530   54.68010   93.13920  106.55130   49.61080   38.65210   45.32570   42.56540   53.54040    0.06340    3.08070   49.75320 2195.89160 2098.41300
 3202.00000    9.97820   10.12520    9.93110   29.55370    0.00970    0.00430   69.72010   54.61250   92.30590  102.71950   57.48750   29.75720   32.29170   33.91500   26.25870    0.09530    3.02440   60.71320 2195.33660 2100.76270
 3202.50000    9.97640   10.12630    9.92790   33.39980    0.00700    0.00380   66.04840   54.80030   91.65050  100.63620   62.00510   25.66990   21.86440   25.26460   10.28160    0.11480    3.00660   70.66700 2191.77580 2109.34700
 3203.00000    9.97150   10.12740    9.92480   31.10420   -0.02730    0.00800   64.26230   54.51370   86.17460  100.09950   56.70420   22.59340   22.06650   23.53450   63.48240    0.09780    3.00720   63.48080 2190.03280 2086.61090
 3203.50000    9.96360   10.12860    9.92160   22.88650   -0.07930    0.01410   63.79770   53.03900   75.98170   99.82540   46.02510   20.76930   51.60640   24.19320  117.40140    0.05940    3.15860   46.76220 2192.50750 2063.87480
 3204.00000    9.95560   10.12970    9.91840   16.60460   -0.09980    0.01440   62.98370   51.50810   50.07960   98.70210   33.66440   19.31570   88.01900   65.48120  109.68040    0.02850    3.55340   34.32060 2190.21630 2041.13860
 3204.50000    9.94770   10.13080    9.91520   11.71510   -0.13180    0.01260   61.32800   50.45540   60.67300   96.72470   24.81700   18.81680  168.83530  115.37480  298.49700    0.00610    4.13470   24.04910 2184.71600 2042.64470
 3205.00000    9.93980   10.13080    9.91200    9.43090   -0.14390    0.01100   59.71520   50.91170   71.76600   94.00090   19.02920   19.06840  260.75250  165.26830 1242.27490   -0.00100    4.30500   18.75460 2179.16780 2060.31220
 3205.50000    9.93180   10.13080    9.90880    8.33500   -0.15460    0.00980   58.45670   51.68630   73.50590   93.09060   16.19490   20.94670  352.66970  215.16190 1997.29710   -0.00280    4.44800   14.57040 2172.07660 2077.97960
 3206.00000    9.92760   10.13080    9.90190    8.83850   -0.15880    0.00860   58.29640   52.41130   65.98780   93.40680   15.26940   24.81650  415.39430  255.07670 1400.30750   -0.00240    4.59580   12.70480 2162.67080 2089.78300
 3206.50000    9.91540   10.13290    9.88640   10.07410   -0.13600    0.00740   63.97450   52.98030   56.59000   95.42020   16.40350   29.04550  411.58980  252.74050  405.32490    0.00230    4.74720   15.55860 2153.26510 2078.13000
 3207.00000    9.90310   10.13940    9.87090   13.24330   -0.10270    0.00670   72.27370   54.55840   47.19210   96.59840   19.78260   34.14060  381.57770  193.73130  219.48340    0.00790    4.51580   20.55130 2143.85940 2066.47710
