~Version ---------------------------------------------------
VERS.   2.0 : CWLS log ASCII Standard -VERSION 2.0
WRAP.    NO : One line per depth step
DLM . SPACE : Column Data Section Delimiter
~Well ------------------------------------------------------
STRT .FT                145.0 : START DEPTH
STOP .FT               4376.0 : STOP DEPTH
STEP .FT                  0.5 : STEP
NULL .               -9999.25 : NULL VALUE
COMP .                        : COMPANY
WELL .                        : WELL
FLD  .                        : FIELD
LOC  .                        : LOCATION
PROV .                        : PROVINCE
CNTY .                        : COUNTY
STAT .                        : STATE
CTRY .                        : COUNTRY
SRVC .                        : SERVICE COMPANY
DATE .                        : DATE
UWI  .                        : UNIQUE WELL ID
API  .                        : API NUMBER
SLAT .WGS84 3.091432220729395 : SURFACE LATITUDE
SLON .WGS84 8.486743172162008 : SURFACE LONGITUDE
DATUM.F               3945.22 : DEPTH DATUM ELEV
~Curve Information -----------------------------------------
DEPT   .FT    : 
CAL1R  .IN    : CALIPER 1 FROM RESISTIVITY LOG
CALD   .IN    : CALIPER FROM DENSITY LOG
CALSR  .IN    : MICRO RESISTIVITY CALIPER FROM RESISTIVITY
CGRD   .GAPI  : CORRECTED GAMMA RAY FROM DENSITY LOG
DPHI_LS.DEC   : DENSITY POROSITY LIMESTONE
DRHO   .G/C3  : BULK DENSITY CORRECTION
DT     .US/F  : DELTA-T (INTERVAL TRANSIT TIME)
DTCO   .US/F  : DELTA-T COMPRESSIONAL
DTL    .US/F  : DELTA-T LONG SPACING
DTSM   .US/F  : DELTA-T SHEAR
GRR    .GAPI  : GAMMA RAY FROM RESISTIVITY LOG
GRS    .GAPI  : GAMMA RAY FROM SONIC LOG
LLD    .OHMM  : LATEROLOG DEEP RESISTIVITY
LLS    .OHMM  : LATEROLOG SHALLOW RESISTIVITY
MSFL   .OHMM  : MICRO SPHERICALLY FOCUSED RESISTIVITY
NPHI_LS.DEC   : NEUTRON POROSITY LIMESTONE
PEF    .B/E   : PHOTOELECTRIC FACTOR
SGRDD  .GAPI  : SPECTROSCOPY GAMMA RAY FROM DENSITY LOG
TEND   .LBF   : TENSION FROM DENSITY LOG
TENR   .LBF   : TENSION FROM RESISTIVITY LOG
~Params ----------------------------------------------------
~Other -----------------------------------------------------
~ASCII -----------------------------------------------------
# ...
 3452.50000    9.26540    9.40590    9.22580   12.84000   -0.08100    0.00510   46.03160   49.30870   43.67670   87.29510   17.40140   18.43140  298.26960  234.19910  283.05290    0.00940    3.47300   18.58750 2229.00880 2225.67210
 3453.00000    9.26890    9.40600    9.22780   10.53960   -0.08280    0.00460   45.42910   49.99190   44.37230   87.45650   17.18110   19.76310  302.41160  249.27620  304.21360    0.00890    3.38310   18.02220 2243.63690 2224.08850
 3453.50000    9.27240    9.40610    9.22980    9.77850   -0.08420    0.00410   45.29730   53.86110   47.08000   92.49710   17.52620   20.85660  294.17810  256.25290  329.48470    0.00850    3.28900   17.95970 2257.07090 2222.50490
 3454.00000    9.27590    9.40620    9.23180   10.03970   -0.08370    0.00390   46.18720   55.81360   50.95310   97.69760   17.33790   21.25080  265.61990  243.14410  325.47240    0.00870    3.34070   19.06870 2253.77950 2220.92120
 3454.50000    9.27390    9.40630    9.23390   10.61060   -0.07900    0.00390   47.85580   53.65670   54.11150   96.38580   16.79420   20.84420  235.74000  229.69180  235.65860    0.00930    3.43290   19.64200 2279.44190 2219.33760
 3455.00000    9.26930    9.40640    9.23590   10.21050   -0.07380    0.00390   49.20510   50.64740   51.51560   93.28760   16.90760   20.26320  205.86010  216.23950  148.86690    0.00970    3.52510   19.68560 2284.37160 2217.75390
 3455.50000    9.26470    9.40650    9.23790    9.79640   -0.07150    0.00720   49.85880   49.27240   47.96450   91.83570   18.12410   19.64170  180.47500  205.47770  382.67350    0.01010    3.56590   19.22540 2277.25490 2216.92210
 3456.00000    9.26030    9.40660    9.23670   11.21940   -0.07210    0.01010   48.95970   47.81280   47.51480   92.85040   19.55530   19.01710  156.21370  196.23870  724.62120    0.01330    3.54040   22.34850 2270.13830 2219.09770
 3456.50000    9.26150    9.40670    9.23470   12.80710   -0.07270    0.01420   48.16730   46.35320   46.98170   90.09650   20.98650   18.48600  131.95240  173.13880  243.14860    0.01690    3.44880   25.46970 2270.82870 2221.27320
 3457.00000    9.26640    9.40660    9.23270   12.09200   -0.07520    0.01840   47.27610   44.80600   46.11550   87.86340   21.30880   17.77750  107.69110  150.94230  566.33300    0.01840    3.33770   25.33470 2255.34970 2236.08230
 3457.50000    9.25980    9.40640    9.23070   10.84930   -0.08150    0.02050   45.78120   44.41380   45.26250   86.72190   20.26180   17.06900   93.13430  128.74580 1004.23740    0.01700    3.22760   21.56000 2254.40260 2228.75640
 3458.00000    9.26550    9.40610    9.22870    7.75350   -0.08990    0.02110   44.68940   46.50630   44.42960   86.83010   18.95280   17.09790   99.35470  106.54930  104.94220    0.01060    3.21020   19.51710 2261.97510 2221.43050
 3458.50000    9.26540    9.40590    9.22670    7.02790   -0.09660    0.02130   45.17080   48.99630   41.50540   88.37770   17.64380   18.34400  130.45690  113.42540  103.98100    0.00900    3.25080   17.09610 2275.22750 2214.10450
 3459.00000    9.26140    9.40570    9.22480    6.45350   -0.10020    0.02130   46.57670   51.76070   38.28300   90.47400   16.44560   20.64620  161.55900  165.28290  244.74390    0.00810    3.37380   15.50540 2281.62320 2206.77860
 3459.50000    9.26160    9.40540    9.22280    6.28920   -0.10470    0.02120   48.74900   53.58330   37.34350   92.74530   15.32120   24.70800  192.66120  217.14050  596.65100    0.00830    3.38290   14.73910 2254.23610 2211.20980
 3460.00000    9.26460    9.40480    9.22080    8.94830   -0.10540    0.02180   50.72920   55.77390   39.98220   95.04450   17.06270   28.18600  194.44200  217.14050  465.91080    0.00880    3.36340   16.67860 2257.48610 2218.45710
 3460.50000    9.26760    9.40420    9.21880   10.28440   -0.09860    0.01700   52.70940   56.36690   49.55200   96.98960   20.79930   32.67910  173.80690  198.57190  401.89230    0.00880    3.34400   20.00510 2260.73610 2232.40230
 3461.00000    9.26660    9.40360    9.21580   13.58340   -0.07780    0.01470   53.02120   54.72050   52.36960   96.93220   27.03580   34.77790  126.67120  157.12250  252.51400    0.01900    3.33670   24.43320 2266.22130 2227.60110
 3461.50000    9.26570    9.40300    9.21250   17.04760   -0.05190    0.00830   52.19830   52.81580   51.98510   96.01120   33.08120   33.30790   79.53560  115.67310  103.13570    0.02880    3.41620   31.16530 2273.19650 2227.60110
 3462.00000    9.26470    9.40630    9.20930   24.86420   -0.03080    0.00380   50.37200   51.24370   50.06770   94.57830   39.27540   29.21930   41.27300   74.22370   38.08060    0.05280    3.39860   38.18110 2269.06820 2219.48750
 3462.50000    9.26750    9.39370    9.20600   27.82390   -0.01920    0.00140   48.71810   50.29240   48.15030   91.91540   40.86900   26.01630   38.50290   41.06420   29.24100    0.07690    3.25540   45.19700 2260.14580 2214.20510
 3463.00000    9.27210    9.40820    9.20280   28.20840   -0.02260    0.00320   46.70780   49.43920   46.23280   90.41050   39.95550   23.58310   38.50290   41.06420   20.40140    0.08020    3.08050   44.62650 2259.13110 2217.64920
 3463.50000    9.25980    9.40610    9.19950   25.46020   -0.04000    0.00560   45.78070   47.89660   42.65200   90.40660   36.97980   21.77800   40.42400   55.80220   38.86740    0.07740    2.95410   39.79450 2258.11640 2217.64920
 3464.00000    9.23800    9.40410    9.19630   21.05290   -0.05370    0.00740   45.14470   46.59030   39.83810   89.92300   31.06980   20.80190   65.78240   77.79980   69.64410    0.06360    2.98000   34.18340 2257.10160 2199.85570
 3464.50000    9.22960    9.40200    9.19300   16.64560   -0.06310    0.00830   44.68190   46.68680   34.98990   89.22540   25.92390   19.95400   96.68000   99.79730   88.92460    0.04480    3.04060   29.52200 2256.08690 2217.64920
 3465.00000    9.22440    9.40120    9.18980   13.73890   -0.06850    0.00910   44.54380   48.83140   39.14490   90.40100   21.99780   19.44820  127.57760  121.79480   88.92460    0.03150    3.08810   24.58150 2255.07210 2229.81590
 3465.50000    9.21770    9.40410    9.18650   11.20740   -0.07600    0.00940   45.39500   52.07590   41.99850   92.82990   21.02050   20.93310  158.47510  143.79230  135.67350    0.02140    3.08830   21.47900 2277.12060 2236.55160
 3466.00000    9.22420    9.39660    9.18750    8.85390   -0.08560    0.00770   46.78070   54.58720   43.47840   94.21630   21.45030   23.29820  189.37270  165.78980  242.07930    0.01740    3.07020   19.17530 2270.10080 2236.72110
 3466.50000    9.22350    9.39730    9.18850    8.63180   -0.08290    0.00540   48.42150   54.81120   39.77820   94.98780   22.30670   26.14920  203.59640  182.31260  224.11880    0.01520    3.08470   18.25420 2263.14920 2232.56210
 3467.00000    9.22290    9.39800    9.18950    9.72260   -0.07460    0.00240   50.23540   53.42600   31.26230   95.71120   22.99460   28.31860  198.05330  180.64280  189.10120    0.01580    3.13280   20.77550 2262.97870 2228.40300
 3467.50000    9.22220    9.39870    9.19040   14.08960   -0.06350   -0.00010   51.34350   53.69490   24.98760   96.27360   24.90190   30.15880  168.57140  136.14240  158.86860    0.02220    3.17390   25.20870 2262.80810 2224.24400
 3468.00000    9.22150    9.39940    9.19140   19.12220   -0.04620   -0.00010   51.67650   53.99060   28.72220   96.70310   29.01970   30.66060  125.45360   91.64200  119.07970    0.03050    3.16370   30.98820 2249.21090 2220.08500
 3468.50000    9.22090    9.40010    9.19060   22.94350   -0.02280    0.00240   52.26800   54.14660   38.20950   97.03190   32.13350   28.95040   82.33580   47.14150   54.05840    0.04500    3.14760   35.19290 2264.55430 2215.92600
 3469.00000    9.22020    9.40070    9.18860   26.54270   -0.00670    0.00430   52.33340   54.40800   47.23770   97.29490   35.81250   27.27010   39.21800   42.21350   29.13470    0.05020    3.11360   39.12220 2279.02090 2211.76700
 3469.50000    9.21980    9.40140    9.18650   29.20320    0.00280    0.00680   53.39990   56.73500   52.97740   99.35970   36.88820   29.69400   38.85880   42.21350   31.64870    0.05160    3.01480   42.50140 2292.17230 2207.60790
