~Version ---------------------------------------------------
VERS.   2.0 : CWLS log ASCII Standard -VERSION 2.0
WRAP.    NO : One line per depth step
DLM . SPACE : Column Data Section Delimiter
~Well ------------------------------------------------------
STRT .FT                145.0 : START DEPTH
STOP .FT               4376.0 : STOP DEPTH
STEP .FT                  0.5 : STEP
NULL .               -9999.25 : NULL VALUE
COMP .                        : COMPANY
WELL .                        : WELL
FLD  .                        : FIELD
LOC  .                        : LOCATION
PROV .                        : PROVINCE
CNTY .                        : COUNTY
STAT .                        : STATE
CTRY .                        : COUNTRY
SRVC .                        : SERVICE COMPANY
DATE .                        : DATE
UWI  .                        : UNIQUE WELL ID
API  .                        : API NUMBER
SLAT .WGS84 3.091432220729395 : SURFACE LATITUDE
SLON .WGS84 8.486743172162008 : SURFACE LONGITUDE
DATUM.F               3945.22 : DEPTH DATUM ELEV
~Curve Information -----------------------------------------
DEPT   .FT    : 
CAL1R  .IN    : CALIPER 1 FROM RESISTIVITY LOG
CALD   .IN    : CALIPER FROM DENSITY LOG
CALSR  .IN    : MICRO RESISTIVITY CALIPER FROM RESISTIVITY
CGRD   .GAPI  : CORRECTED GAMMA RAY FROM DENSITY LOG
DPHI_LS.DEC   : DENSITY POROSITY LIMESTONE
DRHO   .G/C3  : BULK DENSITY CORRECTION
DT     .US/F  : DELTA-T (INTERVAL TRANSIT TIME)
DTCO   .US/F  : DELTA-T COMPRESSIONAL
DTL    .US/F  : DELTA-T LONG SPACING
DTSM   .US/F  : DELTA-T SHEAR
GRR    .GAPI  : GAMMA RAY FROM RESISTIVITY LOG
GRS    .GAPI  : GAMMA RAY FROM SONIC LOG
LLD    .OHMM  : LATEROLOG DEEP RESISTIVITY
LLS    .OHMM  : LATEROLOG SHALLOW RESISTIVITY
MSFL   .OHMM  : MICRO SPHERICALLY FOCUSED RESISTIVITY
NPHI_LS.DEC   : NEUTRON POROSITY LIMESTONE
PEF    .B/E   : PHOTOELECTRIC FACTOR
SGRDD  .GAPI  : SPECTROSCOPY GAMMA RAY FROM DENSITY LOG
TEND   .LBF   : TENSION FROM DENSITY LOG
TENR   .LBF   : TENSION FROM RESISTIVITY LOG
~Params ----------------------------------------------------
~Other -----------------------------------------------------
~ASCII -----------------------------------------------------
# ...
 4205.00000    8.12780    8.19100    8.09600    6.99970   -0.04210    0.00380   49.61880   52.36980   49.19040   94.24740   26.29590   27.35230   27.43960   25.49180   25.66860    0.10850    3.31800   27.24000 2480.64010 2494.00400
 4205.50000    8.12380    8.18970    8.08910    6.95390   -0.03780    0.00080   49.79530   53.73140   49.25190   94.32740   21.85960   24.58430   28.02260   26.42170   16.84320    0.11150    3.38290   23.14220 2502.46400 2498.50260
 4206.00000    8.11880    8.18840    8.08210    7.11830   -0.03220   -0.00220   50.03290   54.30730   49.31340   93.42090   19.04130   22.91440   28.45860   27.58520   18.49980    0.11170    3.51120   21.49580 2524.28800 2481.31520
 4206.50000    8.11380    8.18710    8.07520    7.28270   -0.02410   -0.00370   50.46410   53.61410   49.57130   93.15430   17.34650   22.15020   26.76510   28.74860   25.23060    0.10640    3.62800   20.49800 2532.43530 2464.12780
 4207.00000    8.10870    8.18570    8.06830    7.18480   -0.01930   -0.00430   50.81890   53.69230   49.91400   92.94100   17.11050   21.55270   23.83570   27.78090   30.61430    0.10570    3.81690   19.66000 2520.06760 2442.00560
 4207.50000    8.10370    8.18440    8.06420    7.55370   -0.01290   -0.00290   50.50970   54.08330   50.25670   92.94100   18.28220   21.09030   20.90630   24.43530   31.17760    0.10960    3.85870   19.95770 2507.70000 2454.73470
 4208.00000    8.09870    8.18310    8.06320    8.20840   -0.00750    0.00020   50.09860   54.47440   50.36520   93.98080   19.89360   20.91170   18.97200   21.08960   14.64250    0.12110    3.75670   21.73180 2505.21780 2481.30720
 4208.50000    8.09370    8.18180    8.06180    8.76520   -0.00620    0.00250   49.56450   54.84050   49.27770   95.07400   21.34220   20.94000   18.79500   20.41760   14.80610    0.13440    3.64740   21.84920 2509.70390 2499.49040
 4209.00000    8.08860    8.18040    8.06050    7.76680   -0.01110    0.00350   49.13960   54.94720   48.82600   94.38080   19.76230   20.98440   25.19300   35.86400   23.00200    0.12970    3.53660   20.76360 2514.19010 2479.17860
 4209.50000    8.08690    8.17910    8.05920    6.76840   -0.02010    0.00440   48.97630   54.97920   48.57610   93.58090   17.21630   20.04960   35.56890   51.31040   30.56140    0.11450    3.54010   18.06380 2518.69080 2470.33770
 4210.00000    8.08760    8.17780    8.05790    5.53980   -0.03240    0.00320   48.86140   54.84040   48.52620   92.88750   14.89480   18.45150   45.94480   66.75680   43.34160    0.10320    3.70150   16.58320 2523.19160 2463.07830
 4210.50000    8.08830    8.17650    8.05690    6.71290   -0.04120    0.00280   48.66530   54.46710   48.20160   92.72750   15.04220   16.74010   60.86900   82.20310   48.01640    0.09060    3.78070   16.00220 2527.69240 2458.19100
 4211.00000    8.08900    8.17510    8.05280    7.51240   -0.05080    0.00320   48.29960   54.15200   47.87890   92.30090   16.03440   16.02170  104.35070   92.32500   93.06940    0.08420    3.81550   16.81040 2532.19320 2453.30380
 4211.50000    8.08970    8.17380    8.04870    8.98540   -0.06020    0.00420   48.08990   53.83690   47.68710   92.41830   17.02660   16.43910  107.49840   92.34610   83.43680    0.07460    3.78720   19.10990 2536.69400 2448.41660
 4212.00000    8.09640    8.17250    8.04460   10.68370   -0.06660    0.00620   48.42630   53.66720   48.03110   93.04750   18.36690   17.48260   89.98590   78.34890  143.51470    0.06630    3.80100   21.80320 2541.19470 2481.23240
 4212.50000    8.08620    8.17120    8.04050   12.38190   -0.06660    0.00910   49.03220   53.09590   48.67090   92.14100   21.32400   20.39880   72.47340   61.90450  291.75240    0.06890    3.84530   25.15290 2560.89370 2460.41570
 4213.00000    8.07590    8.16980    8.03640   14.07470   -0.05750    0.01130   49.72470   52.70730   49.31070   92.36020   24.72100   22.96620   54.96090   45.46020  186.04490    0.08560    3.89370   28.43950 2580.59260 2466.93380
 4213.50000    8.06570    8.16850    8.03240   14.20390   -0.04690    0.01140   50.50030   53.13930   49.95060   92.77500   28.73080   26.01310   37.44840   29.01580   11.34030    0.09940    3.81040   32.48020 2593.20440 2464.49490
 4214.00000    8.05540    8.16720    8.02040   14.33310   -0.03820    0.01210   50.76850   53.85920   50.20660   93.04750   30.29500   27.63410   26.94340   25.73040   20.44000    0.10920    3.61240   34.84100 2605.81620 2458.15820
 4214.50000    8.04510    8.16930    8.00650   13.40500   -0.04280    0.01280   50.22490   54.25380   49.34720   93.10080   28.47110   28.12670   40.59520   26.21550   29.53960    0.10160    3.55050   32.89670 2593.67700 2451.82150
 4215.00000    8.03490    8.16450    7.99260   11.12930   -0.05410    0.01390   48.94570   53.77390   48.24790   93.10080   25.74140   27.29000   57.65840   44.34570   31.22340    0.08390    3.56980   28.37860 2561.04450 2450.29170
 4215.50000    8.02330    8.14150    7.97860    9.13510   -0.06430    0.01460   48.08080   54.02270   47.46170   91.84770   22.07790   25.04980   74.72160   62.47600   85.98800    0.06990    3.64450   21.16650 2522.80650 2451.96650
 4216.00000    8.00740    8.11850    7.96470    7.14090   -0.06990    0.01760   47.72240   54.04050   46.76890   90.75450   19.51380   21.13230   88.37620   80.60630  216.92490    0.05850    3.64390   18.25280 2520.18100 2453.64130
 4216.50000    7.99140    8.09540    7.95510    7.69060   -0.07090    0.01940   47.67750   53.50720   47.03950   90.38130   18.22450   19.68460   80.70460   79.15450  243.15660    0.05710    3.58100   16.37550 2528.21850 2455.31610
 4217.00000    7.98190    8.08740    7.94540    8.38960   -0.06170    0.01600   47.79760   53.50720   47.55700   90.32790   19.25030   18.31030   71.11010   68.75860  103.17920    0.07950    3.48330   17.04640 2536.25610 2456.41690
 4217.50000    7.98220    8.06690    7.93580    9.08870   -0.04750    0.01230   47.98520   53.50720   48.07460   90.75450   20.76290   18.62930   61.51550   52.62860   19.07790    0.10480    3.38570   19.40450 2545.27620 2443.44950
 4218.00000    7.97190    8.04220    7.92610    9.78770   -0.03490    0.01120   48.46680   53.64940   48.48870   90.38130   34.13770   19.99920   51.92100   39.72640   18.84880    0.11510    3.29810   26.53620 2558.22670 2417.22910
 4218.50000    7.97190    8.01760    7.91840   13.56690   -0.03070    0.01030   48.46690   53.79160   48.48880   89.92270   47.51250   25.02790   60.64050   39.37150  386.29330    0.10470    3.26220   45.55500 2574.33580 2401.56860
 4219.00000    7.97190    8.00300    7.92570   16.59440   -0.03750    0.00980   47.86370   53.93380   48.36900   89.79470   64.51370   35.16150  113.79840   70.39420 1301.29800    0.08140    3.36300   69.10990 2603.07980 2412.26710
 4219.50000    7.97260    8.00350    7.93750   19.43380   -0.05070    0.01060   47.10960   53.56060   47.92220   90.54560   83.55900   49.03690  166.95620  117.07960 1965.97470    0.05810    3.48650   98.77480 2631.82370 2429.86010
 4220.00000    7.97260    8.00390    7.94930   21.70540   -0.06170    0.01140   46.39760   52.87540   46.88700   91.41760   93.35450   63.53060  220.11410  163.76500  300.94880    0.03720    3.61610  113.15620 2660.56770 2447.45310
 4220.50000    7.97260    8.00440    7.96110   20.31900   -0.06400    0.01200   46.03450   52.09570   45.85170   91.81690   87.07040   75.20030  243.60840  195.33800  261.79220    0.03770    3.64690   97.73800 2689.31160 2473.85570
 4221.00000    7.97260    8.00490    7.96500   17.77240   -0.05980    0.01190   46.28450   51.36390   45.43760   91.26920   71.31050   70.90770  214.69750  176.56250  188.44980    0.05040    3.64490   72.98740 2700.43640 2463.51660
 4221.50000    7.97620    8.00540    7.96080   15.22590   -0.05410    0.01170   46.94370   51.64740   46.12810   90.68920   53.94470   58.14310  181.34780  148.25180   62.39870    0.06470    3.57420   52.16720 2698.22100 2437.98020
 4222.00000    7.98730    8.00580    7.95660   12.67930   -0.04820    0.01160   47.60290   52.20750   47.01220   91.00490   44.63320   48.14460  147.99800  119.94120   70.32730    0.07900    3.46560   45.53400 2696.00560 2417.53520
