~Version ---------------------------------------------------
VERS.   2.0 : CWLS log ASCII Standard -VERSION 2.0
WRAP.    NO : One line per depth step
DLM . SPACE : Column Data Section Delimiter
~Well ------------------------------------------------------
STRT .FT                145.0 : START DEPTH
STOP .FT               4376.0 : STOP DEPTH
STEP .FT                  0.5 : STEP
NULL .               -9999.25 : NULL VALUE
COMP .                        : COMPANY
WELL .                        : WELL
FLD  .                        : FIELD
LOC  .                        : LOCATION
PROV .                        : PROVINCE
CNTY .                        : COUNTY
STAT .                        : STATE
CTRY .                        : COUNTRY
SRVC .                        : SERVICE COMPANY
DATE .                        : DATE
UWI  .                        : UNIQUE WELL ID
API  .                        : API NUMBER
SLAT .WGS84 3.091432220729395 : SURFACE LATITUDE
SLON .WGS84 8.486743172162008 : SURFACE LONGITUDE
DATUM.F               3945.22 : DEPTH DATUM ELEV
~Curve Information -----------------------------------------
DEPT   .FT    : 
CAL1R  .IN    : CALIPER 1 FROM RESISTIVITY LOG
CALD   .IN    : CALIPER FROM DENSITY LOG
CALSR  .IN    : MICRO RESISTIVITY CALIPER FROM RESISTIVITY
CGRD   .GAPI  : CORRECTED GAMMA RAY FROM DENSITY LOG
DPHI_LS.DEC   : DENSITY POROSITY LIMESTONE
DRHO   .G/C3  : BULK DENSITY CORRECTION
DT     .US/F  : DELTA-T (INTERVAL TRANSIT TIME)
DTCO   .US/F  : DELTA-T COMPRESSIONAL
DTL    .US/F  : DELTA-T LONG SPACING
DTSM   .US/F  : DELTA-T SHEAR
GRR    .GAPI  : GAMMA RAY FROM RESISTIVITY LOG
GRS    .GAPI  : GAMMA RAY FROM SONIC LOG
LLD    .OHMM  : LATEROLOG DEEP RESISTIVITY
LLS    .OHMM  : LATEROLOG SHALLOW RESISTIVITY
MSFL   .OHMM  : MICRO SPHERICALLY FOCUSED RESISTIVITY
NPHI_LS.DEC   : NEUTRON POROSITY LIMESTONE
PEF    .B/E   : PHOTOELECTRIC FACTOR
SGRDD  .GAPI  : SPECTROSCOPY GAMMA RAY FROM DENSITY LOG
TEND   .LBF   : TENSION FROM DENSITY LOG
TENR   .LBF   : TENSION FROM RESISTIVITY LOG
~Params ----------------------------------------------------
~Other -----------------------------------------------------
~ASCII -----------------------------------------------------
# ...
 3820.00000    8.50060    8.48110    8.45320   10.73840   -0.08880    0.01190   43.76220   51.29810   43.83920   88.55550   28.26310   25.12130  363.34790  284.11250 1068.09480    0.01460    3.29950   26.52330 2475.97120 2316.14620
 3820.50000    8.49250    8.47940    8.44430   11.31510   -0.08680    0.01040   43.88520   51.24390   44.12190   89.03340   29.42850   25.21200  320.15270  258.95100  508.33440    0.01400    3.24470   26.63040 2475.60900 2319.65900
 3821.00000    8.48450    8.47760    8.43550   12.26820   -0.08790    0.00960   44.11990   50.69750   44.24040   88.99260   30.24880   24.83940  276.95740  233.78960  166.24560    0.01580    3.18870   27.66660 2475.24690 2323.17180
 3821.50000    8.47640    8.47580    8.42660   13.22120   -0.09190    0.00980   44.35230   50.27250   44.39880   89.00430   30.62520   24.97090  260.54790  208.62810  190.89400    0.01730    3.08760   28.08210 2478.83510 2326.68460
 3822.00000    8.46830    8.47550    8.41960   13.60160   -0.09650    0.00960   44.54040   50.50400   44.63720   89.95880   29.01170   25.45600  250.83480  199.88340  166.24560    0.01730    2.99660   28.49080 2474.96790 2330.19740
 3822.50000    8.46350    8.47550    8.41960   14.69480   -0.09920    0.00890   44.96980   51.12300   44.98430   91.21690   27.26010   25.91440  241.12170  190.31970  166.24560    0.01640    2.90560   29.37190 2465.28630 2340.98490
 3823.00000    8.46830    8.47550    8.41960   15.42660   -0.09580    0.00760   45.72570   51.49610   45.92720   92.18920   26.75060   26.27640  231.40860  170.98730  193.86450    0.01590    2.92290   30.44230 2461.01960 2351.60010
 3823.50000    8.49270    8.47550    8.41960   15.74020   -0.08790    0.00470   46.90310   52.06100   46.87010   92.46890   27.28140   27.61460  227.36430  146.03530  198.00420    0.01610    2.96790   30.63560 2462.15450 2362.21520
 3824.00000    8.51700    8.47550    8.45230   17.38830   -0.07480    0.00340   47.90460   52.62600   47.81300   93.36880   32.83080   31.49620  190.65810  117.33690  192.61330    0.02000    3.10440   33.67540 2460.41190 2371.57430
 3824.50000    8.52570    8.47550    8.48100   20.49500   -0.06380    0.00240   48.15220   53.19090   48.22920   94.80300   39.30320   35.64080  132.95170   88.63860  127.84300    0.03430    3.26730   41.92450 2464.12150 2375.90920
 3825.00000    8.54500    8.47550    8.50980   25.57990   -0.05290    0.00140   47.65250   53.37030   47.50820   95.54500   45.77560   34.86370   75.24540   59.94030   57.70580    0.06260    3.37270   51.22110 2464.56940 2380.24400
 3825.50000    8.56430    8.46680    8.52570   26.28560   -0.04830    0.00180   47.36850   53.36360   47.50690   94.12450   51.00670   32.10030   52.16280   48.01710   15.48030    0.08350    3.34620   58.55590 2438.78050 2384.57880
 3826.00000    8.56430    8.46030    8.51880   20.28140   -0.04630    0.00120   47.76440   53.45390   48.14520   92.41860   47.39740   27.98210   55.27560   51.01150  265.79480    0.08320    3.33070   50.11630 2438.78050 2388.91370
 3826.50000    8.53100    8.45390    8.48450   12.77780   -0.03610    0.00070   48.73820   53.25620   48.84350   91.47660   39.17050   27.58260   70.83920   63.76440  244.26260    0.07420    3.41630   39.58430 2438.78050 2380.89990
 3827.00000    8.48760    8.45400    8.45020    8.11830   -0.01920    0.00070   49.26980   52.77650   49.54180   92.41730   34.93500   27.87140   86.40280   76.51730  136.60170    0.08570    3.54720   31.05100 2445.37370 2376.86000
 3827.50000    8.44220    8.45280    8.41580    7.08600   -0.00370    0.00060   49.63460   52.43680   49.58040   93.31520   33.26130   28.09350   96.62590   84.94700   28.94070    0.09230    3.53950   28.80720 2471.03050 2369.00330
 3828.00000    8.44220    8.45870    8.39830    7.15900    0.01510    0.00090   49.45550   52.96700   49.19260   93.06040   32.07020   28.16010   98.42050   87.32450   99.78710    0.11900    3.44120   28.56690 2478.55440 2361.14660
 3828.50000    8.50440    8.45200    8.43840    7.23190    0.01900    0.00220   48.73560   53.10790   48.44820   92.47280   30.82510   28.22680  114.48210   93.13400  172.47820    0.11730    3.31010   29.46260 2506.93090 2353.28980
 3829.00000    8.58020    8.44980    8.51220    7.32750    0.01200    0.00430   48.12240   52.60710   47.79730   92.23220   29.66980   28.33220  150.06630  121.99260  168.23350    0.10400    3.19340   30.81810 2510.92070 2347.00440
 3829.50000    8.58550    8.44750    8.55230    7.45720   -0.00720    0.00610   47.86290   52.39170   47.49600   92.68600   30.43950   28.32490  185.65040  162.78240  160.23830    0.08680    3.06060   32.45250 2471.52720 2361.72190
 3830.00000    8.55900    8.45410    8.54380    8.10780   -0.03010    0.00760   47.92060   52.91600   47.76690   92.86310   33.00490   27.92580  201.73170  172.52050  319.25910    0.06950    3.01950   35.83840 2464.09120 2384.10490
 3830.50000    8.53780    8.48190    8.51840    8.87630   -0.04720    0.00790   48.29080   53.37810   48.10580   93.02520   36.03890   27.55530  193.73560  161.98730   88.11010    0.06660    2.98600   38.07990 2473.52730 2406.73440
 3831.00000    8.51370    8.47930    8.48670    8.93320   -0.03930    0.00370   48.54490   53.02680   48.24130   92.28340   35.58780   28.14810  144.43140  117.22180  158.77070    0.07820    3.10140   38.92250 2467.74460 2386.83080
 3831.50000    8.48970    8.49350    8.45510    7.06950   -0.02570   -0.00050   48.32740   51.94820   47.92150   91.14930   33.33200   30.45170  130.68150  112.98590  105.24040    0.08690    3.19410   35.67580 2474.66410 2380.61090
 3832.00000    8.46560    8.53260    8.42340    6.23240   -0.00960   -0.00340   47.78370   52.16630   47.12960   90.01520   32.32360   33.40870  125.82020  112.98590   54.60510    0.08340    3.28670   33.86610 2476.55880 2374.39090
 3832.50000    8.44160    8.56390    8.39180    6.83990   -0.01750   -0.00710   47.04910   52.33080   46.33770   88.93890   36.29800   35.58110  123.87560  114.03030  192.16730    0.06690    3.32640   36.56140 2478.45340 2368.17100
 3833.00000    8.41750    8.53510    8.36350   11.17220   -0.03560   -0.00500   46.02830   51.26970   45.54580   87.87710   41.80440   35.42780  137.52900  126.89010  260.94830    0.05040    3.33070   41.66050 2480.34810 2369.91240
 3833.50000    8.39350    8.49920    8.34860   13.08410   -0.05540   -0.00130   45.00740   50.26130   44.75390   86.92240   46.76040   32.70120  200.07060  149.41290  191.61910    0.04110    3.29620   46.37660 2482.24270 2388.30620
 3834.00000    8.37560    8.44580    8.33360   14.50350   -0.07010    0.00140   44.19220   50.05310   43.96190   85.96740   44.29760   28.21470  262.61220  204.79560  685.70130    0.03080    3.26170   43.70330 2484.13740 2395.39400
 3834.50000    8.36180    8.42360    8.31870   13.65480   -0.08690    0.00720   44.03620   50.55780   43.76360   85.38620   38.74580   24.06730  325.15370  260.17820  675.99390    0.02330    3.22720   34.10110 2486.03200 2402.48180
 3835.00000    8.34800    8.38470    8.30380   11.50410   -0.09430    0.01500   44.36700   51.29000   44.50880   86.65760   32.40320   22.90980  387.69530  315.56090  595.76490    0.01580    3.16380   29.64510 2487.92670 2406.73440
 3835.50000    8.33420    8.34570    8.28890    9.88310   -0.09680    0.01580   45.47330   51.45500   45.34040   88.32910   28.04480   24.69300  409.70060  350.37490  515.53580    0.01260    3.13330   26.01220 2489.82130 2406.73440
 3836.00000    8.32040    8.33790    8.27390    8.26210   -0.09400    0.01240   46.54970   52.15270   46.17200   89.60040   26.80360   27.49210  370.85320  293.40160  312.60670    0.01450    3.10200   26.72660 2489.52030 2426.63820
 3836.50000    8.30120    8.33790    8.26280    8.72310   -0.09100    0.00810   47.62600   53.11760   47.00360   90.47170   29.92760   31.08180  301.62090  222.18490  187.36930    0.01780    3.08930   29.78200 2464.14570 2387.00530
 3837.00000    8.27850    8.33790    8.25260   11.64270   -0.08440    0.00380   48.10350   53.12250   47.83510   90.37030   35.13420   34.67140  232.38860  150.96820  196.19070    0.02890    3.15710   35.41470 2463.43820 2387.44150
