~Version ---------------------------------------------------
VERS.   2.0 : CWLS log ASCII Standard -VERSION 2.0
WRAP.    NO : One line per depth step
DLM . SPACE : Column Data Section Delimiter
~Well ------------------------------------------------------
STRT .FT                145.0 : START DEPTH
STOP .FT               4376.0 : STOP DEPTH
STEP .FT                  0.5 : STEP
NULL .               -9999.25 : NULL VALUE
COMP .                        : COMPANY
WELL .                        : WELL
FLD  .                        : FIELD
LOC  .                        : LOCATION
PROV .                        : PROVINCE
CNTY .                        : COUNTY
STAT .                        : STATE
CTRY .                        : COUNTRY
SRVC .                        : SERVICE COMPANY
DATE .                        : DATE
UWI  .                        : UNIQUE WELL ID
API  .                        : API NUMBER
SLAT .WGS84 3.091432220729395 : SURFACE LATITUDE
SLON .WGS84 8.486743172162008 : SURFACE LONGITUDE
DATUM.F               3945.22 : DEPTH DATUM ELEV
~Curve Information -----------------------------------------
DEPT   .FT    : 
CAL1R  .IN    : CALIPER 1 FROM RESISTIVITY LOG
CALD   .IN    : CALIPER FROM DENSITY LOG
CALSR  .IN    : MICRO RESISTIVITY CALIPER FROM RESISTIVITY
CGRD   .GAPI  : CORRECTED GAMMA RAY FROM DENSITY LOG
DPHI_LS.DEC   : DENSITY POROSITY LIMESTONE
DRHO   .G/C3  : BULK DENSITY CORRECTION
DT     .US/F  : DELTA-T (INTERVAL TRANSIT TIME)
DTCO   .US/F  : DELTA-T COMPRESSIONAL
DTL    .US/F  : DELTA-T LONG SPACING
DTSM   .US/F  : DELTA-T SHEAR
GRR    .GAPI  : GAMMA RAY FROM RESISTIVITY LOG
GRS    .GAPI  : GAMMA RAY FROM SONIC LOG
LLD    .OHMM  : LATEROLOG DEEP RESISTIVITY
LLS    .OHMM  : LATEROLOG SHALLOW RESISTIVITY
MSFL   .OHMM  : MICRO SPHERICALLY FOCUSED RESISTIVITY
NPHI_LS.DEC   : NEUTRON POROSITY LIMESTONE
PEF    .B/E   : PHOTOELECTRIC FACTOR
SGRDD  .GAPI  : SPECTROSCOPY GAMMA RAY FROM DENSITY LOG
TEND   .LBF   : TENSION FROM DENSITY LOG
TENR   .LBF   : TENSION FROM RESISTIVITY LOG
~Params ----------------------------------------------------
~Other -----------------------------------------------------
~ASCII -----------------------------------------------------
# ...
 2420.00000    9.49840   10.83330    9.46030    9.92780   -0.13000    0.00760   -9999.25   -9999.25   -9999.25   -9999.25   12.94420   -9999.25  128.78200  238.63250   30.37440    0.00660    4.80430   15.20510 1928.49870 1805.06170
 2420.50000    9.45070   10.79910    9.40700    8.64030   -0.12480    0.00830   -9999.25   -9999.25   -9999.25   -9999.25   13.13640   -9999.25  185.49290  318.34000 1887.66260    0.01190    4.90020   14.33300 1917.04690 1867.52490
 2421.00000    9.40290   10.69350    9.35490    9.54290   -0.11100    0.00890   -9999.25   -9999.25   -9999.25   -9999.25   14.34510   -9999.25  242.20370  398.04750 1062.27270    0.01450    5.03920   14.30330 1905.59510 1852.01300
 2421.50000    9.37200   10.56640    9.33440   11.38980   -0.08350    0.00950   -9999.25   -9999.25   -9999.25   -9999.25   16.22760   -9999.25  276.24920  421.73820  271.21160    0.01850    4.96690   20.75150 1894.14340 1832.62320
 2422.00000    9.37200   10.45340    9.31390   11.39270   -0.06540    0.00910   -9999.25   -9999.25   -9999.25   -9999.25   17.35510   -9999.25  223.08630  369.75780 1087.67380    0.01620    4.44780   24.87910 1882.69160 1818.77340
 2422.50000    9.37870   10.39670    9.30570    8.65300   -0.08040    0.00980   -9999.25   -9999.25   -9999.25   -9999.25   17.00310   -9999.25  162.27990  277.77430 1906.77630    0.01130    4.14360   21.68140 1919.75280 1814.96450
 2423.00000    9.38800   10.35280    9.31810    4.78640   -0.09900    0.01600   -9999.25   -9999.25   -9999.25   -9999.25   16.43570   -9999.25  101.47340  185.79090 1547.23520    0.01850    4.15190   16.25280 1925.86490 1811.15560
 2423.50000    9.37730   10.32800    9.33000    9.35980   -0.09980    0.01420   -9999.25   -9999.25   -9999.25   -9999.25   16.74940   -9999.25   40.66690   93.80740  777.47840    0.04210    4.68520   17.86890 1929.02410 1808.87030
 2424.00000    9.36130   10.32470    9.33230   12.85770   -0.09060    0.00750   -9999.25   -9999.25   -9999.25   -9999.25   17.13640   -9999.25   28.50850   38.61930    7.72170    0.06030    4.68550   24.32230 1930.21460 1808.87030
 2424.50000    9.34800   10.33580    9.32600   10.35020   -0.10010    0.00350   -9999.25   -9999.25   -9999.25   -9999.25   14.60370   -9999.25  273.56900  636.25270 1487.03700    0.06210    4.38960   21.99630 1931.40510 1808.87030
 2425.00000    9.33470   10.34690    9.29450    7.41690   -0.12830    0.00260   -9999.25   -9999.25   -9999.25   -9999.25   11.27100   -9999.25  882.86040 1383.29300 1980.16550    0.02750    4.44850   13.99190 1932.59560 1808.87030
 2425.50000    9.32130   10.35120    9.26300    4.48360   -0.15500    0.00190   -9999.25   -9999.25   -9999.25   -9999.25    8.17830   -9999.25 1492.15180 1981.01870 1980.16550   -0.00280    4.99770    9.07980 1917.01480 1809.31470
 2426.00000    9.30690   10.33470    9.26300    4.00330   -0.15210    0.00120   -9999.25   -9999.25   -9999.25   -9999.25    6.81850   -9999.25 1875.06860 2036.92510 1999.76410   -0.00660    5.54690    6.35510 1893.47240 1811.53670
 2426.50000    9.29060   10.34200    9.25770    3.84570   -0.13130    0.00050   -9999.25   -9999.25   -9999.25   -9999.25    8.19820   -9999.25 1541.85720 1853.39650 1858.58060    0.00500    5.98630    7.20370 1892.81760 1813.75860
 2427.00000    9.27440   10.33890    9.23640    5.58840   -0.11480   -0.00020   -9999.25   -9999.25   -9999.25   -9999.25   11.79870   -9999.25 1014.83560 1391.80450 1150.79900    0.03100    5.56840   11.02530 1903.07340 1816.14200
 2427.50000    9.25820   10.34180    9.20760    7.33100   -0.09850   -0.00070   -9999.25   -9999.25   -9999.25   -9999.25   16.59650   -9999.25  487.81400  930.21240  443.01740    0.08470    5.01970   17.03210 1902.94440 1818.56570
 2428.00000    9.24190   10.34480    9.19730    8.43850    0.01650   -0.00070   -9999.25   -9999.25   -9999.25   -9999.25   20.47090   -9999.25  168.06350  468.62040   16.57640    0.14380    4.47100   21.16490 1861.06070 1819.53510
 2428.50000    9.23950   10.34780    9.18690   11.45210    0.05340    0.00130   -9999.25   -9999.25   -9999.25   -9999.25   23.63000   -9999.25  159.21950  176.30580   12.14610    0.19360    4.10270   24.94800 1830.96190 1819.53510
 2429.00000    9.21680   10.32830    9.17650   12.36310    0.03830    0.01400   -9999.25   -9999.25   -9999.25   -9999.25   25.07290   -9999.25  150.37560  155.14640   47.00130    0.16690    3.80800   27.68060 1848.00290 1817.12970
 2429.50000    9.19410   10.29360    9.15160   13.41260    0.00330    0.02510   -9999.25   -9999.25   -9999.25   -9999.25   26.42500   -9999.25  141.53160  150.94740  229.65630    0.13120    3.70910   29.75170 1890.91480 1822.65840
 2430.00000    9.17140   10.27290    9.11680   14.16050   -0.03770    0.02890   -9999.25   -9999.25   -9999.25   -9999.25   28.01460   -9999.25  123.36930  134.66070  339.27230    0.08130    3.80440   32.97990 1933.82680 1827.33350
 2430.50000    9.15320   10.26790    9.10290   14.90840   -0.05070    0.02570   -9999.25   -9999.25   -9999.25   -9999.25   28.04350   -9999.25  105.20690  116.02440   21.07440    0.05980    3.86500   35.13050 1939.16400 1832.00860
 2431.00000    9.15300   10.28920    9.10270   15.19620   -0.07560    0.01560   -9999.25   -9999.25   -9999.25   -9999.25   23.59200   -9999.25   87.04450   97.38800  312.25140    0.03510    3.92360   30.53150 1936.63730 1852.61590
 2431.50000    9.16080   10.31040    9.12910    8.94130   -0.10030    0.01050   -9999.25   -9999.25   -9999.25   -9999.25   19.60640   -9999.25   68.88220   78.75160 1185.78250    0.02080    4.02550   22.30130 1934.11060 1862.20930
 2432.00000    9.17390   10.32210    9.15560    5.81340   -0.12360    0.00660   -9999.25   -9999.25   -9999.25   -9999.25   17.38250   -9999.25   57.98480   73.65630  753.38650    0.01260    4.29740   18.03450 1906.77570 1848.42130
 2432.50000    9.18440   10.32740    9.15540    5.68410   -0.12050    0.00510   -9999.25   -9999.25   -9999.25   -9999.25   16.39160   -9999.25   57.98480   98.01300  226.46710    0.01400    4.70020   17.43730 1916.23740 1836.77600
 2433.00000    9.17350   10.33830    9.12020    6.78000   -0.11670    0.00680   -9999.25   -9999.25   -9999.25   -9999.25   14.64520   -9999.25   73.77230  136.32730  781.83920    0.01060    5.04890   16.58380 1902.30340 1826.55920
 2433.50000    9.14050   10.31400    9.09100    7.87580   -0.12970    0.00830   -9999.25   -9999.25   -9999.25   -9999.25   12.79070   -9999.25  121.82980  174.64170 1971.83740    0.00450    4.94010   13.43690 1897.69920 1823.89110
 2434.00000    9.11980   10.28560    9.06950    7.61120   -0.14810    0.00950   -9999.25   -9999.25   -9999.25   -9999.25   12.42630   -9999.25  169.88730  212.95610 2031.30850    0.00040    4.81470   10.29010 1892.51370 1823.11020
 2434.50000    9.11430   10.26200    9.06390    7.00640   -0.15890    0.01040   -9999.25   -9999.25   -9999.25   -9999.25   15.37690   -9999.25  209.29620  243.60760 1874.07450   -0.00060    4.78700   12.12070 1902.62970 1822.32930
 2435.00000    9.12040   10.23840    9.07500    6.80500   -0.14410    0.01110   -9999.25   -9999.25   -9999.25   -9999.25   19.25220   -9999.25  206.58340  222.25760 1227.22490    0.00210    4.70160   18.32350 1924.54140 1816.14500
 2435.50000    9.12820   10.21980    9.09550    7.77580   -0.12750    0.01060   -9999.25   -9999.25   -9999.25   -9999.25   23.41190   -9999.25  168.68000  185.46380  568.40170    0.00560    4.32440   25.71040 1924.91550 1816.23180
 2436.00000    9.12970   10.19140    9.09530    8.78730   -0.11820    0.00780   -9999.25   -9999.25   -9999.25   -9999.25   21.91000   -9999.25  130.77650  148.66990   34.63690    0.00570    3.93880   27.81490 1925.28950 1816.31860
 2436.50000    9.12940   10.14110    9.08970    9.79890   -0.11540    0.00510   -9999.25   -9999.25   -9999.25   -9999.25   17.89090   -9999.25  114.55610  135.19060  109.45420    0.00590    3.86170   22.41970 1925.66360 1816.40530
 2437.00000    9.10790   10.08950    9.08260   10.20400   -0.12530    0.00470   -9999.25   -9999.25   -9999.25   -9999.25   12.94600   -9999.25  140.80450  152.16890  146.86290    0.00360    4.28280   14.49200 1926.03770 1813.02220
