~Version ---------------------------------------------------
VERS.   2.0 : CWLS log ASCII Standard -VERSION 2.0
WRAP.    NO : One line per depth step
DLM . SPACE : Column Data Section Delimiter
~Well ------------------------------------------------------
STRT .FT                 114.0 : START DEPTH
STOP .FT               14385.0 : STOP DEPTH
STEP .FT                   0.5 : STEP
NULL .                -9999.25 : NULL VALUE
COMP .                         : COMPANY
WELL .                         : WELL
FLD  .                         : FIELD
LOC  .                         : LOCATION
PROV .                         : PROVINCE
CNTY .                         : COUNTY
STAT .                         : STATE
CTRY .                         : COUNTRY
SRVC .                         : SERVICE COMPANY
DATE .                         : DATE
UWI  .                         : UNIQUE WELL ID
API  .                         : API NUMBER
SLAT .WGS84 2.9318238088482005 : SURFACE LATITUDE
SLON .WGS84     6.721778198349 : SURFACE LONGITUDE
DATUM.F                    nan : DEPTH DATUM ELEV
~Curve Information -----------------------------------------
DEPT   .FT    : 
DTCO   .US/F  : DELTA-T COMPRESSIONAL
DTSM   .US/F  : DELTA-T SHEAR
SGRDD  .GAPI  : SPECTROSCOPY GAMMA RAY FROM DENSITY LOG
TNPH_LS.DEC   : THERMAL NEUTRON POROSITY [LIMESTONE]
~Params ----------------------------------------------------
~Other -----------------------------------------------------
~ASCII -----------------------------------------------------
# ...
 9051.50000   66.42260  137.82680   62.14240    0.14770
 9052.00000   66.31710  138.37500   61.73450    0.15380
 9052.50000   65.87980  138.06590   61.47880    0.15960
 9053.00000   65.20520  138.20090   61.45850    0.16470
 9053.50000   64.97030  138.24090   61.45990    0.16240
 9054.00000   64.75880  135.09070   62.67820    0.15520
 9054.50000   64.72190  127.54520   63.15710    0.15720
 9055.00000   64.68020  119.70720   63.78030    0.16530
 9055.50000   64.49690  118.39890   63.56190    0.16840
 9056.00000   64.69520  118.72720   63.86170    0.16180
 9056.50000   64.72010  117.31550   63.93520    0.15640
 9057.00000   64.08820  116.38990   64.46140    0.15160
 9057.50000   63.15700  116.04980   65.88220    0.15070
 9058.00000   62.57450  115.05020   67.28550    0.14620
 9058.50000   61.48150  114.05060   68.41130    0.13620
 9059.00000   60.48190  113.16060   66.41020    0.12730
 9059.50000   59.97640  112.05950   63.60080    0.12900
 9060.00000   59.84690  112.30180   61.97290    0.13790
 9060.50000   59.54200  112.95100   62.77870    0.14540
 9061.00000   59.52120  112.32670   64.23980    0.15060
 9061.50000   60.37990  113.15090   65.88220    0.15980
 9062.00000   61.03170  114.25050   67.18540    0.16260
 9062.50000   61.10070  115.15010   67.88890    0.15500
 9063.00000   61.22460  116.04980   67.00980    0.15000
 9063.50000   60.23200  116.10090   64.50340    0.14450
 9064.00000   62.75760  116.83460   64.42140    0.14520
 9064.50000   65.49430  117.84900   65.11820    0.15100
 9065.00000   65.38880  117.68910   65.61390    0.15780
 9065.50000   64.72250  117.42060   65.68660    0.16330
 9066.00000   64.13040  117.19260   65.77770    0.15840
 9066.50000   63.27040  116.83540   67.38960    0.15090
 9067.00000   62.74220  116.34960   67.20040    0.14830
 9067.50000   63.41790  116.44910   66.17030    0.15220
 9068.00000   63.43030  116.44840   67.41790    0.15560
 9068.50000   63.66630  116.44760   67.80150    0.16330
 9069.00000   64.36400  116.44690   70.90750    0.17340
 9069.50000   64.45490  116.44610   73.46590    0.17710
 9070.00000   63.99850  115.92450   77.41780    0.18040
 9070.50000   63.30310  116.03580   80.11200    0.17520
 9071.00000   63.11090  115.66880   83.25080    0.16790
 9071.50000   63.01410  115.68070   84.24950    0.16160
 9072.00000   62.83490  115.69270   84.30830    0.16880
 9072.50000   63.35260  115.38110   84.85760    0.18700
 9073.00000   63.85750  115.13020   85.45510    0.20640
 9073.50000   62.48020  114.97380   87.39760    0.20650
 9074.00000   62.64750  114.84650   88.97350    0.19500
 9074.50000   62.11520  114.71910   89.58520    0.19950
 9075.00000   63.09840  115.08570   89.19710    0.20520
 9075.50000   63.34990  115.63880   88.57160    0.21400
 9076.00000   63.97010  115.71960   87.99730    0.22200
 9076.50000   64.57490  116.22830   87.89960    0.22620
 9077.00000   65.52240  117.03750   87.96490    0.22960
 9077.50000   65.97620  117.83510   88.37200    0.22990
 9078.00000   66.05460  117.37140   87.96490    0.21900
 9078.50000   66.23660  117.24930   88.58260    0.20480
 9079.00000   66.42960  117.05230   90.15200    0.20530
 9079.50000   66.13390  116.85520   89.72830    0.20870
 9080.00000   65.76430  116.65810   89.56560    0.21120
 9080.50000   65.42990  116.44600   88.53710    0.21380
 9081.00000   64.97810  116.18760   90.13540    0.20420
 9081.50000   65.17210  115.88790   90.29700    0.19380
 9082.00000   65.37650  115.53670   90.81050    0.18570
 9082.50000   65.64890  115.68460   89.88010    0.17460
 9083.00000   65.98690  115.88960   88.39100    0.17110
 9083.50000   66.23320  115.64980   87.15560    0.16760
 9084.00000   66.36100  115.61650   84.94710    0.16290
 9084.50000   67.01350  115.44990   83.55270    0.15860
 9085.00000   66.37320  115.38750   84.11820    0.16190
 9085.50000   67.75590  115.32500   85.17150    0.16610
 9086.00000   67.49280  115.26250   86.20180    0.16400
 9086.50000   66.38010  115.29000   86.40740    0.16720
 9087.00000   69.86300  115.45450   85.42630    0.17080
 9087.50000   68.65710  115.47760   81.80410    0.17550
 9088.00000   68.15100  115.50060   77.45960    0.19520
 9088.50000   68.82150  115.52370   78.40290    0.21840
 9089.00000   68.98980  115.93840   82.36440    0.23370
 9089.50000   69.19830  116.36530   89.85510    0.23420
 9090.00000   69.05680  116.56700   92.60670    0.22110
 9090.50000   67.75090  116.51620   94.64410    0.21270
 9091.00000   64.75520  116.71620   96.42250    0.22060
 9091.50000   63.80560  116.82720   98.19180    0.22360
 9092.00000   63.93050  116.76380   98.77000    0.22070
 9092.50000   64.05350  116.60950   98.48100    0.21810
 9093.00000   64.22340  116.49960   96.93240    0.22150
 9093.50000   63.36980  116.06180   96.55130    0.22270
 9094.00000   63.00090  116.05180   96.76990    0.22500
 9094.50000   63.35050  116.04980   96.98850    0.22890
 9095.00000   65.65850  115.87840   98.68960    0.23260
 9095.50000   67.38560  116.02120   99.55910    0.23850
 9096.00000   66.57460  116.12970  102.25540    0.24060
 9096.50000   67.46510  116.22970  103.01840    0.24270
 9097.00000   67.23560  116.24970  101.10340    0.24480
 9097.50000   66.57950  116.24970   99.95530    0.24660
 9098.00000   65.65080  116.36680   98.80730    0.24430
 9098.50000   65.65040  116.83540   96.66730    0.25580
 9099.00000   65.64990  116.46210   93.82070    0.26140
 9099.50000   65.83160  116.45850   92.18660    0.26960
 9100.00000   65.74440  116.45480   91.87170    0.26520
 9100.50000   65.31720  116.45110   91.65090    0.27210
 9101.00000   64.75800  116.30400   88.65070    0.27320
 9101.50000   65.82980  116.64490   83.70970    0.25660
 9102.00000   66.13800  116.96800   79.94420    0.24910
 9102.50000   66.67950  117.24930   81.46250    0.27220
 9103.00000   66.78380  117.44930   85.89850    0.27810
 9103.50000   66.68600  117.94910   90.99550    0.26780
 9104.00000   67.55200  118.16650   94.44340    0.25790
 9104.50000   67.59850  118.16650   94.21370    0.25830
 9105.00000   66.71960  118.26500   92.49770    0.26020
 9105.50000   67.22080  118.41520   89.70730    0.24920
 9106.00000   67.40420  117.90150   91.69640    0.23920
 9106.50000   67.42200  117.39200   92.63170    0.23390
 9107.00000   67.46010  117.47960   91.02090    0.23670
 9107.50000   67.49350  118.36820   88.46680    0.23800
 9108.00000   67.46860  117.96480   85.27980    0.23280
 9108.50000   67.51800  115.88810   82.54670    0.21520
 9109.00000   54.95520  113.27650   79.97700    0.19980
 9109.50000   54.04040  112.28050   77.99430    0.19520
 9110.00000   54.05490  113.02690   76.85390    0.19940
 9110.50000   54.06950  112.37530   78.51410    0.20660
 9111.00000   54.39520  111.56080   79.88860    0.21560
 9111.50000   54.55160  111.80070   81.26880    0.22980
 9112.00000   54.70810  112.76030   80.35180    0.24250
 9112.50000   54.86450  113.42670   81.16990    0.23950
 9113.00000   54.98970  114.49290   80.95150    0.21020
 9113.50000   54.92760  114.62620   81.00430    0.19590
 9114.00000   54.84990  114.62620   79.77630    0.19990
 9114.50000   55.19740  114.62620   77.99970    0.20380
 9115.00000   55.20920  114.35960   74.78410    0.19870
 9115.50000   55.22110  114.92460   74.67540    0.19400
 9116.00000   55.23290  115.92880   76.29980    0.19890
 9116.50000   55.35260  117.44290   79.45240    0.20640
 9117.00000   55.05790  117.01120   79.46290    0.21390
 9117.50000   55.04280  115.63560   79.47340    0.21270
 9118.00000   55.02780  114.32060   80.11910    0.20620
 9118.50000   55.01280  113.00550   79.39520    0.20010
 9119.00000   54.99770  111.69050   78.55290    0.19630
 9119.50000   54.98270  110.81410   79.30250    0.20280
 9120.00000   54.96760  111.18510   84.40280    0.21900
 9120.50000   54.95260  111.25210   87.39720    0.23470
 9121.00000   54.71550  112.53660   89.10670    0.25310
 9121.50000   54.81000  114.37290   88.36640    0.24080
 9122.00000   54.69040  115.31090   86.18240    0.23050
 9122.50000   54.83150  115.95720   84.03330    0.22210
