~Version ---------------------------------------------------
VERS.   2.0 : CWLS log ASCII Standard -VERSION 2.0
WRAP.    NO : One line per depth step
DLM . SPACE : Column Data Section Delimiter
~Well ------------------------------------------------------
STRT .FT                 114.0 : START DEPTH
STOP .FT               14385.0 : STOP DEPTH
STEP .FT                   0.5 : STEP
NULL .                -9999.25 : NULL VALUE
COMP .                         : COMPANY
WELL .                         : WELL
FLD  .                         : FIELD
LOC  .                         : LOCATION
PROV .                         : PROVINCE
CNTY .                         : COUNTY
STAT .                         : STATE
CTRY .                         : COUNTRY
SRVC .                         : SERVICE COMPANY
DATE .                         : DATE
UWI  .                         : UNIQUE WELL ID
API  .                         : API NUMBER
SLAT .WGS84 2.9318238088482005 : SURFACE LATITUDE
SLON .WGS84     6.721778198349 : SURFACE LONGITUDE
DATUM.F                    nan : DEPTH DATUM ELEV
~Curve Information -----------------------------------------
DEPT   .FT    : 
DTCO   .US/F  : DELTA-T COMPRESSIONAL
DTSM   .US/F  : DELTA-T SHEAR
SGRDD  .GAPI  : SPECTROSCOPY GAMMA RAY FROM DENSITY LOG
TNPH_LS.DEC   : THERMAL NEUTRON POROSITY [LIMESTONE]
~Params ----------------------------------------------------
~Other -----------------------------------------------------
~ASCII -----------------------------------------------------
# ...
 11180.00000   67.82110  119.82390   95.95770    0.25870
 11180.50000   67.74330  117.26500   94.16150    0.25080
 11181.00000   67.42900  116.75850   91.97730    0.23900
 11181.50000   67.41740  120.98710   88.05970    0.22910
 11182.00000   67.58270  125.77310   84.81920    0.23580
 11182.50000   66.87440  127.79260   82.96030    0.24010
 11183.00000   66.15880  128.31850   84.36520    0.23970
 11183.50000   66.35370  128.84450   86.56990    0.21930
 11184.00000   66.91660  128.83200   87.44260    0.21370
 11184.50000   67.05420  127.32220   86.72950    0.21860
 11185.00000   66.59620  122.19710   87.22670    0.23600
 11185.50000   65.54230  118.48650   86.66210    0.23370
 11186.00000   65.08920  118.62260   86.26120    0.23180
 11186.50000   64.53610  117.69900   84.08830    0.21580
 11187.00000   64.15550  116.59720   83.64990    0.22410
 11187.50000   63.90470  115.64970   84.22850    0.22930
 11188.00000   63.63040  115.37240   84.22850    0.23740
 11188.50000   63.82720  115.25650   83.97140    0.22140
 11189.00000   64.60130  115.34990   82.43270    0.20900
 11189.50000   65.47250  115.33560   79.60230    0.20020
 11190.00000   66.04100  115.76410   75.59520    0.19470
 11190.50000   66.63880  116.19260   74.71690    0.19730
 11191.00000   66.90790  116.45900   77.49660    0.21360
 11191.50000   67.22380  117.01550   82.95520    0.23140
 11192.00000   67.23160  117.24760   86.34060    0.24320
 11192.50000   67.36020  117.23880   85.53380    0.25330
 11193.00000   67.34240  116.84950   84.69920    0.24460
 11193.50000   66.90850  116.48330   81.59320    0.23520
 11194.00000   66.55440  116.84600   80.80160    0.23590
 11194.50000   66.22960  116.30400   79.97710    0.24700
 11195.00000   65.95520  116.64370   81.02970    0.25810
 11195.50000   65.66480  117.01870   83.05020    0.26470
 11196.00000   65.79060  116.94180   82.04440    0.26400
 11196.50000   65.65350  116.86490   77.96160    0.24470
 11197.00000   65.63930  116.89160   71.32690    0.23420
 11197.50000   65.62510  117.10240   67.69360    0.25390
 11198.00000   65.62100  118.17660   72.52270    0.26300
 11198.50000   65.62180  118.53010   76.16740    0.24610
 11199.00000   65.62270  117.64920   78.54010    0.22330
 11199.50000   65.42990  117.96510   75.73140    0.21200
 11200.00000   65.14070  117.28770   75.25490    0.20860
 11200.50000   65.21410  117.17650   76.15410    0.20380
 11201.00000   64.13050  116.81300   77.05320    0.20410
 11201.50000   62.24260  116.44950   77.05520    0.20900
 11202.00000   61.16560  116.25590   76.06600    0.22250
 11202.50000   64.28030  116.05940   74.83350    0.22990
 11203.00000   68.81700  116.05250   75.84300    0.21680
 11203.50000   69.53500  115.83570   78.10260    0.20740
 11204.00000   69.05330  115.24290   81.24420    0.20840
 11204.50000   68.82850  115.01500   83.42710    0.21900
 11205.00000   68.30260  114.85020   84.39880    0.23600
 11205.50000   67.77890  114.71070   83.81570    0.22740
 11206.00000   67.18880  114.85020   81.81800    0.23840
 11206.50000   66.70650  114.63750   80.98080    0.23410
 11207.00000   66.30950  113.57430   83.04960    0.23400
 11207.50000   65.82970  113.61380   83.66890    0.23860
 11208.00000   65.62200  114.26790   82.88580    0.24940
 11208.50000   65.42990  114.83610   80.62270    0.27480
 11209.00000   65.33160  114.85020   76.89880    0.25720
 11209.50000   65.22720  115.60340   75.49140    0.24780
 11210.00000   65.08250  115.82390   74.81110    0.24270
 11210.50000   65.11520  116.11790   75.20960    0.23290
 11211.00000   64.86500  116.21390   76.21450    0.22460
 11211.50000   65.17490  116.04960   78.57080    0.23910
 11212.00000   65.20500  116.14340   80.69100    0.24040
 11212.50000   65.22500  116.10070   83.79980    0.22540
 11213.00000   65.22960  116.05810   82.95740    0.21920
 11213.50000   65.23430  116.08960   83.26870    0.21850
 11214.00000   65.23900  116.26520   81.40120    0.21720
 11214.50000   65.46980  116.44940   81.62120    0.21860
 11215.00000   65.62970  116.84930   80.52010    0.22100
 11215.50000   65.32410  117.27210   81.23030    0.21940
 11216.00000   65.07190  117.37190   81.32920    0.22590
 11216.50000   64.83110  117.26960   82.08420    0.23370
 11217.00000   64.82600  117.39470   83.01430    0.22290
 11217.50000   64.82100  116.85630   82.09050    0.21060
 11218.00000   64.67370  116.50650   80.90150    0.20760
 11218.50000   64.36720  116.07810   75.70460    0.20680
 11219.00000   64.06060  115.64970   74.80000    0.20220
 11219.50000   63.75410  115.11410   76.26540    0.19250
 11220.00000   63.75410  114.83980   80.31700    0.18780
 11220.50000   64.36950  114.50040   82.61140    0.18360
 11221.00000   64.98750  114.50040   83.04970    0.18670
 11221.50000   64.86150  113.85980   82.59210    0.19550
 11222.00000   65.00110  113.66780   79.84960    0.19830
 11222.50000   65.02970  113.57080   78.87820    0.19610
 11223.00000   65.04050  113.47850   78.90280    0.18980
 11223.50000   65.05120  113.65790   79.83000    0.18310
 11224.00000   64.87110  113.69370   81.80750    0.18610
 11224.50000   64.31280  113.72940   82.47670    0.19460
 11225.00000   63.50890  113.76520   82.89550    0.20210
 11225.50000   62.77020  113.61710   83.31430    0.20680
 11226.00000   63.81790  113.26930   83.64940    0.20220
 11226.50000   64.42070  113.25620   82.34100    0.19310
 11227.00000   57.88300  113.13100   80.85110    0.19590
 11227.50000   61.79780  113.06670   80.65120    0.20530
 11228.00000   65.20850  113.09280   78.98470    0.21160
 11228.50000   65.24740  113.11890   76.94300    0.20060
 11229.00000   65.36570  113.25090   74.70130    0.18790
 11229.50000   64.68020  113.25090   76.52770    0.18070
 11230.00000   63.58560  113.21690   78.79840    0.18020
 11230.50000   62.78580  113.16010   79.25250    0.17950
 11231.00000   62.15730  113.10340   77.21370    0.17690
 11231.50000   61.70530  113.04660   74.91510    0.18230
 11232.00000   61.01010  112.95110   74.45540    0.18870
 11232.50000   60.30410  112.70100   75.08360    0.18450
 11233.00000   60.23730  112.45110   75.25490    0.17780
 11233.50000   60.39840  111.87880   73.55590    0.17660
 11234.00000   60.91620  111.71640   71.05740    0.18200
 11234.50000   61.55710  111.25160   70.01940    0.18120
 11235.00000   61.72740  110.81570   67.90930    0.17290
 11235.50000   61.53920  109.92930   66.67360    0.16470
 11236.00000   60.42820  107.01530   64.70660    0.16030
 11236.50000   58.88920  107.98050   64.95020    0.16540
 11237.00000   58.25180  110.26680   66.48190    0.16860
 11237.50000   58.17930  111.01560   67.64940    0.17170
 11238.00000   58.62340  111.99160   67.30970    0.16710
 11238.50000   58.83250  112.68960   64.92560    0.16530
 11239.00000   59.31810  114.26370   62.68350    0.16500
 11239.50000   59.82790  116.58280   63.11220    0.15950
 11240.00000   60.20130  117.30460   66.77460    0.14950
 11240.50000   60.11470  117.78450   70.39830    0.13900
 11241.00000   59.75950  118.02270   76.60590    0.13750
 11241.50000   59.05140  117.49150   82.30260    0.14300
 11242.00000   58.83820  116.38440   88.94720    0.15150
 11242.50000   58.81700  115.29990   91.22900    0.16040
 11243.00000   59.20110  114.18370   90.02530    0.16530
 11243.50000   59.60100  112.32810   88.65450    0.16220
 11244.00000   59.61420  111.71340   88.39910    0.15900
 11244.50000   59.36550  111.30550   88.40720    0.17130
 11245.00000   58.92130  110.98960   88.35470    0.18650
 11245.50000   58.63950  110.89630   87.37820    0.19840
 11246.00000   58.62550  110.97250   86.65020    0.19980
 11246.50000   58.40760  110.86010   87.15800    0.19160
 11247.00000   59.05520  110.60900   87.22360    0.18480
 11247.50000   60.28570  110.32320   87.41250    0.17960
 11248.00000   60.53840  110.09450   86.85150    0.18530
 11248.50000   61.23380  110.21940   85.60080    0.18420
 11249.00000   62.04630  110.34440   83.51650    0.18820
 11249.50000   58.70170  110.46930   81.85290    0.20040
 11250.00000   55.82400  109.72470   81.79400    0.19530
