~Version ---------------------------------------------------
VERS.   2.0 : CWLS log ASCII Standard -VERSION 2.0
WRAP.    NO : One line per depth step
DLM . SPACE : Column Data Section Delimiter
~Well ------------------------------------------------------
STRT .FT                 114.0 : START DEPTH
STOP .FT               14385.0 : STOP DEPTH
STEP .FT                   0.5 : STEP
NULL .                -9999.25 : NULL VALUE
COMP .                         : COMPANY
WELL .                         : WELL
FLD  .                         : FIELD
LOC  .                         : LOCATION
PROV .                         : PROVINCE
CNTY .                         : COUNTY
STAT .                         : STATE
CTRY .                         : COUNTRY
SRVC .                         : SERVICE COMPANY
DATE .                         : DATE
UWI  .                         : UNIQUE WELL ID
API  .                         : API NUMBER
SLAT .WGS84 2.9318238088482005 : SURFACE LATITUDE
SLON .WGS84     6.721778198349 : SURFACE LONGITUDE
DATUM.F                    nan : DEPTH DATUM ELEV
~Curve Information -----------------------------------------
DEPT   .FT    : 
DTCO   .US/F  : DELTA-T COMPRESSIONAL
DTSM   .US/F  : DELTA-T SHEAR
SGRDD  .GAPI  : SPECTROSCOPY GAMMA RAY FROM DENSITY LOG
TNPH_LS.DEC   : THERMAL NEUTRON POROSITY [LIMESTONE]
~Params ----------------------------------------------------
~Other -----------------------------------------------------
~ASCII -----------------------------------------------------
# ...
 12167.00000   59.94640  111.19990   63.25490    0.22040
 12167.50000   59.66910  110.80820   59.86410    0.22770
 12168.00000   60.73710  110.96120   60.85010    0.20810
 12168.50000   61.54420  111.10450   62.72710    0.19340
 12169.00000   62.17670  111.33400   61.57040    0.19940
 12169.50000   62.36400  111.56350   60.71340    0.20940
 12170.00000   61.96840  111.92680   60.71800    0.21630
 12170.50000   61.57160  111.37570   62.82370    0.21100
 12171.00000   60.98160  110.99430   64.26080    0.20520
 12171.50000   61.42430  110.91820   67.06050    0.19960
 12172.00000   61.42720  110.98390   68.87200    0.19920
 12172.50000   61.43020  110.99780   69.85810    0.20240
 12173.00000   61.79270  110.41950   69.40840    0.20230
 12173.50000   62.43690  111.23750   69.37600    0.18730
 12174.00000   62.09080  111.27460   69.32260    0.17410
 12174.50000   61.55740  111.38990   69.26920    0.17470
 12175.00000   61.22310  111.50520   70.30790    0.17620
 12175.50000   61.04320  112.04930   72.07240    0.17920
 12176.00000   61.07220  111.80730   72.85470    0.17630
 12176.50000   61.02430  111.26580   72.10680    0.16840
 12177.00000   61.54470  111.26720   67.90930    0.16340
 12177.50000   61.42030  111.26850   65.64590    0.15800
 12178.00000   60.87160  111.61640   64.52160    0.16190
 12178.50000   60.24300  111.83720   65.45820    0.16580
 12179.00000   60.24600  111.42530   67.12980    0.16730
 12179.50000   60.24900  111.15920   65.75630    0.16410
 12180.00000   60.25190  111.24130   63.41120    0.15720
 12180.50000   60.25490  111.04650   61.37540    0.15180
 12181.00000   60.33030  110.85170   59.66420    0.15450
 12181.50000   60.25580  110.62410   59.12480    0.15470
 12182.00000   59.98220  110.02990   59.21450    0.15000
 12182.50000   59.67160  108.97150   57.74540    0.14820
 12183.00000   59.26140  110.52390   56.68710    0.16460
 12183.50000   57.99820  110.95160   56.68710    0.17490
 12184.00000   57.35720  110.39540   57.81860    0.17070
 12184.50000   59.33390  110.06250   59.13940    0.15950
 12185.00000   59.50960  110.28050   59.69800    0.15350
 12185.50000   60.24090  110.55910   60.26390    0.15140
 12186.00000   60.64660  110.37320   62.14920    0.15560
 12186.50000   60.57800  110.04250   64.76120    0.15980
 12187.00000   60.82460  110.34900   66.75500    0.15890
 12187.50000   60.82460  110.40230   66.42010    0.15560
 12188.00000   60.58880  110.35470   65.55840    0.15000
 12188.50000   60.30580  109.34280   65.82810    0.14450
 12189.00000   59.14970  106.23700   66.85990    0.14640
 12189.50000   58.30770  103.46070   66.44190    0.14890
 12190.00000   58.38790  102.40630   65.37630    0.15100
 12190.50000   58.81750  102.19780   64.08330    0.14170
 12191.00000   58.78040  102.73330   62.48100    0.13460
 12191.50000   58.23300  103.74040   60.11400    0.12010
 12192.00000   59.13990  105.53300   56.45440    0.11080
 12192.50000   58.48260  107.06930   52.31860    0.10380
 12193.00000   57.08310  108.39300   49.77010    0.10820
 12193.50000   56.26760  109.35020   48.65220    0.11040
 12194.00000   59.28890  109.61680   50.95510    0.10840
 12194.50000   66.28640  110.32430   54.11760    0.10560
 12195.00000   64.63850  109.55800   56.15240    0.11060
 12195.50000   63.18070  108.44560   56.54890    0.11250
 12196.00000   60.71790  107.00220   57.08770    0.10850
 12196.50000   59.38220  105.65370   58.01090    0.10910
 12197.00000   57.07840  104.93050   58.15700    0.11730
 12197.50000   56.17350  104.02640   58.93090    0.12210
 12198.00000   58.22570  103.96020   58.02100    0.11800
 12198.50000   60.78400  103.65030   59.06100    0.10940
 12199.00000   55.78370  102.59520   59.17540    0.10280
 12199.50000   54.30770  101.97000   59.61750    0.09560
 12200.00000   54.21430  101.99510   58.70390    0.09480
 12200.50000   54.87610  102.38170   57.14150    0.09410
 12201.00000   57.27650  101.32300   56.00000    0.09010
 12201.50000   56.30410   99.29470   56.65070    0.08740
 12202.00000   56.94460   98.51280   55.91310    0.08440
 12202.50000   59.82370   99.30370   54.15970    0.08740
 12203.00000   56.31690   99.95600   51.91380    0.08880
 12203.50000   55.80970   98.48790   53.00040    0.09090
 12204.00000   56.00960   97.02180   53.06170    0.09380
 12204.50000   55.83470   96.07160   52.05460    0.09180
 12205.00000   55.70870   96.18920   46.90890    0.08510
 12205.50000   55.19230   94.23420   44.21300    0.09150
 12206.00000   54.95600  100.07390   44.87120    0.09130
 12206.50000   55.05990  102.75490   48.10990    0.09100
 12207.00000   55.71200  104.60080   51.70690    0.09530
 12207.50000   55.27910  108.49790   53.65490    0.10220
 12208.00000   56.40250  109.71210   57.21030    0.10920
 12208.50000   59.48220  108.06670   61.65460    0.11280
 12209.00000   58.71180  105.05940   64.90620    0.11400
 12209.50000   58.83920  106.94790   66.65210    0.11090
 12210.00000   59.26720  107.50130   67.43150    0.11860
 12210.50000   59.96080  105.53340   68.06000    0.11960
 12211.00000   59.82640  106.99680   68.40820    0.11860
 12211.50000   59.62120  107.03730   67.46320    0.12090
 12212.00000   59.60940  106.32960   66.75310    0.12200
 12212.50000   59.62850  106.87710   65.66570    0.11970
 12213.00000   59.79220  109.34250   64.47820    0.11820
 12213.50000   59.82120  110.86660   62.81950    0.11720
 12214.00000   59.64910  111.25170   63.58810    0.11760
 12214.50000   59.31290  111.63960   63.30380    0.12030
 12215.00000   58.75870  111.64960   66.47120    0.12280
 12215.50000   58.43980  111.42870   67.85510    0.12310
 12216.00000   58.64240  111.31870   68.50050    0.12210
 12216.50000   58.71070  111.76670   67.28770    0.12020
 12217.00000   58.43980  111.79200   66.07490    0.11840
 12217.50000   58.56840  111.81730   65.67630    0.11680
 12218.00000   59.30460  111.65150   65.47740    0.11850
 12218.50000   60.30210  111.21190   64.70760    0.12100
 12219.00000   60.00080  110.83930   63.99480    0.11750
 12219.50000   59.63230  110.88160   63.28200    0.11390
 12220.00000   59.35430  108.25280   65.26090    0.11480
 12220.50000   59.05340  107.26720   64.46140    0.11910
 12221.00000   58.58160  106.89420   65.11100    0.12180
 12221.50000   57.68300  105.63100   64.06160    0.12600
 12222.00000   56.82100  105.43580   64.86110    0.13020
 12222.50000   56.30490  105.07230   65.86050    0.13290
 12223.00000   56.23250  104.84010   66.06040    0.13180
 12223.50000   56.10260  104.06100   62.97130    0.13070
 12224.00000   56.02490  104.43350   59.88230    0.12940
 12224.50000   55.83600  104.28700   59.26450    0.12550
 12225.00000   56.65010  104.03520   60.19550    0.12100
 12225.50000   58.41640  103.78330   61.74720    0.11680
 12226.00000   58.46110  103.53140   61.21650    0.12260
 12226.50000   58.09390  103.22380   58.56340    0.12540
 12227.00000   57.87330  102.85610   57.29350    0.12530
 12227.50000   58.22520  102.48850   57.32740    0.12140
 12228.00000   58.24290  102.12080   57.59570    0.11840
 12228.50000   58.26070  101.75310   58.42360    0.11730
 12229.00000   58.44290  101.38550   58.58250    0.12060
 12229.50000   58.61740  101.16490   59.58410    0.12580
 12230.00000   58.65750  101.16470   59.70780    0.13100
 12230.50000   58.50760  102.01730   60.22990    0.12630
 12231.00000   57.57580  103.08290   61.07990    0.11570
 12231.50000   56.46840  104.14860   62.16290    0.11140
 12232.00000   56.15970  105.21430   62.14990    0.11570
 12232.50000   55.14670  106.56220   61.84400    0.12580
 12233.00000   55.01390  109.05610   64.62540    0.14240
 12233.50000   55.18390  110.93290   66.91950    0.15540
 12234.00000   56.42370  112.56370   70.13530    0.17300
 12234.50000   64.08730  113.79830   71.80650    0.18900
 12235.00000   67.28600  114.32870   76.30740    0.19760
 12235.50000   67.26850  115.01190   80.46850    0.20300
 12236.00000   67.67390  115.46110   83.64940    0.20810
 12236.50000   68.26870  115.91030   84.14410    0.20890
 12237.00000   68.56190  116.35960   83.68940    0.20360
