~Version ---------------------------------------------------
VERS.   2.0 : CWLS log ASCII Standard -VERSION 2.0
WRAP.    NO : One line per depth step
DLM . SPACE : Column Data Section Delimiter
~Well ------------------------------------------------------
STRT .FT                 114.0 : START DEPTH
STOP .FT               14385.0 : STOP DEPTH
STEP .FT                   0.5 : STEP
NULL .                -9999.25 : NULL VALUE
COMP .                         : COMPANY
WELL .                         : WELL
FLD  .                         : FIELD
LOC  .                         : LOCATION
PROV .                         : PROVINCE
CNTY .                         : COUNTY
STAT .                         : STATE
CTRY .                         : COUNTRY
SRVC .                         : SERVICE COMPANY
DATE .                         : DATE
UWI  .                         : UNIQUE WELL ID
API  .                         : API NUMBER
SLAT .WGS84 2.9318238088482005 : SURFACE LATITUDE
SLON .WGS84     6.721778198349 : SURFACE LONGITUDE
DATUM.F                    nan : DEPTH DATUM ELEV
~Curve Information -----------------------------------------
DEPT   .FT    : 
DTCO   .US/F  : DELTA-T COMPRESSIONAL
DTSM   .US/F  : DELTA-T SHEAR
SGRDD  .GAPI  : SPECTROSCOPY GAMMA RAY FROM DENSITY LOG
TNPH_LS.DEC   : THERMAL NEUTRON POROSITY [LIMESTONE]
~Params ----------------------------------------------------
~Other -----------------------------------------------------
~ASCII -----------------------------------------------------
# ...
 8551.00000   64.65960  116.05460   84.54880    0.20700
 8551.50000   64.91960  116.02320   82.00040    0.20020
 8552.00000   65.05230  115.88990   78.55250    0.19460
 8552.50000   60.24510  115.75660   75.50080    0.18560
 8553.00000   62.05610  115.65000   73.87990    0.18580
 8553.50000   65.83480  115.65000   71.05700    0.19080
 8554.00000   65.43800  115.69140   65.66770    0.17060
 8554.50000   62.27520  115.00220   60.41340    0.16320
 8555.00000   64.33700  114.82220   53.81740    0.17420
 8555.50000   63.03090  114.71300   49.88500    0.18760
 8556.00000   63.03560  114.25050   51.81910    0.19330
 8556.50000   63.38080  113.46490   55.58630    0.18540
 8557.00000   64.50370  113.85070   61.01310    0.17570
 8557.50000   64.30650  114.35050   64.28110    0.16900
 8558.00000   62.91390  114.61140   67.12940    0.18430
 8558.50000   65.57990  114.95820   69.70780    0.20380
 8559.00000   67.07930  115.54440   75.70420    0.22420
 8559.50000   67.83320  116.84140   79.95180    0.23220
 8560.00000   68.82640  117.30920   84.19950    0.23940
 8560.50000   69.46640  118.64860   85.44880    0.25260
 8561.00000   68.52780  119.35240   86.90540    0.26460
 8561.50000   68.74360  119.93760   89.00050    0.27700
 8562.00000   66.77980  120.52290   91.42220    0.28010
 8562.50000   53.92890  120.89030   93.84380    0.26170
 8563.00000   53.19420  121.29010   96.69780    0.26660
 8563.50000   53.81540  120.87610   98.10900    0.26390
 8564.00000   54.03020  120.26050   99.29560    0.28280
 8564.50000   54.12070  119.42700  100.75750    0.29190
 8565.00000   54.44250  119.03110  101.85760    0.29850
 8565.50000   54.46480  118.70120   99.84020    0.28190
 8566.00000   54.60830  118.00090   95.18170    0.26310
 8566.50000   54.61670  117.14920   90.38450    0.24830
 8567.00000   54.45590  116.93500   85.55930    0.23970
 8567.50000   54.04140  116.64940   83.62060    0.25220
 8568.00000   54.05220  116.60480   84.42940    0.25980
 8568.50000   54.06300  115.98910   82.52880    0.25020
 8569.00000   54.28430  115.75890   81.47290    0.23100
 8569.50000   54.43430  117.08490   80.05200    0.21320
 8570.00000   54.34670  117.81370   80.01610    0.21950
 8570.50000   54.01970  117.43640   82.30070    0.22820
 8571.00000   54.02820  117.34840   84.02790    0.24200
 8571.50000   54.00500  116.54550   86.84040    0.23560
 8572.00000   53.58830  117.33600   89.72530    0.26580
 8572.50000   53.55630  117.03160   92.66710    0.28230
 8573.00000   53.76420  117.06070   93.84380    0.29860
 8573.50000   53.94260  116.69540   88.06980    0.27400
 8574.00000   54.06470  116.50470   85.84540    0.24390
 8574.50000   54.06470  116.54680   92.79440    0.23020
 8575.00000   53.61340  115.89920  104.48740    0.23590
 8575.50000   54.04150  114.53190  117.17090    0.24740
 8576.00000   54.73890  113.52950  114.19520    0.25980
 8576.50000   53.84980  112.52720  102.68850    0.26510
 8577.00000   53.63330  112.76770   95.64270    0.26710
 8577.50000   60.71570  113.40620   93.08290    0.26350
 8578.00000   65.99740  114.04480   93.83810    0.26040
 8578.50000   54.88430  115.44970   96.44290    0.25140
 8579.00000   55.33400  117.36550   97.43110    0.23320
 8579.50000   57.84110  118.89430   96.74960    0.21960
 8580.00000   61.90770  118.89140   92.98880    0.20740
 8580.50000   62.20640  118.19130   86.97460    0.21380
 8581.00000   61.68940  114.80810   84.60600    0.20860
 8581.50000   63.26480  113.43450   82.98050    0.20480
 8582.00000   65.26530  112.27550   81.41570    0.19960
 8582.50000   65.94550  113.59020   78.70240    0.19760
 8583.00000   65.67850  119.90990   74.13010    0.19140
 8583.50000   66.14550  120.75380   71.65660    0.18310
 8584.00000   66.33640  121.17490   72.39510    0.17880
 8584.50000   66.55580  121.96210   75.05670    0.18870
 8585.00000   67.13880  121.42260   81.10090    0.20340
 8585.50000   67.95090  120.26100   85.29840    0.22880
 8586.00000   68.02250  120.26530   91.89920    0.25280
 8586.50000   68.04110  120.18720   92.51980    0.25080
 8587.00000   68.13640  120.10910   92.28420    0.24150
 8587.50000   68.46920  120.45680   91.82630    0.23320
 8588.00000   68.75910  120.38030   92.56740    0.23950
 8588.50000   69.07200  120.21860   93.44350    0.24980
 8589.00000   68.98720  120.05700   93.44350    0.26420
 8589.50000   68.08330  119.89530   93.64330    0.27550
 8590.00000   66.95840  119.73360   94.25830    0.30140
 8590.50000   66.41880  119.65610   94.95020    0.32020
 8591.00000   66.40680  120.00240   95.64210    0.29900
 8591.50000   66.26740  119.99510   94.60280    0.28440
 8592.00000   66.01090  119.90120   92.40410    0.25850
 8592.50000   65.99200  119.74950   90.20540    0.23260
 8593.00000   66.66140  119.59780   88.44650    0.21740
 8593.50000   67.41850  119.44610   90.09800    0.23020
 8594.00000   66.55690  119.29450   93.01250    0.26540
 8594.50000   67.05630  118.81560   97.09920    0.27370
 8595.00000   69.10010  118.29390   98.09790    0.27260
 8595.50000   70.38460  117.75400   98.71300    0.26670
 8596.00000   68.74980  116.66960   96.12780    0.27180
 8596.50000   67.98490  115.77150   90.69510    0.26490
 8597.00000   67.70280  115.41260   82.89980    0.24980
 8597.50000   67.34870  115.41260   79.97650    0.23010
 8598.00000   66.85820  115.41260   76.61620    0.23580
 8598.50000   67.32010  115.41260   74.74860    0.24960
 8599.00000   67.99970  115.29560   75.48570    0.25660
 8599.50000   67.50830  115.37290   80.50130    0.25020
 8600.00000   66.26660  115.82830   88.71710    0.23790
 8600.50000   63.18430  116.13310   91.83150    0.22850
 8601.00000   57.88920  116.50720   94.72800    0.23090
 8601.50000   63.79540  116.99280   96.64910    0.24450
 8602.00000   64.34130  116.93120   97.17170    0.25320
 8602.50000   63.87740  116.55300   96.18810    0.25250
 8603.00000   63.01260  116.68250   97.58760    0.24380
 8603.50000   63.73460  116.68480   96.88510    0.23380
 8604.00000   63.12590  116.68480   94.53980    0.21670
 8604.50000   56.42790  116.68480   89.15550    0.21040
 8605.00000   53.05490  116.68480   86.00030    0.21230
 8605.50000   54.41890  116.68480   83.13270    0.21580
 8606.00000   59.36990  116.68480   81.16990    0.22140
 8606.50000   62.31970  116.68480   81.38450    0.21870
 8607.00000   64.31050  116.60460   80.09640    0.21220
 8607.50000   64.76340  116.68770   76.14370    0.19750
 8608.00000   64.58420  116.73530   70.84860    0.18630
 8608.50000   62.60400  116.67580   67.47290    0.18570
 8609.00000   60.67420  116.30120   67.26580    0.19340
 8609.50000   61.67700  116.06600   71.53260    0.21400
 8610.00000   61.24680  115.70810   75.15990    0.22820
 8610.50000   61.98280  115.56140   78.78730    0.23580
 8611.00000   63.84640  115.30270   81.38270    0.22580
 8611.50000   62.59280  114.68000   82.38490    0.21320
 8612.00000   61.41200  113.51390   82.24180    0.19940
 8612.50000   58.25250  113.03500   80.73630    0.19890
 8613.00000   53.67880  112.50680   78.34230    0.19970
 8613.50000   55.36690  111.69470   75.03430    0.19440
 8614.00000   55.16880  110.88250   73.09190    0.19400
 8614.50000   54.82580  111.06060   69.89000    0.18600
 8615.00000   54.63770  111.14620   69.15350    0.18270
 8615.50000   54.43960  110.98260   67.21570    0.17870
 8616.00000   55.28340  109.47270   64.32780    0.16580
 8616.50000   56.30530  108.88160   59.02610    0.15370
 8617.00000   54.49160  108.99200   52.82320    0.14770
 8617.50000   56.94960  109.38040   47.59670    0.14010
 8618.00000   57.79970  109.78190   44.38940    0.13490
 8618.50000   58.66310  110.10300   43.33410    0.13400
 8619.00000   59.40800  109.20630   46.07480    0.13950
 8619.50000   50.28130  108.24920   47.31040    0.13570
 8620.00000   52.30110  109.30210   47.23650    0.13120
 8620.50000   53.09190  111.82300   45.38420    0.13470
 8621.00000   53.51910  112.96640   45.92560    0.13780
 8621.50000   54.75570  112.36230   47.44420    0.14410
 8622.00000   56.57490  111.35230   51.26060    0.15210
