~Version ---------------------------------------------------
VERS.   2.0 : CWLS log ASCII Standard -VERSION 2.0
WRAP.    NO : One line per depth step
DLM . SPACE : Column Data Section Delimiter
~Well ------------------------------------------------------
STRT .FT                 114.0 : START DEPTH
STOP .FT               14385.0 : STOP DEPTH
STEP .FT                   0.5 : STEP
NULL .                -9999.25 : NULL VALUE
COMP .                         : COMPANY
WELL .                         : WELL
FLD  .                         : FIELD
LOC  .                         : LOCATION
PROV .                         : PROVINCE
CNTY .                         : COUNTY
STAT .                         : STATE
CTRY .                         : COUNTRY
SRVC .                         : SERVICE COMPANY
DATE .                         : DATE
UWI  .                         : UNIQUE WELL ID
API  .                         : API NUMBER
SLAT .WGS84 2.9318238088482005 : SURFACE LATITUDE
SLON .WGS84     6.721778198349 : SURFACE LONGITUDE
DATUM.F                    nan : DEPTH DATUM ELEV
~Curve Information -----------------------------------------
DEPT   .FT    : 
DTCO   .US/F  : DELTA-T COMPRESSIONAL
DTSM   .US/F  : DELTA-T SHEAR
SGRDD  .GAPI  : SPECTROSCOPY GAMMA RAY FROM DENSITY LOG
TNPH_LS.DEC   : THERMAL NEUTRON POROSITY [LIMESTONE]
~Params ----------------------------------------------------
~Other -----------------------------------------------------
~ASCII -----------------------------------------------------
# ...
 10122.50000   54.23770  101.45430   52.56460    0.11440
 10123.00000   55.18380  101.35500   52.48260    0.10880
 10123.50000   55.86730  101.25580   53.14640    0.10990
 10124.00000   55.04090  101.80340   55.07670    0.11140
 10124.50000   55.20830  102.52150   55.52500    0.11340
 10125.00000   55.42450  103.91770   56.32330    0.12180
 10125.50000   55.60030  108.68840   57.33040    0.14020
 10126.00000   55.62830  116.52430   55.01410    0.15100
 10126.50000   60.05900  117.11410   52.84660    0.17040
 10127.00000   64.73730  113.56000   53.51790    0.20500
 10127.50000   55.11700  111.36090   64.31150    0.22440
 10128.00000   54.91220  112.03060   76.90680    0.23720
 10128.50000   54.67570  112.95110   86.28260    0.24790
 10129.00000   54.64510  115.24830   89.87530    0.25210
 10129.50000   54.37950  115.84990   89.24010    0.24420
 10130.00000   54.49710  116.27110   86.08930    0.23520
 10130.50000   54.39510  115.84980   81.10140    0.22950
 10131.00000   54.24470  115.90310   76.00450    0.22490
 10131.50000   54.21750  115.96980   73.75580    0.22850
 10132.00000   54.06150  116.03650   75.25730    0.23870
 10132.50000   54.21410  115.71980   78.48160    0.23830
 10133.00000   54.22160  115.34490   79.56020    0.22000
 10133.50000   54.22920  114.78810   77.27540    0.20720
 10134.00000   54.04950  114.09300   74.25830    0.20630
 10134.50000   53.52110  111.42740   67.90930    0.18420
 10135.00000   53.49660  110.62770   63.87210    0.15180
 10135.50000   54.15780  111.25780   62.96620    0.13860
 10136.00000   54.19460  112.04530   62.88580    0.13320
 10136.50000   53.93190  112.36040   63.23040    0.13930
 10137.00000   56.58900  111.86360   64.91110    0.15410
 10137.50000   61.47290  111.77300   71.35500    0.16680
 10138.00000   60.56930  112.27400   76.27060    0.18310
 10138.50000   58.38270  113.02930   77.13710    0.19740
 10139.00000   52.57780  114.54670   76.55410    0.20840
 10139.50000   56.57720  115.24530   75.97110    0.20810
 10140.00000   67.48320  115.73920   76.25430    0.20150
 10140.50000   69.12530  116.23310   79.09870    0.20590
 10141.00000   69.10220  116.54940   81.94320    0.21360
 10141.50000   68.27090  115.72500   83.64990    0.21370
 10142.00000   66.91250  114.82930   81.65280    0.20580
 10142.50000   64.38020  114.26430   79.72770    0.19980
 10143.00000   61.28150  114.58600   76.81410    0.19060
 10143.50000   60.06920  114.65720   73.60590    0.17940
 10144.00000   59.35990  114.72850   70.70330    0.16340
 10144.50000   59.12120  115.34730   67.00980    0.15900
 10145.00000   63.49550  116.08930   65.38580    0.16340
 10145.50000   64.24780  116.37600   64.84250    0.16490
 10146.00000   64.30320  116.66260   66.56230    0.17410
 10146.50000   64.08410  116.94920   70.00840    0.19620
 10147.00000   63.24640  116.98090   73.52090    0.20880
 10147.50000   63.51990  116.04960   76.46760    0.21090
 10148.00000   64.83380  115.46900   81.10140    0.20440
 10148.50000   63.69560  114.55020   84.99910    0.20590
 10149.00000   62.88080  113.55060   88.25490    0.20610
 10149.50000   62.30620  112.46860   89.86150    0.20180
 10150.00000   62.48200  112.53230   90.26910    0.20880
 10150.50000   63.23500  112.59600   88.72300    0.21890
 10151.00000   64.07250  112.65970   86.34830    0.22420
 10151.50000   64.61630  112.78080   84.84920    0.23090
 10152.00000   64.63180  112.95080   84.24950    0.22530
 10152.50000   64.26590  112.95080   83.88570    0.22690
 10153.00000   64.00760  112.86490   82.69320    0.21340
 10153.50000   63.54960  113.47910   82.46580    0.20720
 10154.00000   63.10380  113.91190   82.54170    0.20700
 10154.50000   62.85790  114.07780   81.40120    0.20590
 10155.00000   62.83790  114.51020   79.73430    0.20620
 10155.50000   62.81800  113.38990   77.66400    0.20910
 10156.00000   62.64840  112.99870   77.93210    0.20880
 10156.50000   62.83140  112.60750   78.90990    0.20060
 10157.00000   62.77950  112.45100   79.66630    0.19390
 10157.50000   62.81250  112.77090   80.20190    0.19210
 10158.00000   63.43600  112.85090   83.01220    0.19500
 10158.50000   64.28360  112.94800   85.56110    0.20260
 10159.00000   64.88250  112.80090   84.73470    0.21260
 10159.50000   64.83010  112.70190   82.56350    0.22460
 10160.00000   65.19840  112.68950   81.95340    0.22970
 10160.50000   64.59160  112.85090   82.54020    0.23820
 10161.00000   63.48060  112.85090   82.38390    0.23520
 10161.50000   62.92360  112.66030   79.84310    0.24180
 10162.00000   62.85550  112.44220   79.07230    0.23530
 10162.50000   63.16240  112.09440   81.55110    0.21250
 10163.00000   63.68050  111.68380   82.70240    0.19500
 10163.50000   64.09120  110.72720   83.91970    0.18340
 10164.00000   63.98010  109.03840   81.58070    0.17820
 10164.50000   64.49390  110.24790   81.10140    0.16940
 10165.00000   65.48830  110.73910   77.65350    0.15540
 10165.50000   66.59650  111.10890   75.10500    0.14300
 10166.00000   67.57890  111.32470   70.57420    0.13810
 10166.50000   67.29740  111.69060   67.30970    0.13820
 10167.00000   66.32940  112.05650   63.62500    0.14060
 10167.50000   65.29350  112.58180   63.15710    0.14860
 10168.00000   65.19110  113.16440   61.07570    0.15470
 10168.50000   65.03680  113.77210   57.49040    0.15160
 10169.00000   64.26670  114.05040   55.40200    0.15690
 10169.50000   65.16480  113.97030   56.44760    0.16860
 10170.00000   65.05180  114.25910   62.36210    0.17780
 10170.50000   64.53240  114.99570   66.71020    0.17910
 10171.00000   63.83750  114.58230   68.90920    0.17920
 10171.50000   63.97660  114.49630   69.23760    0.18000
 10172.00000   64.73050  114.54980   68.39490    0.17660
 10172.50000   65.18370  114.38250   67.54510    0.17460
 10173.00000   65.02180  114.21520   67.69510    0.17730
 10173.50000   65.18630  113.15070   69.63340    0.17960
 10174.00000   65.17050  112.87030   70.64530    0.18540
 10174.50000   64.67800  112.86220   71.49600    0.18450
 10175.00000   63.85750  112.85410   73.99290    0.19100
 10175.50000   63.82920  112.61100   74.66000    0.20220
 10176.00000   63.82710  112.39670   74.79910    0.21670
 10176.50000   63.82510  112.44200   72.49250    0.22060
 10177.00000   63.75910  112.13110   72.04480    0.21570
 10177.50000   63.43060  111.80300   73.88060    0.21120
 10178.00000   63.06910  111.43710   72.74400    0.20920
 10178.50000   62.83080  111.07120   71.54180    0.20940
 10179.00000   62.56430  110.83770   69.67830    0.20730
 10179.50000   62.30040  110.42700   71.85030    0.20670
 10180.00000   62.12730  110.39450   72.85590    0.20710
 10180.50000   61.68130  110.33410   73.35060    0.19540
 10181.00000   59.72100  110.70430   73.43800    0.18460
 10181.50000   59.75520  110.83040   73.80620    0.18330
 10182.00000   59.79790  110.32190   75.59880    0.19580
 10182.50000   59.83770  110.39870   75.36570    0.20930
 10183.00000   59.86600  110.40260   74.69690    0.21300
 10183.50000   59.76950  110.49480   73.23390    0.20410
 10184.00000   59.61970  110.91520   72.43370    0.21020
 10184.50000   60.82530  111.24920   71.56060    0.22380
 10185.00000   60.83520  111.23750   68.80830    0.23340
 10185.50000   60.84500  110.86170   66.22130    0.23800
 10186.00000   60.85490  110.85170   66.43110    0.23220
 10186.50000   60.63870  110.71970   70.30740    0.23110
 10187.00000   60.30580  110.85170   75.05460    0.22050
 10187.50000   60.10350  110.97160   74.53870    0.20840
 10188.00000   60.18560  111.20150   72.40620    0.20800
 10188.50000   59.52480  111.26550   71.63610    0.21280
 10189.00000   59.53030  111.65130   70.26180    0.21000
 10189.50000   60.15250  111.88210   72.58310    0.20080
 10190.00000   59.41460  112.11290   71.60310    0.19480
 10190.50000   58.58270  112.29050   72.24220    0.19280
 10191.00000   56.65780  112.65230   73.03270    0.19860
 10191.50000   55.60390  112.85110   75.21880    0.20890
 10192.00000   57.28890  113.23260   77.57270    0.22650
 10192.50000   60.42830  113.24570   79.67350    0.24050
