~Version ---------------------------------------------------
VERS.   2.0 : CWLS log ASCII Standard -VERSION 2.0
WRAP.    NO : One line per depth step
DLM . SPACE : Column Data Section Delimiter
~Well ------------------------------------------------------
STRT .FT                 114.0 : START DEPTH
STOP .FT               14385.0 : STOP DEPTH
STEP .FT                   0.5 : STEP
NULL .                -9999.25 : NULL VALUE
COMP .                         : COMPANY
WELL .                         : WELL
FLD  .                         : FIELD
LOC  .                         : LOCATION
PROV .                         : PROVINCE
CNTY .                         : COUNTY
STAT .                         : STATE
CTRY .                         : COUNTRY
SRVC .                         : SERVICE COMPANY
DATE .                         : DATE
UWI  .                         : UNIQUE WELL ID
API  .                         : API NUMBER
SLAT .WGS84 2.9318238088482005 : SURFACE LATITUDE
SLON .WGS84     6.721778198349 : SURFACE LONGITUDE
DATUM.F                    nan : DEPTH DATUM ELEV
~Curve Information -----------------------------------------
DEPT   .FT    : 
DTCO   .US/F  : DELTA-T COMPRESSIONAL
DTSM   .US/F  : DELTA-T SHEAR
SGRDD  .GAPI  : SPECTROSCOPY GAMMA RAY FROM DENSITY LOG
TNPH_LS.DEC   : THERMAL NEUTRON POROSITY [LIMESTONE]
~Params ----------------------------------------------------
~Other -----------------------------------------------------
~ASCII -----------------------------------------------------
# ...
 7478.50000   59.48910  110.37960   26.23410    0.11900
 7479.00000   59.92680  110.92460   29.29440    0.13240
 7479.50000   60.18850  111.35340   31.24440    0.13830
 7480.00000   60.55260  112.25110   32.05980    0.12450
 7480.50000   60.76500  112.41770   29.68220    0.10620
 7481.00000   62.10230  113.02460   29.69880    0.10260
 7481.50000   63.56390  113.63520   30.84370    0.10800
 7482.00000   63.42690  113.55630   33.63740    0.11500
 7482.50000   64.04340  114.28110   36.14280    0.13020
 7483.00000   65.49100  114.97670   38.82670    0.14380
 7483.50000   66.02960  114.84790   43.30620    0.15650
 7484.00000   65.96020  114.83740   50.26660    0.16410
 7484.50000   65.53950  114.82680   52.31530    0.17020
 7485.00000   65.08510  114.81620   50.27710    0.16450
 7485.50000   64.18770  114.52020   44.52330    0.14540
 7486.00000   63.65790  114.47020   35.97730    0.12940
 7486.50000   63.43060  114.40020   29.83210    0.11700
 7487.00000   63.68050  114.45020   27.28800    0.10900
 7487.50000   64.13630  114.46570   26.46550    0.10400
 7488.00000   64.71140  114.60250   29.41000    0.11160
 7488.50000   65.47480  114.84260   35.22890    0.13100
 7489.00000   66.17950  115.23130   40.02600    0.15140
 7489.50000   67.27910  116.09460   44.82310    0.17560
 7490.00000   68.16470  116.80110   48.43260    0.17240
 7490.50000   68.50950  117.50760   50.06230    0.17020
 7491.00000   68.82840  117.91080   48.88360    0.17450
 7491.50000   68.58220  118.14870   47.77670    0.17980
 7492.00000   68.10260  117.65360   46.71990    0.17180
 7492.50000   67.55510  117.24910   45.87090    0.16400
 7493.00000   67.10300  116.84930   44.58710    0.15920
 7493.50000   66.47940  116.04960   43.02420    0.15850
 7494.00000   65.77960  115.66080   40.60710    0.16000
 7494.50000   65.19800  115.14240   37.17770    0.14980
 7495.00000   64.46690  114.85010   35.50300    0.13820
 7495.50000   64.03740  114.33360   33.60980    0.13100
 7496.00000   64.03740  114.57190   34.79760    0.12190
 7496.50000   64.10690  115.03590   36.20000    0.11520
 7497.00000   64.68290  114.70440   37.22080    0.11240
 7497.50000   64.98000  114.85010   37.46700    0.11940
 7498.00000   65.42980  115.03590   37.76080    0.13220
 7498.50000   65.74410  114.85010   39.19300    0.14460
 7499.00000   65.99040  114.97000   40.43640    0.16500
 7499.50000   66.01840  115.05000   41.42410    0.17620
 7500.00000   65.61820  114.75010   43.39960    0.18150
 7500.50000   65.04200  114.30480   42.76930    0.18420
 7501.00000   64.27360  113.57780   41.55940    0.17070
 7501.50000   63.56420  112.85090   37.79680    0.14420
 7502.00000   62.96990  112.50190   35.52710    0.13130
 7502.50000   62.32500  111.86660   35.07900    0.13230
 7503.00000   61.75740  111.65130   34.38700    0.13690
 7503.50000   61.27700  111.35900   33.22280    0.12940
 7504.00000   60.98160  110.83320   31.34550    0.12300
 7504.50000   60.82470  110.74930   30.68160    0.11830
 7505.00000   60.56740  110.70100   31.35660    0.11720
 7505.50000   60.44350  110.79520   32.14840    0.11610
 7506.00000   60.65740  110.92940   32.74490    0.11660
 7506.50000   60.86020  111.12380   32.19820    0.11570
 7507.00000   61.32540  111.31810   32.61740    0.11510
 7507.50000   61.80690  111.51250   32.15570    0.11900
 7508.00000   62.41500  111.92620   33.02070    0.12580
 7508.50000   63.08070  112.59880   35.04590    0.12910
 7509.00000   64.21970  113.46250   36.85680    0.12990
 7509.50000   65.62410  114.65010   37.44890    0.13500
 7510.00000   66.33290  115.69210   38.67600    0.13310
 7510.50000   66.90310  116.22720   40.85380    0.13650
 7511.00000   67.38450  116.44940   42.98860    0.13850
 7511.50000   67.78970  116.44940   44.86970    0.13610
 7512.00000   67.92880  116.81340   45.30670    0.15700
 7512.50000   68.01900  117.17740   45.17350    0.17380
 7513.00000   67.92880  117.54140   44.01450    0.18420
 7513.50000   67.84410  118.21480   44.37860    0.17150
 7514.00000   67.81930  118.36090   44.73510    0.17530
 7514.50000   67.79460  118.44860   44.71450    0.18110
 7515.00000   67.62190  118.54860   45.90170    0.17950
 7515.50000   67.15520  118.44860   47.97120    0.17180
 7516.00000   66.81770  118.39020   50.15700    0.16100
 7516.50000   66.66430  117.98720   48.86770    0.15760
 7517.00000   66.62230  117.53490   45.42280    0.15390
 7517.50000   66.35070  116.52720   42.15880    0.14800
 7518.00000   65.73840  114.99080   39.61650    0.14310
 7518.50000   65.42980  114.59280   39.57630    0.14300
 7519.00000   65.18500  114.45300   39.66220    0.15280
 7519.50000   64.87400  114.44670   38.37700    0.15840
 7520.00000   64.71050  114.16380   34.64390    0.14950
 7520.50000   64.54700  114.05060   30.66300    0.14220
 7521.00000   64.38340  114.45050   29.07780    0.15520
 7521.50000   64.25260  114.72170   32.83030    0.17460
 7522.00000   64.46850  115.21650   37.78820    0.17350
 7522.50000   64.82830  115.25010   39.36640    0.15760
 7523.00000   65.19010  115.53570   38.26030    0.14890
 7523.50000   65.36380  115.82130   37.39730    0.15200
 7524.00000   65.61310  116.04980   39.45610    0.15690
 7524.50000   65.66480  116.12980   41.87560    0.16200
 7525.00000   66.06970  116.28110   43.38930    0.16210
 7525.50000   66.40930  116.44960   43.49110    0.15890
 7526.00000   66.62810  116.44960   44.14850    0.15740
 7526.50000   66.86440  116.76950   44.16640    0.16290
 7527.00000   66.95240  116.84950   44.64560    0.16830
 7527.50000   66.68280  116.94660   45.26770    0.16510
 7528.00000   66.22960  116.84950   46.49430    0.16120
 7528.50000   65.86450  116.44960   46.80620    0.16510
 7529.00000   65.55680  116.35390   45.24970    0.16660
 7529.50000   65.16500  116.11460   43.02420    0.16690
 7530.00000   64.81310  115.87530   41.56980    0.16100
 7530.50000   64.48050  115.65240   40.49650    0.16080
 7531.00000   64.26530  115.64980   41.07510    0.15620
 7531.50000   64.23620  115.25000   42.54890    0.15110
 7532.00000   64.32940  115.11130   44.67290    0.14710
 7532.50000   64.45590  114.86600   44.23110    0.14860
 7533.00000   64.68020  114.53030   42.26990    0.14900
 7533.50000   64.68020  114.43660   39.05460    0.14680
 7534.00000   64.45290  114.34390   38.09800    0.14290
 7534.50000   64.44410  113.83760   38.64160    0.14150
 7535.00000   64.43530  113.63220   38.23820    0.13990
 7535.50000   64.42640  113.42690   36.89220    0.14230
 7536.00000   64.24300  113.22150   35.13540    0.14050
 7536.50000   64.05850  113.22710   33.57490    0.13350
 7537.00000   64.03040  113.05090   34.29490    0.12660
 7537.50000   64.03280  113.19370   37.66000    0.12540
 7538.00000   64.03510  113.30790   41.57840    0.13220
 7538.50000   64.03740  113.59350   42.67360    0.14020
 7539.00000   64.47160  113.91250   40.02580    0.14340
 7539.50000   64.73340  114.07500   37.80520    0.13720
 7540.00000   64.79520  114.40640   36.86100    0.13080
 7540.50000   65.20470  114.49020   38.82650    0.13540
 7541.00000   65.42980  114.60820   45.12270    0.14860
 7541.50000   65.70270  114.39820   48.64550    0.15780
 7542.00000   65.82960  114.23030   48.56920    0.15620
 7542.50000   65.62970  114.58310   46.45130    0.15380
 7543.00000   65.30750  114.45020   44.35490    0.16180
 7543.50000   64.97880  113.95040   43.32940    0.16970
 7544.00000   64.42760  113.85050   42.63100    0.16580
 7544.50000   63.86040  113.85050   41.68490    0.15670
 7545.00000   63.82680  113.55820   41.23660    0.15140
 7545.50000   63.81780  111.34050   39.42610    0.15380
 7546.00000   63.76110  114.15000   43.83220    0.16000
 7546.50000   63.64100  115.23590   49.73970    0.17810
 7547.00000   63.60550  115.24990   54.44870    0.18340
 7547.50000   63.45800  115.19290   48.86620    0.17060
 7548.00000   63.43890  114.87500   41.08260    0.15940
 7548.50000   63.34390  114.66030   36.44560    0.14540
 7549.00000   62.90470  114.30910   34.59660    0.13560
 7549.50000   62.36610  114.31520   34.50300    0.12720
