~Version ---------------------------------------------------
VERS.   2.0 : CWLS log ASCII Standard -VERSION 2.0
WRAP.    NO : One line per depth step
DLM . SPACE : Column Data Section Delimiter
~Well ------------------------------------------------------
STRT .FT                 114.0 : START DEPTH
STOP .FT               14385.0 : STOP DEPTH
STEP .FT                   0.5 : STEP
NULL .                -9999.25 : NULL VALUE
COMP .                         : COMPANY
WELL .                         : WELL
FLD  .                         : FIELD
LOC  .                         : LOCATION
PROV .                         : PROVINCE
CNTY .                         : COUNTY
STAT .                         : STATE
CTRY .                         : COUNTRY
SRVC .                         : SERVICE COMPANY
DATE .                         : DATE
UWI  .                         : UNIQUE WELL ID
API  .                         : API NUMBER
SLAT .WGS84 2.9318238088482005 : SURFACE LATITUDE
SLON .WGS84     6.721778198349 : SURFACE LONGITUDE
DATUM.F                    nan : DEPTH DATUM ELEV
~Curve Information -----------------------------------------
DEPT   .FT    : 
DTCO   .US/F  : DELTA-T COMPRESSIONAL
DTSM   .US/F  : DELTA-T SHEAR
SGRDD  .GAPI  : SPECTROSCOPY GAMMA RAY FROM DENSITY LOG
TNPH_LS.DEC   : THERMAL NEUTRON POROSITY [LIMESTONE]
~Params ----------------------------------------------------
~Other -----------------------------------------------------
~ASCII -----------------------------------------------------
# ...
 13788.50000   67.45250  142.84320   81.29470    0.25420
 13789.00000   67.60950  142.74270   82.22900    0.24410
 13789.50000   67.62730  142.50200   83.17020    0.23740
 13790.00000   67.57290  142.27160   83.69170    0.23110
 13790.50000   67.66410  141.40330   82.53210    0.23300
 13791.00000   67.82900  140.34310   82.00090    0.23920
 13791.50000   67.24760  139.28300   79.38770    0.24390
 13792.00000   66.52950  139.14970   80.36420    0.24840
 13792.50000   66.23380  139.12520   81.31130    0.25460
 13793.00000   66.15300  139.08430   83.42020    0.26510
 13793.50000   65.59240  139.04330   83.66250    0.25510
 13794.00000   64.96430  139.00240   85.29200    0.25010
 13794.50000   64.06830  138.96150   86.97310    0.23930
 13795.00000   63.28230  138.92060   88.96660    0.23130
 13795.50000   66.00190  138.87970   89.00500    0.23740
 13796.00000   66.90540  138.83880   87.84950    0.24710
 13796.50000   67.22220  138.79780   87.86000    0.25620
 13797.00000   66.82940  138.75690   88.09110    0.23400
 13797.50000   66.66160  138.71600   88.62890    0.22950
 13798.00000   66.65450  138.67510   88.47890    0.25590
 13798.50000   66.75440  138.63420   86.86970    0.27180
 13799.00000   67.28300  138.59320   85.49300    0.26480
 13799.50000   67.61880  138.55230   84.84920    0.26170
 13800.00000   63.67440  138.51140   84.11660    0.26770
 13800.50000   57.09940  138.47050   82.36180    0.26200
 13801.00000   54.28440  138.42960   78.06320    0.23790
 13801.50000   54.03590  138.38860   75.34420    0.24060
 13802.00000   54.04280  138.34770   77.14140    0.25260
 13802.50000   54.04970  138.30680   82.04300    0.26020
 13803.00000   54.28150  138.26590   84.91320    0.24540
 13803.50000   53.89160  138.22500   83.17220    0.23250
 13804.00000   53.66640  138.21680   81.06840    0.22340
 13804.50000   53.30170  138.28080   79.30180    0.20760
 13805.00000   54.08450  138.60060   76.60350    0.18950
 13805.50000   54.20600  138.92050   74.35480    0.18040
 13806.00000   54.31130  139.24040   72.10620    0.17780
 13806.50000   54.18070  139.56020   69.85760    0.18100
 13807.00000   54.64020  139.81610   68.67090    0.18600
 13807.50000   54.71560  139.81610   68.36210    0.19110
 13808.00000   54.99180  139.14970   67.22770    0.19220
 13808.50000   54.97640  138.48330   66.92980    0.18700
 13809.00000   54.69130  139.04070   67.35410    0.17850
 13809.50000   54.68430  140.19170   67.15040    0.17240
 13810.00000   54.38440  140.88240   65.68460    0.16540
 13810.50000   54.43660  140.88230   63.51190    0.15580
 13811.00000   54.44050  140.48240   61.84120    0.13900
 13811.50000   54.63020  139.81600   60.97930    0.13040
 13812.00000   54.45420  138.69270   60.20050    0.12540
 13812.50000   54.66360  137.55030   58.46500    0.12390
 13813.00000   54.80830  137.60700   58.00390    0.11740
 13813.50000   54.80760  137.74880   59.55620    0.11280
 13814.00000   54.80690  137.76760   59.64930    0.10850
 13814.50000   54.71110  136.85540   58.32510    0.10560
 13815.00000   54.68650  136.79210   57.24750    0.10280
 13815.50000   54.66190  136.26750   56.93160    0.10070
 13816.00000   54.65970  136.41160   58.48070    0.09560
 13816.50000   54.65740  136.09610   59.05230    0.09310
 13817.00000   54.65520  136.05720   59.18210    0.09350
 13817.50000   54.58810  136.24160   60.87900    0.09740
 13818.00000   54.28930  136.57480   63.31340    0.10390
 13818.50000   54.32750  136.90800   66.41020    0.11300
 13819.00000   54.62950  137.19120   70.00800    0.12660
 13819.50000   53.96060  137.19120   75.70460    0.14020
 13820.00000   53.82900  137.70770   80.16860    0.16610
 13820.50000   53.86280  137.98530   80.76870    0.18580
 13821.00000   54.03440  138.05490   81.35080    0.19570
 13821.50000   53.18080  138.44070   82.48760    0.20340
 13822.00000   51.43980  138.01710   87.39510    0.21020
 13822.50000   52.37670  136.85710   92.01240    0.21480
 13823.00000   51.83960  136.76260   95.49480    0.20930
 13823.50000   55.93050  137.10990   95.36370    0.20080
 13824.00000   63.14900  137.48650   89.47130    0.19680
 13824.50000   60.11450  137.86320   84.39890    0.20440
 13825.00000   62.06790  138.23980   76.60360    0.21620
 13825.50000   61.09210  138.61650   73.15570    0.21260
 13826.00000   61.06450  138.67570   65.83190    0.19250
 13826.50000   62.41230  138.82380   59.21410    0.18210
 13827.00000   54.49120  138.97190   51.91230    0.17760
 13827.50000   54.83410  139.12000   51.29440    0.17220
 13828.00000   54.84800  139.26810   54.43140    0.16260
 13828.50000   54.93070  139.41620   56.51580    0.14930
 13829.00000   55.42690  139.18440   55.82590    0.14590
 13829.50000   55.26930  138.89470   54.19420    0.14860
 13830.00000   54.75030  138.60490   52.01830    0.14590
 13830.50000   54.12830  138.31520   50.18650    0.13540
 13831.00000   54.22610  138.08340   48.64910    0.12540
 13831.50000   54.49100  137.97890   47.66730    0.11670
 13832.00000   54.05520  137.95560   47.18930    0.11880
 13832.50000   53.88830  137.37810   47.06570    0.12130
 13833.00000   53.34170  137.38380   46.27890    0.12020
 13833.50000   53.43470  137.89820   44.52330    0.11470
 13834.00000   53.43470  138.04090   42.52950    0.11130
 13834.50000   53.44150  138.04090   41.66130    0.12030
 13835.00000   52.79730  138.17410   43.33390    0.14140
 13835.50000   50.20710  138.30740   49.32040    0.16580
 13836.00000   53.08080  138.44070   55.93420    0.19860
 13836.50000   53.54080  138.73970   62.21270    0.21490
 13837.00000   52.69340  139.03870   69.70820    0.21810
 13837.50000   53.17100  139.33770   74.08890    0.21810
 13838.00000   53.42630  139.63660   77.39250    0.22380
 13838.50000   53.63230  139.94930   77.69960    0.22920
 13839.00000   53.82750  139.92430   76.81540    0.20940
 13839.50000   53.96750  139.88270   75.93120    0.20550
 13840.00000   54.13240  139.84100   75.04700    0.20170
 13840.50000   54.23240  139.81600   74.16290    0.20130
 13841.00000   57.84590  139.61100   73.45550    0.20150
 13841.50000   68.01910  139.25210   74.45490    0.19260
 13842.00000   67.72850  138.89330   74.20510    0.17820
 13842.50000   67.71320  138.74980   71.95640    0.16650
 13843.00000   68.02530  138.94970   69.70780    0.16290
 13843.50000   67.94320  139.14960   67.77690    0.16390
 13844.00000   67.60140  138.68520   65.79880    0.16420
 13844.50000   67.42170  138.43270   62.51220    0.16230
 13845.00000   67.20220  138.17880   60.11360    0.15370
 13845.50000   67.02110  138.04860   57.64340    0.14020
 13846.00000   66.89600  138.04090   55.99110    0.12100
 13846.50000   66.42950  137.46970   54.71690    0.10830
 13847.00000   66.24650  136.89850   54.84570    0.10180
 13847.50000   66.14540  136.44150   54.04870    0.10410
 13848.00000   65.83530  136.44150   55.40610    0.11080
 13848.50000   65.82830  136.29660   55.40610    0.11420
 13849.00000   65.76070  136.70120   54.98430    0.11980
 13849.50000   65.60470  136.66470   54.26710    0.12340
 13850.00000   65.61270  136.98410   53.48240    0.12510
 13850.50000   65.80950  135.74190   53.66750    0.12230
 13851.00000   65.66050  137.17880   54.54910    0.11580
 13851.50000   65.64950  138.04100   56.43520    0.11170
 13852.00000   65.63860  138.15200   56.74140    0.11020
 13852.50000   65.63690  138.26310   57.18560    0.11230
 13853.00000   66.17960  138.37420   57.50070    0.11470
 13853.50000   66.42950  138.44080   59.37600    0.12060
 13854.00000   66.32750  138.57200   62.36220    0.12640
 13854.50000   66.03440  138.89990   65.12060    0.13030
 13855.00000   66.05590  139.22790   68.01670    0.13200
 13855.50000   66.26460  139.55590   68.04300    0.13350
 13856.00000   66.54540  139.88380   67.72270    0.13460
 13856.50000   66.64030  139.94940   66.51890    0.12940
 13857.00000   66.66160  139.61620   65.52660    0.12240
 13857.50000   66.64930  139.28300   64.12270    0.11640
 13858.00000   66.63690  138.94980   63.86590    0.11270
 13858.50000   66.57950  138.61660   64.01120    0.11200
