~Version ---------------------------------------------------
VERS.   2.0 : CWLS log ASCII Standard -VERSION 2.0
WRAP.    NO : One line per depth step
DLM . SPACE : Column Data Section Delimiter
~Well ------------------------------------------------------
STRT .FT                 114.0 : START DEPTH
STOP .FT               14385.0 : STOP DEPTH
STEP .FT                   0.5 : STEP
NULL .                -9999.25 : NULL VALUE
COMP .                         : COMPANY
WELL .                         : WELL
FLD  .                         : FIELD
LOC  .                         : LOCATION
PROV .                         : PROVINCE
CNTY .                         : COUNTY
STAT .                         : STATE
CTRY .                         : COUNTRY
SRVC .                         : SERVICE COMPANY
DATE .                         : DATE
UWI  .                         : UNIQUE WELL ID
API  .                         : API NUMBER
SLAT .WGS84 2.9318238088482005 : SURFACE LATITUDE
SLON .WGS84     6.721778198349 : SURFACE LONGITUDE
DATUM.F                    nan : DEPTH DATUM ELEV
~Curve Information -----------------------------------------
DEPT   .FT    : 
DTCO   .US/F  : DELTA-T COMPRESSIONAL
DTSM   .US/F  : DELTA-T SHEAR
SGRDD  .GAPI  : SPECTROSCOPY GAMMA RAY FROM DENSITY LOG
TNPH_LS.DEC   : THERMAL NEUTRON POROSITY [LIMESTONE]
~Params ----------------------------------------------------
~Other -----------------------------------------------------
~ASCII -----------------------------------------------------
# ...
 6906.50000   59.66300  105.14640   22.26260    0.07600
 6907.00000   59.05610  104.84000   25.93430    0.09030
 6907.50000   58.19080  104.05440   30.17670    0.11480
 6908.00000   58.31770  103.68780   29.16270    0.12340
 6908.50000   58.95500  103.60460   24.43520    0.10680
 6909.00000   59.49040  103.49460   21.43700    0.08760
 6909.50000   59.81990  103.65450   19.60570    0.07600
 6910.00000   59.65350  103.59740   20.09100    0.08090
 6910.50000   59.47420  103.52600   23.83550    0.09550
 6911.00000   59.23690  103.45460   28.09580    0.11440
 6911.50000   59.19900  102.30730   30.75340    0.13240
 6912.00000   58.91580  101.47670   28.00570    0.12210
 6912.50000   58.48260  100.87270   22.03660    0.10220
 6913.00000   57.90590  100.30320   21.13720    0.09410
 6913.50000   57.63990  109.26580   21.78180    0.09180
 6914.00000   57.65070  112.85090   22.42340    0.09480
 6914.50000   57.66150  112.70520   21.43700    0.09530
 6915.00000   57.80910  113.35070   21.42560    0.09570
 6915.50000   58.03280  113.89100   24.17780    0.10250
 6916.00000   58.22630  114.49210   28.11480    0.12000
 6916.50000   58.48260  115.09320   30.24570    0.13160
 6917.00000   59.07940  115.97370   28.83480    0.12100
 6917.50000   59.99440  116.98940   25.93430    0.11020
 6918.00000   60.79600  118.42920   24.98810    0.10430
 6918.50000   61.43140  138.28800   24.58510    0.10020
 6919.00000   61.61200  138.09150   24.28530    0.10730
 6919.50000   61.58740  138.26690   25.94880    0.11920
 6920.00000   61.87450  138.44230   29.06120    0.12970
 6920.50000   62.30500  138.61770   29.68120    0.13990
 6921.00000   62.69520  131.92380   29.21630    0.13840
 6921.50000   62.82390  116.01350   27.82010    0.13140
 6922.00000   62.82390  111.14400   29.96950    0.12340
 6922.50000   62.48510  110.59720   33.18490    0.12120
 6923.00000   62.06620  109.48740   34.97560    0.12370
 6923.50000   62.06620  110.21510   34.71840    0.12520
 6924.00000   62.48060  110.64950   31.02380    0.12320
 6924.50000   62.95690  111.85130   28.76340    0.11560
 6925.00000   63.53060  117.34910   28.94730    0.11250
 6925.50000   64.48020  136.84130   31.64050    0.12060
 6926.00000   66.01090  138.49060   35.51860    0.13530
 6926.50000   66.55550  138.44060   37.53900    0.14270
 6927.00000   67.01220  138.28990   39.43840    0.14270
 6927.50000   66.79930  138.20540   41.23820    0.14050
 6928.00000   61.41550  137.88810   43.87560    0.14870
 6928.50000   51.32440  117.70990   45.65000    0.16440
 6929.00000   55.28280  112.62530   40.94120    0.15850
 6929.50000   60.78170  114.05040   31.94750    0.11710
 6930.00000   58.51960  114.90240   24.23860    0.07870
 6930.50000   57.88290  115.80530   18.70840    0.06550
 6931.00000   57.08320  116.56950   17.27170    0.05820
 6931.50000   56.43350  117.03050   16.63330    0.05880
 6932.00000   56.25850  116.31720   17.65650    0.06250
 6932.50000   56.75940  115.28350   19.97740    0.07070
 6933.00000   57.52000  113.15080   23.79920    0.08230
 6933.50000   58.03880  110.35200   26.97800    0.09530
 6934.00000   58.51540  110.12170   26.80880    0.09920
 6934.50000   58.80660  109.76070   24.84650    0.09230
 6935.00000   58.82790  109.39970   22.76240    0.08810
 6935.50000   58.38500  106.25900   21.12450    0.08460
 6936.00000   57.60630  106.03930   20.88230    0.07910
 6936.50000   57.25390  108.88680   20.67540    0.07860
 6937.00000   57.52700  112.43180   20.66290    0.08420
 6937.50000   58.08280  103.20290   19.79700    0.08200
 6938.00000   58.50560   98.62240   17.85200    0.07520
 6938.50000   58.11320   97.50930   17.59580    0.06350
 6939.00000   57.95550   96.96490   19.32760    0.07060
 6939.50000   58.72990   96.06580   23.52450    0.09630
 6940.00000   59.33370   96.00700   24.49930    0.11610
 6940.50000   59.48570   96.03230   21.48000    0.11550
 6941.00000   59.66880   96.05760   19.02900    0.10740
 6941.50000   59.36050   96.17750   19.90130    0.10260
 6942.00000   59.05300   95.97760   22.81810    0.09720
 6942.50000   58.64550   95.90760   26.15050    0.09890
 6943.00000   58.13270   97.35710   26.96380    0.10150
 6943.50000   58.11620  100.15590   24.36540    0.08910
 6944.00000   58.24860  102.17530   21.76690    0.07630
 6944.50000   58.04630  103.19940   19.68820    0.07770
 6945.00000   57.99360  103.90170   20.37350    0.08870
 6945.50000   57.74120  106.43400   22.08670    0.10150
 6946.00000   57.31780  106.96720   21.22060    0.09630
 6946.50000   56.95170  116.03020   19.55490    0.08790
 6947.00000   56.50730  116.29680   18.88860    0.08310
 6947.50000   55.75980  116.43000   18.66120    0.08490
 6948.00000   55.43820  116.49940   18.28210    0.08790
 6948.50000   55.52230  116.17110   17.90300    0.08430
 6949.00000   55.98360  115.05000   17.52390    0.07300
 6949.50000   56.56400  114.65370   17.14490    0.06260
 6950.00000   56.82500  114.69670   16.76580    0.05860
 6950.50000   57.06030  114.85030   17.78160    0.07230
 6951.00000   57.25420  114.85030   20.24170    0.09750
 6951.50000   57.46810  114.82440   22.70170    0.11740
 6952.00000   57.83300  112.66230   24.40430    0.12290
 6952.50000   58.00510  112.46530   22.96590    0.11140
 6953.00000   58.02400  113.47010   20.23780    0.09750
 6953.50000   58.04290  114.65150   18.88450    0.08860
 6954.00000   58.30700  113.13100   18.34620    0.08230
 6954.50000   58.61610  113.93970   18.16240    0.07930
 6955.00000   58.91120  115.29400   18.94600    0.08030
 6955.50000   59.22540  112.87510   20.48700    0.08950
 6956.00000   59.22540  113.63390   22.91870    0.10080
 6956.50000   59.03490  114.68520   24.92760    0.11140
 6957.00000   58.73860  112.98470   25.64450    0.12220
 6957.50000   58.08290  114.45480   23.53590    0.11920
 6958.00000   57.45710  116.24520   20.78750    0.10160
 6958.50000   56.83130  113.45090   18.45990    0.08710
 6959.00000   56.45580  113.68430   17.68940    0.07420
 6959.50000   56.45580  114.84880   17.57600    0.06820
 6960.00000   56.60380  111.78080   17.43430    0.06730
 6960.50000   56.65090  113.48560   17.78560    0.06930
 6961.00000   56.81420  115.04800   18.85960    0.07480
 6961.50000   57.37690  115.18920   22.03700    0.08630
 6962.00000   57.84540  115.26190   26.00350    0.10740
 6962.50000   58.16150  115.77730   26.37160    0.11420
 6963.00000   58.21150  114.77820   22.03700    0.09970
 6963.50000   58.19360  115.13440   19.63840    0.08750
 6964.00000   58.00790  114.80020   21.16520    0.08330
 6964.50000   57.50380  114.70250   24.64970    0.09640
 6965.00000   57.44330  115.18040   25.32140    0.10140
 6965.50000   57.44730  113.16380   23.23630    0.08750
 6966.00000   57.58460  111.46890   19.13510    0.07190
 6966.50000   57.68300  111.10750   17.31960    0.05480
 6967.00000   57.44010  110.86580   17.18230    0.06120
 6967.50000   57.44900  111.24010   19.23350    0.08170
 6968.00000   57.45800  111.24650   23.67560    0.11420
 6968.50000   57.63380  111.35160   24.85240    0.11910
 6969.00000   57.79370  110.88200   22.92630    0.10740
 6969.50000   57.79020  107.45310   21.58050    0.09250
 6970.00000   57.56800  104.46940   21.85430    0.08850
 6970.50000   57.78290   99.14870   22.18650    0.09340
 6971.00000   57.55280  108.93930   21.85590    0.08850
 6971.50000   57.26810  100.30080   21.27110    0.08200
 6972.00000   57.59450   98.45660   20.70850    0.07560
 6972.50000   57.86140   98.45660   21.90460    0.08030
 6973.00000   58.03280   98.31550   23.68560    0.08750
 6973.50000   57.63290   98.08030   24.28530    0.09420
 6974.00000   57.21540   97.84510   23.68560    0.09150
 6974.50000   56.86820   97.57700   23.62850    0.09260
 6975.00000   56.63330   97.25710   24.28530    0.09550
 6975.50000   56.20490   96.35750   22.63310    0.09040
 6976.00000   55.85970   96.22920   18.89250    0.07720
 6976.50000   56.12750   96.41610   16.45140    0.06770
 6977.00000   56.62910   96.44340   16.37310    0.06600
 6977.50000   56.79410   96.06230   20.53750    0.07390
