~Version ---------------------------------------------------
VERS.   2.0 : CWLS log ASCII Standard -VERSION 2.0
WRAP.    NO : One line per depth step
DLM . SPACE : Column Data Section Delimiter
~Well ------------------------------------------------------
STRT .FT                 114.0 : START DEPTH
STOP .FT               14385.0 : STOP DEPTH
STEP .FT                   0.5 : STEP
NULL .                -9999.25 : NULL VALUE
COMP .                         : COMPANY
WELL .                         : WELL
FLD  .                         : FIELD
LOC  .                         : LOCATION
PROV .                         : PROVINCE
CNTY .                         : COUNTY
STAT .                         : STATE
CTRY .                         : COUNTRY
SRVC .                         : SERVICE COMPANY
DATE .                         : DATE
UWI  .                         : UNIQUE WELL ID
API  .                         : API NUMBER
SLAT .WGS84 2.9318238088482005 : SURFACE LATITUDE
SLON .WGS84     6.721778198349 : SURFACE LONGITUDE
DATUM.F                    nan : DEPTH DATUM ELEV
~Curve Information -----------------------------------------
DEPT   .FT    : 
DTCO   .US/F  : DELTA-T COMPRESSIONAL
DTSM   .US/F  : DELTA-T SHEAR
SGRDD  .GAPI  : SPECTROSCOPY GAMMA RAY FROM DENSITY LOG
TNPH_LS.DEC   : THERMAL NEUTRON POROSITY [LIMESTONE]
~Params ----------------------------------------------------
~Other -----------------------------------------------------
~ASCII -----------------------------------------------------
# ...
 12731.00000   64.22810  115.80720   83.14970    0.21260
 12731.50000   63.90450  115.32570   82.30020    0.20970
 12732.00000   63.35690  116.54870   82.21730    0.21200
 12732.50000   62.72010  116.50910   80.67500    0.20800
 12733.00000   62.84450  116.10810   76.90350    0.20180
 12733.50000   63.32230  116.14980   73.45550    0.18900
 12734.00000   63.76830  118.09160   71.95640    0.18360
 12734.50000   64.84190  119.50710   72.63430    0.18250
 12735.00000   64.83040  119.49770   74.05520    0.17900
 12735.50000   64.83030  119.29080   74.73660    0.18140
 12736.00000   64.88060  118.98930   77.88990    0.18680
 12736.50000   65.00650  118.87210   80.68850    0.19410
 12737.00000   65.05680  119.15690   83.48720    0.20440
 12737.50000   64.93040  119.92750   85.82870    0.21140
 12738.00000   65.01960  120.47800   85.95600    0.21500
 12738.50000   65.08400  120.79130   85.39110    0.21820
 12739.00000   65.57990  120.80440   85.10110    0.22190
 12739.50000   66.02970  120.13410   86.04790    0.22370
 12740.00000   65.87590  119.13840   85.80140    0.23030
 12740.50000   65.50420  118.68450   84.76130    0.23560
 12741.00000   65.15460  118.44040   83.70700    0.23050
 12741.50000   65.10780  117.95720   82.86150    0.21840
 12742.00000   64.98010  118.73490   81.81250    0.21080
 12742.50000   64.91690  118.84860   80.76360    0.20940
 12743.00000   64.83030  118.68860   79.56990    0.21030
 12743.50000   64.83020  118.48870   78.93110    0.20890
 12744.00000   64.89470  118.24880   79.24220    0.21280
 12744.50000   65.02520  118.14880   79.48570    0.20600
 12745.00000   65.05610  117.48890   80.64400    0.19910
 12745.50000   65.11180  116.84940   79.48820    0.19650
 12746.00000   64.74500  116.46950   78.99680    0.19850
 12746.50000   64.67530  116.99850   78.14600    0.20820
 12747.00000   64.41120  118.86260   75.31260    0.21200
 12747.50000   64.09390  119.30460   72.06020    0.20890
 12748.00000   64.03040  119.09380   69.45840    0.21370
 12748.50000   64.03040  117.70120   71.50160    0.23140
 12749.00000   64.10330  117.04300   75.61030    0.24350
 12749.50000   63.72130  116.87850   79.71890    0.23050
 12750.00000   63.50880  116.34520   83.82750    0.20960
 12750.50000   63.43330  115.84970   84.03520    0.20120
 12751.00000   63.35780  115.66260   83.60430    0.20750
 12751.50000   63.79130  115.47540   82.90910    0.21240
 12752.00000   63.91040  115.55610   84.82460    0.21540
 12752.50000   64.44450  115.63410   85.52540    0.22420
 12753.00000   64.46520  115.64970   85.98020    0.23110
 12753.50000   64.03740  115.50400   86.04150    0.23480
 12754.00000   63.99310  115.57140   86.22400    0.21660
 12754.50000   63.91890  115.29400   84.56720    0.20760
 12755.00000   63.63050  115.26170   83.23760    0.20260
 12755.50000   63.40560  115.10730   82.78640    0.19380
 12756.00000   63.40450  114.67020   82.36170    0.19080
 12756.50000   63.25780  114.45020   81.09550    0.18530
 12757.00000   63.42360  113.90500   79.76860    0.18400
 12757.50000   63.23770  113.35970   80.87010    0.19280
 12758.00000   63.23770  112.71800   80.96180    0.19690
 12758.50000   63.63050  112.85090   81.17120    0.20440
 12759.00000   63.84960  112.80230   79.25670    0.21000
 12759.50000   63.85330  112.84730   78.84900    0.21260
 12760.00000   63.73950  112.56440   78.69150    0.19770
 12760.50000   63.40380  112.45130   79.41740    0.18620
 12761.00000   63.16420  112.45130   78.02700    0.18050
 12761.50000   62.95330  112.29130   74.54240    0.17750
 12762.00000   62.90500  112.32600   73.12260    0.18330
 12762.50000   63.02390  112.23440   72.03820    0.18840
 12763.00000   62.83800  112.14980   73.72750    0.19770
 12763.50000   62.83800  112.06530   73.81860    0.19860
 12764.00000   62.83800  112.14140   74.53220    0.19610
 12764.50000   63.03090  112.29050   75.19120    0.19270
 12765.00000   63.31650  112.63710   75.45480    0.19100
 12765.50000   63.74490  112.45130   73.22020    0.19130
 12766.00000   63.85920  112.45130   69.18480    0.19010
 12766.50000   63.63630  112.45130   70.45780    0.18500
 12767.00000   63.60220  112.45130   73.60200    0.17860
 12767.50000   63.45280  112.61120   75.45480    0.18300
 12768.00000   63.61210  112.70680   75.45480    0.19260
 12768.50000   64.15030  112.77620   75.66890    0.20300
 12769.00000   64.43640  112.83980   76.73970    0.19690
 12769.50000   64.45150  113.07560   77.81050    0.19610
 12770.00000   64.32460  113.31140   78.74780    0.19450
 12770.50000   64.06270  114.55790   78.83120    0.19250
 12771.00000   64.04930  114.62410   77.50310    0.19180
 12771.50000   64.03580  114.27650   75.48760    0.20340
 12772.00000   64.25160  114.40030   73.47220    0.22050
 12772.50000   64.44940  114.21490   71.45670    0.22090
 12773.00000   64.40780  113.00410   72.74170    0.21420
 12773.50000   64.15740  112.85100   74.88320    0.20700
 12774.00000   64.02900  113.03550   77.02480    0.20090
 12774.50000   63.83050  113.34310   77.45310    0.19890
 12775.00000   63.50450  113.65060   76.01400    0.19410
 12775.50000   63.40190  113.83860   74.71480    0.19150
 12776.00000   63.60620  113.92050   74.85470    0.18690
 12776.50000   63.79130  114.09530   75.99690    0.19030
 12777.00000   63.99450  112.75100   76.25380    0.19840
 12777.50000   64.01080  111.32600   74.75480    0.20830
 12778.00000   64.02720  110.01790   74.05520    0.21750
 12778.50000   64.10170  109.23790   75.16560    0.22070
 12779.00000   64.31600  108.57960   76.05400    0.22500
 12779.50000   64.35390  108.00830   74.96390    0.22820
 12780.00000   63.82080  107.53620   73.60130    0.23160
 12780.50000   64.37450  107.65320   73.41600    0.23690
 12781.00000   64.64130  107.66020   74.31550    0.23000
 12781.50000   64.63580  108.34230   74.85510    0.21290
 12782.00000   64.63030  109.16730   74.87740    0.20230
 12782.50000   64.43030  110.74240   74.98840    0.20700
 12783.00000   63.95660  112.08150   75.09940    0.20800
 12783.50000   63.63420  115.35010   75.21050    0.19780
 12784.00000   63.76120  116.03670   74.95510    0.18530
 12784.50000   63.83060  116.43840   73.45600    0.18580
 12785.00000   63.63770  116.51160   71.95690    0.19500
 12785.50000   63.63300  116.51320   71.45720    0.19700
 12786.00000   63.62830  116.14990   66.99340    0.20210
 12786.50000   63.62360  115.94980   64.69680    0.21610
 12787.00000   63.43580  115.32530   66.40760    0.22620
 12787.50000   63.43080  114.23050   70.53180    0.20670
 12788.00000   63.44530  115.52540   72.33170    0.18890
 12788.50000   63.39430  115.65000   72.29010    0.18840
 12789.00000   63.24060  115.65000   72.40660    0.19440
 12789.50000   62.69730  115.49360   73.06960    0.19960
 12790.00000   62.53870  115.31970   71.70050    0.19840
 12790.50000   62.66610  115.24550   70.33140    0.18220
 12791.00000   63.03090  115.23770   69.89980    0.18620
 12791.50000   63.23650  114.86200   73.00580    0.19660
 12792.00000   63.43080  114.85030   76.80770    0.21340
 12792.50000   63.63070  114.73500   77.89650    0.21610
 12793.00000   63.90920  114.61960   78.82150    0.20870
 12793.50000   64.22660  114.19630   79.40300    0.20350
 12794.00000   64.23040  113.25100   79.54310    0.20950
 12794.50000   64.26690  113.25100   78.26420    0.21690
 12795.00000   64.30180  113.10100   76.54680    0.21690
 12795.50000   64.67810  113.14340   74.82940    0.20860
 12796.00000   64.67270  114.05060   73.45550    0.19530
 12796.50000   64.66720  114.43710   73.89970    0.19350
 12797.00000   64.66170  114.40050   75.12120    0.20140
 12797.50000   64.95790  114.46450   75.85410    0.20870
 12798.00000   64.96660  114.35050   74.99750    0.20880
 12798.50000   64.68000  113.60080   72.85590    0.20440
 12799.00000   64.43740  113.32100   72.65600    0.19660
 12799.50000   64.43390  113.15100   74.08370    0.18300
 12800.00000   64.29740  113.30200   75.45430    0.17070
 12800.50000   64.07250  113.26500   75.08830    0.16540
 12801.00000   64.03370  114.15820   74.36130    0.17980
