~Version ---------------------------------------------------
VERS.   2.0 : CWLS log ASCII Standard -VERSION 2.0
WRAP.    NO : One line per depth step
DLM . SPACE : Column Data Section Delimiter
~Well ------------------------------------------------------
STRT .FT                 114.0 : START DEPTH
STOP .FT               14385.0 : STOP DEPTH
STEP .FT                   0.5 : STEP
NULL .                -9999.25 : NULL VALUE
COMP .                         : COMPANY
WELL .                         : WELL
FLD  .                         : FIELD
LOC  .                         : LOCATION
PROV .                         : PROVINCE
CNTY .                         : COUNTY
STAT .                         : STATE
CTRY .                         : COUNTRY
SRVC .                         : SERVICE COMPANY
DATE .                         : DATE
UWI  .                         : UNIQUE WELL ID
API  .                         : API NUMBER
SLAT .WGS84 2.9318238088482005 : SURFACE LATITUDE
SLON .WGS84     6.721778198349 : SURFACE LONGITUDE
DATUM.F                    nan : DEPTH DATUM ELEV
~Curve Information -----------------------------------------
DEPT   .FT    : 
DTCO   .US/F  : DELTA-T COMPRESSIONAL
DTSM   .US/F  : DELTA-T SHEAR
SGRDD  .GAPI  : SPECTROSCOPY GAMMA RAY FROM DENSITY LOG
TNPH_LS.DEC   : THERMAL NEUTRON POROSITY [LIMESTONE]
~Params ----------------------------------------------------
~Other -----------------------------------------------------
~ASCII -----------------------------------------------------
# ...
 10616.00000   65.63050  114.32680   71.63870    0.15790
 10616.50000   65.63690  114.71700   73.86970    0.16660
 10617.00000   66.02270  115.23610   75.56240    0.17240
 10617.50000   66.19620  115.10320   76.25380    0.17630
 10618.00000   66.64540  116.15670   74.18600    0.17780
 10618.50000   66.98060  116.64960   71.56670    0.18130
 10619.00000   67.22920  118.03140   74.27360    0.19220
 10619.50000   67.02930  117.89640   79.90160    0.20480
 10620.00000   66.33090  117.76150   86.30580    0.21190
 10620.50000   65.89650  117.27250   90.76080    0.22070
 10621.00000   66.40230  117.16740   91.85030    0.23230
 10621.50000   66.25340  117.20930   90.53550    0.22540
 10622.00000   66.27070  116.10390   89.13650    0.21420
 10622.50000   66.41280  115.53650   87.39390    0.20540
 10623.00000   66.15660  115.29120   87.87380    0.19460
 10623.50000   66.02080  114.87350   88.47550    0.19360
 10624.00000   65.86470  114.67250   89.04210    0.20670
 10624.50000   65.84850  114.45030   88.37310    0.21370
 10625.00000   65.83240  114.29650   86.19830    0.22030
 10625.50000   65.69880  114.14280   84.11410    0.22530
 10626.00000   65.62980  114.04770   82.17180    0.22750
 10626.50000   65.57360  114.04070   83.12520    0.22090
 10627.00000   65.41220  113.77930   86.01970    0.20580
 10627.50000   65.44820  113.26480   87.83970    0.19540
 10628.00000   64.08740  113.19350   86.44930    0.18600
 10628.50000   63.01340  113.12220   84.02790    0.18760
 10629.00000   61.71660  113.05090   82.30070    0.19090
 10629.50000   64.29730  113.08270   80.20190    0.18940
 10630.00000   61.82290  113.53500   79.71830    0.18310
 10630.50000   60.55010  113.68240   78.87380    0.17900
 10631.00000   59.65510  112.85090   79.45240    0.17820
 10631.50000   59.48220  112.71330   80.27050    0.17750
 10632.00000   59.23230  112.46590   80.19110    0.17590
 10632.50000   59.26880  112.46560   80.87010    0.18370
 10633.00000   59.03940  112.46530   78.81380    0.18740
 10633.50000   60.78170  112.59370   75.66160    0.18480
 10634.00000   64.83410  112.95080   74.29630    0.18370
 10634.50000   65.19180  112.85090   76.36690    0.18390
 10635.00000   65.41280  112.85090   79.30250    0.18400
 10635.50000   65.12340  112.65090   81.34600    0.18740
 10636.00000   64.55880  112.70970   82.16870    0.19450
 10636.50000   64.27280  112.76850   80.65170    0.20360
 10637.00000   63.75660  112.82730   80.50600    0.21030
 10637.50000   63.41150  113.38060   82.66400    0.20550
 10638.00000   63.20790  114.47310   86.60810    0.20130
 10638.50000   63.18070  114.80730   90.09600    0.21110
 10639.00000   63.43060  114.85290   92.92180    0.21980
 10639.50000   63.26570  114.85640   92.99570    0.22900
 10640.00000   63.39730  116.48860   91.56700    0.22930
 10640.50000   63.43410  115.35680   89.39640    0.22800
 10641.00000   63.57680  115.23590   88.56450    0.22840
 10641.50000   64.04320  114.45020   89.64630    0.22720
 10642.00000   63.96950  114.50650   90.80980    0.22600
 10642.50000   63.41780  114.56280   90.68460    0.22650
 10643.00000   63.46490  114.61910   89.62110    0.22780
 10643.50000   64.02340  114.77010   88.22400    0.23580
 10644.00000   64.04240  115.39560   86.89350    0.24060
 10644.50000   64.06150  114.98750   86.19830    0.23920
 10645.00000   64.34430  114.85010   86.99000    0.23470
 10645.50000   65.00450  115.13570   89.23780    0.23430
 10646.00000   65.42630  115.23710   90.32330    0.24020
 10646.50000   65.31390  115.21580   89.95630    0.23540
 10647.00000   64.95300  115.19450   88.78220    0.23280
 10647.50000   64.96100  115.17310   86.48680    0.23370
 10648.00000   65.18380  115.15180   85.96730    0.23250
 10648.50000   65.27760  115.13050   86.01740    0.22640
 10649.00000   64.99280  114.86410   85.41270    0.22230
 10649.50000   64.96400  114.85360   85.13670    0.21970
 10650.00000   64.88830  115.08330   84.13160    0.23120
 10650.50000   64.84650  115.24990   85.67520    0.24420
 10651.00000   64.95050  115.20130   87.34750    0.24990
 10651.50000   64.84030  115.23550   87.92050    0.23710
 10652.00000   64.83000  115.24220   87.68780    0.22950
 10652.50000   64.87760  114.85010   86.97740    0.22220
 10653.00000   64.92510  115.23590   88.44650    0.21490
 10653.50000   64.21080  115.43220   87.77910    0.21250
 10654.00000   62.52050  115.34410   86.04790    0.21440
 10654.50000   61.90840  115.25600   83.51400    0.21030
 10655.00000   61.56450  114.92000   82.50890    0.20590
 10655.50000   61.26560  115.42400   83.41730    0.19170
 10656.00000   62.51760  115.49620   84.43640    0.20350
 10656.50000   64.89720  114.66410   84.82760    0.21300
 10657.00000   61.62110  114.85010   83.49700    0.22410
 10657.50000   65.11080  115.37530   82.74920    0.22170
 10658.00000   65.75760  115.63630   82.65000    0.22050
 10658.50000   65.48360  115.74970   84.36890    0.22380
 10659.00000   65.19060  115.31520   84.51130    0.23010
 10659.50000   65.38940  115.29190   80.20150    0.23370
 10660.00000   65.29860  115.26860   74.06110    0.18300
 10660.50000   65.65470  115.16990   69.05820    0.17680
 10661.00000   65.43320  114.85010   70.17750    0.17750
 10661.50000   65.41500  114.80010   74.77470    0.17300
 10662.00000   65.39690  114.85010   78.45250    0.16570
 10662.50000   65.17900  114.81010   78.39620    0.16450
 10663.00000   65.06350  114.61060   77.11530    0.16250
 10663.50000   64.83490  114.47160   75.83430    0.16220
 10664.00000   64.68100  114.80540   74.55340    0.16690
 10664.50000   64.31190  113.35070   73.86450    0.16840
 10665.00000   63.83660  113.07380   72.83960    0.16410
 10665.50000   63.83220  112.79700   71.50670    0.15870
 10666.00000   64.24750  112.57780   70.90710    0.15430
 10666.50000   64.90310  112.99000   70.15750    0.15120
 10667.00000   65.19320  113.78590   69.65780    0.14790
 10667.50000   65.43930  114.70390   71.25690    0.14700
 10668.00000   65.50620  114.83770   72.92250    0.14630
 10668.50000   66.02960  114.83970   74.21510    0.14680
 10669.00000   66.40900  114.84170   75.41430    0.14720
 10669.50000   66.91000  114.84380   75.56860    0.14440
 10670.00000   67.43660  114.84580   75.35460    0.14280
 10670.50000   67.75270  114.84780   75.14060    0.13820
 10671.00000   67.24940  114.84990   75.25490    0.13350
 10671.50000   66.57950  114.55800   77.25370    0.13670
 10672.00000   65.94480  114.09220   78.85280    0.15540
 10672.50000   66.06890  114.30510   79.94710    0.16940
 10673.00000   66.50240  114.39590   81.10140    0.17150
 10673.50000   66.42850  114.55040   85.42020    0.16680
 10674.00000   66.42600  114.59040   87.29000    0.16200
 10674.50000   66.42350  114.17220   84.53740    0.16070
 10675.00000   66.01530  113.27900   81.71560    0.15460
 10675.50000   65.77600  113.25090   80.10920    0.15110
 10676.00000   66.30390  113.25090   80.17000    0.15660
 10676.50000   66.26820  113.41090   82.07260    0.16080
 10677.00000   66.03140  113.47600   83.50000    0.16480
 10677.50000   66.01810  113.50750   86.60600    0.17000
 10678.00000   66.00480  113.65080   86.46890    0.17660
 10678.50000   65.61990  113.65080   86.90510    0.18780
 10679.00000   65.49600  113.65080   88.19000    0.19660
 10679.50000   65.02640  113.84720   89.20400    0.20780
 10680.00000   64.96380  112.80060   89.68480    0.21080
 10680.50000   65.18850  112.90090   88.83640    0.20500
 10681.00000   65.34430  112.69100   87.46640    0.21240
 10681.50000   65.23490  112.45110   86.19780    0.22770
 10682.00000   65.17810  112.77100   85.92370    0.23050
 10682.50000   64.54180  112.70100   87.31190    0.23630
 10683.00000   64.29040  112.69720   86.30790    0.22430
 10683.50000   64.30570  112.79770   83.68830    0.20920
 10684.00000   64.46230  112.66440   81.31120    0.19700
 10684.50000   64.61840  112.53110   81.26490    0.19400
 10685.00000   64.17660  112.29120   82.22850    0.19800
 10685.50000   64.03630  112.05130   83.62840    0.20560
 10686.00000   64.20240  111.89140   83.78190    0.20940
