~Version ---------------------------------------------------
VERS.   2.0 : CWLS log ASCII Standard -VERSION 2.0
WRAP.    NO : One line per depth step
DLM . SPACE : Column Data Section Delimiter
~Well ------------------------------------------------------
STRT .FT                 114.0 : START DEPTH
STOP .FT               14385.0 : STOP DEPTH
STEP .FT                   0.5 : STEP
NULL .                -9999.25 : NULL VALUE
COMP .                         : COMPANY
WELL .                         : WELL
FLD  .                         : FIELD
LOC  .                         : LOCATION
PROV .                         : PROVINCE
CNTY .                         : COUNTY
STAT .                         : STATE
CTRY .                         : COUNTRY
SRVC .                         : SERVICE COMPANY
DATE .                         : DATE
UWI  .                         : UNIQUE WELL ID
API  .                         : API NUMBER
SLAT .WGS84 2.9318238088482005 : SURFACE LATITUDE
SLON .WGS84     6.721778198349 : SURFACE LONGITUDE
DATUM.F                    nan : DEPTH DATUM ELEV
~Curve Information -----------------------------------------
DEPT   .FT    : 
DTCO   .US/F  : DELTA-T COMPRESSIONAL
DTSM   .US/F  : DELTA-T SHEAR
SGRDD  .GAPI  : SPECTROSCOPY GAMMA RAY FROM DENSITY LOG
TNPH_LS.DEC   : THERMAL NEUTRON POROSITY [LIMESTONE]
~Params ----------------------------------------------------
~Other -----------------------------------------------------
~ASCII -----------------------------------------------------
# ...
 14282.00000   62.51070  112.00200   69.80280    0.14920
 14282.50000   63.13680  112.05140   70.15800    0.14630
 14283.00000   63.70460  111.68970   68.32010    0.15370
 14283.50000   64.02450  110.76640   65.19960    0.14890
 14284.00000   64.02950  109.80320   64.92700    0.14410
 14284.50000   63.87060  109.29070   67.35210    0.15470
 14285.00000   63.75210  108.03710   69.89240    0.15900
 14285.50000   63.10940  106.60440   69.72850    0.14820
 14286.00000   62.99650  105.00350   68.96340    0.13590
 14286.50000   62.78100  105.25320   68.64140    0.13650
 14287.00000   63.03090  105.81410   68.55390    0.14220
 14287.50000   63.08470  108.77290   68.07210    0.14630
 14288.00000   62.58690  114.05500   68.95100    0.14710
 14288.50000   61.90600  124.43790   68.22960    0.14390
 14289.00000   61.85850  128.62060   69.22110    0.14260
 14289.50000   63.44690  125.46630   69.80090    0.14290
 14290.00000   65.94370  120.87550   70.82180    0.14450
 14290.50000   64.32920  119.77650   70.30790    0.14240
 14291.00000   64.00730  119.60440   68.35730    0.13900
 14291.50000   65.02620  119.06310   68.04110    0.14270
 14292.00000   65.33710  119.45460   68.02330    0.14510
 14292.50000   64.86560  119.46290   70.60770    0.14780
 14293.00000   64.67130  118.60190   71.56990    0.14900
 14293.50000   64.61950  118.59870   71.65910    0.15030
 14294.00000   64.69650  118.68000   71.74820    0.14850
 14294.50000   64.69250  118.71910   71.30690    0.14230
 14295.00000   64.30680  118.84860   70.53910    0.13840
 14295.50000   63.76310  117.51580   71.05740    0.13950
 14296.00000   63.40180  116.64940   70.28220    0.14100
 14296.50000   63.17600  116.34730   71.55210    0.14160
 14297.00000   63.02850  116.34920   72.40660    0.14170
 14297.50000   62.83090  116.69220   80.49350    0.14310
 14298.00000   62.50320  116.99500  104.87100    0.14150
 14298.50000   61.96390  115.70200  132.17930    0.13490
 14299.00000   61.50540  114.58510  142.01490    0.13020
 14299.50000   60.96840  113.70490  116.72650    0.13660
 14300.00000   60.71420  115.09350   95.17460    0.14270
 14300.50000   60.90290  116.04970   74.66900    0.14600
 14301.00000   59.89980  116.64940   70.29610    0.14920
 14301.50000   59.82350  117.75800   69.98300    0.14730
 14302.00000   61.63630  118.96540   69.40800    0.13840
 14302.50000   63.08120  120.23410   69.25810    0.13480
 14303.00000   61.41440  120.84780   69.83670    0.13590
 14303.50000   61.45980  121.40380   69.26560    0.13950
 14304.00000   61.67790  121.64740   69.19770    0.14650
 14304.50000   61.38150  121.75740   68.06580    0.15690
 14305.00000   60.11520  121.86730   67.00940    0.15360
 14305.50000   60.45640  121.16480   65.40300    0.15630
 14306.00000   60.82600  119.78640   65.09980    0.15770
 14306.50000   59.56790  118.65000   65.71980    0.16050
 14307.00000   58.51520  117.54150   65.91260    0.15400
 14307.50000   59.17100  117.22320   64.39630    0.14940
 14308.00000   59.98560  117.21610   65.40510    0.15320
 14308.50000   59.79610  116.92720   67.02420    0.15370
 14309.00000   59.46800  116.84940   68.05880    0.15580
 14309.50000   60.59850  116.66760   67.32820    0.15080
 14310.00000   60.34440  116.48590   65.81930    0.14320
 14310.50000   60.26690  116.52950   64.89870    0.13920
 14311.00000   60.63180  116.84940   63.87220    0.13920
 14311.50000   62.55090  116.84940   64.09140    0.14520
 14312.00000   64.45040  117.16920   65.58870    0.14480
 14312.50000   64.18800  117.24920   66.96550    0.13900
 14313.00000   64.81190  117.24920   67.43850    0.13290
 14313.50000   64.79810  117.64900   66.37780    0.13080
 14314.00000   64.45070  117.43510   66.32880    0.12950
 14314.50000   64.32630  117.21590   66.27990    0.13530
 14315.00000   64.67720  117.05600   65.81060    0.14260
 14315.50000   64.19460  117.00160   65.96050    0.14990
 14316.00000   63.98200  116.94720   65.69390    0.14920
 14316.50000   64.71230  116.89290   65.30760    0.14480
 14317.00000   65.38280  116.86340   63.12670    0.14860
 14317.50000   64.41260  117.36820   61.48420    0.15200
 14318.00000   63.83050  117.81840   61.82330    0.14990
 14318.50000   63.53060  118.43470   63.85460    0.13540
 14319.00000   62.67610  118.43470   66.03060    0.12840
 14319.50000   62.00890  117.95300   66.82520    0.12280
 14320.00000   61.96440  117.57760   67.44280    0.12310
 14320.50000   62.21670  117.26400   67.08270    0.12900
 14321.00000   62.60080  117.10360   68.32900    0.13620
 14321.50000   62.90490  116.85370   67.57250    0.14280
 14322.00000   61.33140  116.60390   68.33500    0.14360
 14322.50000   58.46700  116.35410   66.37810    0.13990
 14323.00000   60.78500  116.18190   66.21820    0.13500
 14323.50000   62.75140  116.39700   64.37640    0.14470
 14324.00000   63.09180  117.02290   64.34400    0.15730
 14324.50000   59.39680  117.35290   64.40540    0.16270
 14325.00000   58.64360  117.39290   64.36460    0.15340
 14325.50000   62.97360  117.19730   63.90500    0.14770
 14326.00000   64.81180  117.49520   63.49300    0.14500
 14326.50000   65.61740  117.40670   63.56190    0.14450
 14327.00000   65.59980  117.15900   63.93480    0.14600
 14327.50000   65.14740  116.87910   65.16740    0.13960
 14328.00000   64.49530  116.59920   66.51910    0.13970
 14328.50000   64.15670  116.77140   66.66010    0.14220
 14329.00000   64.13960  116.82370   65.66060    0.14300
 14329.50000   64.08210  117.11590   64.69970    0.13940
 14330.00000   64.10360  117.16980   64.00140    0.13230
 14330.50000   64.03960  117.02730   63.97930    0.12520
 14331.00000   64.04130  116.43140   65.06100    0.12600
 14331.50000   63.71560  116.21060   65.97560    0.13040
 14332.00000   63.61750  115.70660   66.29270    0.13460
 14332.50000   63.89490  115.32070   66.28020    0.13660
 14333.00000   64.23960  115.59540   66.26780    0.13360
 14333.50000   64.26550  115.93520   65.90050    0.13400
 14334.00000   64.21060  116.27500   65.22230    0.14000
 14334.50000   63.90990  116.57600   64.39840    0.14180
 14335.00000   64.08520  116.98980   63.89110    0.14110
 14335.50000   64.12720  116.81780   64.15070    0.14300
 14336.00000   64.04780  117.24700   65.60030    0.15050
 14336.50000   63.59730  117.36610   65.62000    0.15810
 14337.00000   63.90580  117.21650   65.63960    0.15480
 14337.50000   64.67370  117.06700   64.86810    0.14460
 14338.00000   55.07820  116.57260   64.61130    0.13090
 14338.50000   54.42620  115.56100   65.58570    0.12710
 14339.00000   53.73760  114.54930   65.66060    0.13140
 14339.50000   54.46720  114.36000   65.59070    0.13500
 14340.00000   54.57730  114.50610   64.46140    0.13870
 14340.50000   54.30340  114.74340   64.37390    0.14620
 14341.00000   53.81300  114.98070   63.46200    0.15250
 14341.50000   54.17380  115.21790   -9999.25    0.14930
 14342.00000   54.45150  115.45520   -9999.25    0.14240
 14342.50000   54.23450  115.69250   -9999.25    0.13980
 14343.00000   54.53030  115.82580   -9999.25    0.13960
 14343.50000   54.80250  115.97810   -9999.25    0.13810
 14344.00000   54.69660  116.16850   -9999.25    0.13240
 14344.50000   54.66960  116.35890   -9999.25    0.12860
 14345.00000   54.38060  116.54930   -9999.25    0.13040
 14345.50000   54.24820  116.83490   -9999.25    0.13660
 14346.00000   54.25930  117.12050   -9999.25    0.13960
 14346.50000   54.70450  117.29190   -9999.25    0.13790
 14347.00000   54.86700  116.91870   -9999.25    0.14010
 14347.50000   54.71200  115.98570   -9999.25    0.14460
 14348.00000   54.80490  115.55920   -9999.25    0.14400
 14348.50000   54.84120  115.89240   -9999.25    0.13980
 14349.00000   55.14910  116.22560   -9999.25    0.13390
 14349.50000   55.37380  116.22560   -9999.25    0.12800
 14350.00000   55.71240  115.93400   -9999.25    0.12210
 14350.50000   55.82670  115.64240   -9999.25    0.12310
 14351.00000   55.63520  115.35080   -9999.25    0.12790
 14351.50000   55.48760  115.82570   -9999.25    0.13150
 14352.00000   55.15050  116.49200   -9999.25    0.13260
