~Version ---------------------------------------------------
VERS.   2.0 : CWLS log ASCII Standard -VERSION 2.0
WRAP.    NO : One line per depth step
DLM . SPACE : Column Data Section Delimiter
~Well ------------------------------------------------------
STRT .FT                 114.0 : START DEPTH
STOP .FT               14385.0 : STOP DEPTH
STEP .FT                   0.5 : STEP
NULL .                -9999.25 : NULL VALUE
COMP .                         : COMPANY
WELL .                         : WELL
FLD  .                         : FIELD
LOC  .                         : LOCATION
PROV .                         : PROVINCE
CNTY .                         : COUNTY
STAT .                         : STATE
CTRY .                         : COUNTRY
SRVC .                         : SERVICE COMPANY
DATE .                         : DATE
UWI  .                         : UNIQUE WELL ID
API  .                         : API NUMBER
SLAT .WGS84 2.9318238088482005 : SURFACE LATITUDE
SLON .WGS84     6.721778198349 : SURFACE LONGITUDE
DATUM.F                    nan : DEPTH DATUM ELEV
~Curve Information -----------------------------------------
DEPT   .FT    : 
DTCO   .US/F  : DELTA-T COMPRESSIONAL
DTSM   .US/F  : DELTA-T SHEAR
SGRDD  .GAPI  : SPECTROSCOPY GAMMA RAY FROM DENSITY LOG
TNPH_LS.DEC   : THERMAL NEUTRON POROSITY [LIMESTONE]
~Params ----------------------------------------------------
~Other -----------------------------------------------------
~ASCII -----------------------------------------------------
# ...
 11673.50000   62.89530  118.26430   63.28310    0.14390
 11674.00000   62.63110  117.76910   63.55390    0.14420
 11674.50000   62.42280  117.06940   64.95610    0.14290
 11675.00000   62.24870  116.79950   64.71910    0.15340
 11675.50000   62.24810  116.81580   62.38370    0.16480
 11676.00000   62.51610  116.45750   62.87810    0.16900
 11676.50000   62.62720  116.12980   63.81310    0.16370
 11677.00000   62.88100  115.87130   66.44770    0.15900
 11677.50000   63.09170  115.36710   67.43860    0.15310
 11678.00000   63.09170  115.25010   68.15470    0.15980
 11678.50000   63.09170  115.23610   67.47220    0.16830
 11679.00000   62.83800  114.12060   67.24570    0.17620
 11679.50000   62.82920  114.36990   66.42680    0.16510
 11680.00000   62.68760  114.05480   65.21140    0.15750
 11680.50000   62.63750  113.73970   66.00760    0.16920
 11681.00000   62.75210  113.65060   71.05740    0.18150
 11681.50000   62.79590  113.65060   75.35710    0.17360
 11682.00000   62.20620  113.33080   77.20590    0.16650
 11682.50000   62.06620  112.86500   77.50270    0.16560
 11683.00000   63.37530  112.85100   77.43690    0.16380
 11683.50000   64.79080  112.41000   78.35310    0.16540
 11684.00000   64.06140  111.70320   79.26920    0.17660
 11684.50000   62.88090  111.64840   80.32860    0.18980
 11685.00000   63.40950  111.26560   81.46070    0.19920
 11685.50000   62.08120  111.42300   82.50790    0.20380
 11686.00000   64.37590  111.35160   83.55510    0.20640
 11686.50000   65.16810  111.28020   84.60220    0.19980
 11687.00000   65.87970  111.26560   85.64940    0.18890
 11687.50000   66.65440  111.64680   86.56940    0.18220
 11688.00000   67.38240  111.78470   86.74550    0.19130
 11688.50000   67.62790  111.88070   84.09960    0.19490
 11689.00000   67.62750  111.92970   81.68970    0.19910
 11689.50000   67.58320  112.18060   81.25130    0.20620
 11690.00000   67.36300  112.55880   82.21880    0.21900
 11690.50000   67.20360  112.93080   84.02240    0.22800
 11691.00000   66.86620  113.25070   84.94910    0.23620
 11691.50000   66.35550  113.77050   87.61650    0.24790
 11692.00000   65.99830  114.57020   87.92030    0.25310
 11692.50000   65.90450  115.08980   86.84860    0.24680
 11693.00000   66.16280  115.24990   83.54990    0.23970
 11693.50000   66.25450  115.44980   80.13530    0.23590
 11694.00000   66.10430  115.54710   80.25190    0.22760
 11694.50000   65.75200  115.64430   82.25070    0.21900
 11695.00000   65.49640  116.03680   83.05020    0.21020
 11695.50000   65.22000  116.04320   82.39730    0.19980
 11696.00000   64.87180  116.04960   81.26460    0.19380
 11696.50000   64.82920  116.44940   80.13200    0.19170
 11697.00000   64.63530  116.24950   78.66830    0.19070
 11697.50000   64.44470  116.26490   77.07490    0.19150
 11698.00000   64.60010  116.34180   77.26420    0.18370
 11698.50000   64.76680  116.41870   77.45360    0.16240
 11699.00000   64.73850  116.44940   77.25370    0.14900
 11699.50000   61.62330  116.53560   77.25370    0.14090
 11700.00000   62.11550  116.85850   79.54540    0.14740
 11700.50000   65.63670  117.24680   82.90030    0.15320
 11701.00000   66.22490  117.39480   85.89850    0.15770
 11701.50000   66.21710  116.98260   88.99900    0.16630
 11702.00000   66.20940  116.48320   88.60200    0.17970
 11702.50000   66.06460  116.46910   86.64810    0.19060
 11703.00000   66.29850  116.83170   85.89850    0.19380
 11703.50000   66.42240  116.83260   86.60950    0.19550
 11704.00000   66.42240  116.83340   87.15940    0.19690
 11704.50000   66.29850  116.83430   84.39940    0.20460
 11705.00000   66.23650  116.83510   82.68030    0.20980
 11705.50000   66.36510  116.39000   82.45060    0.20750
 11706.00000   66.66930  116.18500   81.44030    0.20340
 11706.50000   66.98640  116.17730   79.60230    0.19770
 11707.00000   67.25010  116.04960   77.39110    0.19340
 11707.50000   67.42080  116.06400   77.29370    0.18620
 11708.00000   67.42940  116.05920   77.69340    0.17560
 11708.50000   67.22910  116.13350   77.16020    0.16700
 11709.00000   66.80570  115.66380   77.67450    0.16290
 11709.50000   66.62050  115.46160   78.62790    0.16170
 11710.00000   66.57870  115.22650   81.99080    0.16480
 11710.50000   66.58730  114.99130   84.98400    0.16260
 11711.00000   66.82670  114.85020   90.39530    0.16830
 11711.50000   66.36010  114.85020   94.89260    0.18260
 11712.00000   66.88300  114.81680  100.10450    0.19960
 11712.50000   66.17960  114.65020  102.67740    0.21680
 11713.00000   65.84170  114.70620  104.64330    0.23540
 11713.50000   65.81290  114.85020  105.03650    0.25020
 11714.00000   65.65680  115.17000  100.18480    0.27020
 11714.50000   65.81670  115.33000   95.73300    0.28320
 11715.00000   65.66080  115.64980   92.05200    0.27710
 11715.50000   65.80520  115.64980   95.13240    0.27870
 11716.00000   65.82970  115.64980  103.22360    0.28670
 11716.50000   65.77590  115.64980  111.64600    0.29420
 11717.00000   66.47950  115.64980  117.17420    0.28960
 11717.50000   66.75800  115.64980  115.19540    0.28190
 11718.00000   66.33520  115.64980  112.52350    0.27810
 11718.50000   65.48630  115.64980  108.68420    0.26910
 11719.00000   65.04700  115.64980  105.08640    0.28260
 11719.50000   65.00400  115.44990  101.65130    0.29700
 11720.00000   65.13350  115.40460  102.38380    0.31450
 11720.50000   65.20680  115.64970  102.83280    0.30930
 11721.00000   65.14490  115.96960  104.87190    0.29710
 11721.50000   65.45000  116.04960  106.33420    0.27080
 11722.00000   65.84790  116.04960  105.74500    0.25990
 11722.50000   66.02970  116.04960  102.53280    0.26420
 11723.00000   66.19320  116.04960  101.98870    0.27670
 11723.50000   66.33560  115.92710  104.06010    0.27070
 11724.00000   65.76820  115.19400  105.98840    0.26550
 11724.50000   65.13570  115.20800  105.98210    0.27010
 11725.00000   63.98180  115.25690  100.83710    0.28390
 11725.50000   62.43100  115.38980   91.83740    0.28030
 11726.00000   62.33420  115.87880   83.53620    0.26450
 11726.50000   62.23590  115.90390   82.28020    0.25110
 11727.00000   62.23250  116.44940   86.13560    0.25250
 11727.50000   62.62120  116.30870   92.49840    0.25780
 11728.00000   63.99420  116.51660   94.68890    0.25940
 11728.50000   65.51960  116.72450   93.56420    0.26340
 11729.00000   66.98110  116.84930   92.17250    0.25900
 11729.50000   67.45160  116.94920   90.79970    0.25500
 11730.00000   67.66870  116.79370   90.53210    0.25010
 11730.50000   67.62910  116.44960   90.25020    0.23900
 11731.00000   67.23410  116.43170   89.86650    0.22830
 11731.50000   65.98620  116.41390   89.72110    0.22180
 11732.00000   64.57310  116.39600   90.78640    0.22490
 11732.50000   64.03690  116.09000   90.80350    0.22560
 11733.00000   64.03400  116.23240   89.66250    0.22380
 11733.50000   64.03110  116.00370   88.53080    0.22080
 11734.00000   64.29420  115.77300   89.98920    0.22100
 11734.50000   65.32070  115.54230   93.74010    0.21930
 11735.00000   66.52250  115.63600   96.44380    0.21720
 11735.50000   66.49850  115.08410   98.31960    0.21970
 11736.00000   66.26460  114.85030   99.91370    0.22450
 11736.50000   66.09400  114.85030  100.40210    0.22980
 11737.00000   65.82980  114.73030  100.90510    0.23740
 11737.50000   65.62240  114.65040  101.12980    0.24860
 11738.00000   65.45080  114.65040  101.93460    0.27150
 11738.50000   65.40790  114.65040  102.92700    0.28640
 11739.00000   65.14500  114.65040  103.39840    0.29820
 11739.50000   65.40440  114.65040  103.73700    0.29020
 11740.00000   65.40490  114.72590  103.74190    0.28090
 11740.50000   65.35700  114.85170  102.67810    0.27760
 11741.00000   65.18380  114.97750   98.27690    0.27710
 11741.50000   64.70180  115.10330   95.79200    0.28060
 11742.00000   64.62660  115.11130   96.83780    0.27240
 11742.50000   64.48210  114.89460   96.62300    0.26300
 11743.00000   64.13630  114.86290   97.87260    0.27150
 11743.50000   63.49730  114.71650  100.85090    0.27210
