~Version ---------------------------------------------------
VERS.   2.0 : CWLS log ASCII Standard -VERSION 2.0
WRAP.    NO : One line per depth step
DLM . SPACE : Column Data Section Delimiter
~Well ------------------------------------------------------
STRT .FT                 114.0 : START DEPTH
STOP .FT               14385.0 : STOP DEPTH
STEP .FT                   0.5 : STEP
NULL .                -9999.25 : NULL VALUE
COMP .                         : COMPANY
WELL .                         : WELL
FLD  .                         : FIELD
LOC  .                         : LOCATION
PROV .                         : PROVINCE
CNTY .                         : COUNTY
STAT .                         : STATE
CTRY .                         : COUNTRY
SRVC .                         : SERVICE COMPANY
DATE .                         : DATE
UWI  .                         : UNIQUE WELL ID
API  .                         : API NUMBER
SLAT .WGS84 2.9318238088482005 : SURFACE LATITUDE
SLON .WGS84     6.721778198349 : SURFACE LONGITUDE
DATUM.F                    nan : DEPTH DATUM ELEV
~Curve Information -----------------------------------------
DEPT   .FT    : 
DTCO   .US/F  : DELTA-T COMPRESSIONAL
DTSM   .US/F  : DELTA-T SHEAR
SGRDD  .GAPI  : SPECTROSCOPY GAMMA RAY FROM DENSITY LOG
TNPH_LS.DEC   : THERMAL NEUTRON POROSITY [LIMESTONE]
~Params ----------------------------------------------------
~Other -----------------------------------------------------
~ASCII -----------------------------------------------------
# ...
 9552.00000   55.14680  112.37570   59.12680    0.13630
 9552.50000   55.18410  112.46530   61.54230    0.13870
 9553.00000   55.40790  113.35850   62.51250    0.13790
 9553.50000   55.42420  113.47800   63.44440    0.13490
 9554.00000   55.43220  113.77070   62.37300    0.13170
 9554.50000   55.42760  113.72370   62.09500    0.12900
 9555.00000   55.42300  112.82270   62.40260    0.12970
 9555.50000   55.41840  111.92170   60.94230    0.12730
 9556.00000   55.41390  111.07090   59.44250    0.12390
 9556.50000   55.20490  110.69070   56.83700    0.12220
 9557.00000   55.35030  109.94220   56.88450    0.12020
 9557.50000   55.03950  109.15260   56.57140    0.11760
 9558.00000   55.39660  108.66530   56.30250    0.11610
 9558.50000   55.42090  107.33670   56.06220    0.12140
 9559.00000   55.16920  106.61240   55.58430    0.12850
 9559.50000   55.04870  106.35370   55.47820    0.13090
 9560.00000   55.09900  109.75990   54.89800    0.12920
 9560.50000   55.21150  111.95130   54.85760    0.12340
 9561.00000   55.33290  113.68520   53.87420    0.12150
 9561.50000   55.00320  114.32530   52.47740    0.12040
 9562.00000   55.24670  114.44090   52.65220    0.11970
 9562.50000   55.50530  114.23190   52.10230    0.11540
 9563.00000   55.00350  112.85100   53.08590    0.10840
 9563.50000   55.51410  111.65650   52.51030    0.10520
 9564.00000   55.67820  110.57470   52.04090    0.10510
 9564.50000   55.39210  108.12890   50.24660    0.10470
 9565.00000   55.58000  106.68680   48.48810    0.09990
 9565.50000   56.03360  104.85420   47.82160    0.09100
 9566.00000   56.12220  104.31330   47.84260    0.08610
 9566.50000   56.78710  104.23030   48.85210    0.09590
 9567.00000   57.00950  108.81180   50.51060    0.10660
 9567.50000   57.32710  111.56070   52.49200    0.10920
 9568.00000   57.95900  112.24220   52.13060    0.10960
 9568.50000   58.78630  112.50840   50.74110    0.10760
 9569.00000   59.00510  112.44900   50.78180    0.10360
 9569.50000   59.22430  111.90930   51.56230    0.09840
 9570.00000   59.60290  111.73730   52.81580    0.09350
 9570.50000   59.82560  111.30310   50.76550    0.10030
 9571.00000   60.17710  110.47580   50.76680    0.10310
 9571.50000   61.13960  110.05220   50.76810    0.10400
 9572.00000   61.30120  108.40650   50.68580    0.10260
 9572.50000   60.15770  105.85390   50.03990    0.10140
 9573.00000   59.46260  105.80180   49.09840    0.10550
 9573.50000   59.35510  106.70030   48.37600    0.10690
 9574.00000   59.69020  107.11200   45.01070    0.10770
 9574.50000   59.47750  108.40430   42.43760    0.11090
 9575.00000   59.69540  109.07770   43.27760    0.11490
 9575.50000   59.67090  108.27920   47.05820    0.11200
 9576.00000   59.42840  108.43580   49.82280    0.11390
 9576.50000   59.76160  108.35290   50.30720    0.11960
 9577.00000   59.48450  108.80000   51.41430    0.12200
 9577.50000   58.76320  109.96090   52.41190    0.12130
 9578.00000   59.80310  110.07730   54.13470    0.11760
 9578.50000   59.89830  109.85230   55.95530    0.11430
 9579.00000   58.88120  109.85230   57.35810    0.11470
 9579.50000   59.03250  110.83020   56.98340    0.12100
 9580.00000   59.40830  111.66070   56.72820    0.12690
 9580.50000   60.37400  112.69280   57.23490    0.13130
 9581.00000   62.57500  112.94320   58.08450    0.13820
 9581.50000   63.40680  113.30910   59.68440    0.15220
 9582.00000   64.01360  115.03080   63.17010    0.17670
 9582.50000   65.14020  115.56020   67.84980    0.19840
 9583.00000   66.34270  115.56920   70.22460    0.21340
 9583.50000   66.28740  115.46430   68.05920    0.20730
 9584.00000   66.42260  115.30330   69.46840    0.20650
 9584.50000   67.66290  115.14240   73.90570    0.21740
 9585.00000   67.71750  115.46450   82.30070    0.22860
 9585.50000   66.96410  115.09690   87.52730    0.23740
 9586.00000   66.95560  115.20290   90.78780    0.25370
 9586.50000   66.88160  115.22200   89.04890    0.26310
 9587.00000   66.71780  115.06070   90.39530    0.26200
 9587.50000   65.96440  114.58420   91.32250    0.25740
 9588.00000   64.68110  114.10760   89.08280    0.26430
 9588.50000   63.64510  113.35420   85.31070    0.25700
 9589.00000   62.60600  113.04630   79.30250    0.22900
 9589.50000   61.53000  113.41100   73.24790    0.20240
 9590.00000   60.81140  111.93650   67.63010    0.18190
 9590.50000   60.48330  109.68280   61.91250    0.17020
 9591.00000   60.42630  107.42900   57.71510    0.15020
 9591.50000   59.97780  107.56230   52.61810    0.13800
 9592.00000   59.95120  108.93060   49.22560    0.13160
 9592.50000   61.58140  110.30790   45.72230    0.13160
 9593.00000   62.88090  111.68510   45.34610    0.13770
 9593.50000   64.48030  113.35080   47.22140    0.14380
 9594.00000   65.16020  114.63370   50.10720    0.16320
 9594.50000   65.77970  115.25000   54.19900    0.19580
 9595.00000   66.17960  115.90190   60.41340    0.21460
 9595.50000   66.42740  117.58290   69.70780    0.23710
 9596.00000   66.59020  118.49020   76.21990    0.25540
 9596.50000   66.51170  118.33640   78.12160    0.24700
 9597.00000   65.81670  117.50590   78.85230    0.25160
 9597.50000   64.40610  116.67540   77.01450    0.21660
 9598.00000   63.58240  115.79730   69.67430    0.17450
 9598.50000   63.03490  115.11090   61.61270    0.15870
 9599.00000   62.67140  114.39060   55.61630    0.14900
 9599.50000   62.45330  114.25040   49.02030    0.13910
 9600.00000   63.05290  114.76380   45.99660    0.13080
 9600.50000   65.05120  115.54720   45.17490    0.13680
 9601.00000   66.17380  116.49580   48.41070    0.15500
 9601.50000   67.97580  118.31620   53.81830    0.18100
 9602.00000   69.02440  119.29290   59.27350    0.19580
 9602.50000   69.20770  119.91690   64.31210    0.20640
 9603.00000   69.42990  120.77060   68.80940    0.22100
 9603.50000   70.00080  121.41610   73.38890    0.22860
 9604.00000   69.69690  121.13640   75.43620    0.23960
 9604.50000   69.01950  120.89190   76.03450    0.23350
 9605.00000   67.76900  120.35520   74.93170    0.22790
 9605.50000   67.07180  119.76930   74.23530    0.24500
 9606.00000   66.97820  118.82680   72.41650    0.23880
 9606.50000   66.82340  117.31290   71.24150    0.22660
 9607.00000   67.16510  116.66460   70.55790    0.22390
 9607.50000   67.60700  116.34480   72.35670    0.23140
 9608.00000   67.47950  116.32990   74.41840    0.24050
 9608.50000   66.93840  116.54840   75.36590    0.23200
 9609.00000   66.46150  116.51710   73.70610    0.24180
 9609.50000   65.39170  116.35420   72.87810    0.23040
 9610.00000   65.24170  116.61930   74.84460    0.21920
 9610.50000   65.51510  116.25210   76.95880    0.21860
 9611.00000   66.15330  116.06990   79.37730    0.21930
 9611.50000   65.39730  115.81860   80.92150    0.21440
 9612.00000   63.77990  114.72100   81.20900    0.22020
 9612.50000   62.08630  113.62340   78.42800    0.22270
 9613.00000   55.38700  112.52580   70.86930    0.22450
 9613.50000   47.28950  111.64860   65.81060    0.22460
 9614.00000   46.26390  111.25170   55.91650    0.18100
 9614.50000   47.98700  110.85490   46.62200    0.13740
 9615.00000   49.38640  110.45800   37.92720    0.09990
 9615.50000   50.79130  110.06110   28.59000    0.06590
 9616.00000   52.70070  109.66430   25.86990    0.05070
 9616.50000   53.89100  109.66750   27.75580    0.05600
 9617.00000   55.78770  110.23660   32.23070    0.07030
 9617.50000   57.47920  111.18380   42.12470    0.10980
 9618.00000   57.22810  112.38650   51.77840    0.16110
 9618.50000   53.80190  113.27800   60.71360    0.20730
 9619.00000   53.31880  114.16960   67.30970    0.22320
 9619.50000   55.79040  117.35900   73.30960    0.22610
 9620.00000   57.15110  120.23730   78.86970    0.23430
 9620.50000   54.83720  120.13880   83.40840    0.24360
 9621.00000   54.61430  119.76110   90.44580    0.25140
 9621.50000   54.44270  119.38330   90.44170    0.26620
 9622.00000   54.49920  119.32970   90.42110    0.27630
 9622.50000   53.86380  119.06210   90.12230    0.25660
 9623.00000   53.23120  118.88820   92.10960    0.23300
