~Version ---------------------------------------------------
VERS.   2.0 : CWLS log ASCII Standard -VERSION 2.0
WRAP.    NO : One line per depth step
DLM . SPACE : Column Data Section Delimiter
~Well ------------------------------------------------------
STRT .FT                 114.0 : START DEPTH
STOP .FT               14385.0 : STOP DEPTH
STEP .FT                   0.5 : STEP
NULL .                -9999.25 : NULL VALUE
COMP .                         : COMPANY
WELL .                         : WELL
FLD  .                         : FIELD
LOC  .                         : LOCATION
PROV .                         : PROVINCE
CNTY .                         : COUNTY
STAT .                         : STATE
CTRY .                         : COUNTRY
SRVC .                         : SERVICE COMPANY
DATE .                         : DATE
UWI  .                         : UNIQUE WELL ID
API  .                         : API NUMBER
SLAT .WGS84 2.9318238088482005 : SURFACE LATITUDE
SLON .WGS84     6.721778198349 : SURFACE LONGITUDE
DATUM.F                    nan : DEPTH DATUM ELEV
~Curve Information -----------------------------------------
DEPT   .FT    : 
DTCO   .US/F  : DELTA-T COMPRESSIONAL
DTSM   .US/F  : DELTA-T SHEAR
SGRDD  .GAPI  : SPECTROSCOPY GAMMA RAY FROM DENSITY LOG
TNPH_LS.DEC   : THERMAL NEUTRON POROSITY [LIMESTONE]
~Params ----------------------------------------------------
~Other -----------------------------------------------------
~ASCII -----------------------------------------------------
# ...
 7979.00000   54.61910  127.23640   71.35720    0.16520
 7979.50000   54.61110  127.08890   73.30610    0.17410
 7980.00000   54.49730  124.19910   73.92090    0.17930
 7980.50000   54.49600  122.48810   72.85630    0.17400
 7981.00000   54.63220  125.07460   72.85630    0.16790
 7981.50000   54.66930  123.76040   73.05620    0.16870
 7982.00000   54.83690  122.08550   71.72370    0.16890
 7982.50000   54.97850  120.57270   67.80940    0.16460
 7983.00000   55.00890  119.44390   66.85580    0.15860
 7983.50000   54.97950  119.64600   66.37780    0.15510
 7984.00000   55.01560  119.66160   66.03060    0.15510
 7984.50000   55.20180  119.83260   64.30770    0.15600
 7985.00000   55.30300  120.74790   62.89210    0.15600
 7985.50000   55.39480  120.37170   62.66510    0.15420
 7986.00000   55.01700  120.33540   62.83800    0.15020
 7986.50000   55.00430  120.70520   60.71360    0.14850
 7987.00000   54.84580  120.86360   59.33380    0.14620
 7987.50000   54.66330  122.12420   57.86530    0.14230
 7988.00000   54.65320  123.63770   60.11400    0.13900
 7988.50000   54.64320  124.62220   66.11040    0.14280
 7989.00000   55.16350  122.54720   72.08860    0.15480
 7989.50000   55.09990  120.57510   81.84860    0.16550
 7990.00000   54.81360  119.58520   86.61630    0.16690
 7990.50000   54.82060  119.06630   86.04210    0.17120
 7991.00000   54.58980  119.03710   82.90030    0.17210
 7991.50000   65.53200  119.00800   74.80520    0.16400
 7992.00000   66.97580  118.66810   66.06980    0.14990
 7992.50000   66.63650  117.48240   56.25910    0.13260
 7993.00000   66.65390  115.64980   50.95880    0.10870
 7993.50000   66.80900  116.04970   52.80550    0.10380
 7994.00000   67.00720  116.59830   59.09460    0.12910
 7994.50000   67.17540  117.01600   61.20710    0.16290
 7995.00000   67.62900  117.10580   58.23780    0.16450
 7995.50000   67.48280  117.75660   54.32630    0.14220
 7996.00000   67.17920  118.26220   57.45220    0.14690
 7996.50000   66.69670  118.43770   62.64180    0.16090
 7997.00000   66.45660  118.44560   65.69060    0.16310
 7997.50000   66.49170  118.44870   64.43720    0.15140
 7998.00000   66.48640  119.10750   59.99240    0.14380
 7998.50000   66.60670  119.49130   57.46270    0.13540
 7999.00000   66.42950  118.63060   59.00460    0.14080
 7999.50000   66.89890  119.85830   61.61310    0.14650
 8000.00000   67.84140  120.07480   68.80620    0.16880
 8000.50000   68.20960  120.62320   73.00580    0.18730
 8001.00000   68.55470  121.09890   78.10120    0.19720
 8001.50000   68.87300  122.63880   80.03580    0.18620
 8002.00000   69.43520  129.49720   77.53240    0.17330
 8002.50000   69.80120  133.94240   74.01310    0.16620
 8003.00000   69.99960  135.04200   71.00700    0.16330
 8003.50000   70.50170  131.06790   68.39560    0.16100
 8004.00000   70.95980  129.15350   67.82650    0.16610
 8004.50000   71.22650  134.48470   69.70780    0.17460
 8005.00000   71.40570  134.75130   74.04740    0.18220
 8005.50000   71.84940  137.68340   80.79480    0.19620
 8006.00000   67.86440  133.96940   85.79850    0.20920
 8006.50000   53.52350  129.66000   88.54150    0.21470
 8007.00000   53.53180  125.35060   88.93040    0.21910
 8007.50000   53.04180  129.01440   85.98770    0.21390
 8008.00000   52.97770  132.87240   80.59690    0.19670
 8008.50000   52.84260  135.10820   75.20610    0.17260
 8009.00000   52.60810  137.34110   69.81540    0.16140
 8009.50000   53.34180  138.04080   64.94940    0.15670
 8010.00000   53.17510  138.19410   63.58250    0.15620
 8010.50000   52.78410  138.38580   63.40060    0.15870
 8011.00000   52.88500  138.36160   64.38000    0.16420
 8011.50000   52.69280  136.17360   63.85650    0.17010
 8012.00000   52.03530  130.95450   63.07380    0.16530
 8012.50000   51.84240  125.03790   61.34390    0.15520
 8013.00000   52.28520  120.02020   58.55950    0.14280
 8013.50000   52.83270  119.91960   57.17950    0.13700
 8014.00000   52.85600  120.28800   59.02220    0.15760
 8014.50000   53.26790  120.26800   63.12930    0.16610
 8015.00000   54.03450  120.24800   65.33080    0.16120
 8015.50000   54.22470  120.22800   64.01410    0.15830
 8016.00000   54.15030  120.22400   62.97260    0.16330
 8016.50000   53.83930  135.01810   62.70160    0.15660
 8017.00000   53.58490  126.35690   63.24610    0.15010
 8017.50000   53.03490  117.42930   63.94610    0.14660
 8018.00000   53.00910  118.01450   65.68620    0.15620
 8018.50000   53.66780  117.55680   67.39660    0.15640
 8019.00000   54.10790  116.16660   66.73160    0.15400
 8019.50000   53.83640  116.75320   65.21180    0.14800
 8020.00000   53.96370  116.30950   60.52580    0.14130
 8020.50000   54.25050  116.03580   56.28710    0.13220
 8021.00000   54.45850  115.39300   53.03390    0.12540
 8021.50000   54.62570  114.75010   52.18910    0.11700
 8022.00000   54.86700  114.49300   51.43420    0.11000
 8022.50000   54.82420  114.97760   49.22960    0.10610
 8023.00000   54.78980  115.58350   48.20640    0.10380
 8023.50000   56.61870  115.42600   49.94670    0.10810
 8024.00000   65.43000  114.62630   53.34030    0.12310
 8024.50000   67.07930  116.90870   57.68480    0.13380
 8025.00000   68.17880  119.59510   62.29120    0.14870
 8025.50000   68.63070  123.86130   69.01420    0.15860
 8026.00000   68.75270  132.36450   71.99180    0.17380
 8026.50000   69.02620  138.04100   75.21080    0.18190
 8027.00000   69.33420  138.04100   75.85450    0.17800
 8027.50000   69.61390  137.64950   74.12830    0.17190
 8028.00000   69.24230  136.54160   72.40210    0.16920
 8028.50000   69.04710  135.29210   72.51370    0.17270
 8029.00000   68.85570  132.17770   73.85520    0.17660
 8029.50000   68.78410  127.74510   72.10770    0.17770
 8030.00000   68.29870  122.25710   69.85070    0.15880
 8030.50000   68.22180  120.26800   66.33850    0.14140
 8031.00000   67.75500  119.23250   64.68050    0.13550
 8031.50000   67.14020  118.80170   64.24290    0.14100
 8032.00000   66.63810  117.25400   65.60030    0.14510
 8032.50000   65.99730  115.54990   65.43090    0.15080
 8033.00000   64.58020  116.15570   63.44160    0.15940
 8033.50000   63.38070  114.95010   56.55010    0.15450
 8034.00000   62.65840  113.84560   48.94270    0.13680
 8034.50000   62.15730  112.75490   44.71040    0.12460
 8035.00000   61.99690  113.95050   46.30350    0.11600
 8035.50000   62.28110  115.44990   49.26660    0.11230
 8036.00000   59.43230  116.40750   51.79550    0.11000
 8036.50000   54.53420  117.46760   52.55400    0.11700
 8037.00000   54.07140  118.52770   55.09200    0.12820
 8037.50000   53.60140  119.58780   58.91470    0.13580
 8038.00000   53.43660  122.90560   61.67720    0.14420
 8038.50000   53.50600  128.74460   63.01220    0.14240
 8039.00000   53.76320  137.12830   65.51070    0.14380
 8039.50000   53.82380  138.40380   68.35900    0.15700
 8040.00000   53.81910  138.20220   70.66010    0.16540
 8040.50000   53.81440  138.03380   72.47520    0.16700
 8041.00000   53.63460  137.64100   72.26980    0.16300
 8041.50000   53.89260  137.74100   72.33510    0.15920
 8042.00000   54.23440  127.58290   72.73170    0.16100
 8042.50000   54.06940  121.72510   73.62530    0.16620
 8043.00000   54.04610  121.25360   74.51890    0.17360
 8043.50000   53.91320  121.40070   75.05500    0.18180
 8044.00000   53.49720  122.67730   74.63300    0.17880
 8044.50000   53.53100  124.01320   74.10540    0.17620
 8045.00000   53.94780  124.73480   75.40480    0.18010
 8045.50000   53.84530  124.89610   78.70280    0.18670
 8046.00000   53.90390  124.86840   84.37500    0.19680
 8046.50000   54.03180  123.97980   91.89490    0.21140
 8047.00000   54.24140  122.86880   97.34170    0.23160
 8047.50000   54.40220  120.16990  100.83960    0.24850
 8048.00000   54.42000  118.35990   98.73810    0.25490
 8048.50000   54.43660  116.04970   81.10140    0.21090
 8049.00000   54.62540  114.85020   67.47070    0.13620
 8049.50000   54.33430  112.22000   51.71900    0.08970
 8050.00000   54.39130  111.42750   46.87190    0.07300
