~Version ---------------------------------------------------
VERS.   2.0 : CWLS log ASCII Standard -VERSION 2.0
WRAP.    NO : One line per depth step
DLM . SPACE : Column Data Section Delimiter
~Well ------------------------------------------------------
STRT .FT                 114.0 : START DEPTH
STOP .FT               14385.0 : STOP DEPTH
STEP .FT                   0.5 : STEP
NULL .                -9999.25 : NULL VALUE
COMP .                         : COMPANY
WELL .                         : WELL
FLD  .                         : FIELD
LOC  .                         : LOCATION
PROV .                         : PROVINCE
CNTY .                         : COUNTY
STAT .                         : STATE
CTRY .                         : COUNTRY
SRVC .                         : SERVICE COMPANY
DATE .                         : DATE
UWI  .                         : UNIQUE WELL ID
API  .                         : API NUMBER
SLAT .WGS84 2.9318238088482005 : SURFACE LATITUDE
SLON .WGS84     6.721778198349 : SURFACE LONGITUDE
DATUM.F                    nan : DEPTH DATUM ELEV
~Curve Information -----------------------------------------
DEPT   .FT    : 
DTCO   .US/F  : DELTA-T COMPRESSIONAL
DTSM   .US/F  : DELTA-T SHEAR
SGRDD  .GAPI  : SPECTROSCOPY GAMMA RAY FROM DENSITY LOG
TNPH_LS.DEC   : THERMAL NEUTRON POROSITY [LIMESTONE]
~Params ----------------------------------------------------
~Other -----------------------------------------------------
~ASCII -----------------------------------------------------
# ...
 6406.00000   -9999.25   -9999.25   11.53190   -9999.25
 6406.50000   -9999.25   -9999.25    8.14510   -9999.25
 6407.00000   -9999.25   -9999.25    9.33010   -9999.25
 6407.50000   -9999.25   -9999.25   12.64620   -9999.25
 6408.00000   -9999.25   -9999.25   18.48660   -9999.25
 6408.50000   -9999.25   -9999.25   22.31890   -9999.25
 6409.00000   -9999.25   -9999.25   24.45920   -9999.25
 6409.50000   -9999.25   -9999.25   26.01300   -9999.25
 6410.00000   -9999.25   -9999.25   26.18100   -9999.25
 6410.50000   -9999.25   -9999.25   27.21370   -9999.25
 6411.00000   -9999.25   -9999.25   26.71320   -9999.25
 6411.50000   -9999.25   -9999.25   25.11720   -9999.25
 6412.00000   -9999.25   -9999.25   23.69550   -9999.25
 6412.50000   -9999.25   -9999.25   25.63460   -9999.25
 6413.00000   -9999.25   -9999.25   31.03140   -9999.25
 6413.50000   -9999.25   -9999.25   34.32940   -9999.25
 6414.00000   -9999.25   -9999.25   31.16780   -9999.25
 6414.50000   -9999.25   -9999.25   25.03500   -9999.25
 6415.00000   -9999.25   -9999.25   18.80480   -9999.25
 6415.50000   -9999.25   -9999.25   17.10030   -9999.25
 6416.00000   -9999.25   -9999.25   18.76800   -9999.25
 6416.50000   -9999.25   -9999.25   19.99280   -9999.25
 6417.00000   -9999.25   -9999.25   20.13630   -9999.25
 6417.50000   -9999.25   -9999.25   22.40620   -9999.25
 6418.00000   -9999.25   -9999.25   24.46550   -9999.25
 6418.50000   -9999.25   -9999.25   23.50780   -9999.25
 6419.00000   -9999.25   -9999.25   19.03850   -9999.25
 6419.50000   -9999.25   -9999.25   13.03140   -9999.25
 6420.00000   -9999.25   -9999.25    8.25460   -9999.25
 6420.50000   -9999.25   -9999.25    5.83510   -9999.25
 6421.00000   -9999.25   -9999.25    5.71760   -9999.25
 6421.50000   -9999.25   -9999.25    7.17780   -9999.25
 6422.00000   -9999.25   -9999.25    9.37830   -9999.25
 6422.50000   -9999.25   -9999.25   12.28630   -9999.25
 6423.00000   -9999.25   -9999.25   14.77090   -9999.25
 6423.50000   -9999.25   -9999.25   16.31940   -9999.25
 6424.00000   -9999.25   -9999.25   14.47380   -9999.25
 6424.50000   -9999.25   -9999.25   11.84290   -9999.25
 6425.00000   -9999.25   -9999.25   10.51470   -9999.25
 6425.50000   -9999.25   -9999.25   11.58800   -9999.25
 6426.00000   -9999.25   -9999.25   12.14270   -9999.25
 6426.50000   -9999.25   -9999.25   13.68290   -9999.25
 6427.00000   -9999.25   -9999.25   15.44070   -9999.25
 6427.50000   -9999.25   -9999.25   19.07280   -9999.25
 6428.00000   -9999.25   -9999.25   22.15070   -9999.25
 6428.50000   -9999.25   -9999.25   20.27740   -9999.25
 6429.00000   -9999.25   -9999.25   16.28020   -9999.25
 6429.50000   -9999.25   -9999.25   11.96580   -9999.25
 6430.00000   -9999.25   -9999.25   15.33530   -9999.25
 6430.50000   -9999.25   -9999.25   19.46540   -9999.25
 6431.00000   -9999.25   -9999.25   20.46180   -9999.25
 6431.50000   -9999.25   -9999.25   16.63990   -9999.25
 6432.00000   -9999.25   -9999.25   12.98450   -9999.25
 6432.50000   -9999.25   -9999.25   13.19730   -9999.25
 6433.00000   -9999.25   -9999.25   15.74040   -9999.25
 6433.50000   -9999.25   -9999.25   20.23770   -9999.25
 6434.00000   -9999.25   -9999.25   24.31220   -9999.25
 6434.50000   -9999.25   -9999.25   24.30620   -9999.25
 6435.00000   -9999.25   -9999.25   21.13720   -9999.25
 6435.50000   -9999.25   -9999.25   16.34010   -9999.25
 6436.00000   -9999.25   -9999.25   12.17660   -9999.25
 6436.50000   -9999.25   -9999.25   12.63940   -9999.25
 6437.00000   -9999.25   -9999.25   17.03580   -9999.25
 6437.50000   -9999.25   -9999.25   19.86290   -9999.25
 6438.00000   -9999.25   -9999.25   18.90620   -9999.25
 6438.50000   -9999.25   -9999.25   15.14080   -9999.25
 6439.00000   -9999.25   -9999.25   12.06340   -9999.25
 6439.50000   -9999.25   -9999.25   11.69810   -9999.25
 6440.00000   -9999.25   -9999.25   12.27460   -9999.25
 6440.50000   -9999.25   -9999.25   12.99800   -9999.25
 6441.00000   -9999.25   -9999.25   11.43970   -9999.25
 6441.50000   -9999.25   -9999.25    9.90360   -9999.25
 6442.00000   -9999.25   -9999.25    9.17400   -9999.25
 6442.50000   -9999.25   -9999.25   12.86750   -9999.25
 6443.00000   -9999.25   -9999.25   16.17860   -9999.25
 6443.50000   -9999.25   -9999.25   18.02490   -9999.25
 6444.00000   -9999.25   -9999.25   16.12330   -9999.25
 6444.50000   -9999.25   -9999.25   14.76970   -9999.25
 6445.00000   -9999.25  115.49730   14.03000   -9999.25
 6445.50000   -9999.25  117.62980   14.63650   -9999.25
 6446.00000   -9999.25  119.49570   15.12430   -9999.25
 6446.50000   -9999.25  119.94970   14.46620   -9999.25
 6447.00000   -9999.25  121.25370   12.14870   -9999.25
 6447.50000   -9999.25  123.68800   10.93720   -9999.25
 6448.00000   -9999.25  132.43160   10.91790   -9999.25
 6448.50000   -9999.25  138.15490   12.62650   -9999.25
 6449.00000   -9999.25  137.62690   13.75700   -9999.25
 6449.50000   -9999.25  133.94260   14.99870   -9999.25
 6450.00000   -9999.25  131.23050   16.44370    0.04980
 6450.50000   -9999.25  130.01520   16.35100    0.04510
 6451.00000   -9999.25  128.03410   14.79210    0.05520
 6451.50000   -9999.25  125.17770   12.88610    0.05830
 6452.00000   -9999.25  115.84980   13.77020    0.05480
 6452.50000   -9999.25  114.02310   14.85060    0.05310
 6453.00000   -9999.25  113.18460   16.22310    0.06090
 6453.50000   -9999.25  110.49740   16.90660    0.07170
 6454.00000   -9999.25  106.02500   15.48330    0.07370
 6454.50000   -9999.25  100.47940   15.12680    0.06390
 6455.00000   54.88970   87.10860   15.10860    0.05790
 6455.50000   54.78970   88.64130   15.09030    0.05410
 6456.00000   55.72270   90.44060   14.05410    0.05290
 6456.50000   56.35630   90.84040   10.99860    0.05180
 6457.00000   56.63340   91.24030    9.41530    0.04980
 6457.50000   56.79410  104.47300   11.08770    0.04610
 6458.00000   56.64440  109.98830   18.31340    0.06480
 6458.50000   56.50250  110.35850   27.71290    0.08860
 6459.00000   56.26850  110.93240   30.89090    0.10930
 6459.50000   56.43350  111.76540   27.68550    0.10410
 6460.00000   56.32960  112.43180   24.48010    0.08320
 6460.50000   56.09890  111.50550   20.23770    0.07330
 6461.00000   55.84060  110.98490   17.95020    0.07180
 6461.50000   55.66870  110.46370   15.44060    0.06570
 6462.00000   55.65110  110.43970   15.39080    0.05650
 6462.50000   55.63340  110.41570   16.29130    0.05970
 6463.00000   55.61570  110.39170   18.73860    0.06150
 6463.50000   55.59810  109.98020   23.23590    0.06770
 6464.00000   55.53810  109.08890   31.08730    0.07440
 6464.50000   55.61020  108.05350   32.83550    0.09030
 6465.00000   55.61190  107.01810   27.37220    0.08760
 6465.50000   55.61360  101.75530   22.76950    0.07400
 6466.00000   55.46380   98.35850   17.85580    0.05880
 6466.50000   55.45550   97.40300   15.05450    0.05470
 6467.00000   55.44710   95.13390   13.46450    0.05710
 6467.50000   55.43880   93.77240   11.87460    0.06060
 6468.00000   55.44020   96.77120   10.28460    0.05770
 6468.50000   55.45630   99.77000    8.69470    0.05640
 6469.00000   55.47240  101.10290    9.09450    0.05380
 6469.50000   55.48840  101.54720   10.44360    0.05460
 6470.00000   55.50450  101.99160   11.63050    0.05890
 6470.50000   55.52060  102.30260   12.81730    0.06160
 6471.00000   55.53670  101.17840   13.49190    0.06200
 6471.50000   55.55270  100.10640   14.17900    0.06320
 6472.00000   55.56880   99.03440   14.99100    0.06010
 6472.50000   55.58490   97.96230   15.80300    0.06500
 6473.00000   55.60090   97.10470   16.29020    0.06870
 6473.50000   55.59470   97.90440   15.62390    0.07700
 6474.00000   55.46230   98.90400   16.35170    0.07870
 6474.50000   55.45400   99.90360   18.50430    0.08230
 6475.00000   55.44560  100.33470   20.65680    0.09030
 6475.50000   55.43730  100.38150   21.08730    0.10010
 6476.00000   55.43400   99.29550   21.08730    0.10430
 6476.50000   55.43400  100.35760   21.48710    0.10170
 6477.00000   55.43400  100.05640   24.10330    0.09970
