~Version ---------------------------------------------------
VERS.   2.0 : CWLS log ASCII Standard -VERSION 2.0
WRAP.    NO : One line per depth step
DLM . SPACE : Column Data Section Delimiter
~Well ------------------------------------------------------
STRT .FT                 114.0 : START DEPTH
STOP .FT               14385.0 : STOP DEPTH
STEP .FT                   0.5 : STEP
NULL .                -9999.25 : NULL VALUE
COMP .                         : COMPANY
WELL .                         : WELL
FLD  .                         : FIELD
LOC  .                         : LOCATION
PROV .                         : PROVINCE
CNTY .                         : COUNTY
STAT .                         : STATE
CTRY .                         : COUNTRY
SRVC .                         : SERVICE COMPANY
DATE .                         : DATE
UWI  .                         : UNIQUE WELL ID
API  .                         : API NUMBER
SLAT .WGS84 2.9318238088482005 : SURFACE LATITUDE
SLON .WGS84     6.721778198349 : SURFACE LONGITUDE
DATUM.F                    nan : DEPTH DATUM ELEV
~Curve Information -----------------------------------------
DEPT   .FT    : 
DTCO   .US/F  : DELTA-T COMPRESSIONAL
DTSM   .US/F  : DELTA-T SHEAR
SGRDD  .GAPI  : SPECTROSCOPY GAMMA RAY FROM DENSITY LOG
TNPH_LS.DEC   : THERMAL NEUTRON POROSITY [LIMESTONE]
~Params ----------------------------------------------------
~Other -----------------------------------------------------
~ASCII -----------------------------------------------------
# ...
 13224.50000   50.19790  102.68840   70.41470    0.14140
 13225.00000   50.31250  102.85500   69.70580    0.13700
 13225.50000   51.08560  103.40270   71.71280    0.14490
 13226.00000   52.68020  103.95040   72.28720    0.16400
 13226.50000   53.78450  105.18780   69.17090    0.17480
 13227.00000   55.61580  106.35360   63.94550    0.17820
 13227.50000   60.84720  108.30280   63.10600    0.17030
 13228.00000   62.20260  109.35240   68.05680    0.16890
 13228.50000   62.98400  110.60190   73.78510    0.18160
 13229.00000   63.22520  111.11370   77.89630    0.18420
 13229.50000   63.22900  111.32130   76.26920    0.17200
 13230.00000   63.08740  111.65220   71.47240    0.15550
 13230.50000   63.03080  111.40170   66.67570    0.14270
 13231.00000   63.05500  111.25150   64.03190    0.13190
 13231.50000   63.10210  111.10160   64.62870    0.12580
 13232.00000   63.33730  111.14400   66.33530    0.12080
 13232.50000   64.08520  112.05120   69.77060    0.12150
 13233.00000   65.07990  111.93450   72.72950    0.12800
 13233.50000   65.82960  111.95880   75.69380    0.13850
 13234.00000   65.76020  111.98310   76.98900    0.15010
 13234.50000   65.31260  112.00740   78.67630    0.17490
 13235.00000   64.48020  112.03170   80.36360    0.19060
 13235.50000   62.93940  112.11990   81.72880    0.20160
 13236.00000   62.95830  112.63320   81.73540    0.20710
 13236.50000   63.02620  112.84700   82.39790    0.21460
 13237.00000   63.16640  113.17070   82.27900    0.21680
 13237.50000   63.65550  113.37070   83.95590    0.21430
 13238.00000   64.28660  113.60060   81.92380    0.20950
 13238.50000   64.28350  114.25030   81.24020    0.20360
 13239.00000   64.96700  114.25030   81.33460    0.19670
 13239.50000   64.98450  113.88690   82.74890    0.20340
 13240.00000   64.29800  113.52350   82.74610    0.21640
 13240.50000   63.38080  113.60080   82.05170    0.22480
 13241.00000   62.17750  113.61340   82.37530    0.22760
 13241.50000   61.78140  113.57240   83.37320    0.22040
 13242.00000   60.27290  113.17100   83.68660    0.21160
 13242.50000   60.76950  112.85110   82.65500    0.20560
 13243.00000   64.48730  112.26980   82.27350    0.20360
 13243.50000   63.69620  111.48710   83.43680    0.20200
 13244.00000   62.97940  111.11180   82.10900    0.20350
 13244.50000   62.50500  111.07430   80.53900    0.20590
 13245.00000   62.24820  111.14580   78.60140    0.20090
 13245.50000   46.62780  111.38060   78.04920    0.19760
 13246.00000   46.22800  111.10500   76.64950    0.19230
 13246.50000   55.26140  110.82510   75.38890    0.18780
 13247.00000   63.62340  110.84750   75.89580    0.19040
 13247.50000   63.26050  110.83650   77.51850    0.19300
 13248.00000   61.99860  110.42460   79.98300    0.20520
 13248.50000   62.73100  110.42920   80.87670    0.21520
 13249.00000   63.22110  111.06850   83.08870    0.21550
 13249.50000   64.55780  112.15140   84.17880    0.21150
 13250.00000   65.46420  113.04410   84.42140    0.21520
 13250.50000   65.43690  113.63310   81.40130    0.22090
 13251.00000   65.62280  114.04170   73.60600    0.21800
 13251.50000   65.56100  114.45030   69.12840    0.20880
 13252.00000   65.54230  114.09070   67.48470    0.20720
 13252.50000   65.82290  114.39040   69.70850    0.20180
 13253.00000   66.44180  115.12710   71.76820    0.17820
 13253.50000   66.27690  115.77280   73.30650    0.16430
 13254.00000   66.22780  116.43670   78.99080    0.15640
 13254.50000   67.07980  116.45910   83.50040    0.15990
 13255.00000   67.28330  116.84940   89.19710    0.16670
 13255.50000   67.37290  116.80080   91.19080    0.17150
 13256.00000   66.89730  116.91090   93.40590    0.18510
 13256.50000   67.30200  117.21840   93.80360    0.20030
 13257.00000   66.87930  117.52600   93.63740    0.21110
 13257.50000   65.97590  117.50330   93.26570    0.22200
 13258.00000   65.90420  117.46000   94.64960    0.23080
 13258.50000   66.09630  116.92190   96.04240    0.24080
 13259.00000   66.45450  116.84940   98.79150    0.24860
 13259.50000   67.09620  116.89040   99.58320    0.25120
 13260.00000   67.39010  117.06780  102.71190    0.26400
 13260.50000   67.42560  116.91070  102.81920    0.26230
 13261.00000   67.10320  116.58290  100.89180    0.24140
 13261.50000   66.62940  116.04880   96.68290    0.23040
 13262.00000   66.56260  116.04420   96.26550    0.22090
 13262.50000   66.00810  116.03960   96.49690    0.22370
 13263.00000   66.38720  116.03500   97.42970    0.23010
 13263.50000   66.56510  115.75420   97.36490    0.23330
 13264.00000   66.89310  115.08830   96.41480    0.23670
 13264.50000   67.27780  114.25050   95.66570    0.23890
 13265.00000   67.29820  113.10310   96.08300    0.24280
 13265.50000   67.41850  112.77270   97.89320    0.24490
 13266.00000   67.24200  112.47080   99.85400    0.24850
 13266.50000   66.90930  112.12290  100.70160    0.25190
 13267.00000   66.63650  111.52290  101.68030    0.24480
 13267.50000   67.13900  111.28240   98.79250    0.23990
 13268.00000   68.67990  111.43620   95.44550    0.23250
 13268.50000   69.81850  111.59000   91.19830    0.23770
 13269.00000   60.42220  111.50890   90.80510    0.22320
 13269.50000   61.39820  110.96290   90.91240    0.24860
 13270.00000   60.60590  110.34570   91.41280    0.26090
 13270.50000   59.18120  110.07570   90.93220    0.26360
 13271.00000   59.09410  109.99400   90.85540    0.25140
 13271.50000   59.36450  111.18850   89.98680    0.24560
 13272.00000   58.78260  113.63090   88.56140    0.24210
 13272.50000   59.74410  111.51730   88.42640    0.23430
 13273.00000   63.28080  111.45860   89.98690    0.24000
 13273.50000   65.87510  112.03830   91.23840    0.24600
 13274.00000   67.18790  112.42860   91.51730    0.25080
 13274.50000   66.27960  113.52200   89.09460    0.23000
 13275.00000   66.56240  114.52450   87.62940    0.24110
 13275.50000   67.15100  115.70930   88.65740    0.23380
 13276.00000   67.04620  116.04590   91.02270    0.23160
 13276.50000   67.00610  115.90420   90.83320    0.22600
 13277.00000   66.85740  116.04980   87.69820    0.23150
 13277.50000   66.83990  115.73000   85.67320    0.23310
 13278.00000   66.87200  115.65000   85.50340    0.23680
 13278.50000   67.25080  114.55040   85.74680    0.24800
 13279.00000   66.83640  113.14340   83.05120    0.25970
 13279.50000   66.82070  112.84760   82.16290    0.25840
 13280.00000   66.52830  111.96050   81.45220    0.24780
 13280.50000   66.23070  112.09380   82.18560    0.23660
 13281.00000   65.99650  123.02280   82.96510    0.22610
 13281.50000   65.23950  121.25070   83.40130    0.21680
 13282.00000   65.02590  118.99220   84.97000    0.21030
 13282.50000   65.56080  119.24060   83.53460    0.21280
 13283.00000   64.79080  118.85250   82.40160    0.20920
 13283.50000   65.87970  119.54830   83.11820    0.21820
 13284.00000   66.77000  120.61140   87.73130    0.23050
 13284.50000   67.10280  123.00770   91.21630    0.24100
 13285.00000   67.97880  123.91750   95.22290    0.24980
 13285.50000   68.35740  123.43390   97.71420    0.25380
 13286.00000   68.42540  121.72680  100.57660    0.25080
 13286.50000   68.29270  120.66040  103.51030    0.24250
 13287.00000   68.00270  119.72020  103.68390    0.23170
 13287.50000   67.37910  119.31080  101.65610    0.23860
 13288.00000   67.15300  119.22520   97.60640    0.24270
 13288.50000   66.88310  118.33720   94.89230    0.23820
 13289.00000   66.15690  117.44910   94.43360    0.21900
 13289.50000   65.50360  117.56330   94.72450    0.22860
 13290.00000   65.46410  117.13490   97.92980    0.23710
 13290.50000   65.69640  117.38470   98.72740    0.24290
 13291.00000   65.98960  117.87970   96.37770    0.24640
 13291.50000   66.30770  118.19870   94.11680    0.25110
 13292.00000   66.62280  118.12710   93.04210    0.25160
 13292.50000   66.62470  117.22910   93.35770    0.25400
 13293.00000   66.46440  117.04920   90.65400    0.26070
 13293.50000   66.62570  117.24910   88.32700    0.27110
 13294.00000   66.74170  116.94150   85.15650    0.25520
 13294.50000   66.73250  116.63400   78.43550    0.22970
