~Version ---------------------------------------------------
VERS.   2.0 : CWLS log ASCII Standard -VERSION 2.0
WRAP.    NO : One line per depth step
DLM . SPACE : Column Data Section Delimiter
~Well ------------------------------------------------------
STRT .F                    2.0 : START DEPTH
STOP .F                 8821.0 : STOP DEPTH
STEP .F                    0.5 : STEP
NULL .                -9999.25 : NULL VALUE
COMP .                         : COMPANY
WELL .                         : WELL
FLD  .                         : FIELD
LOC  .                         : LOCATION
PROV .                         : PROVINCE
CNTY .                         : COUNTY
STAT .                         : STATE
CTRY .                         : COUNTRY
SRVC .                         : SERVICE COMPANY
DATE .                         : DATE
UWI  .                         : UNIQUE WELL ID
API  .                         : API NUMBER
SLAT .WGS84 0.7114496408056965 : SURFACE LATITUDE
SLON .WGS84  6.558043134729999 : SURFACE LONGITUDE
DATUM.F                2566.69 : DEPTH DATUM ELEV
~Curve Information -----------------------------------------
DEPT   .F     : 1 MEASURED DEPTH
PORS_LS.DEC   : LINEAR POROSITY FROM LIMESTONE
GRD    .GAPI  : GAMMA RAY FROM DENSITY LOG
CALD   .IN    : CALIPER FROM DENSITY LOG
PORZ_LS.DEC   : Z-DENSITY CORRECTED POROSITY LIMESTONE
ZCOR   .G/C3  : DENSITY CORRECTION
PE     .B/E   : PHOTO ELECTRIC CROSS SECTION
CNC_LS .DEC   : BOREHOLE SIZE CORRECTED COMPENSATED NEUTRON POROSITY (LIMESTONE)
ZDEN   .G/C3  : FORMATION BULK DENSITY
DTCO   .US/F  : DELTA-T COMPRESSIONAL
DTSM   .US/F  : DELTA-T SHEAR
DT     .US/F  : DELTA-T (INTERVAL TRANSIT TIME)
~Params ----------------------------------------------------
~Other -----------------------------------------------------
~ASCII -----------------------------------------------------
# ...
 5583.50000    0.22160  109.63700    9.53550   -9999.25    0.06500   -9999.25   -9999.25    2.51090   85.36560  171.20290   83.39860
 5584.00000    0.22170  112.16010    9.53700   -9999.25    0.06200   -9999.25   -9999.25    2.52490   84.87220  170.31140   83.42360
 5584.50000    0.22260  113.14650    9.53930   -9999.25    0.05560   -9999.25   -9999.25    2.54750   83.74320  167.71190   83.52390
 5585.00000    0.22650  111.76500    9.54430   -9999.25    0.04930   -9999.25   -9999.25    2.57010   83.52620  167.14990   84.08120
 5585.50000    0.22950  110.17500    9.53830   -9999.25    0.04300   -9999.25   -9999.25    2.58140   84.12900  168.14190   84.75280
 5586.00000    0.23230  110.51820    9.53220   -9999.25    0.05740   -9999.25   -9999.25    2.58720   84.59240  169.13390   85.28950
 5586.50000    0.23770  112.09650    9.52620   -9999.25    0.08590   -9999.25   -9999.25    2.58800   85.09990  170.07760   85.71980
 5587.00000    0.24270  111.50870    9.52010   -9999.25    0.09480   -9999.25   -9999.25    2.57470   85.15740  170.76080   85.99700
 5587.50000    0.24470  110.59120    9.55970   -9999.25    0.10300   -9999.25   -9999.25    2.54980   85.75640  171.33240   86.27810
 5588.00000    0.24610  111.10290    9.63660   -9999.25    0.10540   -9999.25   -9999.25    2.53010   86.58790  171.90400   86.42850
 5588.50000    0.24750  112.63340    9.69130   -9999.25    0.10790   -9999.25   -9999.25    2.52570   87.64880   -9999.25   86.29900
 5589.00000    0.24890  113.37460    9.70460   -9999.25    0.11110   -9999.25   -9999.25    2.52140   87.92030   -9999.25   86.33260
 5589.50000    0.25180  112.17630    9.69610   -9999.25    0.13250   -9999.25   -9999.25    2.50740   87.93920   -9999.25   86.93930
 5590.00000    0.25480  109.43830    9.67860   -9999.25    0.15860   -9999.25   -9999.25    2.50500   88.11640   -9999.25   87.59910
 5590.50000    0.25780  106.82000    9.66120   -9999.25    0.16790   -9999.25   -9999.25    2.51240   88.29370   -9999.25   87.82520
 5591.00000    0.25910  108.36340    9.64870   -9999.25    0.16030   -9999.25   -9999.25    2.52480   88.47100   -9999.25   88.04980
 5591.50000    0.25710  113.68770    9.64340   -9999.25    0.15090   -9999.25   -9999.25    2.53300   88.64820   -9999.25   88.28750
 5592.00000    0.25060  114.97240    9.63830   -9999.25    0.14150   -9999.25   -9999.25    2.54120   88.82550   -9999.25   88.66670
 5592.50000    0.24540  113.87870    9.63830   -9999.25    0.13210   -9999.25   -9999.25    2.55480   89.00280   -9999.25   89.09760
 5593.00000    0.24880  113.37460    9.63820   -9999.25    0.12280   -9999.25   -9999.25    2.56600   89.12080   -9999.25   89.62860
 5593.50000    0.25270  114.78400    9.63820   -9999.25    0.11340   -9999.25   -9999.25    2.56910   89.20910   -9999.25   89.71830
 5594.00000    0.25660  116.08690    9.63820   -9999.25    0.10960   -9999.25   -9999.25    2.56550   89.38850   -9999.25   89.52750
 5594.50000    0.26040  114.01550    9.63810   -9999.25    0.11200   -9999.25   -9999.25    2.55860   89.51660   -9999.25   88.86990
 5595.00000    0.26220  112.47060    9.63690   -9999.25    0.12260   -9999.25   -9999.25    2.54550   89.40570  180.39610   88.02780
 5595.50000    0.25430  112.95270    9.63680   -9999.25    0.13320   -9999.25   -9999.25    2.50460   89.49740  175.30870   87.12610
 5596.00000    0.24660  113.77740    9.63700   -9999.25    0.14390   -9999.25   -9999.25    2.48960   88.61890  169.92860   86.31110
 5596.50000    0.23980  112.09880    9.63730   -9999.25    0.15450   -9999.25   -9999.25    2.49830   87.28630  166.44230   86.04920
 5597.00000    0.23880  107.61660    9.63740   -9999.25    0.16020   -9999.25   -9999.25    2.53270   86.76730  165.87930   85.97360
 5597.50000    0.23850  106.65860    9.63670   -9999.25    0.13910   -9999.25   -9999.25    2.55860   87.33090  166.56650   86.18760
 5598.00000    0.23840  108.30590    9.63610   -9999.25    0.11800   -9999.25   -9999.25    2.58520   87.23110  166.14810   86.44480
 5598.50000    0.23910  109.94910    9.63540   -9999.25    0.09920   -9999.25   -9999.25    2.59410   86.38410  165.11850   86.49790
 5599.00000    0.24120  109.73760    9.63590   -9999.25    0.08650   -9999.25   -9999.25    2.59040   85.89180  164.10890   86.45400
 5599.50000    0.24340  108.19420    9.64750   -9999.25    0.07370   -9999.25   -9999.25    2.58220   85.58130  163.72830   86.33030
 5600.00000    0.24550  106.63910    9.65910   -9999.25    0.06090   -9999.25   -9999.25    2.57410   85.32320  164.08000   86.11630
 5600.50000    0.24720  106.29560    9.67070   -9999.25    0.05190   -9999.25   -9999.25    2.56670   85.18800  164.35400   85.93290
 5601.00000    0.24510  109.08760    9.68230   -9999.25    0.04890   -9999.25   -9999.25    2.56150   85.42390  164.49000   85.88860
 5601.50000    0.24290  113.08470    9.70160   -9999.25    0.04910   -9999.25   -9999.25    2.55650   85.52540  165.87160   86.03170
 5602.00000    0.24070  115.62920    9.73000   -9999.25    0.05410   -9999.25   -9999.25    2.54820   85.51570  167.38060   86.25470
 5602.50000    0.23930  113.98180    9.75690   -9999.25    0.06970   -9999.25   -9999.25    2.53790   85.52630  169.22960   86.47510
 5603.00000    0.23910  112.24720    9.78380   -9999.25    0.08530   -9999.25   -9999.25    2.53200   85.62780  173.27920   86.58470
 5603.50000    0.24040  116.39760    9.80810   -9999.25    0.10090   -9999.25   -9999.25    2.52880   86.32080  177.19880   86.54820
 5604.00000    0.24230  119.92260    9.82440   -9999.25    0.11650   -9999.25   -9999.25    2.52570   87.11490  180.35910   86.43370
 5604.50000    0.24230  118.18480    9.83470   -9999.25    0.13210   -9999.25   -9999.25    2.52410   87.53550  182.02450   86.32510
 5605.00000    0.24200  115.36280    9.87000   -9999.25    0.14770   -9999.25   -9999.25    2.52800   86.84050  181.24440   85.98310
 5605.50000    0.24130  112.15440    9.91800   -9999.25    0.14340   -9999.25   -9999.25    2.53580   86.38390  180.39600   85.28820
 5606.00000    0.24050  110.88140    9.92240   -9999.25    0.13270   -9999.25   -9999.25    2.55090   85.95150  179.54770   84.75870
 5606.50000    0.23980  112.45220    9.90620   -9999.25    0.12490   -9999.25   -9999.25    2.56170   85.57040  177.25150   84.63510
 5607.00000    0.23900  114.50650    9.88990   -9999.25    0.13060   -9999.25   -9999.25    2.56300   85.55250  173.30140   84.97610
 5607.50000    0.23640  115.56590    9.87370   -9999.25    0.13640   -9999.25   -9999.25    2.55820   85.60660  168.46230   85.27430
 5608.00000    0.23310  114.26700    9.85540   -9999.25    0.14220   -9999.25   -9999.25    2.55230   86.07640  167.45190   86.08680
 5608.50000    0.23050  112.86310    9.83190   -9999.25    0.14800   -9999.25   -9999.25    2.54840   86.91670  167.35800   86.73480
 5609.00000    0.23360  111.36290    9.80560   -9999.25    0.15220   -9999.25   -9999.25    2.54680   87.98130  166.48930   86.95740
 5609.50000    0.23790  111.21580    9.76140   -9999.25    0.15660   -9999.25   -9999.25    2.54530   89.06520  167.28330   87.06000
 5610.00000    0.24180  110.88030    9.71170   -9999.25    0.16160   -9999.25   -9999.25    2.54010   89.95620  168.29370   86.95140
 5610.50000    0.24410  110.08720    9.66210   -9999.25    0.17910   -9999.25   -9999.25    2.50170   90.37420  168.51750   86.47210
 5611.00000    0.24430  109.31060    9.60990   -9999.25    0.21510   -9999.25   -9999.25    2.45550   89.25010  167.34440   86.07530
 5611.50000    0.24410  108.49660    9.52300   -9999.25    0.24250   -9999.25   -9999.25    2.45120   88.21500  166.43260   85.82250
 5612.00000    0.24270  107.73100    9.47160   -9999.25    0.25430   -9999.25   -9999.25    2.50300   87.38880  166.38520   84.93480
 5612.50000    0.23990  106.97670    9.44180   -9999.25    0.24700   -9999.25   -9999.25    2.55480   86.76300  166.94800   84.73170
 5613.00000    0.23720  106.50620    9.41260   -9999.25    0.18410   -9999.25   -9999.25    2.57340   87.17200  169.27720   85.07180
 5613.50000    0.23440  106.41830    9.39020   -9999.25    0.10460   -9999.25   -9999.25    2.56220   88.10370  171.84930   85.45690
