~Version ---------------------------------------------------
VERS.   2.0 : CWLS log ASCII Standard -VERSION 2.0
WRAP.    NO : One line per depth step
DLM . SPACE : Column Data Section Delimiter
~Well ------------------------------------------------------
STRT .F                    2.0 : START DEPTH
STOP .F                 8821.0 : STOP DEPTH
STEP .F                    0.5 : STEP
NULL .                -9999.25 : NULL VALUE
COMP .                         : COMPANY
WELL .                         : WELL
FLD  .                         : FIELD
LOC  .                         : LOCATION
PROV .                         : PROVINCE
CNTY .                         : COUNTY
STAT .                         : STATE
CTRY .                         : COUNTRY
SRVC .                         : SERVICE COMPANY
DATE .                         : DATE
UWI  .                         : UNIQUE WELL ID
API  .                         : API NUMBER
SLAT .WGS84 0.7114496408056965 : SURFACE LATITUDE
SLON .WGS84  6.558043134729999 : SURFACE LONGITUDE
DATUM.F                2566.69 : DEPTH DATUM ELEV
~Curve Information -----------------------------------------
DEPT   .F     : 1 MEASURED DEPTH
PORS_LS.DEC   : LINEAR POROSITY FROM LIMESTONE
GRD    .GAPI  : GAMMA RAY FROM DENSITY LOG
CALD   .IN    : CALIPER FROM DENSITY LOG
PORZ_LS.DEC   : Z-DENSITY CORRECTED POROSITY LIMESTONE
ZCOR   .G/C3  : DENSITY CORRECTION
PE     .B/E   : PHOTO ELECTRIC CROSS SECTION
CNC_LS .DEC   : BOREHOLE SIZE CORRECTED COMPENSATED NEUTRON POROSITY (LIMESTONE)
ZDEN   .G/C3  : FORMATION BULK DENSITY
DTCO   .US/F  : DELTA-T COMPRESSIONAL
DTSM   .US/F  : DELTA-T SHEAR
DT     .US/F  : DELTA-T (INTERVAL TRANSIT TIME)
~Params ----------------------------------------------------
~Other -----------------------------------------------------
~ASCII -----------------------------------------------------
# ...
 7200.00000    0.22300  122.85040   10.13190    0.11780    0.02350    2.41850   -9999.25    2.50240   79.74490  149.04080   80.30970
 7200.50000    0.22010  123.07300   10.15490    0.12050    0.05270    2.46570   -9999.25    2.51860   79.47580  149.59510   80.54950
 7201.00000    0.22110  122.47490   10.17580    0.11100    0.07050    2.47130   -9999.25    2.54770   79.68410  151.00740   81.08320
 7201.50000    0.22730  122.13920   10.18450    0.09920    0.06190    2.47440   -9999.25    2.55800   80.01910  152.01450   81.58230
 7202.00000    0.22930  122.06860   10.19510    0.08990    0.04440    2.47520   -9999.25    2.54690   80.35400  152.56040   82.03170
 7202.50000    0.23080  122.18910   10.19380    0.09870    0.02960    2.47420   -9999.25    2.52490   80.68900  153.58900   82.46840
 7203.00000    0.23250  122.34640   10.18760    0.11110    0.02560    2.45520   -9999.25    2.51200   81.17520  153.97490   82.98390
 7203.50000    0.23500  122.12640   10.18050    0.11740    0.03070    2.44130   -9999.25    2.50340   81.90420  154.79570   83.51290
 7204.00000    0.23900  121.80040   10.17670    0.12290    0.03300    2.45920   -9999.25    2.45230   82.31490  155.09800   83.75100
 7204.50000    0.24270  122.01510   10.17530    0.14870    0.01470    2.50280   -9999.25    2.40340   82.65120  155.40030   83.99180
 7205.00000    0.24450  123.68340   10.20100    0.18130    0.05300    2.63980   -9999.25    2.34810   82.84570  155.62100   84.07340
 7205.50000    0.24230  126.35200   10.22520    0.21040    0.19370    2.76300   -9999.25    2.29800   82.98140  155.65270   84.11920
 7206.00000    0.24010  127.22540   10.24420    0.24540    0.26240    2.88620   -9999.25    2.29350   82.72810  155.61550   84.08210
 7206.50000    0.23790  126.04750   10.26530    0.22980    0.20420    3.00940   -9999.25    2.33810   82.51260  155.23560   83.69430
 7207.00000    0.23590  124.43400   10.26290    0.20080    0.15170    3.13260   -9999.25    2.40740   82.29710  154.50590   83.70000
 7207.50000    0.23450  124.27800   10.23560    0.17020    0.18420    3.14580   -9999.25    2.44480   82.21340  154.11430   83.98200
 7208.00000    0.23470  124.67940   10.21520    0.15060    0.22550    3.09200   -9999.25    2.46640   81.99210  154.58400   83.76510
 7208.50000    0.23530  124.53580   10.19880    0.13700    0.22620    3.03660   -9999.25    2.48830   81.78390  155.07550   83.42260
 7209.00000    0.23610  123.52820   10.19240    0.12510    0.22380    3.02500   -9999.25    2.50180   81.57560  154.03700   83.48080
 7209.50000    0.23740  122.93240   10.17680    0.11580    0.21680    2.99690   -9999.25    2.51960   81.56860  153.65040   83.58250
 7210.00000    0.24160  123.33030   10.17710    0.10600    0.18300    2.92290   -9999.25    2.54210   81.88340  153.35100   83.53050
 7210.50000    0.24590  124.04640   10.17600    0.09240    0.14740    2.82920   -9999.25    2.55790   82.19820  153.13380   83.58930
 7211.00000    0.24820  124.63850   10.17240    0.09160    0.11170    2.91290   -9999.25    2.55730   81.95500  152.91860   83.84270
 7211.50000    0.24710  125.89050   10.17220    0.10810    0.06670    2.99220   -9999.25    2.52380   82.16270  152.89740   83.74970
 7212.00000    0.24050  128.95870   10.17200    0.13060    0.04660    2.94160   -9999.25    2.47040   82.30780  153.22690   83.24410
 7212.50000    0.23610  129.47310   10.17220    0.15400    0.05200    2.60950   -9999.25    2.43410   82.29620  153.61850   82.96030
 7213.00000    0.24050  127.14610   10.17240    0.15790    0.04620    2.21580   -9999.25    2.45480   82.27740  153.74800   83.17410
 7213.50000    0.24600  125.94670   10.17280    0.14300    0.03080    2.18110   -9999.25    2.48510   82.25860  153.99000   83.64840
 7214.00000    0.25100  126.85810   10.17320    0.12830    0.01380    2.23780   -9999.25    2.49040   82.29080  154.79600   83.82960
 7214.50000    0.24960  128.14650   10.17690    0.15340   -0.00780    2.42500   -9999.25    2.42280   82.53550  155.16320   83.82230
 7215.00000    0.25000  129.16350   10.18810    0.19610   -0.02880    2.61210   -9999.25    2.33200   82.68150  155.37390   83.65030
 7215.50000    0.25380  130.08880   10.19670    0.22000   -0.00420    2.68600   -9999.25    2.33200   82.69390  155.77970   83.48350
 7216.00000    0.25490  129.87880   10.22820    0.19610    0.09700    2.71410   -9999.25    2.39750   82.69640  156.18550   83.60930
 7216.50000    0.25420  128.79850   10.27790    0.15790    0.18530    2.86090   -9999.25    2.46800   82.60800  156.11380   83.76390
 7217.00000    0.25590  126.22950   10.30950    0.13680    0.27910    3.11150   -9999.25    2.50840   82.37210  155.19710   83.25240
 7217.50000    0.25640  125.90130   10.32410    0.11790    0.24470    3.31020   -9999.25    2.49680   82.33850  153.79610   82.90980
 7218.00000    0.24890  125.81510   10.16850    0.14470    0.19420    3.45370   -9999.25    2.41620   82.49390  153.04330   82.87480
 7218.50000    0.23930  124.12450   10.09240    0.21130    0.26160    3.59710   -9999.25    2.30190   82.93200  152.65910   82.70770
 7219.00000    0.22970  121.26870   10.05370    0.22390    0.32640    3.69010   -9999.25    2.30480   82.80370  151.79380   82.18290
 7219.50000    0.22740  120.86760   10.02600    0.18290    0.25390    3.69370   -9999.25    2.41080   82.53280  150.20320   81.26180
 7220.00000    0.22760  122.43500    9.95710    0.13060    0.11830    3.69280   -9999.25    2.49470   81.95070  148.23250   80.33060
 7220.50000    0.22850  124.06560    9.93420    0.10300   -0.00770    3.65970   -9999.25    2.55290   81.20180  147.61650   80.01890
 7221.00000    0.22950  124.39970    9.91190    0.08090   -0.01640    3.58430   -9999.25    2.58320   80.74460  147.51550   80.25390
 7221.50000    0.23090  124.24150    9.89980    0.07020    0.00070    3.50320   -9999.25    2.59740   80.47690  147.08900   80.37640
 7222.00000    0.23540  122.99650    9.90040    0.06420    0.01720    3.40310   -9999.25    2.60060   80.17870  148.37880   80.29960
 7222.50000    0.24000  122.40070    9.90680    0.06350    0.03230    3.26770   -9999.25    2.59760   79.88040  149.62800   80.22230
 7223.00000    0.24450  123.19430    9.90180    0.06610    0.04460    3.13230   -9999.25    2.58930   79.58210  150.52890   80.55470
 7223.50000    0.24710  124.38180    9.89490    0.07660    0.04990    3.01440   -9999.25    2.55930   79.43120  151.72940   81.36070
 7224.00000    0.24750  123.47060    9.89640    0.09580    0.04140    2.95570   -9999.25    2.53540   80.00990  152.94330   82.21910
 7224.50000    0.24750  123.06220    9.89790    0.10790    0.05500    2.89690   -9999.25    2.51990   80.58870  153.59500   82.71050
 7225.00000    0.24730  123.59930    9.89790    0.10920    0.06840    2.83820   -9999.25    2.52460   81.16740  153.47480   82.74610
 7225.50000    0.24800  124.02340    9.89790    0.10160    0.06190    2.75910   -9999.25    2.54280   81.74890  153.31020   82.69190
 7226.00000    0.24840  124.75270    9.89970    0.09140    0.02950    2.74550   -9999.25    2.55840   82.51810  153.97490   82.82090
 7226.50000    0.24870  126.49110    9.90420    0.08760    0.01530    2.80980   -9999.25    2.56060   83.47940  153.62210   82.97090
 7227.00000    0.24940  128.08870    9.90570    0.08750    0.02200    3.04720   -9999.25    2.56130   84.24450  153.26920   82.91920
 7227.50000    0.24870  127.14160    9.89610    0.08620    0.02990    3.19730   -9999.25    2.56550   84.51850  152.74950   82.40980
 7228.00000    0.24430  124.79030    9.89670    0.08120    0.02400    3.26310   -9999.25    2.57430   84.01120  151.89540   82.33460
 7228.50000    0.23720  124.64080    9.89740    0.07440    0.00500    3.41350   -9999.25    2.58740   82.95350  150.73300   82.42570
 7229.00000    0.23090  125.00080    9.89650    0.06830   -0.00970    3.57360   -9999.25    2.59540   82.29110  149.93350   82.21750
 7229.50000    0.22890  124.42240    9.89220    0.06530   -0.00760    3.71000   -9999.25    2.59640   81.84180  149.10910   81.75990
 7230.00000    0.23040  121.99250    9.89410    0.06560    0.00240    3.72810   -9999.25    2.59740   81.34150  147.93760   81.32610
