~Version ---------------------------------------------------
VERS.   2.0 : CWLS log ASCII Standard -VERSION 2.0
WRAP.    NO : One line per depth step
DLM . SPACE : Column Data Section Delimiter
~Well ------------------------------------------------------
STRT .F                    2.0 : START DEPTH
STOP .F                 8821.0 : STOP DEPTH
STEP .F                    0.5 : STEP
NULL .                -9999.25 : NULL VALUE
COMP .                         : COMPANY
WELL .                         : WELL
FLD  .                         : FIELD
LOC  .                         : LOCATION
PROV .                         : PROVINCE
CNTY .                         : COUNTY
STAT .                         : STATE
CTRY .                         : COUNTRY
SRVC .                         : SERVICE COMPANY
DATE .                         : DATE
UWI  .                         : UNIQUE WELL ID
API  .                         : API NUMBER
SLAT .WGS84 0.7114496408056965 : SURFACE LATITUDE
SLON .WGS84  6.558043134729999 : SURFACE LONGITUDE
DATUM.F                2566.69 : DEPTH DATUM ELEV
~Curve Information -----------------------------------------
DEPT   .F     : 1 MEASURED DEPTH
PORS_LS.DEC   : LINEAR POROSITY FROM LIMESTONE
GRD    .GAPI  : GAMMA RAY FROM DENSITY LOG
CALD   .IN    : CALIPER FROM DENSITY LOG
PORZ_LS.DEC   : Z-DENSITY CORRECTED POROSITY LIMESTONE
ZCOR   .G/C3  : DENSITY CORRECTION
PE     .B/E   : PHOTO ELECTRIC CROSS SECTION
CNC_LS .DEC   : BOREHOLE SIZE CORRECTED COMPENSATED NEUTRON POROSITY (LIMESTONE)
ZDEN   .G/C3  : FORMATION BULK DENSITY
DTCO   .US/F  : DELTA-T COMPRESSIONAL
DTSM   .US/F  : DELTA-T SHEAR
DT     .US/F  : DELTA-T (INTERVAL TRANSIT TIME)
~Params ----------------------------------------------------
~Other -----------------------------------------------------
~ASCII -----------------------------------------------------
# ...
 6925.50000    0.10980   81.27030    8.64080   -9999.25    0.01840   -9999.25   -9999.25    2.63060   68.87910  122.27420   69.36280
 6926.00000    0.11700   86.05280    8.64800   -9999.25    0.01410   -9999.25   -9999.25    2.62230   69.56940  123.25590   70.46390
 6926.50000    0.13110   90.15410    8.65210   -9999.25    0.00860   -9999.25   -9999.25    2.61130   70.07380  124.23770   71.56510
 6927.00000    0.14190   95.09590    8.65230   -9999.25    0.00300   -9999.25   -9999.25    2.60090   71.00900  125.21940   72.66630
 6927.50000    0.14980   99.36800    8.65250   -9999.25   -0.00250   -9999.25   -9999.25    2.59860   71.73900  126.20120   73.45430
 6928.00000    0.15700  103.06810    8.65270   -9999.25   -0.00560   -9999.25   -9999.25    2.59630   72.29890  127.07130   73.81140
 6928.50000    0.16010  102.91570    8.65290   -9999.25    0.01130   -9999.25   -9999.25    2.59220   72.76760  127.94440   74.05650
 6929.00000    0.16250  102.88110    8.65310   -9999.25    0.02810   -9999.25   -9999.25    2.58030   73.79960  130.64950   74.64940
 6929.50000    0.16340  103.53700    8.65330   -9999.25    0.04500   -9999.25   -9999.25    2.56750   74.25010  133.26300   75.49430
 6930.00000    0.16150  105.10490    8.65350   -9999.25    0.06000   -9999.25   -9999.25    2.56880   74.15120  133.23740   75.20480
 6930.50000    0.15390  106.20480    8.65370   -9999.25    0.05710   -9999.25   -9999.25    2.57760   73.71670  131.68850   74.27130
 6931.00000    0.15210  105.34130    8.65390   -9999.25    0.04740   -9999.25   -9999.25    2.58910   73.08070  130.04180   73.53770
 6931.50000    0.15860  103.71250    8.65410   -9999.25    0.03760   -9999.25   -9999.25    2.59430   72.54480  129.95620   73.03630
 6932.00000    0.16060  102.06890    8.65430   -9999.25    0.02790   -9999.25   -9999.25    2.60040   72.16540  130.61630   73.33350
 6932.50000    0.16360  102.52990    8.65440   -9999.25    0.01820   -9999.25   -9999.25    2.60660   72.47060  131.52050   74.34340
 6933.00000    0.16430  104.48330    8.65430   -9999.25    0.01150   -9999.25   -9999.25    2.61080   73.19430  134.69570   76.05480
 6933.50000    0.16500  104.45200    8.65420   -9999.25    0.00640   -9999.25   -9999.25    2.60620   74.30640  136.07130   76.74250
 6934.00000    0.16760  103.51670    8.65410   -9999.25    0.00120   -9999.25   -9999.25    2.59260   75.25270  136.72520   77.13560
 6934.50000    0.17100  103.20590    8.65040   -9999.25   -0.00390   -9999.25   -9999.25    2.56760   76.27230  137.11380   76.96380
 6935.00000    0.17120  105.13130    8.64610   -9999.25   -0.00700   -9999.25   -9999.25    2.56060   76.71790  136.97070   76.23350
 6935.50000    0.17060  106.12870    8.64180   -9999.25    0.00680   -9999.25   -9999.25    2.56070   77.01570  135.86730   76.13660
 6936.00000    0.16790  103.80070    8.63650   -9999.25    0.02600   -9999.25   -9999.25    2.56770   77.00210  133.54270   75.84870
 6936.50000    0.16590  101.48900    8.63010   -9999.25    0.04240   -9999.25   -9999.25    2.58120   76.05820  131.48790   74.59590
 6937.00000    0.16390  103.25820    8.62850   -9999.25    0.03890   -9999.25   -9999.25    2.60510   75.05060  129.43310   73.46000
 6937.50000    0.16180  104.71650    8.63260   -9999.25    0.02590   -9999.25   -9999.25    2.62580   74.29690  127.43540   72.76230
 6938.00000    0.15100  102.21570    8.62430   -9999.25    0.01690   -9999.25   -9999.25    2.62200   73.45800  125.68320   71.77340
 6938.50000    0.13400   96.78510    8.61320   -9999.25    0.04680   -9999.25   -9999.25    2.60870   71.55990  123.57420   70.63860
 6939.00000    0.12980   93.19100    8.59470   -9999.25    0.07880   -9999.25   -9999.25    2.59790   70.83260  121.21010   69.81320
 6939.50000    0.13020   94.96160    8.58510   -9999.25    0.09030   -9999.25   -9999.25    2.59910   70.67220  121.54590   69.48710
 6940.00000    0.13950   97.58080    8.60680   -9999.25    0.06240   -9999.25   -9999.25    2.60690   71.12400  124.39610   70.67230
 6940.50000    0.14850  100.57680    8.63000   -9999.25    0.03450   -9999.25   -9999.25    2.61570   72.00730  127.09460   72.27910
 6941.00000    0.15580  102.35770    8.64790   -9999.25    0.01750   -9999.25   -9999.25    2.61410   72.94830  129.33240   73.01710
 6941.50000    0.15500  101.54610    8.65200   -9999.25    0.01060   -9999.25   -9999.25    2.61180   73.42980  129.99590   73.01680
 6942.00000    0.15170  100.28790    8.65290   -9999.25    0.00750   -9999.25   -9999.25    2.61000   73.62420  130.16690   72.80930
 6942.50000    0.14830   99.03170    8.65360   -9999.25    0.01350   -9999.25   -9999.25    2.61670   73.36950  129.62690   72.07460
 6943.00000    0.14830   98.39540    8.65390   -9999.25    0.02410   -9999.25   -9999.25    2.62360   73.16640  128.77250   71.69890
 6943.50000    0.15140   99.75050    8.65410   -9999.25    0.03470   -9999.25   -9999.25    2.62600   73.33870  127.65040   71.94900
 6944.00000    0.15310  101.04280    8.65440   -9999.25    0.04520   -9999.25   -9999.25    2.62620   73.33110  126.61070   72.31960
 6944.50000    0.15200  100.68110    8.65460   -9999.25    0.05110   -9999.25   -9999.25    2.62580   72.79920  125.67580   72.87300
 6945.00000    0.14800   98.75630    8.65460   -9999.25    0.05130   -9999.25   -9999.25    2.62280   71.72840  124.74080   73.08050
 6945.50000    0.14140   96.80240    8.65180   -9999.25    0.04480   -9999.25   -9999.25    2.61930   71.09760  124.17160   72.25660
 6946.00000    0.13290   96.20700    8.64270   -9999.25    0.03820   -9999.25   -9999.25    2.61740   71.39340  123.89440   71.09230
 6946.50000    0.11440   94.11540    8.63060   -9999.25    0.03840   -9999.25   -9999.25    2.62260   71.37180  122.46340   70.11140
 6947.00000    0.09340   85.90150    8.61390   -9999.25    0.06010   -9999.25   -9999.25    2.63350   71.01760  120.93920   68.44470
 6947.50000    0.07660   72.95570    8.60410   -9999.25    0.07850   -9999.25   -9999.25    2.65260   70.45850  119.41500   66.39990
 6948.00000    0.06500   62.72370    8.59480   -9999.25    0.07450   -9999.25   -9999.25    2.65510   69.40780  117.79190   64.49790
 6948.50000    0.05420   57.60390    8.58850   -9999.25    0.02630   -9999.25   -9999.25    2.65330   66.78880  115.34990   62.96430
 6949.00000    0.05450   55.87800    8.58230   -9999.25   -0.00680   -9999.25   -9999.25    2.64180   65.11800  112.30150   62.92090
 6949.50000    0.06200   54.24770    8.58770   -9999.25   -0.00510   -9999.25   -9999.25    2.62660   64.37550  110.72750   62.79450
 6950.00000    0.07170   52.77030    8.59340   -9999.25    0.00980   -9999.25   -9999.25    2.60690   64.08670  110.53170   61.82240
 6950.50000    0.08140   52.78220    8.59910   -9999.25    0.04150   -9999.25   -9999.25    2.59130   64.01980  110.68070   63.43820
 6951.00000    0.11030   61.18630    8.60480   -9999.25    0.07440   -9999.25   -9999.25    2.57570   65.82480  112.99740   66.54980
 6951.50000    0.14120   77.41470    8.62600   -9999.25    0.10730   -9999.25   -9999.25    2.56940   67.75790  119.52530   70.27160
 6952.00000    0.16120   89.57020    8.65390   -9999.25    0.11620   -9999.25   -9999.25    2.57210   69.74390  126.84110   73.27160
 6952.50000    0.16740  100.03070    8.67660   -9999.25    0.08860   -9999.25   -9999.25    2.58760   71.77930  130.13880   74.64990
 6953.00000    0.16910  102.88960    8.69760   -9999.25    0.06090   -9999.25   -9999.25    2.60070   72.55860  131.71530   74.70350
 6953.50000    0.17010  103.24270    8.70970   -9999.25    0.05150   -9999.25   -9999.25    2.59740   72.74620  131.98340   75.93690
 6954.00000    0.15920  103.05460    8.69470   -9999.25    0.05220   -9999.25   -9999.25    2.58750   73.32190  131.95610   76.80200
 6954.50000    0.14920  101.97670    8.67960   -9999.25    0.06240   -9999.25   -9999.25    2.58610   73.98090  131.41430   75.13720
 6955.00000    0.13390  100.21600    8.66460   -9999.25    0.08340   -9999.25   -9999.25    2.59400   74.56200  130.87250   74.41700
 6955.50000    0.12380   97.96440    8.64960   -9999.25    0.09990   -9999.25   -9999.25    2.61040   73.93870  130.06660   73.51280
