~Version ---------------------------------------------------
VERS.   2.0 : CWLS log ASCII Standard -VERSION 2.0
WRAP.    NO : One line per depth step
DLM . SPACE : Column Data Section Delimiter
~Well ------------------------------------------------------
STRT .F                    2.0 : START DEPTH
STOP .F                 8821.0 : STOP DEPTH
STEP .F                    0.5 : STEP
NULL .                -9999.25 : NULL VALUE
COMP .                         : COMPANY
WELL .                         : WELL
FLD  .                         : FIELD
LOC  .                         : LOCATION
PROV .                         : PROVINCE
CNTY .                         : COUNTY
STAT .                         : STATE
CTRY .                         : COUNTRY
SRVC .                         : SERVICE COMPANY
DATE .                         : DATE
UWI  .                         : UNIQUE WELL ID
API  .                         : API NUMBER
SLAT .WGS84 0.7114496408056965 : SURFACE LATITUDE
SLON .WGS84  6.558043134729999 : SURFACE LONGITUDE
DATUM.F                2566.69 : DEPTH DATUM ELEV
~Curve Information -----------------------------------------
DEPT   .F     : 1 MEASURED DEPTH
PORS_LS.DEC   : LINEAR POROSITY FROM LIMESTONE
GRD    .GAPI  : GAMMA RAY FROM DENSITY LOG
CALD   .IN    : CALIPER FROM DENSITY LOG
PORZ_LS.DEC   : Z-DENSITY CORRECTED POROSITY LIMESTONE
ZCOR   .G/C3  : DENSITY CORRECTION
PE     .B/E   : PHOTO ELECTRIC CROSS SECTION
CNC_LS .DEC   : BOREHOLE SIZE CORRECTED COMPENSATED NEUTRON POROSITY (LIMESTONE)
ZDEN   .G/C3  : FORMATION BULK DENSITY
DTCO   .US/F  : DELTA-T COMPRESSIONAL
DTSM   .US/F  : DELTA-T SHEAR
DT     .US/F  : DELTA-T (INTERVAL TRANSIT TIME)
~Params ----------------------------------------------------
~Other -----------------------------------------------------
~ASCII -----------------------------------------------------
# ...
 7718.50000    0.10130   83.90590    8.99170    0.04020    0.21640    2.68800   -9999.25    2.67130   71.07200  118.90290   61.51090
 7719.00000    0.09520   81.49340    8.98050    0.03640    0.21120    2.74390   -9999.25    2.67040   71.79640  117.34100   51.78670
 7719.50000    0.09190   78.85160    8.98890    0.12450    0.18070    2.72420   -9999.25    2.39920   70.77690  111.62510   46.06110
 7720.00000    0.10460   75.85500    9.21040    0.20990    0.29160    2.69710   -9999.25    2.23830   67.84170  107.12220   45.42360
 7720.50000    0.11970   74.10960    9.60380    0.29720    0.45820    2.67010   -9999.25    2.15360   62.60770  100.79000   44.60060
 7721.00000    0.13970   80.37960   10.08610    0.29950    0.62870    2.64350   -9999.25    2.08060   58.08020   98.52850   43.74800
 7721.50000    0.16200   95.02560   10.54300    0.29920    0.61950    2.83140   -9999.25    2.10870   56.24540  100.78050   46.09870
 7722.00000    0.17900  110.95050   10.93150    0.29870    0.54880    3.16600   -9999.25    2.19270   57.02600  107.10080   51.08790
 7722.50000    0.19560  120.33970   11.21350    0.28610    0.47810    3.39710   -9999.25    2.29120   60.97490  121.06450   55.49080
 7723.00000    0.20320  121.38000   11.15100    0.22240    0.40740    3.13100   -9999.25    2.38970   68.59690  133.34060   53.91000
 7723.50000    0.20470  121.09720   10.81570    0.15890    0.33670    2.84000   -9999.25    2.46970   74.15150  135.49330   46.38940
 7724.00000    0.20140  121.26250   10.29280    0.14140    0.28580    2.61160   -9999.25    2.44930   75.41590  135.21080   41.57250
 7724.50000    0.19180  121.43350    9.77890    0.16390    0.24870    2.57140   -9999.25    2.39390   76.01110  135.49350   41.52970
 7725.00000    0.17800  120.35230    9.26580    0.19430    0.20610    2.49340   -9999.25    2.35130   76.99530  136.48640   42.30850
 7725.50000    0.15900  115.72360    9.00190    0.20510    0.15840    2.41740   -9999.25    2.33550   79.07650  136.80570   42.00310
 7726.00000    0.15340  108.62190    8.92010    0.20720    0.11140    2.40880   -9999.25    2.31810   79.65260  134.39990   41.24590
 7726.50000    0.15750  100.53660    8.87610    0.26100    0.08020    2.41680   -9999.25    2.17560   77.29740  129.33290   40.02220
 7727.00000    0.16390   99.81990    8.92070    0.29880    0.11750    2.44100   -9999.25    2.00020   73.95020  124.84280   39.30620
 7727.50000    0.16690  107.86570    9.07610    0.29980    0.26170    2.47680   -9999.25    2.00020   72.31760  122.54290   38.95250
 7728.00000    0.17260  116.19610    9.16870    0.29980    0.35030    2.65650   -9999.25    2.00020   70.81470  119.99140   44.24320
 7728.50000    0.17800  115.95150    9.15480    0.29980    0.31050    3.05020   -9999.25    2.00520   68.20010  118.65530   51.05180
 7729.00000    0.16750  110.66480    8.99890    0.29960    0.20190    3.44390   -9999.25    2.12100   67.77240  119.48840   55.87820
 7729.50000    0.14560  100.74100    8.86160    0.29920    0.18560    3.52540   -9999.25    2.20300   69.81510  122.21790   56.64180
 7730.00000    0.12690   90.13560    8.79040    0.26880    0.23000    3.42040   -9999.25    2.36470   72.43860  124.62310   55.98270
 7730.50000    0.11530   80.33580    8.75670    0.20960    0.19730    3.29690   -9999.25    2.43400   73.43860  126.20270   54.36210
 7731.00000    0.09950   72.81990    8.74970    0.14460    0.13690    3.17340   -9999.25    2.47910   71.32020  124.98000   51.61910
 7731.50000    0.08450   65.01030    8.74270    0.09960    0.05100    2.98970   -9999.25    2.52420   66.31880  121.97440   50.29810
 7732.00000    0.07770   58.61150    8.73980    0.09610    0.05130    2.69590   -9999.25    2.54030   62.65450  118.78400   49.35390
 7732.50000    0.07150   56.25010    8.74000    0.10600    0.05520    2.37780   -9999.25    2.52800   61.14010  116.79230   52.41900
 7733.00000    0.06900   56.17280    8.74070    0.10870    0.03860    2.20830   -9999.25    2.52540   62.11720  115.08370   59.60970
 7733.50000    0.06790   57.74450    8.74150    0.09960    0.01390    2.45860   -9999.25    2.55300   63.80010  112.26030   63.57240
 7734.00000    0.06400   58.90290    8.74270    0.08980    0.00160    2.71610   -9999.25    2.57210   65.15520  108.24270   63.52780
 7734.50000    0.05690   57.29840    8.74270    0.08100    0.00650    2.90430   -9999.25    2.57530   65.02590  105.82490   62.76830
 7735.00000    0.05340   53.34900    8.73490    0.07880    0.00450    2.95570   -9999.25    2.57300   64.85400  104.88010   60.77730
 7735.50000    0.06070   54.44770    8.74040    0.07960   -0.01470    3.01840   -9999.25    2.55080   64.34080  103.37530   59.99740
 7736.00000    0.07670   63.60500    8.74480    0.09120   -0.03760    3.08120   -9999.25    2.52820   63.82330  102.93880   61.78440
 7736.50000    0.09270   72.29740    8.74830    0.10590   -0.04360    3.11340   -9999.25    2.50560   62.37230  102.58790   64.97480
 7737.00000    0.09710   73.61560    8.75970    0.12070   -0.03030    2.96880   -9999.25    2.48170   63.15360  104.45760   68.56880
 7737.50000    0.09170   71.63000    8.77480    0.13480   -0.02220    2.84180   -9999.25    2.45660   66.60320  110.46240   70.98800
 7738.00000    0.08220   69.72190    8.77130    0.14820   -0.01770    2.82550   -9999.25    2.44040   68.98320  114.53940   70.98660
 7738.50000    0.07220   68.80550    8.75410    0.15770    0.01630    2.79600   -9999.25    2.44080   69.35040  115.84640   69.72970
 7739.00000    0.06490   66.41800    8.74190    0.15440    0.05390    2.72210   -9999.25    2.45310   68.38450  115.84380   67.61430
 7739.50000    0.06140   60.78980    8.74310    0.14130    0.02950    2.69400   -9999.25    2.47750   67.30050  114.07800   64.75360
 7740.00000    0.06170   55.07140    8.74500    0.12230   -0.00010    2.67600   -9999.25    2.50190   66.79420  112.14220   64.58290
 7740.50000    0.06630   55.00800    8.74700    0.11560   -0.00130    2.65730   -9999.25    2.51830   66.85420  110.09050   65.01470
 7741.00000    0.07230   57.19450    8.76670    0.11210    0.00860    2.63860   -9999.25    2.51510   67.31550  109.18570   65.45990
 7741.50000    0.07560   60.26400    8.77750    0.11530    0.01730    2.62300   -9999.25    2.51010   67.12500  109.61860   66.30080
 7742.00000    0.07440   63.41090    8.77330    0.11640    0.02570    2.61200   -9999.25    2.51190   66.56630  112.00310   67.02590
 7742.50000    0.07200   65.10390    8.75990    0.11400    0.02970    2.59430   -9999.25    2.51600   66.46630  115.11500   67.07020
 7743.00000    0.06560   63.27720    8.75940    0.11190    0.02080    2.58010   -9999.25    2.51850   67.00710  115.00140   66.54430
 7743.50000    0.05790   55.71380    8.75070    0.11150   -0.01120    2.57450   -9999.25    2.51830   66.96720  114.25120   65.65200
 7744.00000    0.05010   47.29990    8.75160    0.11190   -0.03460    2.57120   -9999.25    2.51820   66.24920  112.39420   64.82190
 7744.50000    0.04540   44.35140    8.75820    0.11210   -0.03390    2.56660   -9999.25    2.51800   65.33780  109.80340   63.88800
 7745.00000    0.04350   43.39260    8.75980    0.11230   -0.02340    2.55970   -9999.25    2.51780   64.62460  107.21250   62.82620
 7745.50000    0.04460   44.01590    8.75880    0.11230   -0.02040    2.54130   -9999.25    2.51720   63.64020  105.04400   62.47740
 7746.00000    0.04780   45.42060    8.74620    0.11240   -0.01690    2.49580   -9999.25    2.51580   63.27910  104.40630   62.84920
 7746.50000    0.05070   46.58850    8.74160    0.11430   -0.01810    2.44450   -9999.25    2.51280   63.91260  104.23110   62.98230
 7747.00000    0.05580   47.30250    8.74200    0.11880   -0.02260    2.42700   -9999.25    2.50330   64.92380  103.72100   62.89550
 7747.50000    0.06400   49.13210    8.74250    0.12350   -0.02860    2.42340   -9999.25    2.49370   64.56400  103.66220   63.49530
 7748.00000    0.07220   52.77650    8.75640    0.12710   -0.02380    2.57750   -9999.25    2.49040   63.90760  106.78690   64.54750
 7748.50000    0.07870   56.50700    8.78250    0.12850   -0.00960    2.71910   -9999.25    2.48930   65.42840  109.49580   65.64880
