~Version ---------------------------------------------------
VERS.   2.0 : CWLS log ASCII Standard -VERSION 2.0
WRAP.    NO : One line per depth step
DLM . SPACE : Column Data Section Delimiter
~Well ------------------------------------------------------
STRT .F                    2.0 : START DEPTH
STOP .F                 8821.0 : STOP DEPTH
STEP .F                    0.5 : STEP
NULL .                -9999.25 : NULL VALUE
COMP .                         : COMPANY
WELL .                         : WELL
FLD  .                         : FIELD
LOC  .                         : LOCATION
PROV .                         : PROVINCE
CNTY .                         : COUNTY
STAT .                         : STATE
CTRY .                         : COUNTRY
SRVC .                         : SERVICE COMPANY
DATE .                         : DATE
UWI  .                         : UNIQUE WELL ID
API  .                         : API NUMBER
SLAT .WGS84 0.7114496408056965 : SURFACE LATITUDE
SLON .WGS84  6.558043134729999 : SURFACE LONGITUDE
DATUM.F                2566.69 : DEPTH DATUM ELEV
~Curve Information -----------------------------------------
DEPT   .F     : 1 MEASURED DEPTH
PORS_LS.DEC   : LINEAR POROSITY FROM LIMESTONE
GRD    .GAPI  : GAMMA RAY FROM DENSITY LOG
CALD   .IN    : CALIPER FROM DENSITY LOG
PORZ_LS.DEC   : Z-DENSITY CORRECTED POROSITY LIMESTONE
ZCOR   .G/C3  : DENSITY CORRECTION
PE     .B/E   : PHOTO ELECTRIC CROSS SECTION
CNC_LS .DEC   : BOREHOLE SIZE CORRECTED COMPENSATED NEUTRON POROSITY (LIMESTONE)
ZDEN   .G/C3  : FORMATION BULK DENSITY
DTCO   .US/F  : DELTA-T COMPRESSIONAL
DTSM   .US/F  : DELTA-T SHEAR
DT     .US/F  : DELTA-T (INTERVAL TRANSIT TIME)
~Params ----------------------------------------------------
~Other -----------------------------------------------------
~ASCII -----------------------------------------------------
# ...
 8267.50000    0.05090   51.25600    8.46100    0.07300    0.06290    2.93160   -9999.25    2.56340   60.75340  102.62390   65.65450
 8268.00000    0.06760   69.47860    8.46830    0.09630    0.09090    2.92170   -9999.25    2.52620   65.91340  109.38540   68.59280
 8268.50000    0.08440   82.51600    8.47380    0.10350    0.15570    2.91180   -9999.25    2.52320   71.25400  118.12550   70.45770
 8269.00000    0.08930   89.06890    8.47340    0.11350    0.24050    2.90190   -9999.25    2.52860   72.90300  119.92080   70.68210
 8269.50000    0.08900   89.04850    8.47410    0.12230    0.33130    2.89200   -9999.25    2.55060   72.42840  120.05980   69.11170
 8270.00000    0.08320   85.79900    8.47480    0.10080    0.34080    2.88090   -9999.25    2.58410   70.88260  117.28520   67.57700
 8270.50000    0.07640   78.86730    8.47550    0.05220    0.26160    2.86730   -9999.25    2.64550   68.20710  113.55820   66.05740
 8271.00000    0.07120   70.26260    8.47610    0.03970    0.17940    2.85370   -9999.25    2.63460   65.52610  110.81100   64.12430
 8271.50000    0.06960   65.36920    8.47680    0.05060    0.11970    2.84010   -9999.25    2.61200   64.96390  110.65040   64.03390
 8272.00000    0.06800   65.96790    8.48060    0.06450    0.08840    2.83530   -9999.25    2.58930   65.58300  111.49670   66.07870
 8272.50000    0.06690   68.74840    8.48110    0.07680    0.08630    2.90710   -9999.25    2.56730   66.85310  113.69120   67.33750
 8273.00000    0.06740   70.37910    8.48730    0.08590    0.09510    3.02000   -9999.25    2.55820   67.91970  116.99460   68.09710
 8273.50000    0.06850   70.91300    8.51800    0.08930    0.08840    3.02580   -9999.25    2.54910   69.25100  119.30550   68.81550
 8274.00000    0.06820   72.15620    8.55520    0.09260    0.04940    2.88540   -9999.25    2.54520   70.59310  120.66080   68.92930
 8274.50000    0.06100   73.68720    8.58290    0.09550    0.01580    2.74530   -9999.25    2.54480   71.65590  120.63730   68.39410
 8275.00000    0.05390   73.75360    8.62420    0.09510    0.01000    2.62280   -9999.25    2.54970   70.02510  119.85350   67.45200
 8275.50000    0.04900   68.83890    8.63970    0.09160    0.01740    2.60730   -9999.25    2.55590   66.47170  118.70810   66.68490
 8276.00000    0.04680   60.94840    8.63080    0.08810    0.02060    2.61520   -9999.25    2.56130   65.87440  116.92890   66.38130
 8276.50000    0.04590   55.37030    8.60890    0.08680    0.02210    2.62120   -9999.25    2.56150   66.51070  113.95800   66.20590
 8277.00000    0.04270   53.38250    8.58380    0.09030    0.02320    2.62980   -9999.25    2.55390   67.67020  112.15900   66.03370
 8277.50000    0.03960   51.16190    8.56640    0.09640    0.02170    2.62540   -9999.25    2.54190   68.49580  111.77800   65.91190
 8278.00000    0.03790   48.81720    8.56370    0.10180    0.01610    2.62010   -9999.25    2.53000   67.82410  111.86930   66.01370
 8278.50000    0.03860   47.68510    8.56330    0.10550    0.00930    2.62420   -9999.25    2.52910   66.71820  111.07690   66.22700
 8279.00000    0.03980   48.12160    8.56260    0.10580    0.00900    2.64820   -9999.25    2.52860   66.42800  109.04590   66.85190
 8279.50000    0.03950   48.23470    8.55680    0.10390    0.01250    2.61560   -9999.25    2.53360   66.27130  106.76830   66.90160
 8280.00000    0.03520   47.86110    8.55630    0.10140    0.01990    2.58140   -9999.25    2.54460   65.65050  105.01810   65.62290
 8280.50000    0.03060   47.06640    8.56300    0.09420    0.02870    2.54720   -9999.25    2.57090   64.42920  103.42550   64.28010
 8281.00000    0.02610   45.03930    8.56630    0.07860    0.04120    2.49320   -9999.25    2.60360   62.50260  100.21930   63.15690
 8281.50000    0.02280   42.06820    8.56770    0.05690    0.05040    2.57330   -9999.25    2.63620   61.44050   97.25910   60.48760
 8282.00000    0.02230   38.32580    8.54070    0.03660    0.05290    2.74500   -9999.25    2.65250   61.23410   96.52890   59.27420
 8282.50000    0.02520   36.99710    8.51060    0.03890    0.05330    2.98500   -9999.25    2.65350   61.18410   96.46530   60.98620
 8283.00000    0.02950   38.44010    8.56690    0.05170    0.05540    3.01130   -9999.25    2.63250   61.28440   97.55990   63.17550
 8283.50000    0.03570   43.75980    8.62850    0.06820    0.05610    2.83540   -9999.25    2.58290   61.86020  101.45290   64.75860
 8284.00000    0.05030   49.29590    8.65990    0.08710    0.04850    2.66500   -9999.25    2.53330   62.38030  105.80340   66.02440
 8284.50000    0.06490   59.47300    8.68550    0.10590    0.04200    2.64210   -9999.25    2.48380   62.39700  108.28610   66.92570
 8285.00000    0.07950   72.29010    8.72090    0.14730    0.07570    2.66470   -9999.25    2.43420   62.05200  109.97860   68.44380
 8285.50000    0.08960   89.45280    8.77000    0.20160    0.14260    2.73570   -9999.25    2.27890   62.53620  112.15250   70.43680
 8286.00000    0.09020   98.45220    8.77530    0.29590    0.21290    2.75600   -9999.25    2.14380   63.05740  117.04140   70.90630
 8286.50000    0.08410   99.81750    8.75780    0.29910    0.22580    2.78140   -9999.25    2.09980   64.95290  119.27260   70.97270
 8287.00000    0.07790   97.89740    8.74780    0.29940    0.18590    2.80680   -9999.25    2.10460   65.56500  120.46090   69.69110
 8287.50000    0.07670   94.14300    8.77100    0.28730    0.11870    2.83220   -9999.25    2.22640   65.15650  120.14830   67.54620
 8288.00000    0.08560   92.65020    8.84980    0.22010    0.06110    2.85750   -9999.25    2.38140   63.94280  119.83560   67.78420
 8288.50000    0.09590   93.15470    8.95260    0.19300    0.08190    2.86340   -9999.25    2.38280   61.46270  119.52300   69.19870
 8289.00000    0.10460   96.16010    9.10810    0.22190    0.16650    2.75420   -9999.25    2.30090   60.83480  116.90330   69.69650
 8289.50000    0.10570   97.18500    9.36170    0.25620    0.27480    2.61370   -9999.25    2.26900   62.44620  116.24530   69.97060
 8290.00000    0.10380   96.16250    9.67840    0.25120    0.35860    2.59280   -9999.25    2.28280   64.49870  117.91920   70.03820
 8290.50000    0.10130   94.95680    9.79600    0.24030    0.40420    2.78190   -9999.25    2.30100   66.55700  119.03910   70.09230
 8291.00000    0.10030   93.94120    9.61670    0.23800    0.43380    2.97100   -9999.25    2.31910   67.98290  119.47690   70.40410
 8291.50000    0.09760   92.31490    9.39710    0.21850    0.46770    3.16010   -9999.25    2.43840   69.16360  119.55470   70.82360
 8292.00000    0.09030   90.35830    9.18490    0.15080    0.53120    3.19030   -9999.25    2.53280   71.61350  119.27520   70.17510
 8292.50000    0.08310   87.74420    9.19600    0.07760    0.60930    3.15290   -9999.25    2.62990   72.63440  118.41820   68.38780
 8293.00000    0.07740   83.43540    9.21390    0.02590    0.62140    3.15780   -9999.25    2.67780   71.46780  115.74690   65.75210
 8293.50000    0.07340   75.77310    9.07210    0.02900    0.52340    3.16270   -9999.25    2.61780   69.45350  111.93810   62.43020
 8294.00000    0.06920   69.43580    8.80090    0.07340    0.30590    3.16760   -9999.25    2.53070   67.18530  111.77440   63.48330
 8294.50000    0.06170   67.91390    8.54970    0.11790    0.17080    3.06300   -9999.25    2.48390   63.42750  113.88880   65.61660
 8295.00000    0.05420   66.72930    8.48280    0.13170    0.13370    2.85680   -9999.25    2.48310   61.79190  115.03140   65.17390
 8295.50000    0.04650   59.31840    8.47490    0.12530    0.12310    2.60800   -9999.25    2.53440   61.59750  113.53050   63.02510
 8296.00000    0.03840   48.33470    8.47490    0.10080    0.10170    2.48670   -9999.25    2.61060   61.56200  109.64060   60.94210
 8296.50000    0.03040   41.47470    8.47570    0.05450    0.08090    2.47960   -9999.25    2.66630   60.87910  102.22140   58.71140
 8297.00000    0.02240   38.69260    8.47200    0.01940    0.06510    2.69800   -9999.25    2.67010   59.17570   97.88780   56.69690
 8297.50000    0.02090   39.14210    8.46740    0.02850    0.03480    3.09320   -9999.25    2.65960   57.92290   96.18300   56.27010
