~Version ---------------------------------------------------
VERS.   2.0 : CWLS log ASCII Standard -VERSION 2.0
WRAP.    NO : One line per depth step
DLM . SPACE : Column Data Section Delimiter
~Well ------------------------------------------------------
STRT .F                    2.0 : START DEPTH
STOP .F                 8821.0 : STOP DEPTH
STEP .F                    0.5 : STEP
NULL .                -9999.25 : NULL VALUE
COMP .                         : COMPANY
WELL .                         : WELL
FLD  .                         : FIELD
LOC  .                         : LOCATION
PROV .                         : PROVINCE
CNTY .                         : COUNTY
STAT .                         : STATE
CTRY .                         : COUNTRY
SRVC .                         : SERVICE COMPANY
DATE .                         : DATE
UWI  .                         : UNIQUE WELL ID
API  .                         : API NUMBER
SLAT .WGS84 0.7114496408056965 : SURFACE LATITUDE
SLON .WGS84  6.558043134729999 : SURFACE LONGITUDE
DATUM.F                2566.69 : DEPTH DATUM ELEV
~Curve Information -----------------------------------------
DEPT   .F     : 1 MEASURED DEPTH
PORS_LS.DEC   : LINEAR POROSITY FROM LIMESTONE
GRD    .GAPI  : GAMMA RAY FROM DENSITY LOG
CALD   .IN    : CALIPER FROM DENSITY LOG
PORZ_LS.DEC   : Z-DENSITY CORRECTED POROSITY LIMESTONE
ZCOR   .G/C3  : DENSITY CORRECTION
PE     .B/E   : PHOTO ELECTRIC CROSS SECTION
CNC_LS .DEC   : BOREHOLE SIZE CORRECTED COMPENSATED NEUTRON POROSITY (LIMESTONE)
ZDEN   .G/C3  : FORMATION BULK DENSITY
DTCO   .US/F  : DELTA-T COMPRESSIONAL
DTSM   .US/F  : DELTA-T SHEAR
DT     .US/F  : DELTA-T (INTERVAL TRANSIT TIME)
~Params ----------------------------------------------------
~Other -----------------------------------------------------
~ASCII -----------------------------------------------------
# ...
 8511.50000    0.15660  126.26470   11.06080   -9999.25    0.36340    3.28510   -9999.25    2.05630   76.32850  152.63740   80.22170
 8512.00000    0.16410  126.88390   11.04350   -9999.25    0.35670    3.42860   -9999.25    2.05110   75.92650  153.76770   79.55610
 8512.50000    0.17420  129.06350   10.89800   -9999.25    0.31180    3.51810   -9999.25    2.01890   74.93150  154.89810   79.47920
 8513.00000    0.18360  130.54230   10.80090   -9999.25    0.25960    3.41130   -9999.25    1.99790   74.17700  155.24610   79.26270
 8513.50000    0.18080  129.53050   10.95500   -9999.25    0.27870    3.21260   -9999.25    2.00730   74.15050  154.23880   78.65450
 8514.00000    0.17620  126.22520   11.24220   -9999.25    0.38930    2.98930   -9999.25    2.04910   75.11930  153.22320   77.75380
 8514.50000    0.17570  124.10210   11.48840   -9999.25    0.50230    3.11160   -9999.25    2.08530   75.42990  151.41690   77.01480
 8515.00000    0.17660  123.68130   11.68270   -9999.25    0.55560    3.25500   -9999.25    2.10990   74.69350  148.81760   77.01480
 8515.50000    0.17800  124.10430   11.82980    0.29970    0.47420    3.27720   -9999.25    2.20520   74.69920  150.77480   77.79610
 8516.00000    0.17900  125.81350   11.96820    0.27510    0.37690    3.20350   -9999.25    2.34150   77.04580  156.07810   77.61170
 8516.50000    0.18020  128.20160   11.91570    0.21760    0.37980    3.01290   -9999.25    2.38370   79.51460  163.30700   77.02230
 8517.00000    0.18180  128.81090   11.75730    0.19610    0.42100    2.82220   -9999.25    2.38550   79.74440  159.73650   76.30510
 8517.50000    0.18570  127.45920   11.56590    0.18960    0.45070    2.76890   -9999.25    2.35490   76.51290  153.20820   75.69590
 8518.00000    0.18970  126.00760   11.40940    0.22410    0.47550    2.88760   -9999.25    2.27420   74.38750  153.49130   76.26590
 8518.50000    0.19590  125.35210   11.44320    0.26920    0.47540    3.00640   -9999.25    2.15930   74.18390  156.46500   78.62130
 8519.00000    0.20160  126.78990   11.56240    0.30140    0.43800    3.00760   -9999.25    2.08340   76.25540  160.32570   80.85540
 8519.50000    0.20660  130.04490   11.75500    0.30130    0.36150    2.99380   -9999.25    2.05910   78.25960  163.68330   82.33780
 8520.00000    0.21200  134.01380   11.66790    0.30110    0.36820    2.98400   -9999.25    2.05510   78.73070  165.09520   82.89560
 8520.50000    0.21970  135.78470   11.47630    0.30100    0.40880    3.00290   -9999.25    2.06380   78.97110  166.40450   82.96030
 8521.00000    0.22490  132.91670   11.27400    0.30080    0.44940    3.17560   -9999.25    2.07950   78.55710  166.98050   82.11090
 8521.50000    0.21190  128.12210   11.26810    0.30070    0.46210    3.39960   -9999.25    2.09520   78.14310  166.44530   80.81290
 8522.00000    0.19180  126.37610   11.36190    0.30060    0.43630    3.46890   -9999.25    2.15900   77.72910  165.30450   80.94120
 8522.50000    0.17420  124.64730   11.48740    0.26140    0.40140    3.47030   -9999.25    2.32880   77.30630  162.28290   81.56580
 8523.00000    0.16770  121.77200   11.57420    0.20400    0.37980    3.32300   -9999.25    2.41100   75.94690  159.20730   80.86160
 8523.50000    0.15890  117.59070   11.61560    0.15370    0.38200    3.16870   -9999.25    2.45940   74.07550  154.27820   79.88280
 8524.00000    0.14740  112.73990   11.63250    0.15280    0.40600    3.01440   -9999.25    2.44750   72.89850  144.39350   78.68630
 8524.50000    0.14520  108.57490   11.61630    0.16630    0.45800    2.93050   -9999.25    2.41560   71.45150  124.41550   77.97360
 8525.00000    0.14420  105.27720   11.60050    0.17380    0.51000    2.88780   -9999.25    2.41100   68.98710  113.89170   78.47790
 8525.50000    0.15670  108.16170   11.62610    0.16950    0.52290    2.86880   -9999.25    2.40950   68.74850  110.79070   79.00360
 8526.00000    0.17060  112.73600   11.70850    0.17730    0.51960    2.81580   -9999.25    2.40780   70.02560  111.18630   77.53340
 8526.50000    0.17920  116.53250   11.79990    0.19260    0.51650    2.76550   -9999.25    2.40070   72.89540  114.63500   69.65060
 8527.00000    0.18040  119.82790   11.76290    0.20210    0.52670    2.76540   -9999.25    2.36460   76.62760  127.23680   58.76230
 8527.50000    0.17790  120.79580   11.61320    0.18370    0.61200    2.88350   -9999.25    2.38440   78.81360  139.23320   54.73310
 8528.00000    0.17430  120.69290   11.53210    0.15530    0.67430    3.11630   -9999.25    2.44670   79.31700  141.63200   57.40860
 8528.50000    0.18000  120.85280   11.54910    0.13760    0.65850    3.15600   -9999.25    2.47610   79.40090  144.03080   61.63840
 8529.00000    0.18940  122.62230   11.52280    0.15830    0.59950    3.17090   -9999.25    2.47600   79.12420  147.77790   63.74670
 8529.50000    0.19110  124.25380   11.28030    0.18970    0.54040    3.23270   -9999.25    2.44220   77.77430  149.39200   62.68480
 8530.00000    0.19330  123.14280   10.96860    0.27980    0.48140    3.29680   -9999.25    2.35630   74.35850  140.71280   60.69150
 8530.50000    0.20230  120.68970   10.93960    0.29990    0.42980    3.35270   -9999.25    2.13810   70.03180  130.30610   59.54800
 8531.00000    0.20500  119.32100   11.24810    0.30010    0.43750    3.35880   -9999.25    2.04640   68.96260  120.96290   55.91910
 8531.50000    0.19300  119.35960   11.62960    0.30000    0.46360    3.42160   -9999.25    2.00020   71.56670  118.61010   46.34030
 8532.00000    0.17940  118.13760   12.03780    0.29990    0.47480    3.54570   -9999.25    2.00030   74.48910  121.04460   34.28240
 8532.50000    0.17520  114.72180   12.19290    0.29990    0.46980    3.75860   -9999.25    2.00030   77.25370  125.91030   30.24540
 8533.00000    0.17470  111.13480   12.12110    0.29980    0.38560    3.96730   -9999.25    2.00030   79.47470  132.28740   33.67030
 8533.50000    0.16260  108.79950   11.57050    0.29980    0.22150    3.93340   -9999.25    2.00030   79.17910  136.12820   37.15600
 8534.00000    0.14240  108.88980   10.82890    0.29970    0.05640    3.63350   -9999.25    2.00030   77.78620  138.32380   37.31010
 8534.50000    0.13140  109.30770   10.14220    0.29960   -0.02730    3.27260   -9999.25    2.00030   76.18670  139.68580   34.33770
 8535.00000    0.12620  110.60290    9.69350    0.29960    0.03900    2.95640   -9999.25    2.00030   75.75620  139.76840   30.88350
 8535.50000    0.13220  110.71770    9.56550    0.29950    0.12020    2.89260   -9999.25    2.00070   74.98680  138.77420   29.75000
 8536.00000    0.13840  110.63660    9.48280    0.29950    0.20140    3.00040   -9999.25    2.05060   73.59910  136.94730   29.50050
 8536.50000    0.13940  110.65450    9.44470    0.29940    0.26430    3.07890   -9999.25    2.13700   72.84590  136.56550   28.13670
 8537.00000    0.14060  111.27180    9.45170    0.29510    0.32000    3.04900   -9999.25    2.20380   73.38060  139.95840   28.08410
 8537.50000    0.14180  111.85400    9.57410    0.27100    0.36360    2.96420   -9999.25    2.27070   72.57200  143.58200   30.44900
 8538.00000    0.14300  112.83120    9.67440    0.24200    0.39920    2.99420   -9999.25    2.34400   71.24880  144.61100   32.42730
 8538.50000    0.14570  114.25930    9.73880    0.21380    0.42410    3.17630   -9999.25    2.41430   70.55180  145.66160   33.45420
 8539.00000    0.15140  115.24660    9.77980    0.17820    0.49910    3.34140   -9999.25    2.41500   71.06380  147.64280   31.02810
 8539.50000    0.15840  116.18220    9.80930    0.16850    0.54340    3.41570   -9999.25    2.38490   71.14980  148.99960   26.94600
 8540.00000    0.16380  117.58840    9.96760    0.20940    0.49360    3.49000   -9999.25    2.34840   70.18150  145.59510   46.27800
 8540.50000    0.16390  119.30880   10.25230    0.22770    0.44350    3.56430   -9999.25    2.33520   69.41310  142.87290   73.11070
 8541.00000    0.16290  119.54690   10.66560    0.22110    0.42050    3.58310   -9999.25    2.35890   70.71690  144.71380   87.48000
 8541.50000    0.16130  119.57440   10.98000    0.20220    0.45050    3.58660   -9999.25    2.39550   74.26650  147.17650   89.91870
