~Version ---------------------------------------------------
VERS.   2.0 : CWLS log ASCII Standard -VERSION 2.0
WRAP.    NO : One line per depth step
DLM . SPACE : Column Data Section Delimiter
~Well ------------------------------------------------------
STRT .F                    2.0 : START DEPTH
STOP .F                 8821.0 : STOP DEPTH
STEP .F                    0.5 : STEP
NULL .                -9999.25 : NULL VALUE
COMP .                         : COMPANY
WELL .                         : WELL
FLD  .                         : FIELD
LOC  .                         : LOCATION
PROV .                         : PROVINCE
CNTY .                         : COUNTY
STAT .                         : STATE
CTRY .                         : COUNTRY
SRVC .                         : SERVICE COMPANY
DATE .                         : DATE
UWI  .                         : UNIQUE WELL ID
API  .                         : API NUMBER
SLAT .WGS84 0.7114496408056965 : SURFACE LATITUDE
SLON .WGS84  6.558043134729999 : SURFACE LONGITUDE
DATUM.F                2566.69 : DEPTH DATUM ELEV
~Curve Information -----------------------------------------
DEPT   .F     : 1 MEASURED DEPTH
PORS_LS.DEC   : LINEAR POROSITY FROM LIMESTONE
GRD    .GAPI  : GAMMA RAY FROM DENSITY LOG
CALD   .IN    : CALIPER FROM DENSITY LOG
PORZ_LS.DEC   : Z-DENSITY CORRECTED POROSITY LIMESTONE
ZCOR   .G/C3  : DENSITY CORRECTION
PE     .B/E   : PHOTO ELECTRIC CROSS SECTION
CNC_LS .DEC   : BOREHOLE SIZE CORRECTED COMPENSATED NEUTRON POROSITY (LIMESTONE)
ZDEN   .G/C3  : FORMATION BULK DENSITY
DTCO   .US/F  : DELTA-T COMPRESSIONAL
DTSM   .US/F  : DELTA-T SHEAR
DT     .US/F  : DELTA-T (INTERVAL TRANSIT TIME)
~Params ----------------------------------------------------
~Other -----------------------------------------------------
~ASCII -----------------------------------------------------
# ...
 4790.50000    0.03490   19.72800    8.28980   -9999.25    0.02730   -9999.25   -9999.25    2.63280   59.98890  111.00840   52.53510
 4791.00000    0.03140   19.81100    8.27350   -9999.25    0.02510   -9999.25   -9999.25    2.62800   58.11660  109.90660   53.06050
 4791.50000    0.02950   19.38530    8.26750   -9999.25    0.02180   -9999.25   -9999.25    2.62200   57.09010  108.89470   53.72720
 4792.00000    0.02790   18.80050    8.26150   -9999.25    0.01360   -9999.25   -9999.25    2.61910   56.31260  108.16670   53.84110
 4792.50000    0.02520   19.07140    8.25550   -9999.25    0.00290   -9999.25   -9999.25    2.63030   55.48490  107.33340   52.31260
 4793.00000    0.02270   19.73440    8.24960   -9999.25   -0.00760   -9999.25   -9999.25    2.65910   55.08850  107.18740   52.00650
 4793.50000    0.02020   20.08280    8.24360   -9999.25   -0.01800   -9999.25   -9999.25    2.72240   55.04830  107.04150   51.83370
 4794.00000    0.01910   20.15410    8.23770   -9999.25   -0.02850   -9999.25   -9999.25    2.74510   55.26310  106.89550   53.42800
 4794.50000    0.01890   20.34700    8.23170   -9999.25   -0.03800   -9999.25   -9999.25    2.72330   55.45050  106.74950   58.27940
 4795.00000    0.02090   21.99450    8.24020   -9999.25   -0.03070   -9999.25   -9999.25    2.68520   56.09970  106.60360   59.26030
 4795.50000    0.02410   26.31060    8.25300   -9999.25   -0.01460   -9999.25   -9999.25    2.64720   56.92510  106.76000   57.79520
 4796.00000    0.02800   32.35110    8.26580   -9999.25    0.00150   -9999.25   -9999.25    2.60920   59.11540  109.87750   56.94960
 4796.50000    0.05160   43.87820    8.27850   -9999.25    0.01750   -9999.25   -9999.25    2.57790   62.71040  115.64510   58.31060
 4797.00000    0.07950   53.30540    8.29130   -9999.25    0.01770   -9999.25   -9999.25    2.57540   66.16120  121.40090   65.40640
 4797.50000    0.10990   62.20300    8.30410   -9999.25    0.01460   -9999.25   -9999.25    2.57520   67.99190  126.14310   73.83470
 4798.00000    0.13240   75.72930    8.31680   -9999.25    0.00990   -9999.25   -9999.25    2.57740   69.61360  129.59550   79.75850
 4798.50000    0.14820   83.63750    8.32960   -9999.25    0.00530   -9999.25   -9999.25    2.58240   72.43830  133.48070   79.45420
 4799.00000    0.16410   88.62990    8.34240   -9999.25    0.00060   -9999.25   -9999.25    2.58910   75.25890  137.49100   77.35210
 4799.50000    0.16770   89.22320    8.34840   -9999.25   -0.00220   -9999.25   -9999.25    2.59100   76.51150  138.56010   75.73070
 4800.00000    0.16770   88.82180    8.35110   -9999.25   -0.00290   -9999.25   -9999.25    2.58890   75.79340  137.01560   75.92770
 4800.50000    0.16670   87.65090    8.35380   -9999.25   -0.00330   -9999.25   -9999.25    2.58650   74.68380  134.92190   75.78200
 4801.00000    0.16120   86.33270    8.34700   -9999.25   -0.00300   -9999.25   -9999.25    2.58570   74.08420  132.82820   73.77710
 4801.50000    0.15180   85.01450    8.33970   -9999.25   -0.00270   -9999.25   -9999.25    2.58890   73.94750  132.82060   72.30770
 4802.00000    0.14240   82.85440    8.33240   -9999.25   -0.00250   -9999.25   -9999.25    2.59820   73.69470  133.04380   71.92750
 4802.50000    0.13310   81.71190    8.32510   -9999.25   -0.00220   -9999.25   -9999.25    2.60790   72.94760  131.89660   70.86570
 4803.00000    0.12370   81.41070    8.31780   -9999.25   -0.00200   -9999.25   -9999.25    2.61240   72.27570  130.74950   69.20290
 4803.50000    0.11430   80.62890    8.31450   -9999.25   -0.00670   -9999.25   -9999.25    2.61330   71.42830  129.60240   68.23350
 4804.00000    0.11410   75.30110    8.31460   -9999.25   -0.01150   -9999.25   -9999.25    2.61390   70.73870  128.70920   67.64180
 4804.50000    0.11960   73.52730    8.31440   -9999.25   -0.01590   -9999.25   -9999.25    2.61330   70.05580  127.48430   68.26860
 4805.00000    0.13160   75.42420    8.31420   -9999.25   -0.01450   -9999.25   -9999.25    2.60820   69.71330  126.43130   70.16650
 4805.50000    0.14630   79.85150    8.31370   -9999.25   -0.01050   -9999.25   -9999.25    2.59960   69.20840  125.37820   71.58670
 4806.00000    0.16190   84.37780    8.31140   -9999.25   -0.00860   -9999.25   -9999.25    2.59070   68.98920  124.88290   73.25890
 4806.50000    0.17550   88.06130    8.30920   -9999.25   -0.01010   -9999.25   -9999.25    2.58610   69.08290  125.44770   74.79490
 4807.00000    0.18790   90.19440    8.30940   -9999.25   -0.01150   -9999.25   -9999.25    2.58730   69.33190  127.37580   75.34200
 4807.50000    0.19070   92.19120    8.31760   -9999.25   -0.01240   -9999.25   -9999.25    2.59080   70.13860  129.96830   76.43740
 4808.00000    0.19170   94.46450    8.32190   -9999.25   -0.01110   -9999.25   -9999.25    2.59500   72.38620  134.86670   78.12090
 4808.50000    0.19310   97.01020    8.32260   -9999.25   -0.00420   -9999.25   -9999.25    2.59920   74.63920  137.98550   77.80930
 4809.00000    0.19820   99.62120    8.31630   -9999.25    0.00110   -9999.25   -9999.25    2.60300   75.74920  137.67790   77.72190
 4809.50000    0.20660  102.26600    8.30790   -9999.25    0.00110   -9999.25   -9999.25    2.60110   76.22840  137.97940   78.32580
 4810.00000    0.20890  104.91090    8.30280   -9999.25   -0.00670   -9999.25   -9999.25    2.59880   75.25420  137.11990   77.81420
 4810.50000    0.20580  105.87870    8.29770   -9999.25   -0.01540   -9999.25   -9999.25    2.59850   73.83460  134.51840   76.09370
 4811.00000    0.19020  100.23460    8.30050   -9999.25   -0.01360   -9999.25   -9999.25    2.60270   71.79900  130.99290   74.00640
 4811.50000    0.17270   92.12900    8.30390   -9999.25   -0.00430   -9999.25   -9999.25    2.60820   69.76350  127.55900   72.10220
 4812.00000    0.15050   78.75830    8.30080   -9999.25    0.00490   -9999.25   -9999.25    2.60750   68.64930  126.11990   71.35940
 4812.50000    0.15070   79.25190    8.29770   -9999.25    0.01410   -9999.25   -9999.25    2.59980   67.88110  125.86200   73.58110
 4813.00000    0.16070   83.24950    8.29460   -9999.25    0.01610   -9999.25   -9999.25    2.59220   67.51600  127.51550   74.75980
 4813.50000    0.17250   87.50740    8.29150   -9999.25    0.01190   -9999.25   -9999.25    2.58960   68.04800  129.15530   72.17760
 4814.00000    0.18350   91.54350    8.28840   -9999.25    0.00830   -9999.25   -9999.25    2.58910   69.63750  130.28410   71.49760
 4814.50000    0.19390   93.07590    8.28530   -9999.25    0.00720   -9999.25   -9999.25    2.58880   71.23670  130.91910   74.84810
 4815.00000    0.19210   96.04560    8.28220   -9999.25    0.00770   -9999.25   -9999.25    2.58940   72.25860  130.97960   76.79270
 4815.50000    0.18460   96.80880    8.27910   -9999.25    0.00840   -9999.25   -9999.25    2.59270   72.48730  131.04010   76.59700
 4816.00000    0.15650   94.93500    8.27600   -9999.25    0.00900   -9999.25   -9999.25    2.59800   71.72800  129.52660   71.03480
 4816.50000    0.12260   89.27670    8.27290   -9999.25    0.00960   -9999.25   -9999.25    2.61820   68.16430  123.09520   63.40010
 4817.00000    0.07670   78.14100    8.26980   -9999.25    0.01010   -9999.25   -9999.25    2.65570   63.61770  114.36250   59.46690
 4817.50000    0.04470   65.22090    8.26670   -9999.25    0.00560   -9999.25   -9999.25    2.69330   59.13970  106.61130   58.67020
 4818.00000    0.02320   52.01250    8.26360   -9999.25   -0.00820   -9999.25   -9999.25    2.71090   54.92980  101.16920   54.57910
 4818.50000    0.02410   41.37580    8.26050   -9999.25   -0.02200   -9999.25   -9999.25    2.71140   52.22950   97.98030   53.48990
 4819.00000    0.03870   38.03570    8.25740   -9999.25   -0.03590   -9999.25   -9999.25    2.70970   52.47380  100.66310   57.42270
 4819.50000    0.05480   37.53400    8.25470   -9999.25   -0.03900   -9999.25   -9999.25    2.68960   54.41910  105.89320   61.66050
 4820.00000    0.07090   49.72210    8.25480   -9999.25   -0.03160   -9999.25   -9999.25    2.65150   57.63310  112.59650   66.26160
 4820.50000    0.10240   77.14430    8.25560   -9999.25   -0.02350   -9999.25   -9999.25    2.61330   61.55130  119.13070   68.78400
