~Version ---------------------------------------------------
VERS.   2.0 : CWLS log ASCII Standard -VERSION 2.0
WRAP.    NO : One line per depth step
DLM . SPACE : Column Data Section Delimiter
~Well ------------------------------------------------------
STRT .F                    2.0 : START DEPTH
STOP .F                 8821.0 : STOP DEPTH
STEP .F                    0.5 : STEP
NULL .                -9999.25 : NULL VALUE
COMP .                         : COMPANY
WELL .                         : WELL
FLD  .                         : FIELD
LOC  .                         : LOCATION
PROV .                         : PROVINCE
CNTY .                         : COUNTY
STAT .                         : STATE
CTRY .                         : COUNTRY
SRVC .                         : SERVICE COMPANY
DATE .                         : DATE
UWI  .                         : UNIQUE WELL ID
API  .                         : API NUMBER
SLAT .WGS84 0.7114496408056965 : SURFACE LATITUDE
SLON .WGS84  6.558043134729999 : SURFACE LONGITUDE
DATUM.F                2566.69 : DEPTH DATUM ELEV
~Curve Information -----------------------------------------
DEPT   .F     : 1 MEASURED DEPTH
PORS_LS.DEC   : LINEAR POROSITY FROM LIMESTONE
GRD    .GAPI  : GAMMA RAY FROM DENSITY LOG
CALD   .IN    : CALIPER FROM DENSITY LOG
PORZ_LS.DEC   : Z-DENSITY CORRECTED POROSITY LIMESTONE
ZCOR   .G/C3  : DENSITY CORRECTION
PE     .B/E   : PHOTO ELECTRIC CROSS SECTION
CNC_LS .DEC   : BOREHOLE SIZE CORRECTED COMPENSATED NEUTRON POROSITY (LIMESTONE)
ZDEN   .G/C3  : FORMATION BULK DENSITY
DTCO   .US/F  : DELTA-T COMPRESSIONAL
DTSM   .US/F  : DELTA-T SHEAR
DT     .US/F  : DELTA-T (INTERVAL TRANSIT TIME)
~Params ----------------------------------------------------
~Other -----------------------------------------------------
~ASCII -----------------------------------------------------
# ...
 7444.00000    0.11790   85.20980    9.83890    0.24910    0.26950    2.73580   -9999.25    2.28640   62.94040  113.79510   68.37740
 7444.50000    0.11300   88.48650    9.81030    0.24430    0.22930    2.94220   -9999.25    2.28790   66.54420  123.11210   68.10430
 7445.00000    0.09600   82.15770    9.65800    0.24970    0.24770    3.14090   -9999.25    2.29190   68.69330  125.77970   66.90070
 7445.50000    0.07810   66.66130    9.24560    0.22710    0.19960    3.33260   -9999.25    2.36300   70.76080  128.06630   65.93940
 7446.00000    0.05890   53.51300    8.94110    0.16570    0.09910    3.52430   -9999.25    2.48270   71.03710  126.65830   65.12510
 7446.50000    0.04390   46.89560    8.78000    0.10430   -0.00010    3.64870   -9999.25    2.59020   69.01560  117.69430   62.45670
 7447.00000    0.03950   46.00840    8.74660    0.04860   -0.01240    3.56440   -9999.25    2.64780   64.12790  104.97760   58.57560
 7447.50000    0.04850   49.51330    8.75490    0.04690   -0.00230    3.30970   -9999.25    2.63200   60.36860   97.92210   57.01090
 7448.00000    0.06760   59.32560    8.77670    0.05760    0.01950    3.07640   -9999.25    2.60810   59.12420   97.76200   60.12870
 7448.50000    0.10600   75.51820    8.80390    0.06800    0.03940    2.94820   -9999.25    2.58480   59.13160  101.11480   64.63540
 7449.00000    0.13710   94.59750    8.83760    0.07830    0.04610    2.80160   -9999.25    2.57610   60.83620  106.26450   67.61740
 7449.50000    0.14740  103.34840    8.86910    0.08860    0.02570    2.63500   -9999.25    2.55030   63.85290  110.67580   68.23900
 7450.00000    0.15130  103.69800    8.88980    0.09900    0.01920    2.47260   -9999.25    2.52950   65.93070  113.73650   69.92430
 7450.50000    0.15730  104.25270    8.90970    0.10700    0.03980    2.50220   -9999.25    2.53940   67.32350  115.90180   71.00670
 7451.00000    0.16380  106.06240    8.91700    0.09950    0.07210    2.67680   -9999.25    2.55560   68.11110  117.35720   70.10260
 7451.50000    0.17000  108.48830    8.91860    0.08580    0.04770    2.78630   -9999.25    2.56610   68.73420  119.28940   69.83160
 7452.00000    0.17660  109.75720    8.93280    0.08780    0.02790    2.74600   -9999.25    2.53930   69.49960  122.52310   71.04190
 7452.50000    0.18050  110.98440    8.95790    0.11210    0.05500    2.61430   -9999.25    2.49320   69.75550  123.24910   71.94250
 7453.00000    0.17950  111.38430    8.97140    0.14400    0.08860    2.47140   -9999.25    2.43900   68.89070  123.76810   72.30590
 7453.50000    0.17530  111.65730    8.97500    0.16340    0.10480    2.37810   -9999.25    2.41850   68.88160  123.87140   72.11240
 7454.00000    0.17650  111.59900    8.96460    0.16880    0.15100    2.31540   -9999.25    2.43160   70.11970  126.92960   72.14160
 7454.50000    0.17820  111.27850    8.95350    0.15650    0.21110    2.30100   -9999.25    2.47050   70.40360  130.30170   72.25050
 7455.00000    0.18350  110.28540    8.94220    0.12030    0.16750    2.33120   -9999.25    2.53250   69.61030  132.02870   72.00450
 7455.50000    0.18820  109.18810    8.92310    0.10350    0.08650    2.38550   -9999.25    2.53410   69.20490  132.80250   72.69790
 7456.00000    0.18410  107.39950    8.90890    0.10720    0.01080    2.41550   -9999.25    2.53180   70.30760  131.99330   73.36230
 7456.50000    0.15220   96.41760    8.89270    0.10080   -0.02390    2.44290   -9999.25    2.51710   72.95290  129.96560   71.86180
 7457.00000    0.11070   71.28060    8.84360    0.10570   -0.02340    2.52150   -9999.25    2.50250   74.15020  127.34010   69.73970
 7457.50000    0.07480   51.77650    8.79440    0.11720   -0.01650    2.58460   -9999.25    2.48990   73.65600  123.59510   68.29940
 7458.00000    0.06070   41.24250    8.74530    0.12780   -0.00840    2.57230   -9999.25    2.49000   71.58610  116.28050   65.99750
 7458.50000    0.05540   37.03600    8.69640    0.12710   -0.00610    2.49190   -9999.25    2.49510   69.10050  108.52580   63.82200
 7459.00000    0.05460   35.87610    8.68070    0.12220   -0.00520    2.43020   -9999.25    2.50270   66.01130  105.95830   63.22880
 7459.50000    0.05440   35.78230    8.66500    0.11840   -0.00550    2.37750   -9999.25    2.51040   64.40160  103.94010   62.11740
 7460.00000    0.05480   36.28120    8.65610    0.11490    0.00080    2.34540   -9999.25    2.51800   63.24610  101.92190   61.74880
 7460.50000    0.05630   36.98970    8.65590    0.11190    0.00880    2.31980   -9999.25    2.51900   62.40870  100.39500   62.09980
 7461.00000    0.06270   37.85520    8.65440    0.11310    0.01230    2.30910   -9999.25    2.48890   61.96950  100.20830   62.33150
 7461.50000    0.07280   41.24200    8.65500    0.14170    0.00280    2.29930   -9999.25    2.43170   62.25780  100.26930   62.69310
 7462.00000    0.08540   49.52750    8.65560    0.19330   -0.01440    2.31500   -9999.25    2.32220   62.20320  100.10530   63.07220
 7462.50000    0.09280   58.93960    8.65570    0.24460    0.01440    2.40320   -9999.25    2.26530   62.20580  102.23920   63.60170
 7463.00000    0.08700   63.38530    8.65560    0.25440    0.06710    2.61350   -9999.25    2.28080   62.28840  104.62310   64.38640
 7463.50000    0.07580   58.76650    8.65550    0.21650    0.09300    2.82390   -9999.25    2.41230   62.54930  107.49190   65.65800
 7464.00000    0.06380   50.61930    8.65680    0.13410    0.06520    3.00170   -9999.25    2.53390   64.05290  110.53220   66.92190
 7464.50000    0.05180   43.28910    8.65680    0.07910    0.03130    3.08910   -9999.25    2.60180   66.26680  113.02450   66.80460
 7465.00000    0.04530   38.02470    8.65500    0.06230    0.01080    3.13370   -9999.25    2.59890   66.70990  112.47480   63.97270
 7465.50000    0.04360   35.04130    8.65440    0.06610   -0.00450    3.24190   -9999.25    2.59410   64.67440  107.43520   61.19450
 7466.00000    0.04400   34.53880    8.65500    0.07010    0.00700    3.45070   -9999.25    2.59120   63.40660  103.37360   59.94620
 7466.50000    0.04870   36.10740    8.65410    0.07040    0.02890    3.66680   -9999.25    2.59460   62.70360  101.44720   59.44330
 7467.00000    0.04890   38.31060    8.65180    0.06770    0.05090    3.85240   -9999.25    2.59840   63.35420  102.62430   59.32800
 7467.50000    0.04770   39.13730    8.64490    0.06510    0.06890    3.86040   -9999.25    2.60230   63.01130  104.36070   59.49530
 7468.00000    0.04850   39.90810    8.64180    0.06250    0.06670    3.74870   -9999.25    2.60620   62.06570  104.08190   59.43930
 7468.50000    0.05940   40.67890    8.66090    0.06050    0.04000    3.63610   -9999.25    2.60580   61.24150  103.71680   59.44610
 7469.00000    0.07380   42.07340    8.65980    0.06040    0.00180    3.52340   -9999.25    2.60110   60.82850  102.36270   59.11370
 7469.50000    0.09340   48.49750    8.65150    0.06350   -0.01240    3.41080   -9999.25    2.59270   59.31510  101.31410   57.95320
 7470.00000    0.11510   59.78970    8.64460    0.07490   -0.01390    3.28710   -9999.25    2.57710   58.91840  101.90710   58.68240
 7470.50000    0.12510   72.04840    8.64320    0.09490   -0.02140    3.12900   -9999.25    2.53710   59.83660  104.36530   60.38600
 7471.00000    0.12780   84.83280    8.64190    0.11490   -0.04320    3.03090   -9999.25    2.49930   61.61060  105.99110   61.85550
 7471.50000    0.12440   90.29340    8.65470    0.12620   -0.04290    3.05810   -9999.25    2.49190   63.26690  108.97040   63.93910
 7472.00000    0.12130   88.81810    8.65560    0.11850   -0.01450    3.08520   -9999.25    2.51500   64.96810  111.49580   65.78710
 7472.50000    0.12030   87.67650    8.65860    0.10340    0.00790    3.10600   -9999.25    2.55570   66.19670  112.45170   66.01820
 7473.00000    0.11930   88.09560    8.65850    0.08120    0.00150    3.11450   -9999.25    2.58470   66.14190  113.15110   66.65930
 7473.50000    0.11370   89.42360    8.65290    0.07050    0.00220    3.11930   -9999.25    2.59070   65.76640  115.18130   67.96120
 7474.00000    0.10320   85.19180    8.65370    0.06990    0.02080    3.11760   -9999.25    2.59110   65.21400  115.35380   67.33850
