~Version ---------------------------------------------------
VERS.   2.0 : CWLS log ASCII Standard -VERSION 2.0
WRAP.    NO : One line per depth step
DLM . SPACE : Column Data Section Delimiter
~Well ------------------------------------------------------
STRT .F                    2.0 : START DEPTH
STOP .F                 8821.0 : STOP DEPTH
STEP .F                    0.5 : STEP
NULL .                -9999.25 : NULL VALUE
COMP .                         : COMPANY
WELL .                         : WELL
FLD  .                         : FIELD
LOC  .                         : LOCATION
PROV .                         : PROVINCE
CNTY .                         : COUNTY
STAT .                         : STATE
CTRY .                         : COUNTRY
SRVC .                         : SERVICE COMPANY
DATE .                         : DATE
UWI  .                         : UNIQUE WELL ID
API  .                         : API NUMBER
SLAT .WGS84 0.7114496408056965 : SURFACE LATITUDE
SLON .WGS84  6.558043134729999 : SURFACE LONGITUDE
DATUM.F                2566.69 : DEPTH DATUM ELEV
~Curve Information -----------------------------------------
DEPT   .F     : 1 MEASURED DEPTH
PORS_LS.DEC   : LINEAR POROSITY FROM LIMESTONE
GRD    .GAPI  : GAMMA RAY FROM DENSITY LOG
CALD   .IN    : CALIPER FROM DENSITY LOG
PORZ_LS.DEC   : Z-DENSITY CORRECTED POROSITY LIMESTONE
ZCOR   .G/C3  : DENSITY CORRECTION
PE     .B/E   : PHOTO ELECTRIC CROSS SECTION
CNC_LS .DEC   : BOREHOLE SIZE CORRECTED COMPENSATED NEUTRON POROSITY (LIMESTONE)
ZDEN   .G/C3  : FORMATION BULK DENSITY
DTCO   .US/F  : DELTA-T COMPRESSIONAL
DTSM   .US/F  : DELTA-T SHEAR
DT     .US/F  : DELTA-T (INTERVAL TRANSIT TIME)
~Params ----------------------------------------------------
~Other -----------------------------------------------------
~ASCII -----------------------------------------------------
# ...
 7993.00000    0.12380   78.95390    8.55820    0.09790    0.05430    2.83040   -9999.25    2.54250   67.73430  114.05340   67.22850
 7993.50000    0.12250   82.07180    8.55900    0.09960    0.05750    2.81450   -9999.25    2.54290   69.90740  118.84740   67.73370
 7994.00000    0.10810   76.77110    8.55970    0.09450    0.06430    2.81070   -9999.25    2.55920   69.30370  116.57350   66.71310
 7994.50000    0.09190   68.41880    8.55890    0.08180    0.07280    2.79490   -9999.25    2.58800   68.11800  105.32470   64.32700
 7995.00000    0.07570   61.07460    8.55390    0.06120    0.06690    2.79800   -9999.25    2.63580   67.53420   96.12250   61.63220
 7995.50000    0.06390   55.32480    8.55760    0.03980    0.04600    2.92840   -9999.25    2.67350   65.75630   95.12090   58.72140
 7996.00000    0.05910   50.12870    8.56070    0.02020    0.02350    3.33610   -9999.25    2.66780   63.18100   94.38190   57.45170
 7996.50000    0.05950   48.55640    8.55530    0.03350    0.01230    3.69350   -9999.25    2.63980   61.47420   93.70570   58.89900
 7997.00000    0.06520   49.34750    8.55140    0.05410    0.01190    3.67010   -9999.25    2.61180   61.64320   93.01450   61.38340
 7997.50000    0.07230   51.08180    8.55160    0.06880    0.01350    3.23720   -9999.25    2.58380   63.64480   90.59470   64.10180
 7998.00000    0.07930   53.70900    8.55170    0.08230    0.02090    2.81130   -9999.25    2.55450   65.52640   89.95460   66.82020
 7998.50000    0.08630   57.38640    8.55180    0.09560    0.03560    2.66500   -9999.25    2.52810   67.72700   92.92120   68.53850
 7999.00000    0.08950   59.16490    8.55200    0.09880    0.04490    2.62800   -9999.25    2.52740   68.93090   98.06940   68.02310
 7999.50000    0.08060   57.28020    8.55210    0.09820    0.03610    2.61630   -9999.25    2.53720   66.98080  104.50360   66.66460
 8000.00000    0.07160   54.41400    8.55230    0.08800    0.00720    2.69460   -9999.25    2.55550   64.03400  108.20530   64.29440
 8000.50000    0.07100   56.20590    8.55260    0.07780   -0.02190    2.80250   -9999.25    2.57380   61.58670  109.84380   64.04210
 8001.00000    0.08540   62.05220    8.55260    0.07340   -0.03270    2.91050   -9999.25    2.58170   60.88310  110.30250   65.34910
 8001.50000    0.10250   70.68070    8.55260    0.07860   -0.00920    3.01390   -9999.25    2.57260   61.56100  110.67980   66.93670
 8002.00000    0.11640   77.17120    8.55450    0.08360    0.02110    2.96010   -9999.25    2.56660   62.87880  111.26980   68.38440
 8002.50000    0.12020   81.02020    8.55960    0.08340    0.02880    2.87770   -9999.25    2.56940   64.24700  113.45250   68.56510
 8003.00000    0.11960   81.97590    8.56050    0.08140    0.01950    2.73190   -9999.25    2.57000   64.59740  114.49520   67.30560
 8003.50000    0.11460   78.32820    8.55090    0.08250    0.01270    2.67670   -9999.25    2.56220   64.72420  114.73350   64.13400
 8004.00000    0.11010   71.57760    8.55270    0.08930    0.01670    2.65840   -9999.25    2.55700   64.94480  115.03240   63.31800
 8004.50000    0.11050   66.72520    8.55340    0.08840    0.04070    2.57820   -9999.25    2.57340   65.77500  116.12380   65.70290
 8005.00000    0.11470   66.61570    8.55360    0.07640    0.09050    2.39380   -9999.25    2.59210   66.70880  118.29510   68.40200
 8005.50000    0.11810   68.44530    8.55380    0.06940    0.14020    2.30550   -9999.25    2.59080   67.78980  117.77660   70.41760
 8006.00000    0.11760   71.16280    8.55440    0.07160    0.16350    2.38460   -9999.25    2.58380   68.30290  113.78610   70.75850
 8006.50000    0.11300   71.64560    8.55280    0.07440    0.15610    2.51550   -9999.25    2.58980   68.77170  108.10870   69.15110
 8007.00000    0.10650   68.33200    8.54680    0.06970    0.13700    2.64320   -9999.25    2.60580   68.02020  102.75230   67.84360
 8007.50000    0.09930   63.37970    8.55460    0.05850    0.10840    2.69200   -9999.25    2.62190   66.44820   97.97360   67.63800
 8008.00000    0.09210   61.00200    8.55470    0.04930    0.09790    2.72010   -9999.25    2.63570   65.90980   97.28020   67.33800
 8008.50000    0.09000   60.54520    8.55480    0.04460    0.12420    2.72700   -9999.25    2.63670   66.21550   98.94470   66.53570
 8009.00000    0.09490   61.35450    8.55500    0.04470    0.15400    2.80340   -9999.25    2.62420   66.54340  102.14270   66.45560
 8009.50000    0.10330   63.10720    8.55510    0.05510    0.17390    3.11750   -9999.25    2.60020   67.48070  105.93450   68.48470
 8010.00000    0.11750   72.39720    8.55590    0.07290    0.19950    3.36720   -9999.25    2.57620   69.19590  111.67170   71.01020
 8010.50000    0.13170   84.64120    8.55700    0.08280    0.19240    3.30230   -9999.25    2.57950   70.90490  119.48530   71.56790
 8011.00000    0.14050   91.08010    8.55710    0.07270    0.14080    3.11360   -9999.25    2.60100   71.40580  125.51360   70.41900
 8011.50000    0.13160   87.44940    8.55720    0.05830    0.10650    2.99260   -9999.25    2.61710   70.74330  127.21180   69.06320
 8012.00000    0.11490   79.29510    8.55770    0.05590    0.09780    2.96070   -9999.25    2.61440   68.91560  125.07230   66.44540
 8012.50000    0.09490   69.04080    8.55820    0.05650    0.08900    2.91370   -9999.25    2.61840   66.63540  119.35470   64.54840
 8013.00000    0.10120   68.80480    8.55870    0.05210    0.08510    2.88140   -9999.25    2.62920   65.39470  110.05760   66.32810
 8013.50000    0.12450   78.40640    8.55920    0.04580    0.10940    2.87310   -9999.25    2.63130   65.25930  102.60600   70.45340
 8014.00000    0.15710   93.42530    8.56190    0.04730    0.13220    2.89720   -9999.25    2.62510   65.91760  100.97660   73.09540
 8014.50000    0.18610  104.62570    8.56730    0.05170    0.11100    2.97180   -9999.25    2.61840   67.96230  100.80790   75.05830
 8015.00000    0.18940  108.06110    8.57270    0.05450    0.08450    3.09150   -9999.25    2.61820   71.50530  103.16590   75.68070
 8015.50000    0.18960  109.47660    8.57810    0.05420    0.07360    3.10270   -9999.25    2.61880   74.09190  109.31390   74.53540
 8016.00000    0.18640  109.55380    8.58350    0.05370    0.05520    3.06460   -9999.25    2.61930   73.59390  114.34500   71.81370
 8016.50000    0.17590  106.85730    8.58280    0.05420    0.01860    3.05770   -9999.25    2.61750   72.51030  118.94110   70.08490
 8017.00000    0.16510  101.38500    8.57070    0.05880    0.01640    3.05080   -9999.25    2.59970   71.46310  118.46370   69.24230
 8017.50000    0.15440   96.64140    8.56250    0.06710    0.03040    3.02710   -9999.25    2.58380   70.60760  115.14030   68.74910
 8018.00000    0.14370   90.15260    8.56250    0.07480    0.03280    3.00340   -9999.25    2.58100   69.20850  107.78690   68.41290
 8018.50000    0.13040   84.24280    8.56080    0.07620    0.02920    2.99650   -9999.25    2.58040   67.19450  104.59170   67.49020
 8019.00000    0.11960   77.29580    8.55610    0.07430    0.02790    2.99750   -9999.25    2.58420   66.22620  104.02200   66.27270
 8019.50000    0.12010   76.90480    8.55450    0.06870    0.05260    3.04290   -9999.25    2.60930   66.88500  103.77540   67.92210
 8020.00000    0.12750   80.47900    8.55980    0.06170    0.09420    3.10830   -9999.25    2.61220   67.85010  103.54790   69.83830
 8020.50000    0.13660   84.56900    8.56130    0.05630    0.12040    3.17670   -9999.25    2.61490   68.98080  103.68580   69.49880
 8021.00000    0.14090   86.46690    8.55310    0.05480    0.12080    3.24240   -9999.25    2.61610   70.02010  103.82370   68.90760
 8021.50000    0.14520   88.77130    8.55330    0.05430    0.12780    3.28360   -9999.25    2.61820   71.48540  104.77010   68.40730
 8022.00000    0.14900   93.19810    8.55440    0.05270    0.13970    3.32200   -9999.25    2.62740   71.68690  107.02810   68.11860
 8022.50000    0.14610   94.09140    8.55250    0.04680    0.12410    3.36040   -9999.25    2.64470   70.82580  109.39350   66.86800
 8023.00000    0.13100   86.76150    8.55720    0.03890    0.10000    3.29830   -9999.25    2.65300   68.10030  111.39040   65.27420
