~Version ---------------------------------------------------
VERS.   2.0 : CWLS log ASCII Standard -VERSION 2.0
WRAP.    NO : One line per depth step
DLM . SPACE : Column Data Section Delimiter
~Well ------------------------------------------------------
STRT .F                    2.0 : START DEPTH
STOP .F                 8821.0 : STOP DEPTH
STEP .F                    0.5 : STEP
NULL .                -9999.25 : NULL VALUE
COMP .                         : COMPANY
WELL .                         : WELL
FLD  .                         : FIELD
LOC  .                         : LOCATION
PROV .                         : PROVINCE
CNTY .                         : COUNTY
STAT .                         : STATE
CTRY .                         : COUNTRY
SRVC .                         : SERVICE COMPANY
DATE .                         : DATE
UWI  .                         : UNIQUE WELL ID
API  .                         : API NUMBER
SLAT .WGS84 0.7114496408056965 : SURFACE LATITUDE
SLON .WGS84  6.558043134729999 : SURFACE LONGITUDE
DATUM.F                2566.69 : DEPTH DATUM ELEV
~Curve Information -----------------------------------------
DEPT   .F     : 1 MEASURED DEPTH
PORS_LS.DEC   : LINEAR POROSITY FROM LIMESTONE
GRD    .GAPI  : GAMMA RAY FROM DENSITY LOG
CALD   .IN    : CALIPER FROM DENSITY LOG
PORZ_LS.DEC   : Z-DENSITY CORRECTED POROSITY LIMESTONE
ZCOR   .G/C3  : DENSITY CORRECTION
PE     .B/E   : PHOTO ELECTRIC CROSS SECTION
CNC_LS .DEC   : BOREHOLE SIZE CORRECTED COMPENSATED NEUTRON POROSITY (LIMESTONE)
ZDEN   .G/C3  : FORMATION BULK DENSITY
DTCO   .US/F  : DELTA-T COMPRESSIONAL
DTSM   .US/F  : DELTA-T SHEAR
DT     .US/F  : DELTA-T (INTERVAL TRANSIT TIME)
~Params ----------------------------------------------------
~Other -----------------------------------------------------
~ASCII -----------------------------------------------------
# ...
 5309.00000    0.17560   90.38210    8.95910   -9999.25   -0.01220   -9999.25   -9999.25    2.58680   75.49590  137.71910   74.83860
 5309.50000    0.17590   93.77150    8.95850   -9999.25   -0.00940   -9999.25   -9999.25    2.58790   75.51480  138.21290   75.07240
 5310.00000    0.17600   93.72780    8.96900   -9999.25   -0.00560   -9999.25   -9999.25    2.58770   75.65790  138.70290   75.40350
 5310.50000    0.17620   93.26290    8.97990   -9999.25   -0.00180   -9999.25   -9999.25    2.58730   75.94000  139.17000   75.72710
 5311.00000    0.17630   93.03530    8.99060   -9999.25    0.00190   -9999.25   -9999.25    2.58680   76.27020  139.17000   75.95920
 5311.50000    0.17730   92.80610    9.00070   -9999.25    0.00190   -9999.25   -9999.25    2.58670   76.62950  138.91150   76.18060
 5312.00000    0.17960   92.57710    9.01080   -9999.25   -0.00520   -9999.25   -9999.25    2.58670   76.10490  138.65270   76.29580
 5312.50000    0.18220   92.46190    9.01400   -9999.25   -0.01330   -9999.25   -9999.25    2.58550   75.96610  138.59040   76.39030
 5313.00000    0.18290   92.44290    9.01560   -9999.25   -0.02400   -9999.25   -9999.25    2.57850   75.86190  138.65240   76.35360
 5313.50000    0.18320   92.33060    9.01480   -9999.25   -0.02730   -9999.25   -9999.25    2.57330   75.85370  138.71440   76.34310
 5314.00000    0.18440   92.12900    9.01370   -9999.25   -0.02200   -9999.25   -9999.25    2.57190   75.84270  138.77640   76.26350
 5314.50000    0.18620   92.10480    9.01460   -9999.25   -0.01800   -9999.25   -9999.25    2.57300   75.95170  138.83850   76.30160
 5315.00000    0.18050   92.49340    9.01730   -9999.25   -0.01640   -9999.25   -9999.25    2.57490   76.20220  138.94360   76.43590
 5315.50000    0.17890   92.73750    9.01660   -9999.25   -0.01530   -9999.25   -9999.25    2.58110   76.25250  139.40710   76.57480
 5316.00000    0.18020   92.78520    9.01480   -9999.25   -0.01410   -9999.25   -9999.25    2.59160   76.04590  139.87060   76.42180
 5316.50000    0.18280   92.16940    9.01400   -9999.25   -0.01290   -9999.25   -9999.25    2.58890   75.90800  140.33420   76.21620
 5317.00000    0.18230   91.51980    9.01400   -9999.25   -0.01070   -9999.25   -9999.25    2.57830   75.99550  140.67770   76.22000
 5317.50000    0.18070   90.86900    9.01400   -9999.25   -0.00780   -9999.25   -9999.25    2.57230   76.21390  140.67770   76.39010
 5318.00000    0.17910   90.33460    9.01390   -9999.25    0.00150   -9999.25   -9999.25    2.58070   76.24480  140.67770   76.51560
 5318.50000    0.17900   90.01180    9.01390   -9999.25    0.00100   -9999.25   -9999.25    2.59290   76.30730  140.67770   76.59030
 5319.00000    0.18220   90.53170    9.01390   -9999.25   -0.00210   -9999.25   -9999.25    2.59500   76.42760  140.71900   76.73520
 5319.50000    0.18560   91.78990    9.01410   -9999.25   -0.00520   -9999.25   -9999.25    2.59090   76.63940  141.23500   77.01090
 5320.00000    0.18820   93.79850    9.01480   -9999.25   -0.00830   -9999.25   -9999.25    2.58630   76.84960  141.75090   77.41300
 5320.50000    0.18970   95.19410    9.01480   -9999.25   -0.01140   -9999.25   -9999.25    2.58130   77.17350  142.83510   77.90610
 5321.00000    0.19070   95.49870    9.01460   -9999.25   -0.01340   -9999.25   -9999.25    2.57740   77.47430  143.46730   78.30850
 5321.50000    0.19280   95.18380    9.01440   -9999.25   -0.01360   -9999.25   -9999.25    2.57600   77.79750  143.90820   78.71090
 5322.00000    0.19600   94.64140    9.01420   -9999.25   -0.01340   -9999.25   -9999.25    2.57580   77.87090  143.38600   78.69960
 5322.50000    0.19790   92.75000    9.01400   -9999.25   -0.01310   -9999.25   -9999.25    2.57670   77.85710  142.77040   78.09940
 5323.00000    0.19780   89.58740    9.01500   -9999.25   -0.02210   -9999.25   -9999.25    2.58110   77.51130  142.05360   77.10200
 5323.50000    0.19580   90.06350    9.01600   -9999.25   -0.03190   -9999.25   -9999.25    2.58610   77.08020  141.23630   76.00030
 5324.00000    0.19390   91.94690    9.01710   -9999.25   -0.03180   -9999.25   -9999.25    2.58690   76.38540  140.97340   75.37260
 5324.50000    0.19140   91.53750    9.01700   -9999.25   -0.03050   -9999.25   -9999.25    2.58780   75.80890  140.41470   75.04310
 5325.00000    0.18790   88.48110    9.01660   -9999.25   -0.02930   -9999.25   -9999.25    2.59340   75.55590  139.65430   74.91160
 5325.50000    0.18530   87.77630    9.01620   -9999.25   -0.02590   -9999.25   -9999.25    2.59320   75.47100  138.97140   74.98830
 5326.00000    0.18130   89.86750    9.01540   -9999.25   -0.02090   -9999.25   -9999.25    2.58630   75.62010  139.18710   75.52860
 5326.50000    0.17740   89.16280    9.01340   -9999.25   -0.01010   -9999.25   -9999.25    2.57900   75.93260  139.49930   75.93160
 5327.00000    0.17570   88.14560    9.01140   -9999.25    0.00860   -9999.25   -9999.25    2.58010   76.28110  139.94990   76.19680
 5327.50000    0.17630   87.75150    9.01210   -9999.25    0.01350   -9999.25   -9999.25    2.58450   76.73040  140.40050   76.46190
 5328.00000    0.18000   90.15160    9.01310   -9999.25    0.01480   -9999.25   -9999.25    2.58420   76.98770  140.85110   76.60260
 5328.50000    0.18390   95.85990    9.01410   -9999.25    0.01140   -9999.25   -9999.25    2.57600   77.04770  141.46230   76.59590
 5329.00000    0.18520   96.30450    9.01510   -9999.25    0.00350   -9999.25   -9999.25    2.56960   77.09550  142.16350   76.64050
 5329.50000    0.18590   92.95760    9.01610   -9999.25    0.00080   -9999.25   -9999.25    2.57050   77.37910  142.32960   76.60650
 5330.00000    0.18730   89.86690    9.01750   -9999.25   -0.00190   -9999.25   -9999.25    2.58170   77.44430  142.22570   76.29500
 5330.50000    0.18950   90.88210    9.01860   -9999.25   -0.00460   -9999.25   -9999.25    2.60540   77.44940  141.90550   76.19030
 5331.00000    0.19160   92.53080    9.01810   -9999.25   -0.00640   -9999.25   -9999.25    2.61320   77.22190  141.47390   76.09950
 5331.50000    0.18650   91.12840    9.01760   -9999.25   -0.00820   -9999.25   -9999.25    2.61150   77.03480  141.04230   75.93760
 5332.00000    0.18090   89.30010    9.01720   -9999.25   -0.01130   -9999.25   -9999.25    2.60220   76.60480  140.61060   75.71380
 5332.50000    0.17760   89.00430    9.01670   -9999.25   -0.01540   -9999.25   -9999.25    2.59210   76.30230  140.39490   75.55360
 5333.00000    0.17710   89.92740    9.01620   -9999.25   -0.01960   -9999.25   -9999.25    2.58240   76.56530  140.51460   75.63910
 5333.50000    0.17690   90.69600    9.01700   -9999.25   -0.02370   -9999.25   -9999.25    2.57280   76.66420  140.63430   76.09370
 5334.00000    0.17590   90.59610    9.01790   -9999.25   -0.02570   -9999.25   -9999.25    2.56970   76.82270  141.81350   76.79200
 5334.50000    0.17430   89.43390    9.01880   -9999.25   -0.02200   -9999.25   -9999.25    2.57240   77.42830  143.15360   77.55740
 5335.00000    0.17440   88.39810    9.01980   -9999.25   -0.01270   -9999.25   -9999.25    2.59090   77.80180  143.80010   77.86290
 5335.50000    0.17890   87.36040    9.02310   -9999.25   -0.00340   -9999.25   -9999.25    2.60220   77.86430  143.91110   77.73610
 5336.00000    0.18350   86.88240    9.02690   -9999.25    0.00440   -9999.25   -9999.25    2.59420   77.69160  143.22050   77.36140
 5336.50000    0.18780   87.05430    9.03070   -9999.25   -0.00000   -9999.25   -9999.25    2.58470   77.38810  141.87460   76.84420
 5337.00000    0.18760   89.41530    9.03450   -9999.25   -0.01070   -9999.25   -9999.25    2.58780   77.02860  141.03010   76.50750
 5337.50000    0.18520   90.69600    9.03830   -9999.25   -0.01190   -9999.25   -9999.25    2.59770   76.60990  140.72460   76.27320
 5338.00000    0.18190   90.69600    9.04210   -9999.25   -0.00960   -9999.25   -9999.25    2.60430   76.30360  140.41920   75.98770
 5338.50000    0.17860   90.69600    9.04590   -9999.25   -0.00480   -9999.25   -9999.25    2.60450   76.23430  140.35440   75.86350
 5339.00000    0.17530   89.96190    9.04970   -9999.25   -0.00220   -9999.25   -9999.25    2.60120   76.28340  140.35440   76.22860
