~Version ---------------------------------------------------
VERS.   2.0 : CWLS log ASCII Standard -VERSION 2.0
WRAP.    NO : One line per depth step
DLM . SPACE : Column Data Section Delimiter
~Well ------------------------------------------------------
STRT .F                    2.0 : START DEPTH
STOP .F                 8821.0 : STOP DEPTH
STEP .F                    0.5 : STEP
NULL .                -9999.25 : NULL VALUE
COMP .                         : COMPANY
WELL .                         : WELL
FLD  .                         : FIELD
LOC  .                         : LOCATION
PROV .                         : PROVINCE
CNTY .                         : COUNTY
STAT .                         : STATE
CTRY .                         : COUNTRY
SRVC .                         : SERVICE COMPANY
DATE .                         : DATE
UWI  .                         : UNIQUE WELL ID
API  .                         : API NUMBER
SLAT .WGS84 0.7114496408056965 : SURFACE LATITUDE
SLON .WGS84  6.558043134729999 : SURFACE LONGITUDE
DATUM.F                2566.69 : DEPTH DATUM ELEV
~Curve Information -----------------------------------------
DEPT   .F     : 1 MEASURED DEPTH
PORS_LS.DEC   : LINEAR POROSITY FROM LIMESTONE
GRD    .GAPI  : GAMMA RAY FROM DENSITY LOG
CALD   .IN    : CALIPER FROM DENSITY LOG
PORZ_LS.DEC   : Z-DENSITY CORRECTED POROSITY LIMESTONE
ZCOR   .G/C3  : DENSITY CORRECTION
PE     .B/E   : PHOTO ELECTRIC CROSS SECTION
CNC_LS .DEC   : BOREHOLE SIZE CORRECTED COMPENSATED NEUTRON POROSITY (LIMESTONE)
ZDEN   .G/C3  : FORMATION BULK DENSITY
DTCO   .US/F  : DELTA-T COMPRESSIONAL
DTSM   .US/F  : DELTA-T SHEAR
DT     .US/F  : DELTA-T (INTERVAL TRANSIT TIME)
~Params ----------------------------------------------------
~Other -----------------------------------------------------
~ASCII -----------------------------------------------------
# ...
 6132.50000    0.24300  126.82860    9.96910   -9999.25    0.15010   -9999.25   -9999.25    2.49940   74.58520  154.82530   81.71600
 6133.00000    0.24030  128.81900   10.10810   -9999.25    0.17300   -9999.25   -9999.25    2.42370   73.86380  154.43370   79.23610
 6133.50000    0.23610  129.16080   10.30670   -9999.25    0.19350   -9999.25   -9999.25    2.34600   73.24050  153.60200   78.67590
 6134.00000    0.23180  130.06820   10.53010   -9999.25    0.20450   -9999.25   -9999.25    2.26820   74.11250  153.19750   78.71320
 6134.50000    0.23040  132.62570   10.67430   -9999.25    0.21860   -9999.25   -9999.25    2.17890   76.07120  153.64860   78.74280
 6135.00000    0.23350  135.65690   10.79210   -9999.25    0.29700   -9999.25   -9999.25    2.10430   75.84110  151.68480   77.61450
 6135.50000    0.24110  135.83210   10.98790   -9999.25    0.41530   -9999.25   -9999.25    2.04350   73.70960  149.78520   76.06970
 6136.00000    0.24870  132.59050   11.67920   -9999.25    0.43140   -9999.25   -9999.25    2.00000   73.38950  152.21130   75.17010
 6136.50000    0.25630  128.71250   12.78820   -9999.25    0.40880   -9999.25   -9999.25    2.00020   74.19150  155.90230   74.74070
 6137.00000    0.26390  123.66070   13.71670   -9999.25    0.34180   -9999.25   -9999.25    2.00040   75.08720  157.24150   75.29720
 6137.50000    0.26760  120.90680   14.64510   -9999.25    0.34390   -9999.25   -9999.25    2.00060   75.96220  156.50490   76.67530
 6138.00000    0.26090  119.84830   14.95740   -9999.25    0.42650   -9999.25   -9999.25    2.00080   77.02010  156.10830   78.95880
 6138.50000    0.26350  117.16460   14.94830   -9999.25    0.51520   -9999.25   -9999.25    2.00100   78.57040  156.33850   81.57370
 6139.00000    0.26850  114.32740   14.22670   -9999.25    0.58340   -9999.25   -9999.25    2.00120   80.55380  156.54600   83.65710
 6139.50000    0.26370  111.48810   13.49680   -9999.25    0.58620   -9999.25   -9999.25    2.03120   81.90620  155.47860   83.64700
 6140.00000    0.25420  109.58950   12.76680   -9999.25    0.53450   -9999.25   -9999.25    2.04030   82.29520  153.19940   80.89800
 6140.50000    0.24470  110.21420   12.03690   -9999.25    0.44680   -9999.25   -9999.25    2.01530   82.53980  151.16170   78.34590
 6141.00000    0.23520  111.45780   11.30690   -9999.25    0.07230   -9999.25   -9999.25    2.00420   82.78440  148.24930   77.04440
 6141.50000    0.22570  112.53250   10.57150   -9999.25    0.03960   -9999.25   -9999.25    2.12520   81.78970  144.89970   76.81710
 6142.00000    0.22240  111.66220   10.20860   -9999.25    0.03280   -9999.25   -9999.25    2.28900   80.50700  141.99390   76.48730
 6142.50000    0.21690  108.84050    9.97320   -9999.25    0.04520   -9999.25   -9999.25    2.47470   78.44180  140.19110   77.18900
 6143.00000    0.20730  106.01880    9.78110   -9999.25    0.06130   -9999.25   -9999.25    2.50900   76.95590  139.60280   77.99500
 6143.50000    0.19770  104.01450    9.63170   -9999.25    0.07740   -9999.25   -9999.25    2.52520   76.94450  139.01460   77.35920
 6144.00000    0.19140  104.43260    9.51290   -9999.25    0.08840   -9999.25   -9999.25    2.53170   77.49020  138.42630   76.22650
 6144.50000    0.18880  105.92510    9.47730   -9999.25    0.09110   -9999.25   -9999.25    2.54580   77.85380  137.83810   74.95690
 6145.00000    0.18620  107.41940    9.44180   -9999.25    0.08510   -9999.25   -9999.25    2.56940   76.66300  136.79280   72.94890
 6145.50000    0.18250  108.80460    9.40630   -9999.25    0.06190   -9999.25   -9999.25    2.58980   74.56150  135.88180   72.30010
 6146.00000    0.17480  108.97970    9.37980   -9999.25    0.03870   -9999.25   -9999.25    2.59940   73.76850  135.00240   72.98400
 6146.50000    0.16720  108.12970    9.37360   -9999.25    0.02040   -9999.25   -9999.25    2.60420   74.12460  134.12310   73.83580
 6147.00000    0.16160  105.82680    9.37410   -9999.25    0.00350   -9999.25   -9999.25    2.60850   74.34080  133.33300   73.92460
 6147.50000    0.16210  103.68080    9.37570   -9999.25   -0.01330   -9999.25   -9999.25    2.61200   73.69460  131.98150   72.94470
 6148.00000    0.16280  102.96010    9.37400   -9999.25   -0.02730   -9999.25   -9999.25    2.61540   72.89190  130.77510   72.06580
 6148.50000    0.16130  102.89200    9.37130   -9999.25   -0.02950   -9999.25   -9999.25    2.61560   71.94540  130.30030   72.50220
 6149.00000    0.15900  103.01120    9.37580   -9999.25   -0.00400   -9999.25   -9999.25    2.58370   71.84360  131.13280   73.55920
 6149.50000    0.16150  103.44930    9.38670   -9999.25    0.05290   -9999.25   -9999.25    2.56050   71.94620  132.90660   74.61700
 6150.00000    0.16690  104.35660    9.41870   -9999.25    0.05250   -9999.25   -9999.25    2.55040   72.55380  134.97630   75.45820
 6150.50000    0.17240  105.33240    9.45080   -9999.25    0.04980   -9999.25   -9999.25    2.55500   73.53850  136.92130   76.28950
 6151.00000    0.17780  107.11300    9.48270   -9999.25    0.04710   -9999.25   -9999.25    2.55760   74.31550  137.61600   77.09140
 6151.50000    0.18240  108.86940    9.51180   -9999.25    0.04800   -9999.25   -9999.25    2.53480   75.28390  137.52520   76.55090
 6152.00000    0.18400  108.95920    9.53220   -9999.25    0.06430   -9999.25   -9999.25    2.52830   76.43950  135.95850   75.48060
 6152.50000    0.18400  107.03430    9.52860   -9999.25    0.08170   -9999.25   -9999.25    2.53770   77.34960  134.81020   74.48520
 6153.00000    0.18340  104.19500    9.51100   -9999.25    0.07790   -9999.25   -9999.25    2.55720   76.84240  133.08020   74.37030
 6153.50000    0.17810  101.21630    9.41560   -9999.25    0.06970   -9999.25   -9999.25    2.58260   75.16940  131.37380   74.28760
 6154.00000    0.17110   98.45200    9.26570   -9999.25    0.06850   -9999.25   -9999.25    2.60010   73.53230  129.64300   73.41940
 6154.50000    0.16420   98.89320    9.11750   -9999.25    0.10700   -9999.25   -9999.25    2.61490   72.40910  128.22400   72.46160
 6155.00000    0.15730  100.43390    9.02980   -9999.25    0.10370   -9999.25   -9999.25    2.61750   71.75630  127.50040   72.04940
 6155.50000    0.15030  101.89410    9.02080   -9999.25    0.07610   -9999.25   -9999.25    2.62080   71.44400  126.99920   71.97450
 6156.00000    0.14390  100.45900    9.02170   -9999.25    0.04860   -9999.25   -9999.25    2.63280   71.58440  128.51880   72.07210
 6156.50000    0.14180   96.96970    9.03120   -9999.25    0.04430   -9999.25   -9999.25    2.64780   72.27930  130.49780   72.96230
 6157.00000    0.14230   93.33430    9.04070   -9999.25    0.04980   -9999.25   -9999.25    2.63610   73.19650  132.47680   74.47720
 6157.50000    0.15010   92.13100    9.05020   -9999.25    0.05540   -9999.25   -9999.25    2.60690   74.53640  134.40660   75.62130
 6158.00000    0.16110   93.04800    9.05970   -9999.25    0.05530   -9999.25   -9999.25    2.58740   75.52460  135.61490   75.87930
 6158.50000    0.17200   96.22700    9.05890   -9999.25    0.05450   -9999.25   -9999.25    2.59400   75.84820  135.61710   75.25380
 6159.00000    0.17450  100.19280    9.05520   -9999.25    0.04710   -9999.25   -9999.25    2.59820   75.24790  134.06490   74.06520
 6159.50000    0.17360  104.32780    9.05160   -9999.25    0.03720   -9999.25   -9999.25    2.58990   74.35050  132.63950   72.58870
 6160.00000    0.16760  107.60290    9.04800   -9999.25    0.02730   -9999.25   -9999.25    2.58550   73.41510  131.37750   71.86770
 6160.50000    0.15880  106.71630    9.04340   -9999.25    0.01780   -9999.25   -9999.25    2.59150   72.94240  130.11120   71.69630
 6161.00000    0.15010  104.44370    9.03810   -9999.25    0.01230   -9999.25   -9999.25    2.59760   72.81920  129.07010   71.70460
 6161.50000    0.14790  103.31190    9.03280   -9999.25    0.01780   -9999.25   -9999.25    2.60330   72.60590  128.63750   71.79290
 6162.00000    0.15190  102.97930    9.02750   -9999.25    0.02340   -9999.25   -9999.25    2.58880   72.54070  128.51390   71.98980
 6162.50000    0.16010  102.49780    9.02210   -9999.25    0.02310   -9999.25   -9999.25    2.58360   72.55040  128.39040   72.11720
