~Version ---------------------------------------------------
VERS.   2.0 : CWLS log ASCII Standard -VERSION 2.0
WRAP.    NO : One line per depth step
DLM . SPACE : Column Data Section Delimiter
~Well ------------------------------------------------------
STRT .F                    2.0 : START DEPTH
STOP .F                 8821.0 : STOP DEPTH
STEP .F                    0.5 : STEP
NULL .                -9999.25 : NULL VALUE
COMP .                         : COMPANY
WELL .                         : WELL
FLD  .                         : FIELD
LOC  .                         : LOCATION
PROV .                         : PROVINCE
CNTY .                         : COUNTY
STAT .                         : STATE
CTRY .                         : COUNTRY
SRVC .                         : SERVICE COMPANY
DATE .                         : DATE
UWI  .                         : UNIQUE WELL ID
API  .                         : API NUMBER
SLAT .WGS84 0.7114496408056965 : SURFACE LATITUDE
SLON .WGS84  6.558043134729999 : SURFACE LONGITUDE
DATUM.F                2566.69 : DEPTH DATUM ELEV
~Curve Information -----------------------------------------
DEPT   .F     : 1 MEASURED DEPTH
PORS_LS.DEC   : LINEAR POROSITY FROM LIMESTONE
GRD    .GAPI  : GAMMA RAY FROM DENSITY LOG
CALD   .IN    : CALIPER FROM DENSITY LOG
PORZ_LS.DEC   : Z-DENSITY CORRECTED POROSITY LIMESTONE
ZCOR   .G/C3  : DENSITY CORRECTION
PE     .B/E   : PHOTO ELECTRIC CROSS SECTION
CNC_LS .DEC   : BOREHOLE SIZE CORRECTED COMPENSATED NEUTRON POROSITY (LIMESTONE)
ZDEN   .G/C3  : FORMATION BULK DENSITY
DTCO   .US/F  : DELTA-T COMPRESSIONAL
DTSM   .US/F  : DELTA-T SHEAR
DT     .US/F  : DELTA-T (INTERVAL TRANSIT TIME)
~Params ----------------------------------------------------
~Other -----------------------------------------------------
~ASCII -----------------------------------------------------
# ...
 8786.00000   -9999.25   75.11780    8.06030    0.03450    0.06220    3.60320    0.15980    2.65210   -9999.25   -9999.25   -9999.25
 8786.50000   -9999.25   75.11790    8.03200    0.03220    0.04090    3.48040    0.15820    2.65340   -9999.25   -9999.25   -9999.25
 8787.00000   -9999.25   75.75710    7.94240    0.03230    0.04830    3.47580    0.15540    2.65590   -9999.25   -9999.25   -9999.25
 8787.50000   -9999.25   78.21350    7.94220    0.03190    0.10750    3.53980    0.15160    2.66410   -9999.25   -9999.25   -9999.25
 8788.00000   -9999.25   78.08340    7.94840    0.02880    0.16050    3.72460    0.14180    2.67490   -9999.25   -9999.25   -9999.25
 8788.50000   -9999.25   75.25890    7.95140    0.01860    0.13600    3.94950    0.13200    2.67910   -9999.25   -9999.25   -9999.25
 8789.00000   -9999.25   71.15460    7.95140    0.01990    0.09410    4.25090    0.12550    2.66130   -9999.25   -9999.25   -9999.25
 8789.50000   -9999.25   66.90570    7.95150    0.03920    0.07940    4.17240    0.12140    2.62760   -9999.25   -9999.25   -9999.25
 8790.00000   -9999.25   62.90960    7.95180    0.05760    0.09110    3.92430    0.13060    2.59910   -9999.25   -9999.25   -9999.25
 8790.50000   -9999.25   64.14270    7.95230    0.06160    0.08070    3.68210    0.14320    2.61210   -9999.25   -9999.25   -9999.25
 8791.00000   -9999.25   70.50350    7.95280    0.04520    0.06120    3.66230    0.15690    2.64080   -9999.25   -9999.25   -9999.25
 8791.50000   -9999.25   77.82680    7.95330    0.02920    0.06200    3.72390    0.16370    2.66770   -9999.25   -9999.25   -9999.25
 8792.00000   -9999.25   81.97630    7.95370    0.02800    0.08200    3.79140    0.16580    2.65670   -9999.25   -9999.25   -9999.25
 8792.50000   -9999.25   83.09710    7.95420    0.03830    0.09720    3.82810    0.16790    2.63460   -9999.25   -9999.25   -9999.25
 8793.00000   -9999.25   83.39720    7.95470    0.04780    0.09220    3.85220    0.17460    2.62540   -9999.25   -9999.25   -9999.25
 8793.50000   -9999.25   82.13520    7.95520    0.04680    0.07580    3.86730    0.18730    2.63500   -9999.25   -9999.25   -9999.25
 8794.00000   -9999.25   80.22430    7.94030    0.04000    0.05990    3.88780    0.18530    2.63780   -9999.25   -9999.25   -9999.25
 8794.50000   -9999.25   79.64740    7.91130    0.04250    0.05930    3.90210    0.17310    2.63190   -9999.25   -9999.25   -9999.25
 8795.00000   -9999.25   81.00990    7.87670    0.04680    0.07520    3.88300    0.16530    2.62840   -9999.25   -9999.25   -9999.25
 8795.50000   -9999.25   82.79400    7.85400    0.03870    0.09630    3.85840    0.15920    2.66620   -9999.25   -9999.25   -9999.25
 8796.00000   -9999.25   83.42340    7.85170    0.01810    0.10860    3.83080    0.15210    2.70500   -9999.25   -9999.25   -9999.25
 8796.50000   -9999.25   83.83680    7.85360    0.00380    0.10150    3.80080    0.14650    2.70390   -9999.25   -9999.25   -9999.25
 8797.00000   -9999.25   84.74240    7.84810    0.00240    0.09240    3.77080    0.15710    2.69130   -9999.25   -9999.25   -9999.25
 8797.50000   -9999.25   -9999.25    7.84080    0.01090    0.08360    3.66660   -9999.25    2.68930   -9999.25   -9999.25   -9999.25
 8798.00000   -9999.25   -9999.25    7.83790    0.01080    0.07580    3.50220   -9999.25    2.69360   -9999.25   -9999.25   -9999.25
 8798.50000   -9999.25   -9999.25    7.83550    0.00630    0.07140    3.36960   -9999.25    2.69790   -9999.25   -9999.25   -9999.25
 8799.00000   -9999.25   -9999.25    7.84060    0.00590    0.07540    3.31910   -9999.25    2.70030   -9999.25   -9999.25   -9999.25
 8799.50000   -9999.25   -9999.25    7.83930    0.00880    0.07650    3.29000   -9999.25    2.69320   -9999.25   -9999.25   -9999.25
 8800.00000   -9999.25   -9999.25    7.83660    0.01080    0.08030    3.35950   -9999.25    2.68330   -9999.25   -9999.25   -9999.25
 8800.50000   -9999.25   -9999.25    7.83680    0.01220    0.09640    3.42900   -9999.25    2.68130   -9999.25   -9999.25   -9999.25
 8801.00000   -9999.25   -9999.25    7.83690    0.01350    0.10360    3.52950   -9999.25    2.67810   -9999.25   -9999.25   -9999.25
 8801.50000   -9999.25   -9999.25    7.83710    0.01960    0.10020    3.61610   -9999.25    2.66750   -9999.25   -9999.25   -9999.25
 8802.00000   -9999.25   -9999.25    7.83790    0.02830    0.10550    3.70280   -9999.25    2.65490   -9999.25   -9999.25   -9999.25
 8802.50000   -9999.25   -9999.25    7.83400    0.04040    0.16720    3.73440   -9999.25    2.62150   -9999.25   -9999.25   -9999.25
 8803.00000   -9999.25   -9999.25    7.82750    0.05010    0.20550    3.73880   -9999.25    2.62260   -9999.25   -9999.25   -9999.25
 8803.50000   -9999.25   -9999.25    7.82130    0.04380    0.16400    3.76470   -9999.25    2.64800   -9999.25   -9999.25   -9999.25
 8804.00000   -9999.25   -9999.25    7.80980    0.02480    0.11550    3.78660   -9999.25    2.71940   -9999.25   -9999.25   -9999.25
 8804.50000   -9999.25   -9999.25    7.78730    0.00280    0.09330    3.80490   -9999.25    2.71160   -9999.25   -9999.25   -9999.25
 8805.00000   -9999.25   -9999.25    7.75570   -0.00100    0.07390    3.83500   -9999.25    2.69050   -9999.25   -9999.25   -9999.25
 8805.50000   -9999.25   -9999.25    7.75500    0.01200    0.06180    3.86660   -9999.25    2.66710   -9999.25   -9999.25   -9999.25
 8806.00000   -9999.25   -9999.25    7.75420    0.02800    0.06850    3.74030   -9999.25    2.65110   -9999.25   -9999.25   -9999.25
 8806.50000   -9999.25   -9999.25    7.74920    0.03320    0.07830    3.73510   -9999.25    2.66070   -9999.25   -9999.25   -9999.25
 8807.00000   -9999.25   -9999.25    7.74950    0.03010    0.08510    3.73930   -9999.25    2.67310   -9999.25   -9999.25   -9999.25
 8807.50000   -9999.25   -9999.25    7.74970    0.02050    0.09260    3.83800   -9999.25    2.68550   -9999.25   -9999.25   -9999.25
 8808.00000   -9999.25   -9999.25    7.75000    0.01220    0.08560    3.90160   -9999.25    2.69800   -9999.25   -9999.25   -9999.25
 8808.50000   -9999.25   -9999.25    7.75050    0.00390    0.06760    3.85650   -9999.25    2.71040   -9999.25   -9999.25   -9999.25
 8809.00000   -9999.25   -9999.25    7.74550   -0.00190    0.04950    3.72570   -9999.25    2.71780   -9999.25   -9999.25   -9999.25
 8809.50000   -9999.25   -9999.25    7.73350   -0.00440    0.03530    3.65400   -9999.25    2.71780   -9999.25   -9999.25   -9999.25
 8810.00000   -9999.25   -9999.25    7.72070   -0.00220    0.03240    3.78570   -9999.25    2.70660   -9999.25   -9999.25   -9999.25
 8810.50000   -9999.25   -9999.25    7.71140    0.00460    0.03660    4.07250   -9999.25    2.68380   -9999.25   -9999.25   -9999.25
 8811.00000   -9999.25   -9999.25    7.71100    0.01410    0.06160    4.08140   -9999.25    2.66090   -9999.25   -9999.25   -9999.25
 8811.50000   -9999.25   -9999.25    7.70630    0.02320    0.09910    3.85280   -9999.25    2.65670   -9999.25   -9999.25   -9999.25
 8812.00000   -9999.25   -9999.25    7.69350    0.03170    0.11430    3.71880   -9999.25    2.66650   -9999.25   -9999.25   -9999.25
 8812.50000   -9999.25   -9999.25    7.66930    0.02750    0.08200    3.69060   -9999.25    2.68120   -9999.25   -9999.25   -9999.25
 8813.00000   -9999.25   -9999.25    7.65870    0.01830    0.03960    3.66270   -9999.25    2.69590   -9999.25   -9999.25   -9999.25
 8813.50000   -9999.25   -9999.25    7.67290    0.00810    0.02080    3.63480   -9999.25    2.68590   -9999.25   -9999.25   -9999.25
 8814.00000   -9999.25   -9999.25    7.69130    0.00890    0.02060    3.60680   -9999.25    2.66500   -9999.25   -9999.25   -9999.25
 8814.50000   -9999.25   -9999.25    7.63740    0.02230    0.03630    3.57250   -9999.25    2.64420   -9999.25   -9999.25   -9999.25
 8815.00000   -9999.25   -9999.25    7.59700    0.03810    0.05490    3.50080   -9999.25    2.64360   -9999.25   -9999.25   -9999.25
 8815.50000   -9999.25   -9999.25    7.57530    0.03500    0.06480    3.42920   -9999.25    2.65890   -9999.25   -9999.25   -9999.25
 8816.00000   -9999.25   -9999.25    7.55020    0.02010    0.06340    3.40320   -9999.25    2.69940   -9999.25   -9999.25   -9999.25
