~Version ---------------------------------------------------
VERS.   2.0 : CWLS log ASCII Standard -VERSION 2.0
WRAP.    NO : One line per depth step
DLM . SPACE : Column Data Section Delimiter
~Well ------------------------------------------------------
STRT .F                    2.0 : START DEPTH
STOP .F                 8821.0 : STOP DEPTH
STEP .F                    0.5 : STEP
NULL .                -9999.25 : NULL VALUE
COMP .                         : COMPANY
WELL .                         : WELL
FLD  .                         : FIELD
LOC  .                         : LOCATION
PROV .                         : PROVINCE
CNTY .                         : COUNTY
STAT .                         : STATE
CTRY .                         : COUNTRY
SRVC .                         : SERVICE COMPANY
DATE .                         : DATE
UWI  .                         : UNIQUE WELL ID
API  .                         : API NUMBER
SLAT .WGS84 0.7114496408056965 : SURFACE LATITUDE
SLON .WGS84  6.558043134729999 : SURFACE LONGITUDE
DATUM.F                2566.69 : DEPTH DATUM ELEV
~Curve Information -----------------------------------------
DEPT   .F     : 1 MEASURED DEPTH
PORS_LS.DEC   : LINEAR POROSITY FROM LIMESTONE
GRD    .GAPI  : GAMMA RAY FROM DENSITY LOG
CALD   .IN    : CALIPER FROM DENSITY LOG
PORZ_LS.DEC   : Z-DENSITY CORRECTED POROSITY LIMESTONE
ZCOR   .G/C3  : DENSITY CORRECTION
PE     .B/E   : PHOTO ELECTRIC CROSS SECTION
CNC_LS .DEC   : BOREHOLE SIZE CORRECTED COMPENSATED NEUTRON POROSITY (LIMESTONE)
ZDEN   .G/C3  : FORMATION BULK DENSITY
DTCO   .US/F  : DELTA-T COMPRESSIONAL
DTSM   .US/F  : DELTA-T SHEAR
DT     .US/F  : DELTA-T (INTERVAL TRANSIT TIME)
~Params ----------------------------------------------------
~Other -----------------------------------------------------
~ASCII -----------------------------------------------------
# ...
 6376.50000    0.19680  106.48410    9.00830   -9999.25    0.03090   -9999.25   -9999.25    2.61220   78.76640  145.10700   77.12050
 6377.00000    0.19670  109.75250    9.00810   -9999.25    0.02980   -9999.25   -9999.25    2.60700   78.89630  145.12730   77.50190
 6377.50000    0.20240  113.24590    9.00820   -9999.25    0.02880   -9999.25   -9999.25    2.60190   78.44640  145.40360   78.07020
 6378.00000    0.20900  114.56370    9.00860   -9999.25    0.02770   -9999.25   -9999.25    2.60540   78.41930  146.42270   78.60850
 6378.50000    0.21460  113.54870    9.00900   -9999.25    0.02710   -9999.25   -9999.25    2.61010   78.88510  147.84690   79.38300
 6379.00000    0.21600  112.60460    9.00940   -9999.25    0.02710   -9999.25   -9999.25    2.61230   79.39800  149.10770   80.09010
 6379.50000    0.21590  112.97390    9.00980   -9999.25    0.02900   -9999.25   -9999.25    2.60390   79.83590  149.69620   80.61870
 6380.00000    0.21580  114.50190    8.99890   -9999.25    0.03370   -9999.25   -9999.25    2.58720   80.16000  149.78090   80.62780
 6380.50000    0.21560  114.57720    8.98600   -9999.25    0.04000   -9999.25   -9999.25    2.56660   80.48400  149.68850   80.34750
 6381.00000    0.21550  113.57530    8.99560   -9999.25    0.03870   -9999.25   -9999.25    2.56450   79.97020  149.20360   80.33310
 6381.50000    0.21450  112.57200    9.01270   -9999.25    0.03570   -9999.25   -9999.25    2.56910   79.13390  149.28020   80.52060
 6382.00000    0.21280  111.59860    9.02580   -9999.25    0.03280   -9999.25   -9999.25    2.57900   79.45630  149.35670   81.44480
 6382.50000    0.21100  111.66450    9.03520   -9999.25    0.02980   -9999.25   -9999.25    2.58450   80.17090  149.74110   82.84590
 6383.00000    0.20930  112.29230    9.04450   -9999.25    0.02690   -9999.25   -9999.25    2.58700   82.07060  151.65280   84.19510
 6383.50000    0.20970  116.23110    9.05000   -9999.25    0.02500   -9999.25   -9999.25    2.58950   82.92260  152.64360   84.43290
 6384.00000    0.21250  120.40500    9.04400   -9999.25    0.02370   -9999.25   -9999.25    2.58950   82.52040  152.64290   83.78140
 6384.50000    0.21840  120.80770    9.03810   -9999.25    0.02020   -9999.25   -9999.25    2.58280   81.86280  152.31510   82.59340
 6385.00000    0.22380  120.61750    9.03210   -9999.25    0.01430   -9999.25   -9999.25    2.57270   81.17490  151.73570   81.91250
 6385.50000    0.22600  120.48020    9.02610   -9999.25    0.00840   -9999.25   -9999.25    2.57030   80.82890  150.67690   81.70650
 6386.00000    0.22110  122.35920    9.02010   -9999.25    0.00680   -9999.25   -9999.25    2.57370   80.82890  150.85130   82.22930
 6386.50000    0.21500  120.39410    9.01240   -9999.25    0.00710   -9999.25   -9999.25    2.57810   81.08010  151.88190   83.04820
 6387.00000    0.21370  117.49760    9.00410   -9999.25    0.00760   -9999.25   -9999.25    2.58210   81.27000  153.00050   84.05870
 6387.50000    0.21550  115.77650    8.99570   -9999.25    0.00810   -9999.25   -9999.25    2.58580   82.33950  154.11920   84.28340
 6388.00000    0.22020  117.77350    8.99890   -9999.25    0.00540   -9999.25   -9999.25    2.58880   83.69220  154.90420   84.58000
 6388.50000    0.22640  122.22350    9.00140   -9999.25    0.00110   -9999.25   -9999.25    2.58630   84.09830  155.13550   84.56170
 6389.00000    0.23250  125.43030    9.00060   -9999.25   -0.00810   -9999.25   -9999.25    2.57860   82.76340  154.61660   83.33400
 6389.50000    0.23760  124.07210    8.99900   -9999.25   -0.00910   -9999.25   -9999.25    2.57150   81.95240  153.22840   81.83110
 6390.00000    0.23240  121.86990    8.99740   -9999.25    0.00170   -9999.25   -9999.25    2.57080   81.55280  151.14910   80.40130
 6390.50000    0.22430  119.68520    8.99570   -9999.25    0.02650   -9999.25   -9999.25    2.57850   81.19770  149.32690   79.49990
 6391.00000    0.21630  116.64400    8.99410   -9999.25    0.03110   -9999.25   -9999.25    2.59660   81.26130  149.46580   79.97920
 6391.50000    0.21000  115.80190    8.99250   -9999.25    0.02040   -9999.25   -9999.25    2.61440   81.75580  149.83820   80.52570
 6392.00000    0.20970  114.30940    8.99080   -9999.25    0.00740   -9999.25   -9999.25    2.61440   81.95530  149.01130   80.13950
 6392.50000    0.21060  111.86840    8.98920   -9999.25   -0.00560   -9999.25   -9999.25    2.59990   81.68360  147.63940   78.90730
 6393.00000    0.21150  108.50000    8.98530   -9999.25   -0.00560   -9999.25   -9999.25    2.58040   81.10810  146.26740   76.92880
 6393.50000    0.21220  106.54540    8.97800   -9999.25    0.01420   -9999.25   -9999.25    2.57310   79.97900  144.55290   75.91010
 6394.00000    0.21010  104.63480    8.97070   -9999.25    0.02830   -9999.25   -9999.25    2.58520   78.37630  140.50460   75.51780
 6394.50000    0.20580  103.73460    8.96340   -9999.25    0.01770   -9999.25   -9999.25    2.59910   76.92160  136.68310   75.26800
 6395.00000    0.20140  103.69640    8.95610   -9999.25    0.00880   -9999.25   -9999.25    2.61160   76.23220  136.29140   75.19850
 6395.50000    0.19750  105.80090    8.94880   -9999.25    0.01460   -9999.25   -9999.25    2.61190   76.48300  137.35330   74.78250
 6396.00000    0.19500  109.81340    8.94150   -9999.25    0.02090   -9999.25   -9999.25    2.61060   77.48740  138.25980   74.77590
 6396.50000    0.19520  113.99880    8.93420   -9999.25    0.02710   -9999.25   -9999.25    2.60970   78.07140  140.34970   75.52470
 6397.00000    0.19510  113.43330    8.92690   -9999.25    0.03340   -9999.25   -9999.25    2.61480   77.80540  143.81540   76.04580
 6397.50000    0.19510  110.38900    8.91960   -9999.25    0.03760   -9999.25   -9999.25    2.61450   77.71610  145.00010   76.24410
 6398.00000    0.19520  109.09030    8.91400   -9999.25    0.03770   -9999.25   -9999.25    2.61190   77.74020  144.39410   76.47460
 6398.50000    0.19690  109.12690    8.91450   -9999.25    0.03770   -9999.25   -9999.25    2.60830   78.12940  144.91250   76.86270
 6399.00000    0.20140  109.27400    8.91500   -9999.25    0.02980   -9999.25   -9999.25    2.60470   78.34910  146.34370   77.92980
 6399.50000    0.20510  109.57800    8.91550   -9999.25    0.02050   -9999.25   -9999.25    2.60110   78.48260  148.16900   79.27730
 6400.00000    0.20990  110.40510    8.91600   -9999.25    0.01120   -9999.25   -9999.25    2.59760   79.25140  150.02360   79.66960
 6400.50000    0.21470  111.65910    8.91650   -9999.25    0.00190   -9999.25   -9999.25    2.59520   80.26790  152.52240   80.06240
 6401.00000    0.21920  112.35310    8.91700   -9999.25   -0.00730   -9999.25   -9999.25    2.59390   81.51720  154.19920   80.68890
 6401.50000    0.21960  112.92260    8.91750   -9999.25   -0.01270   -9999.25   -9999.25    2.59200   82.14310  154.73040   81.64460
 6402.00000    0.21860  115.72830    8.91800   -9999.25   -0.01380   -9999.25   -9999.25    2.58860   82.44500  155.20540   82.73450
 6402.50000    0.21410  118.59350    8.91850   -9999.25    0.00150   -9999.25   -9999.25    2.57760   83.06350  155.68050   83.15580
 6403.00000    0.21920  119.75620    8.91900   -9999.25    0.02770   -9999.25   -9999.25    2.57270   83.71970  156.32360   83.69060
 6403.50000    0.22660  120.55990    8.91950   -9999.25    0.02980   -9999.25   -9999.25    2.57500   84.18110  156.17900   84.21790
 6404.00000    0.22510  122.37580    8.92130   -9999.25    0.02630   -9999.25   -9999.25    2.57830   83.44460  154.56670   83.30390
 6404.50000    0.22000  124.18690    8.92350   -9999.25    0.02470   -9999.25   -9999.25    2.58110   82.07910  151.61130   81.26050
 6405.00000    0.21490  124.98220    8.92580   -9999.25    0.02720   -9999.25   -9999.25    2.58210   80.70420  147.94370   79.48490
 6405.50000    0.20970  122.62550    8.92800   -9999.25    0.03060   -9999.25   -9999.25    2.58490   79.65980  144.97870   77.72740
 6406.00000    0.20230  115.37460    8.93020   -9999.25    0.03390   -9999.25   -9999.25    2.59390   77.17990  142.52290   76.57890
 6406.50000    0.19390  106.41660    8.93240   -9999.25    0.03390   -9999.25   -9999.25    2.60390   75.65260  140.58560   76.53880
