~Version ---------------------------------------------------
VERS.   2.0 : CWLS log ASCII Standard -VERSION 2.0
WRAP.    NO : One line per depth step
DLM . SPACE : Column Data Section Delimiter
~Well ------------------------------------------------------
STRT .F                    2.0 : START DEPTH
STOP .F                 8821.0 : STOP DEPTH
STEP .F                    0.5 : STEP
NULL .                -9999.25 : NULL VALUE
COMP .                         : COMPANY
WELL .                         : WELL
FLD  .                         : FIELD
LOC  .                         : LOCATION
PROV .                         : PROVINCE
CNTY .                         : COUNTY
STAT .                         : STATE
CTRY .                         : COUNTRY
SRVC .                         : SERVICE COMPANY
DATE .                         : DATE
UWI  .                         : UNIQUE WELL ID
API  .                         : API NUMBER
SLAT .WGS84 0.7114496408056965 : SURFACE LATITUDE
SLON .WGS84  6.558043134729999 : SURFACE LONGITUDE
DATUM.F                2566.69 : DEPTH DATUM ELEV
~Curve Information -----------------------------------------
DEPT   .F     : 1 MEASURED DEPTH
PORS_LS.DEC   : LINEAR POROSITY FROM LIMESTONE
GRD    .GAPI  : GAMMA RAY FROM DENSITY LOG
CALD   .IN    : CALIPER FROM DENSITY LOG
PORZ_LS.DEC   : Z-DENSITY CORRECTED POROSITY LIMESTONE
ZCOR   .G/C3  : DENSITY CORRECTION
PE     .B/E   : PHOTO ELECTRIC CROSS SECTION
CNC_LS .DEC   : BOREHOLE SIZE CORRECTED COMPENSATED NEUTRON POROSITY (LIMESTONE)
ZDEN   .G/C3  : FORMATION BULK DENSITY
DTCO   .US/F  : DELTA-T COMPRESSIONAL
DTSM   .US/F  : DELTA-T SHEAR
DT     .US/F  : DELTA-T (INTERVAL TRANSIT TIME)
~Params ----------------------------------------------------
~Other -----------------------------------------------------
~ASCII -----------------------------------------------------
# ...
 6651.00000    0.11910   78.66300    8.65680   -9999.25   -0.00150   -9999.25   -9999.25    2.61010   70.51550  124.46840   69.43430
 6651.50000    0.12090   79.97730    8.65930   -9999.25   -0.00270   -9999.25   -9999.25    2.60790   70.72450  125.75850   69.46230
 6652.00000    0.12480   82.59530    8.66530   -9999.25   -0.00100   -9999.25   -9999.25    2.60540   71.09200  126.74450   70.85120
 6652.50000    0.13290   85.41540    8.67230   -9999.25    0.00230   -9999.25   -9999.25    2.59930   72.14580  129.47400   73.13500
 6653.00000    0.14890   89.17320    8.67610   -9999.25    0.00570   -9999.25   -9999.25    2.59160   73.56850  133.50200   74.82800
 6653.50000    0.16860   95.12550    8.67640   -9999.25    0.01810   -9999.25   -9999.25    2.58590   75.13830  137.19470   76.20110
 6654.00000    0.18590  104.13100    8.67220   -9999.25    0.03150   -9999.25   -9999.25    2.58100   76.42160  139.10250   76.97220
 6654.50000    0.19900  107.75580    8.66800   -9999.25    0.04490   -9999.25   -9999.25    2.57990   77.37370  139.84040   77.04330
 6655.00000    0.19790  109.28280    8.66380   -9999.25    0.05840   -9999.25   -9999.25    2.57940   77.03060  139.81080   76.28450
 6655.50000    0.18590  108.56470    8.65960   -9999.25    0.07180   -9999.25   -9999.25    2.57800   75.73880  139.12030   74.57420
 6656.00000    0.17070  107.40190    8.65610   -9999.25    0.07900   -9999.25   -9999.25    2.57700   74.81090  137.81700   72.77640
 6656.50000    0.16660  104.94120    8.65280   -9999.25    0.08030   -9999.25   -9999.25    2.57750   74.27050  134.69650   71.94760
 6657.00000    0.15840  100.91840    8.65190   -9999.25    0.06010   -9999.25   -9999.25    2.58470   73.66310  132.69350   72.13670
 6657.50000    0.15930   94.88910    8.65220   -9999.25    0.03940   -9999.25   -9999.25    2.59450   72.98860  130.73840   72.38030
 6658.00000    0.16090   91.87600    8.65250   -9999.25    0.01870   -9999.25   -9999.25    2.60800   71.91270  128.55410   72.03500
 6658.50000    0.16260   94.29570    8.65280   -9999.25    0.01040   -9999.25   -9999.25    2.61860   70.81520  125.18900   71.19920
 6659.00000    0.16160   97.08590    8.65310   -9999.25    0.01790   -9999.25   -9999.25    2.62390   70.25740  123.02930   69.81180
 6659.50000    0.15010   94.36770    8.65340   -9999.25    0.02100   -9999.25   -9999.25    2.62800   69.65590  121.24500   68.36110
 6660.00000    0.13860   89.98810    8.65370   -9999.25    0.02000   -9999.25   -9999.25    2.63290   69.75700  122.33370   68.67170
 6660.50000    0.12750   83.26450    8.65460   -9999.25    0.01890   -9999.25   -9999.25    2.63770   70.02790  125.06550   69.70670
 6661.00000    0.12720   78.48190    8.65630   -9999.25    0.01990   -9999.25   -9999.25    2.64070   70.52790  128.60650   70.55200
 6661.50000    0.13080   82.12980    8.66870   -9999.25    0.02160   -9999.25   -9999.25    2.63260   71.56160  131.98720   72.40340
 6662.00000    0.14420   85.96470    8.71510   -9999.25    0.02330   -9999.25   -9999.25    2.61780   73.70290  135.19750   74.64760
 6662.50000    0.15770   89.12910    8.76160   -9999.25    0.04130   -9999.25   -9999.25    2.60570   75.63810  137.17550   76.54030
 6663.00000    0.17110   95.51900    8.83040   -9999.25    0.05930   -9999.25   -9999.25    2.59250   76.52400  139.21140   77.37520
 6663.50000    0.18500  103.12860    8.86420   -9999.25    0.06630   -9999.25   -9999.25    2.57930   77.49010  140.60950   77.47030
 6664.00000    0.18920  112.31360    8.90170   -9999.25    0.06190   -9999.25   -9999.25    2.57600   77.59670  141.17600   77.14850
 6664.50000    0.18680  114.50420    8.92910   -9999.25    0.04290   -9999.25   -9999.25    2.59300   77.64320  142.10920   77.19730
 6665.00000    0.18810  114.72450    8.95640   -9999.25    0.02730   -9999.25   -9999.25    2.61250   77.80210  142.70750   77.07580
 6665.50000    0.19180  115.44720    8.98380   -9999.25    0.02590   -9999.25   -9999.25    2.61530   77.85690  143.22240   77.16240
 6666.00000    0.19500  117.69600    8.98700   -9999.25    0.02810   -9999.25   -9999.25    2.61710   78.07120  142.42810   77.64100
 6666.50000    0.19800  117.99130    8.98320   -9999.25    0.03030   -9999.25   -9999.25    2.62250   78.39800  141.74620   78.80290
 6667.00000    0.20010  118.09140    8.97940   -9999.25    0.03120   -9999.25   -9999.25    2.62960   78.86980  142.69920   80.31070
 6667.50000    0.19880  119.02370    8.97570   -9999.25    0.01730   -9999.25   -9999.25    2.62910   79.24470  144.82910   81.48040
 6668.00000    0.19690  120.84100    8.97220   -9999.25    0.00570   -9999.25   -9999.25    2.61710   79.60100  146.51730   80.04380
 6668.50000    0.19690  120.50320    8.97020   -9999.25    0.00570   -9999.25   -9999.25    2.60080   79.58720  144.91300   77.60860
 6669.00000    0.19850  118.31650    8.96820   -9999.25    0.01460   -9999.25   -9999.25    2.58240   79.12670  140.07690   75.01650
 6669.50000    0.18110  113.14310    8.91010   -9999.25    0.03380   -9999.25   -9999.25    2.55490   77.67580  135.40790   71.61440
 6670.00000    0.16600  104.87020    8.84810   -9999.25    0.05290   -9999.25   -9999.25    2.54630   74.14100  129.94590   69.14110
 6670.50000    0.14930   98.49620    8.78610   -9999.25    0.06160   -9999.25   -9999.25    2.54660   71.69660  126.86460   68.42490
 6671.00000    0.13550   92.67750    8.74790   -9999.25    0.04950   -9999.25   -9999.25    2.57890   71.92950  127.97800   68.86910
 6671.50000    0.13570   90.32980    8.74490   -9999.25    0.02170   -9999.25   -9999.25    2.62650   72.84710  131.26740   70.46610
 6672.00000    0.14410   91.77730    8.75030   -9999.25    0.01990   -9999.25   -9999.25    2.63900   73.62470  133.39630   73.02430
 6672.50000    0.15490   94.26610    8.76820   -9999.25    0.02030   -9999.25   -9999.25    2.63180   74.08140  134.02550   73.77450
 6673.00000    0.16190   96.83060    8.78230   -9999.25    0.02070   -9999.25   -9999.25    2.62020   74.31530  134.33020   73.85270
 6673.50000    0.16680  100.10340    8.79150   -9999.25    0.02110   -9999.25   -9999.25    2.61740   74.48590  134.66370   73.93490
 6674.00000    0.17060  102.52440    8.79440   -9999.25    0.02220   -9999.25   -9999.25    2.61620   74.82730  136.18560   74.22200
 6674.50000    0.17340  102.79500    8.81650   -9999.25    0.02340   -9999.25   -9999.25    2.61050   75.29730  138.41220   74.78170
 6675.00000    0.17530  102.72100    8.83860   -9999.25    0.02470   -9999.25   -9999.25    2.59790   76.07600  139.62320   75.96720
 6675.50000    0.17850  102.81740    8.86070   -9999.25    0.02590   -9999.25   -9999.25    2.58230   76.79780  140.85260   77.09550
 6676.00000    0.18680  105.41330    8.88280   -9999.25    0.02720   -9999.25   -9999.25    2.57510   77.48180  141.70710   78.03040
 6676.50000    0.19610  109.89640    8.88670   -9999.25    0.02740   -9999.25   -9999.25    2.58160   77.74090  141.11440   78.19530
 6677.00000    0.20220  112.22840    8.87880   -9999.25    0.02710   -9999.25   -9999.25    2.59100   77.01100  138.98040   77.59120
 6677.50000    0.19660  112.32710    8.86080   -9999.25    0.02510   -9999.25   -9999.25    2.59490   76.29260  138.86370   76.46250
 6678.00000    0.19100  112.10630    8.83590   -9999.25    0.02320   -9999.25   -9999.25    2.59140   76.18810  140.22660   75.19260
 6678.50000    0.18540  110.03170    8.82110   -9999.25    0.02440   -9999.25   -9999.25    2.58790   77.10810  142.23490   74.93490
 6679.00000    0.17970  105.08120    8.81310   -9999.25    0.03640   -9999.25   -9999.25    2.58440   77.79300  144.24320   75.82710
 6679.50000    0.17750  101.40030    8.81000   -9999.25    0.05020   -9999.25   -9999.25    2.58490   78.02670  145.23330   76.88720
 6680.00000    0.18170  102.23460    8.82310   -9999.25    0.04830   -9999.25   -9999.25    2.58780   78.29520  144.59900   78.16580
 6680.50000    0.18870  106.73240    8.84920   -9999.25    0.03600   -9999.25   -9999.25    2.59490   78.29680  143.13350   78.29200
 6681.00000    0.20050  110.23860    8.87830   -9999.25    0.02370   -9999.25   -9999.25    2.60200   77.72940  141.58040   77.78370
