~Version ---------------------------------------------------
VERS.   2.0 : CWLS log ASCII Standard -VERSION 2.0
WRAP.    NO : One line per depth step
DLM . SPACE : Column Data Section Delimiter
~Well ------------------------------------------------------
STRT .F                    2.0 : START DEPTH
STOP .F                 8821.0 : STOP DEPTH
STEP .F                    0.5 : STEP
NULL .                -9999.25 : NULL VALUE
COMP .                         : COMPANY
WELL .                         : WELL
FLD  .                         : FIELD
LOC  .                         : LOCATION
PROV .                         : PROVINCE
CNTY .                         : COUNTY
STAT .                         : STATE
CTRY .                         : COUNTRY
SRVC .                         : SERVICE COMPANY
DATE .                         : DATE
UWI  .                         : UNIQUE WELL ID
API  .                         : API NUMBER
SLAT .WGS84 0.7114496408056965 : SURFACE LATITUDE
SLON .WGS84  6.558043134729999 : SURFACE LONGITUDE
DATUM.F                2566.69 : DEPTH DATUM ELEV
~Curve Information -----------------------------------------
DEPT   .F     : 1 MEASURED DEPTH
PORS_LS.DEC   : LINEAR POROSITY FROM LIMESTONE
GRD    .GAPI  : GAMMA RAY FROM DENSITY LOG
CALD   .IN    : CALIPER FROM DENSITY LOG
PORZ_LS.DEC   : Z-DENSITY CORRECTED POROSITY LIMESTONE
ZCOR   .G/C3  : DENSITY CORRECTION
PE     .B/E   : PHOTO ELECTRIC CROSS SECTION
CNC_LS .DEC   : BOREHOLE SIZE CORRECTED COMPENSATED NEUTRON POROSITY (LIMESTONE)
ZDEN   .G/C3  : FORMATION BULK DENSITY
DTCO   .US/F  : DELTA-T COMPRESSIONAL
DTSM   .US/F  : DELTA-T SHEAR
DT     .US/F  : DELTA-T (INTERVAL TRANSIT TIME)
~Params ----------------------------------------------------
~Other -----------------------------------------------------
~ASCII -----------------------------------------------------
# ...
 5065.00000    0.15390   83.90980    8.77210   -9999.25   -0.01030   -9999.25   -9999.25    2.59190   73.15470  131.81440   73.22670
 5065.50000    0.15460   84.11980    8.77190   -9999.25   -0.00860   -9999.25   -9999.25    2.59330   73.14460  131.80530   73.10520
 5066.00000    0.15550   82.86130    8.76980   -9999.25   -0.00790   -9999.25   -9999.25    2.59050   73.12490  131.79500   72.88690
 5066.50000    0.15640   81.50500    8.76560   -9999.25   -0.00720   -9999.25   -9999.25    2.58930   73.16730  131.72630   72.66740
 5067.00000    0.15650   80.75180    8.75870   -9999.25   -0.00850   -9999.25   -9999.25    2.59540   73.11680  131.54860   72.53300
 5067.50000    0.15540   81.68700    8.75460   -9999.25   -0.00980   -9999.25   -9999.25    2.60490   73.02220  131.28440   72.46620
 5068.00000    0.15250   82.82600    8.75940   -9999.25   -0.01160   -9999.25   -9999.25    2.60700   72.75180  130.92080   72.39570
 5068.50000    0.14960   83.96930    8.76620   -9999.25   -0.01360   -9999.25   -9999.25    2.60160   72.60370  130.55720   72.22660
 5069.00000    0.14730   85.07240    8.77820   -9999.25   -0.01630   -9999.25   -9999.25    2.59620   72.50220  130.24380   72.09800
 5069.50000    0.14510   85.35490    8.78330   -9999.25   -0.01910   -9999.25   -9999.25    2.59100   72.38930  130.04420   72.22430
 5070.00000    0.14290   83.96460    8.78580   -9999.25   -0.01900   -9999.25   -9999.25    2.58700   72.23790  130.09900   72.39560
 5070.50000    0.14180   81.39870    8.78840   -9999.25   -0.01780   -9999.25   -9999.25    2.58300   72.32730  130.18870   72.47930
 5071.00000    0.14290   80.75060    8.79090   -9999.25   -0.01670   -9999.25   -9999.25    2.58230   72.54320  130.67490   72.59320
 5071.50000    0.14540   81.65000    8.78760   -9999.25   -0.01550   -9999.25   -9999.25    2.58480   72.82910  131.61670   72.85010
 5072.00000    0.14920   82.62480    8.77880   -9999.25   -0.01440   -9999.25   -9999.25    2.58730   73.03310  132.21810   73.41810
 5072.50000    0.15280   83.86840    8.76660   -9999.25   -0.01220   -9999.25   -9999.25    2.58790   73.18250  132.79050   73.98620
 5073.00000    0.15580   84.37920    8.75510   -9999.25   -0.00980   -9999.25   -9999.25    2.58080   73.46750  133.14960   74.42680
 5073.50000    0.16050   84.83560    8.75230   -9999.25   -0.00740   -9999.25   -9999.25    2.57830   73.66290  133.54530   74.59250
 5074.00000    0.16750   85.29170    8.74960   -9999.25   -0.00720   -9999.25   -9999.25    2.57810   73.90990  133.27730   74.57810
 5074.50000    0.17020   85.73320    8.74690   -9999.25   -0.00720   -9999.25   -9999.25    2.57520   74.10520  133.27440   74.17910
 5075.00000    0.17170   85.94010    8.74920   -9999.25   -0.00750   -9999.25   -9999.25    2.57190   73.96230  133.23410   73.67780
 5075.50000    0.17100   85.79580    8.76270   -9999.25   -0.00910   -9999.25   -9999.25    2.56970   73.71470  132.94240   73.28090
 5076.00000    0.16860   84.82400    8.77030   -9999.25   -0.01070   -9999.25   -9999.25    2.57320   73.64980  132.81780   73.21890
 5076.50000    0.16540   83.71510    8.76860   -9999.25   -0.01230   -9999.25   -9999.25    2.57770   73.75330  133.11470   73.16010
 5077.00000    0.16220   82.59520    8.76200   -9999.25   -0.01350   -9999.25   -9999.25    2.58440   73.66790  133.40450   73.10780
 5077.50000    0.16060   81.95100    8.75630   -9999.25   -0.01440   -9999.25   -9999.25    2.58850   73.58220  133.84220   73.06220
 5078.00000    0.16260   82.50980    8.76320   -9999.25   -0.01490   -9999.25   -9999.25    2.58920   73.57080  133.83350   72.99040
 5078.50000    0.16720   84.67970    8.77220   -9999.25   -0.01490   -9999.25   -9999.25    2.58910   73.53360  134.00820   72.80220
 5079.00000    0.16970   86.84190    8.76620   -9999.25   -0.01470   -9999.25   -9999.25    2.58780   73.45970  133.39490   72.60340
 5079.50000    0.16840   86.91930    8.76150   -9999.25   -0.01550   -9999.25   -9999.25    2.59020   72.90380  132.78150   72.29320
 5080.00000    0.16600   85.21750    8.76130   -9999.25   -0.01630   -9999.25   -9999.25    2.59480   72.63740  132.16820   72.16290
 5080.50000    0.16360   83.42160    8.76110   -9999.25   -0.01690   -9999.25   -9999.25    2.61160   72.58460  131.99030   72.19000
 5081.00000    0.16130   82.32920    8.76090   -9999.25   -0.01560   -9999.25   -9999.25    2.62390   72.80710  132.28710   72.24870
 5081.50000    0.16020   83.69180    8.76070   -9999.25   -0.01200   -9999.25   -9999.25    2.62060   72.95840  132.35430   72.34550
 5082.00000    0.15980   86.11000    8.76050   -9999.25   -0.00790   -9999.25   -9999.25    2.60880   73.30830  132.69720   72.52720
 5082.50000    0.15990   89.89300    8.76490   -9999.25   -0.00610   -9999.25   -9999.25    2.59790   73.79420  133.44830   72.68420
 5083.00000    0.16120   93.71880    8.77070   -9999.25   -0.00730   -9999.25   -9999.25    2.59400   74.02050  134.20930   72.93750
 5083.50000    0.16310   94.52200    8.77240   -9999.25   -0.00950   -9999.25   -9999.25    2.59350   74.09440  134.59880   73.25650
 5084.00000    0.16500   91.92230    8.76760   -9999.25   -0.01160   -9999.25   -9999.25    2.59590   74.09190  134.79110   73.44490
 5084.50000    0.16690   89.16140    8.76510   -9999.25   -0.01340   -9999.25   -9999.25    2.59830   74.26870  135.03550   73.68440
 5085.00000    0.16650   86.80790    8.76570   -9999.25   -0.01360   -9999.25   -9999.25    2.60220   74.58040  135.31550   73.93930
 5085.50000    0.16330   86.61920    8.77010   -9999.25   -0.01240   -9999.25   -9999.25    2.60760   74.57810  135.59550   74.25140
 5086.00000    0.16010   86.76900    8.77450   -9999.25   -0.01040   -9999.25   -9999.25    2.60930   74.42570  135.72030   74.35730
 5086.50000    0.16120   87.52790    8.77780   -9999.25   -0.00820   -9999.25   -9999.25    2.60500   74.64650  135.83230   74.41240
 5087.00000    0.16460   89.58810    8.78020   -9999.25   -0.00670   -9999.25   -9999.25    2.59990   74.87270  136.07470   74.49420
 5087.50000    0.16820   91.68110    8.77350   -9999.25   -0.00520   -9999.25   -9999.25    2.59820   74.93270  136.19620   74.73280
 5088.00000    0.17070   92.94150    8.76460   -9999.25   -0.00370   -9999.25   -9999.25    2.59880   75.20130  136.63880   75.08930
 5088.50000    0.17130   92.94150    8.75560   -9999.25   -0.00220   -9999.25   -9999.25    2.60100   75.34400  137.76980   75.64900
 5089.00000    0.17190   91.51020    8.75430   -9999.25   -0.00040   -9999.25   -9999.25    2.60260   75.63010  138.79510   76.27790
 5089.50000    0.17600   89.08350    8.75300   -9999.25   -0.00310   -9999.25   -9999.25    2.59750   75.87360  139.97880   76.23940
 5090.00000    0.18020   88.91340    8.76130   -9999.25   -0.01020   -9999.25   -9999.25    2.59270   76.34830  140.42930   76.13740
 5090.50000    0.18190   89.39220    8.77060   -9999.25   -0.01320   -9999.25   -9999.25    2.58990   76.43060  139.84130   75.99620
 5091.00000    0.18220   89.86960    8.77380   -9999.25   -0.01330   -9999.25   -9999.25    2.59200   75.88200  139.25340   75.70550
 5091.50000    0.18100   90.23190    8.77340   -9999.25   -0.01330   -9999.25   -9999.25    2.59700   75.50920  137.76150   75.29870
 5092.00000    0.17920   90.11430    8.77290   -9999.25   -0.01180   -9999.25   -9999.25    2.60430   75.56800  136.94110   74.86100
 5092.50000    0.17740   88.85210    8.77250   -9999.25   -0.00760   -9999.25   -9999.25    2.61180   75.44880  136.54240   74.41470
 5093.00000    0.17420   86.56990    8.77060   -9999.25   -0.00150   -9999.25   -9999.25    2.60890   75.18790  136.36700   74.24760
 5093.50000    0.17180   82.47190    8.76720   -9999.25    0.00460   -9999.25   -9999.25    2.59960   75.17690  136.17990   74.31830
 5094.00000    0.16930   78.36930    8.76450   -9999.25    0.00270   -9999.25   -9999.25    2.60010   75.10290  136.50890   74.47950
 5094.50000    0.16660   78.26490    8.76690   -9999.25   -0.00230   -9999.25   -9999.25    2.60730   75.06760  136.51810   74.73960
 5095.00000    0.16540   79.80880    8.77210   -9999.25   -0.00720   -9999.25   -9999.25    2.61000   75.08390  136.54150   74.81520
