~Version ---------------------------------------------------
VERS.   2.0 : CWLS log ASCII Standard -VERSION 2.0
WRAP.    NO : One line per depth step
DLM . SPACE : Column Data Section Delimiter
~Well ------------------------------------------------------
STRT .F                    2.0 : START DEPTH
STOP .F                 8821.0 : STOP DEPTH
STEP .F                    0.5 : STEP
NULL .                -9999.25 : NULL VALUE
COMP .                         : COMPANY
WELL .                         : WELL
FLD  .                         : FIELD
LOC  .                         : LOCATION
PROV .                         : PROVINCE
CNTY .                         : COUNTY
STAT .                         : STATE
CTRY .                         : COUNTRY
SRVC .                         : SERVICE COMPANY
DATE .                         : DATE
UWI  .                         : UNIQUE WELL ID
API  .                         : API NUMBER
SLAT .WGS84 0.7114496408056965 : SURFACE LATITUDE
SLON .WGS84  6.558043134729999 : SURFACE LONGITUDE
DATUM.F                2566.69 : DEPTH DATUM ELEV
~Curve Information -----------------------------------------
DEPT   .F     : 1 MEASURED DEPTH
PORS_LS.DEC   : LINEAR POROSITY FROM LIMESTONE
GRD    .GAPI  : GAMMA RAY FROM DENSITY LOG
CALD   .IN    : CALIPER FROM DENSITY LOG
PORZ_LS.DEC   : Z-DENSITY CORRECTED POROSITY LIMESTONE
ZCOR   .G/C3  : DENSITY CORRECTION
PE     .B/E   : PHOTO ELECTRIC CROSS SECTION
CNC_LS .DEC   : BOREHOLE SIZE CORRECTED COMPENSATED NEUTRON POROSITY (LIMESTONE)
ZDEN   .G/C3  : FORMATION BULK DENSITY
DTCO   .US/F  : DELTA-T COMPRESSIONAL
DTSM   .US/F  : DELTA-T SHEAR
DT     .US/F  : DELTA-T (INTERVAL TRANSIT TIME)
~Params ----------------------------------------------------
~Other -----------------------------------------------------
~ASCII -----------------------------------------------------
# ...
 5858.00000    0.20600  102.09130    8.92190   -9999.25    0.07230   -9999.25   -9999.25    2.49490   83.81830  167.24310   83.18190
 5858.50000    0.20950   98.89580    8.99890   -9999.25    0.04260   -9999.25   -9999.25    2.44600   84.74130  166.57750   83.07780
 5859.00000    0.21250   99.78370    9.03410   -9999.25    0.01460   -9999.25   -9999.25    2.40630   85.43210  166.03020   81.45370
 5859.50000    0.21290  103.19740    9.03440   -9999.25    0.04460   -9999.25   -9999.25    2.37760   84.60670  165.68380   78.49670
 5860.00000    0.21240  103.59320    9.03420   -9999.25    0.18320   -9999.25   -9999.25    2.33960   83.28020  168.00430   75.48770
 5860.50000    0.20970   99.34720    8.95810   -9999.25    0.19660   -9999.25   -9999.25    2.35950   83.78750  173.33440   72.40970
 5861.00000    0.19420   94.79750    8.89860   -9999.25    0.13200   -9999.25   -9999.25    2.52190   87.59700  181.35790   71.56320
 5861.50000    0.18320   89.52190    8.87860   -9999.25    0.06750   -9999.25   -9999.25    2.60200   89.56300  183.93330   72.60390
 5862.00000    0.17240   86.79950    8.85870   -9999.25    0.01040   -9999.25   -9999.25    2.61560   88.60720  181.52930   74.05210
 5862.50000    0.16650   84.58980    8.83870   -9999.25   -0.00160   -9999.25   -9999.25    2.61330   87.46430  179.30940   75.37700
 5863.00000    0.16110   81.84850    8.81870   -9999.25   -0.01360   -9999.25   -9999.25    2.60760   88.62120  179.86460   75.32260
 5863.50000    0.16190   79.29640    8.84220   -9999.25   -0.01860   -9999.25   -9999.25    2.58100   90.07760  182.26800   74.50810
 5864.00000    0.16450   79.03910    8.85850   -9999.25    0.00870   -9999.25   -9999.25    2.55810   90.35600  181.54610   74.44590
 5864.50000    0.16950   79.36520    8.86480   -9999.25    0.05340   -9999.25   -9999.25    2.58340   88.15600  176.82480   74.43060
 5865.00000    0.17320   81.66700    8.86860   -9999.25    0.07130   -9999.25   -9999.25    2.61110   84.80530  170.45900   75.54070
 5865.50000    0.17700   84.47620    8.87680   -9999.25    0.03880   -9999.25   -9999.25    2.60920   82.24400  165.34230   80.65320
 5866.00000    0.18070   87.11220    8.91980   -9999.25    0.02020   -9999.25   -9999.25    2.47960   82.23990  165.03100   85.40550
 5866.50000    0.19380   90.05330    9.05610   -9999.25    0.06360   -9999.25   -9999.25    2.35030   83.07520  166.46870   87.75800
 5867.00000    0.20700   95.04890    9.53780   -9999.25    0.20800   -9999.25   -9999.25    2.28110   84.26720  168.49560   88.15590
 5867.50000    0.21770  102.00140    9.69980   -9999.25    0.29810   -9999.25   -9999.25    2.27600   84.82240  168.69440   88.04700
 5868.00000    0.22850  108.32670    9.85710   -9999.25    0.29820   -9999.25   -9999.25    2.28390   84.61970  168.35920   87.11690
 5868.50000    0.23930  112.67040    9.90330   -9999.25    0.27150   -9999.25   -9999.25    2.31450   83.96250  161.35280   86.98600
 5869.00000    0.24470  114.33870    9.91710   -9999.25    0.21550   -9999.25   -9999.25    2.35440   83.18850  153.20320   86.93740
 5869.50000    0.24620  114.22670    9.93090   -9999.25    0.15960   -9999.25   -9999.25    2.39790   82.56400  151.39500   85.90030
 5870.00000    0.24600  113.33150    9.92880   -9999.25    0.13110   -9999.25   -9999.25    2.37220   82.17170  150.19880   84.03370
 5870.50000    0.24450  111.73620    9.91090   -9999.25    0.17550   -9999.25   -9999.25    2.31810   81.48630  149.59860   82.16770
 5871.00000    0.23480  109.19300    9.73840   -9999.25    0.29470   -9999.25   -9999.25    2.31960   81.15640  148.65090   80.07870
 5871.50000    0.22360  105.28490    9.53180   -9999.25    0.29610   -9999.25   -9999.25    2.33450   81.11820  147.63720   79.81200
 5872.00000    0.21240  101.30550    9.39820   -9999.25    0.19110   -9999.25   -9999.25    2.35180   82.41530  148.39600   81.05860
 5872.50000    0.20240   99.54910    9.38230   -9999.25    0.02980   -9999.25   -9999.25    2.35350   83.79680  149.94530   82.18440
 5873.00000    0.20560  100.10780    9.36880   -9999.25    0.03740   -9999.25   -9999.25    2.37000   84.59230  151.75300   83.39420
 5873.50000    0.20940  102.01840    9.34690   -9999.25    0.16770   -9999.25   -9999.25    2.41780   85.27960  155.53370   84.31640
 5874.00000    0.21670  104.30900    9.28570   -9999.25    0.33920   -9999.25   -9999.25    2.43140   84.76620  159.35840   84.23150
 5874.50000    0.22400  106.56970    9.22310   -9999.25    0.34220   -9999.25   -9999.25    2.49470   83.85120  160.93030   84.78530
 5875.00000    0.23130  106.71530    9.18440   -9999.25    0.30500   -9999.25   -9999.25    2.56270   83.86390  161.27970   87.30730
 5875.50000    0.23860  106.03460    9.18440   -9999.25    0.26210   -9999.25   -9999.25    2.58190   83.96490  161.39040   89.56750
 5876.00000    0.24610  106.38860    9.22790   -9999.25    0.21930   -9999.25   -9999.25    2.58210   83.36940  160.05380   90.22930
 5876.50000    0.25760  109.61300    9.28990   -9999.25    0.17650   -9999.25   -9999.25    2.57500   82.70730  158.79880   91.24500
 5877.00000    0.26900  113.45620    9.34810   -9999.25    0.15130   -9999.25   -9999.25    2.55750   82.74230  158.85600   91.38100
 5877.50000    0.27640  117.49980    9.38320   -9999.25    0.14100   -9999.25   -9999.25    2.53860   83.91800  160.05040   89.74740
 5878.00000    0.27650  119.87540    9.42380   -9999.25    0.12900   -9999.25   -9999.25    2.51030   86.16140  160.42090   87.24990
 5878.50000    0.26550  118.11110    9.53130   -9999.25    0.10860   -9999.25   -9999.25    2.45890   87.65620  158.96060   85.45980
 5879.00000    0.24640  114.71670    9.65690   -9999.25    0.09870   -9999.25   -9999.25    2.41180   87.30010  157.63410   83.35810
 5879.50000    0.22730  109.20640    9.56960   -9999.25    0.11610   -9999.25   -9999.25    2.37110   84.50440  156.50450   82.40630
 5880.00000    0.21540  104.38800    9.48220   -9999.25    0.16950   -9999.25   -9999.25    2.34270   80.97150  155.37490   82.88160
 5880.50000    0.21720  100.67930    9.37670   -9999.25    0.18820   -9999.25   -9999.25    2.33500   80.04160  155.19800   84.14700
 5881.00000    0.22480  100.67930    9.31000   -9999.25    0.14410   -9999.25   -9999.25    2.36110   80.91890  156.79010   85.55180
 5881.50000    0.23080  101.15990    9.24970   -9999.25    0.12440   -9999.25   -9999.25    2.37760   82.29130  159.48290   87.56200
 5882.00000    0.23150  105.21340    9.24200   -9999.25    0.15780   -9999.25   -9999.25    2.40010   84.06530  163.05400   88.63150
 5882.50000    0.23130  107.10240    9.40380   -9999.25    0.18520   -9999.25   -9999.25    2.41780   85.38590  166.01800   88.76180
 5883.00000    0.23080  108.30690    9.49750   -9999.25    0.18520   -9999.25   -9999.25    2.45600   86.44490  166.41740   89.48090
 5883.50000    0.23570  110.21910    9.51090   -9999.25    0.18140   -9999.25   -9999.25    2.49680   87.57210  165.40680   90.00220
 5884.00000    0.24540  112.48730    9.51520   -9999.25    0.14450   -9999.25   -9999.25    2.52630   86.77750  163.03790   88.40000
 5884.50000    0.25380  114.08190    9.51950   -9999.25    0.10510   -9999.25   -9999.25    2.54450   86.17840  160.66890   87.08310
 5885.00000    0.25400  114.22030    9.52210   -9999.25    0.07800   -9999.25   -9999.25    2.54420   86.23960  157.81030   87.41830
 5885.50000    0.24690  111.72740    9.50570   -9999.25    0.06390   -9999.25   -9999.25    2.54050   86.29610  157.80730   86.50030
 5886.00000    0.23480  109.58470    9.46400   -9999.25    0.07400   -9999.25   -9999.25    2.53590   85.86490  159.38190   84.97830
 5886.50000    0.22590  109.27330    9.38990   -9999.25    0.15600   -9999.25   -9999.25    2.51080   85.11750  159.75690   82.14400
 5887.00000    0.22300  109.15400    9.25470   -9999.25    0.23690   -9999.25   -9999.25    2.47950   83.96810  159.76030   75.35780
 5887.50000    0.22010  107.70020    9.12960   -9999.25    0.24700   -9999.25   -9999.25    2.46860   81.47490  158.36920   70.10370
 5888.00000    0.21440  103.84540    9.02800   -9999.25    0.24810   -9999.25   -9999.25    2.49850   78.13510  151.79290   68.09640
