~Version ---------------------------------------------------
VERS.   2.0 : CWLS log ASCII Standard -VERSION 2.0
WRAP.    NO : One line per depth step
DLM . SPACE : Column Data Section Delimiter
~Well ------------------------------------------------------
STRT .F                 4630.0 : START DEPTH
STOP .F                12223.0 : STOP DEPTH
STEP .F                    0.5 : STEP
NULL .                -9999.25 : NULL VALUE
COMP .                         : COMPANY
WELL .                         : WELL
FLD  .                         : FIELD
LOC  .                         : LOCATION
PROV .                         : PROVINCE
CNTY .                         : COUNTY
STAT .                         : STATE
CTRY .                         : COUNTRY
SRVC .                         : SERVICE COMPANY
DATE .                         : DATE
UWI  .                         : UNIQUE WELL ID
API  .                         : API NUMBER
SLAT .WGS84 6.1568294008363935 : SURFACE LATITUDE
SLON .WGS84  4.519130721279083 : SURFACE LONGITUDE
DATUM.F                 2304.5 : DEPTH DATUM ELEV
~Curve Information -----------------------------------------
DEPT   .F     : 1 MEASURED DEPTH
DTCO   .US/F  : DELTA-T COMPRESSIONAL
DTSM   .US/F  : DELTA-T SHEAR
GRR    .GAPI  : GAMMA RAY FROM RESISTIVITY LOG
ILD    .OHMM  : INDUCTION DEEP RESISTIVITY
CILD   .MMHO  : INDUCTION DEEP CONDUCTIVITY
SPR    .MV    : SPONTANEOUS POTENTIAL FROM RESISTIVITY LOG
SFLA   .OHMM  : SPHERICALLY FOCUSED LOG RESISTIVITY AVERAGED OVER 2.5 FT
ILM    .OHMM  : INDUCTION MEDIUM RESISTIVITY
SFLU   .OHMM  : SHALLOW FOCUSED RESISTIVITY (UNAVERAGED)
NPHI_LS.DEC   : NEUTRON POROSITY LIMESTONE
DPHI_LS.DEC   : DENSITY POROSITY LIMESTONE
DRHO   .G/C3  : BULK DENSITY CORRECTION
CALD   .IN    : CALIPER FROM DENSITY LOG
PEF    .B/E   : PHOTOELECTRIC FACTOR
RHOB   .G/C3  : BULK DENSITY
PEFL   .B/E   : LONG SPACED CORRECTED PHOTELECTRIC FACTOR
PEFS   .B/E   : SHORT SPACED CORRECTED PHOTOELECTRIC FACTOR
~Params ----------------------------------------------------
~Other -----------------------------------------------------
~ASCII -----------------------------------------------------
# ...
 9242.50000   -9999.25   -9999.25  116.37220    5.81050   -9999.25  -31.76580   -9999.25    6.05150    7.58100    0.32000    0.13980    0.15260   12.86430    6.20890    2.44580   -9999.25   -9999.25
 9243.00000   -9999.25   -9999.25  117.06170    5.78260   -9999.25  -31.64370   -9999.25    5.99370    7.34280    0.31870    0.11830    0.15130   13.19990    6.51590    2.48450   -9999.25   -9999.25
 9243.50000   -9999.25   -9999.25  116.17640    5.75480   -9999.25  -31.52170   -9999.25    5.93650    7.06170    0.31520    0.10110    0.14950   13.33500    6.84270    2.52310   -9999.25   -9999.25
 9244.00000   -9999.25   -9999.25  113.75830    5.72710   -9999.25  -31.39960   -9999.25    5.87990    6.76040    0.30850    0.10060    0.14770   13.31040    6.90080    2.53910   -9999.25   -9999.25
 9244.50000   -9999.25   -9999.25  112.58270    5.69960   -9999.25  -31.27750   -9999.25    5.82210    6.69220    0.30270    0.10400    0.14340   13.22130    6.75310    2.53960   -9999.25   -9999.25
 9245.00000   -9999.25   -9999.25  111.80370    5.66520   -9999.25  -31.15540   -9999.25    5.76490    6.75120    0.30620    0.10960    0.14070   13.10190    6.53710    2.52820   -9999.25   -9999.25
 9245.50000   -9999.25   -9999.25  110.57050    5.60510   -9999.25  -31.03330   -9999.25    5.70830    6.93980    0.31210    0.11100    0.15480   13.00230    6.12290    2.52020   -9999.25   -9999.25
 9246.00000   -9999.25   -9999.25  108.08840    5.54570   -9999.25  -30.91120   -9999.25    5.66070    7.15450    0.32030    0.11120    0.17250   12.96400    5.93000    2.51990   -9999.25   -9999.25
 9246.50000   -9999.25   -9999.25  107.13640    5.48690   -9999.25  -30.92710   -9999.25    5.63510    7.30800    0.32090    0.10870    0.18610   12.99750    5.69440    2.52420   -9999.25   -9999.25
 9247.00000   -9999.25   -9999.25  108.92230    5.48100   -9999.25  -31.09520   -9999.25    5.60960    7.03670    0.31450    0.10190    0.19120   13.10410    5.52930    2.53430   -9999.25   -9999.25
 9247.50000   -9999.25   -9999.25  112.12990    5.49280   -9999.25  -31.26320   -9999.25    5.64010    6.91280    0.30290    0.09570    0.19060   13.20720    5.51120    2.54430   -9999.25   -9999.25
 9248.00000   -9999.25   -9999.25  113.92150    5.54230   -9999.25  -31.43120   -9999.25    5.69670    6.69230    0.29870    0.10010    0.18090   13.27750    5.79510    2.54740   -9999.25   -9999.25
 9248.50000   -9999.25   -9999.25  115.17660    5.59730   -9999.25  -31.59840   -9999.25    5.74790    6.53690    0.29450    0.11830    0.17420   13.29520    6.54620    2.50780   -9999.25   -9999.25
 9249.00000   -9999.25   -9999.25  115.24530    5.65280   -9999.25  -31.76530   -9999.25    5.79870    6.68440    0.29100    0.14470    0.16710   13.21870    6.91400    2.46350   -9999.25   -9999.25
 9249.50000   -9999.25   -9999.25  115.41180    5.70880   -9999.25  -31.93220   -9999.25    5.84990    6.93560    0.28770    0.15760    0.15570   13.07790    6.80820    2.44110   -9999.25   -9999.25
 9250.00000   -9999.25   -9999.25  116.70190    5.76020   -9999.25  -32.12530   -9999.25    5.89970    6.73490    0.28580    0.14410    0.16440   12.93710    6.76770    2.45550   -9999.25   -9999.25
 9250.50000   -9999.25   -9999.25  117.86410    5.78620   -9999.25  -32.33880   -9999.25    5.95940    7.10220    0.28380    0.11850    0.18270   12.79430    6.82600    2.50680   -9999.25   -9999.25
 9251.00000   -9999.25   -9999.25  117.20900    5.81220   -9999.25  -32.55220   -9999.25    6.18740    7.48090    0.28140    0.10440    0.18830   12.60550    7.02860    2.53150   -9999.25   -9999.25
 9251.50000   -9999.25   -9999.25  117.07410    5.83820   -9999.25  -32.76560   -9999.25    6.51410    7.71860    0.27780    0.10860    0.19180   12.36510    7.20090    2.52620   -9999.25   -9999.25
 9252.00000   -9999.25   -9999.25  119.43840    5.86250   -9999.25  -32.86330   -9999.25    6.77370    7.83520    0.27360    0.12540    0.19680   12.32300    7.48840    2.49600   -9999.25   -9999.25
 9252.50000   -9999.25   -9999.25  120.06090    5.85450   -9999.25  -32.87780   -9999.25    6.66380    7.81160    0.27100    0.14290    0.19110   12.31800    7.67790    2.46550   -9999.25   -9999.25
 9253.00000   -9999.25   -9999.25  116.69480    5.84650   -9999.25  -32.89230   -9999.25    6.17270    7.60040    0.27030    0.14780    0.17760   12.38190    7.32160    2.45730   -9999.25   -9999.25
 9253.50000   -9999.25   -9999.25  112.74560    5.83850   -9999.25  -32.90680   -9999.25    6.02540    7.36490    0.28630    0.14410    0.16490   12.44580    6.71190    2.46360   -9999.25   -9999.25
 9254.00000   -9999.25   -9999.25  110.88950    5.83060   -9999.25  -32.92130   -9999.25    5.98980    7.09830    0.30710    0.13290    0.15380   12.49900    6.26140    2.48230   -9999.25   -9999.25
 9254.50000   -9999.25   -9999.25  110.53250    5.82260   -9999.25  -32.93580   -9999.25    5.96370    6.88190    0.33210    0.11910    0.15550   12.53010    6.13700    2.50390   -9999.25   -9999.25
 9255.00000   -9999.25   -9999.25  110.33780    5.80290   -9999.25  -32.95030   -9999.25    5.93770    6.82740    0.32930    0.10690    0.16370   12.58530    6.16000    2.52660   -9999.25   -9999.25
 9255.50000   -9999.25   -9999.25  109.60890    5.76860   -9999.25  -32.96480   -9999.25    5.91020    6.92630    0.31610    0.09610    0.17230   12.63750    6.31390    2.54770   -9999.25   -9999.25
 9256.00000   -9999.25   -9999.25  108.64560    5.73440   -9999.25  -32.97930   -9999.25    5.86690    7.00690    0.30710    0.08280    0.18180   12.68830    6.72400    2.56570   -9999.25   -9999.25
 9256.50000   -9999.25   -9999.25  108.15950    5.69680   -9999.25  -32.99380   -9999.25    5.82390    6.99180    0.29810    0.08560    0.19400   12.70160    6.99050    2.56550   -9999.25   -9999.25
 9257.00000   -9999.25   -9999.25  107.81960    5.66970   -9999.25  -33.00830   -9999.25    5.78130    6.84140    0.29930    0.10060    0.19350   12.71480    6.85290    2.53800   -9999.25   -9999.25
 9257.50000   -9999.25   -9999.25  108.33980    5.64270   -9999.25  -33.02280   -9999.25    5.73890    6.78090    0.31770    0.11670    0.18860   12.72370    6.64390    2.51030   -9999.25   -9999.25
 9258.00000   -9999.25   -9999.25  110.14660    5.62100   -9999.25  -33.03040   -9999.25    5.71090    6.75180    0.32680    0.12010    0.18430   12.72750    6.45430    2.50460   -9999.25   -9999.25
 9258.50000   -9999.25   -9999.25  112.53340    5.60540   -9999.25  -33.03660   -9999.25    5.72040    6.73760    0.32960    0.11680    0.18170   12.72140    6.27180    2.51020   -9999.25   -9999.25
 9259.00000   -9999.25   -9999.25  112.20760    5.58980   -9999.25  -33.04270   -9999.25    5.73000    6.73800    0.31790    0.11450    0.17730   12.71760    6.03580    2.51420   -9999.25   -9999.25
 9259.50000   -9999.25   -9999.25  109.57490    5.57130   -9999.25  -33.04890   -9999.25    5.73950    6.73840    0.30880    0.11350    0.16860   12.71390    5.93820    2.51590   -9999.25   -9999.25
 9260.00000   -9999.25   -9999.25  107.58280    5.54150   -9999.25  -33.04320   -9999.25    5.74360    6.73880    0.30290    0.11330    0.16670   12.71010    6.09880    2.51620   -9999.25   -9999.25
 9260.50000   -9999.25   -9999.25  109.46450    5.51180   -9999.25  -32.99680   -9999.25    5.74610    6.73910    0.30310    0.11370    0.16440   12.68860    6.25750    2.51560   -9999.25   -9999.25
 9261.00000   -9999.25   -9999.25  109.35170    5.48230   -9999.25  -32.95030   -9999.25    5.77110    6.73330    0.30290    0.11630    0.16110   12.55850    6.33020    2.51100   -9999.25   -9999.25
 9261.50000   -9999.25   -9999.25  108.80940    5.58760   -9999.25  -33.22090   -9999.25    5.79620    6.72730    0.30270    0.12090    0.15280   12.43730    6.21020    2.50520   -9999.25   -9999.25
 9262.00000   -9999.25   -9999.25  107.17650    5.65910   -9999.25  -33.25590   -9999.25    5.82140    6.72120    0.30260    0.12050    0.14770   12.37620    5.97930    2.50330   -9999.25   -9999.25
 9262.50000   -9999.25   -9999.25  108.18760    5.68220   -9999.25  -33.25430   -9999.25    5.85750    6.73120    0.30200    0.11960    0.13750   12.31510    5.93050    2.50330   -9999.25   -9999.25
