~Version ---------------------------------------------------
VERS.   2.0 : CWLS log ASCII Standard -VERSION 2.0
WRAP.    NO : One line per depth step
DLM . SPACE : Column Data Section Delimiter
~Well ------------------------------------------------------
STRT .F                 4630.0 : START DEPTH
STOP .F                12223.0 : STOP DEPTH
STEP .F                    0.5 : STEP
NULL .                -9999.25 : NULL VALUE
COMP .                         : COMPANY
WELL .                         : WELL
FLD  .                         : FIELD
LOC  .                         : LOCATION
PROV .                         : PROVINCE
CNTY .                         : COUNTY
STAT .                         : STATE
CTRY .                         : COUNTRY
SRVC .                         : SERVICE COMPANY
DATE .                         : DATE
UWI  .                         : UNIQUE WELL ID
API  .                         : API NUMBER
SLAT .WGS84 6.1568294008363935 : SURFACE LATITUDE
SLON .WGS84  4.519130721279083 : SURFACE LONGITUDE
DATUM.F                 2304.5 : DEPTH DATUM ELEV
~Curve Information -----------------------------------------
DEPT   .F     : 1 MEASURED DEPTH
DTCO   .US/F  : DELTA-T COMPRESSIONAL
DTSM   .US/F  : DELTA-T SHEAR
GRR    .GAPI  : GAMMA RAY FROM RESISTIVITY LOG
ILD    .OHMM  : INDUCTION DEEP RESISTIVITY
CILD   .MMHO  : INDUCTION DEEP CONDUCTIVITY
SPR    .MV    : SPONTANEOUS POTENTIAL FROM RESISTIVITY LOG
SFLA   .OHMM  : SPHERICALLY FOCUSED LOG RESISTIVITY AVERAGED OVER 2.5 FT
ILM    .OHMM  : INDUCTION MEDIUM RESISTIVITY
SFLU   .OHMM  : SHALLOW FOCUSED RESISTIVITY (UNAVERAGED)
NPHI_LS.DEC   : NEUTRON POROSITY LIMESTONE
DPHI_LS.DEC   : DENSITY POROSITY LIMESTONE
DRHO   .G/C3  : BULK DENSITY CORRECTION
CALD   .IN    : CALIPER FROM DENSITY LOG
PEF    .B/E   : PHOTOELECTRIC FACTOR
RHOB   .G/C3  : BULK DENSITY
PEFL   .B/E   : LONG SPACED CORRECTED PHOTELECTRIC FACTOR
PEFS   .B/E   : SHORT SPACED CORRECTED PHOTOELECTRIC FACTOR
~Params ----------------------------------------------------
~Other -----------------------------------------------------
~ASCII -----------------------------------------------------
# ...
 10241.00000   -9999.25   -9999.25   97.98520    4.37950   -9999.25  -34.87220   -9999.25    4.23920    5.14150    0.35940    0.23650    0.12990   15.23080    6.41940    2.32120   -9999.25   -9999.25
 10241.50000   -9999.25   -9999.25   99.47630    4.39630   -9999.25  -34.93030   -9999.25    4.32320    5.25270    0.35380    0.17580    0.14390   15.06880    6.14560    2.40720   -9999.25   -9999.25
 10242.00000   -9999.25   -9999.25  101.24500    4.38990   -9999.25  -34.99150   -9999.25    4.35890    5.38630    0.35610    0.12960    0.15670   14.93160    6.11120    2.50070   -9999.25   -9999.25
 10242.50000   -9999.25   -9999.25  103.01370    4.38350   -9999.25  -35.06920   -9999.25    4.35890    5.52340    0.36090    0.10570    0.16100   15.00370    6.14890    2.53110   -9999.25   -9999.25
 10243.00000   -9999.25   -9999.25  106.79470    4.37710   -9999.25  -35.14690   -9999.25    4.33360    5.65410    0.36820    0.11400    0.15810   15.13900    6.29240    2.51120   -9999.25   -9999.25
 10243.50000   -9999.25   -9999.25  110.23140    4.37070   -9999.25  -35.22470   -9999.25    4.28610    5.59980    0.38470    0.13710    0.15440   15.25840    6.55560    2.47550   -9999.25   -9999.25
 10244.00000   -9999.25   -9999.25  108.24530    4.39290   -9999.25  -35.22340   -9999.25    4.23910    5.27880    0.39150    0.16070    0.14440   15.26700    6.54610    2.43500   -9999.25   -9999.25
 10244.50000   -9999.25   -9999.25  105.08170    4.42050   -9999.25  -35.19990   -9999.25    4.22600    5.15650    0.37950    0.18410    0.13110   15.20170    6.46770    2.39510   -9999.25   -9999.25
 10245.00000   -9999.25   -9999.25  100.42290    4.39340   -9999.25  -35.17650   -9999.25    4.20140    5.11410    0.36450    0.19270    0.12750   15.19510    6.73360    2.38030   -9999.25   -9999.25
 10245.50000   -9999.25   -9999.25   95.95870    4.32150   -9999.25  -35.15300   -9999.25    4.17570    5.05780    0.36280    0.19700    0.12450   15.22740    7.18000    2.37350   -9999.25   -9999.25
 10246.00000   -9999.25   -9999.25   93.58370    4.26700   -9999.25  -35.12960   -9999.25    4.15020    5.04930    0.36760    0.20630    0.12330   15.04130    7.55940    2.35320   -9999.25   -9999.25
 10246.50000   -9999.25   -9999.25   93.89540    4.21320   -9999.25  -35.10610   -9999.25    4.12490    5.06850    0.36700    0.23360    0.12420   14.63890    7.72880    2.31240   -9999.25   -9999.25
 10247.00000   -9999.25   -9999.25   94.84860    4.16000   -9999.25  -35.08270   -9999.25    4.09970    5.12600    0.36310    0.26000    0.12520   14.51950    8.06320    2.26650   -9999.25   -9999.25
 10247.50000   -9999.25   -9999.25   95.50450    4.11170   -9999.25  -35.05920   -9999.25    4.07460    5.06620    0.36010    0.27650    0.12380   14.81310    8.32100    2.23980   -9999.25   -9999.25
 10248.00000   -9999.25   -9999.25   93.87790    4.16800   -9999.25  -35.03580   -9999.25    3.99300    4.96050    0.35920    0.28610    0.12220   15.43240    8.60670    2.22470   -9999.25   -9999.25
 10248.50000   -9999.25   -9999.25   94.98720    4.26030   -9999.25  -35.01230   -9999.25    4.03170    4.88630    0.35770    0.28250    0.12370   15.32500    8.50310    2.23320   -9999.25   -9999.25
 10249.00000   -9999.25   -9999.25   97.80320    4.33780   -9999.25  -34.98890   -9999.25    4.16120    4.92120    0.35610    0.27530    0.12660   14.89100    8.52890    2.24580   -9999.25   -9999.25
 10249.50000   -9999.25   -9999.25  101.73280    4.41660   -9999.25  -34.96540   -9999.25    4.30510    5.04230    0.35650    0.27430    0.12880   14.27080    8.54680    2.24250   -9999.25   -9999.25
 10250.00000   -9999.25   -9999.25  101.88800    4.49700   -9999.25  -34.94200   -9999.25    4.45240    5.26340    0.37920    0.28010    0.13030   13.92020    8.52950    2.22570   -9999.25   -9999.25
 10250.50000   -9999.25   -9999.25  101.33570    4.53020   -9999.25  -34.91850   -9999.25    4.47340    5.41830    0.37840    0.28650    0.13180   13.65840    8.23920    2.22370   -9999.25   -9999.25
 10251.00000   -9999.25   -9999.25  101.72100    4.53070   -9999.25  -34.91550   -9999.25    4.49190    5.52290    0.37470    0.28300    0.13330   13.50850    7.58130    2.23380   -9999.25   -9999.25
 10251.50000   -9999.25   -9999.25  104.41360    4.53110   -9999.25  -34.92180   -9999.25    4.49230    5.56860    0.37460    0.27430    0.13470   13.45010    7.10540    2.24780   -9999.25   -9999.25
 10252.00000   -9999.25   -9999.25  106.22240    4.52910   -9999.25  -34.92810   -9999.25    4.47810    5.52830    0.38470    0.26410    0.13580   13.44200    6.89000    2.26450   -9999.25   -9999.25
 10252.50000   -9999.25   -9999.25  104.54820    4.45080   -9999.25  -34.93450   -9999.25    4.41780    5.42650    0.38120    0.25480    0.13630   13.55300    7.30360    2.27770   -9999.25   -9999.25
 10253.00000   -9999.25   -9999.25  100.77150    4.38200   -9999.25  -34.94080   -9999.25    4.32920    5.40430    0.36610    0.26060    0.13480   13.75500    8.45810    2.26950   -9999.25   -9999.25
 10253.50000   -9999.25   -9999.25   99.33550    4.32070   -9999.25  -34.94710   -9999.25    4.26200    5.35840    0.34890    0.27920    0.13000   13.96160    9.39990    2.22670   -9999.25   -9999.25
 10254.00000   -9999.25   -9999.25   98.97310    4.26030   -9999.25  -34.95340   -9999.25    4.20350    5.17950    0.33850    0.29760    0.11940   13.83450    9.91320    2.17520   -9999.25   -9999.25
 10254.50000   -9999.25   -9999.25   98.35080    4.20070   -9999.25  -34.95970   -9999.25    4.14590    4.98030    0.34430    0.30010    0.11120   13.33640    9.89750    2.12620   -9999.25   -9999.25
 10255.00000   -9999.25   -9999.25   97.86470    4.14200   -9999.25  -34.96610   -9999.25    4.08900    4.87900    0.35580    0.30000    0.11940   13.24210    9.67100    2.13560   -9999.25   -9999.25
 10255.50000   -9999.25   -9999.25   97.65150    4.08190   -9999.25  -34.97240   -9999.25    4.02470    4.77970    0.37170    0.29990    0.12710   13.61240    9.65970    2.17030   -9999.25   -9999.25
 10256.00000   -9999.25   -9999.25   97.77660    4.01970   -9999.25  -34.97870   -9999.25    3.90210    4.70520    0.39820    0.29990    0.13110   13.73180    9.63910    2.18260   -9999.25   -9999.25
 10256.50000   -9999.25   -9999.25   98.88500    3.99150   -9999.25  -34.98500   -9999.25    3.88580    4.66640    0.40920    0.29980    0.13000   13.38510    9.29390    2.17000   -9999.25   -9999.25
 10257.00000   -9999.25   -9999.25  100.22760    4.04570   -9999.25  -34.99140   -9999.25    3.93100    4.66810    0.40190    0.29980    0.12840   13.35410    9.00420    2.15530   -9999.25   -9999.25
 10257.50000   -9999.25   -9999.25  100.35680    4.10050   -9999.25  -34.99770   -9999.25    4.01260    4.73080    0.38900    0.29970    0.12760   13.46700    9.21120    2.18160   -9999.25   -9999.25
 10258.00000   -9999.25   -9999.25   98.01830    4.14310   -9999.25  -35.00400   -9999.25    4.09530    4.87540    0.38000    0.28980    0.12710   13.52050   10.00940    2.21370   -9999.25   -9999.25
 10258.50000   -9999.25   -9999.25   98.62480    4.16870   -9999.25  -35.01030   -9999.25    4.13490    5.05010    0.38400    0.29910    0.12690   13.36570   10.01740    2.19410   -9999.25   -9999.25
 10259.00000   -9999.25   -9999.25  101.69960    4.19440   -9999.25  -35.01660   -9999.25    4.15510    5.21330    0.38040    0.29920    0.12360   13.14840   10.01730    2.14950   -9999.25   -9999.25
 10259.50000   -9999.25   -9999.25  105.03920    4.22030   -9999.25  -35.02300   -9999.25    4.17540    5.38160    0.37020    0.29940    0.12170   13.05110   10.01730    2.12080   -9999.25   -9999.25
 10260.00000   -9999.25   -9999.25  105.98420    4.24630   -9999.25  -35.02930   -9999.25    4.18620    5.43150    0.36200    0.29950    0.12020   13.01680   10.01730    2.09210   -9999.25   -9999.25
 10260.50000   -9999.25   -9999.25  104.84170    4.27250   -9999.25  -35.03560   -9999.25    4.18270    5.32460    0.35590    0.29960    0.11400   12.89370   10.01070    2.05730   -9999.25   -9999.25
