~Version ---------------------------------------------------
VERS.   2.0 : CWLS log ASCII Standard -VERSION 2.0
WRAP.    NO : One line per depth step
DLM . SPACE : Column Data Section Delimiter
~Well ------------------------------------------------------
STRT .F                 4630.0 : START DEPTH
STOP .F                12223.0 : STOP DEPTH
STEP .F                    0.5 : STEP
NULL .                -9999.25 : NULL VALUE
COMP .                         : COMPANY
WELL .                         : WELL
FLD  .                         : FIELD
LOC  .                         : LOCATION
PROV .                         : PROVINCE
CNTY .                         : COUNTY
STAT .                         : STATE
CTRY .                         : COUNTRY
SRVC .                         : SERVICE COMPANY
DATE .                         : DATE
UWI  .                         : UNIQUE WELL ID
API  .                         : API NUMBER
SLAT .WGS84 6.1568294008363935 : SURFACE LATITUDE
SLON .WGS84  4.519130721279083 : SURFACE LONGITUDE
DATUM.F                 2304.5 : DEPTH DATUM ELEV
~Curve Information -----------------------------------------
DEPT   .F     : 1 MEASURED DEPTH
DTCO   .US/F  : DELTA-T COMPRESSIONAL
DTSM   .US/F  : DELTA-T SHEAR
GRR    .GAPI  : GAMMA RAY FROM RESISTIVITY LOG
ILD    .OHMM  : INDUCTION DEEP RESISTIVITY
CILD   .MMHO  : INDUCTION DEEP CONDUCTIVITY
SPR    .MV    : SPONTANEOUS POTENTIAL FROM RESISTIVITY LOG
SFLA   .OHMM  : SPHERICALLY FOCUSED LOG RESISTIVITY AVERAGED OVER 2.5 FT
ILM    .OHMM  : INDUCTION MEDIUM RESISTIVITY
SFLU   .OHMM  : SHALLOW FOCUSED RESISTIVITY (UNAVERAGED)
NPHI_LS.DEC   : NEUTRON POROSITY LIMESTONE
DPHI_LS.DEC   : DENSITY POROSITY LIMESTONE
DRHO   .G/C3  : BULK DENSITY CORRECTION
CALD   .IN    : CALIPER FROM DENSITY LOG
PEF    .B/E   : PHOTOELECTRIC FACTOR
RHOB   .G/C3  : BULK DENSITY
PEFL   .B/E   : LONG SPACED CORRECTED PHOTELECTRIC FACTOR
PEFS   .B/E   : SHORT SPACED CORRECTED PHOTOELECTRIC FACTOR
~Params ----------------------------------------------------
~Other -----------------------------------------------------
~ASCII -----------------------------------------------------
# ...
 7910.00000   -9999.25   -9999.25  106.48810   13.09100   -9999.25  -38.77530   -9999.25   13.44630   14.71660    0.21380    0.05200    0.01480   11.33980    3.86230    2.62850   -9999.25   -9999.25
 7910.50000   -9999.25   -9999.25  106.93690   13.06780   -9999.25  -38.93870   -9999.25   13.37360   14.46630    0.22090    0.05470    0.01480   11.33700    4.02190    2.62320   -9999.25   -9999.25
 7911.00000   -9999.25   -9999.25  105.44750   13.04450   -9999.25  -39.10210   -9999.25   13.32900   14.45680    0.22040    0.05790    0.01480   11.33290    4.09590    2.61800   -9999.25   -9999.25
 7911.50000   -9999.25   -9999.25  104.86910   13.02120   -9999.25  -39.26540   -9999.25   13.29190   14.51830    0.21760    0.06110    0.01440   11.32880    4.13300    2.61280   -9999.25   -9999.25
 7912.00000   -9999.25   -9999.25  105.92580   12.99800   -9999.25  -39.41680   -9999.25   13.25490   14.58010    0.21230    0.06350    0.01380   11.32480    4.12460    2.60760   -9999.25   -9999.25
 7912.50000   -9999.25   -9999.25  107.30320   12.96370   -9999.25  -39.39840   -9999.25   13.21790   14.64860    0.20640    0.06490    0.01320   11.32770    4.11790    2.60290   -9999.25   -9999.25
 7913.00000   -9999.25   -9999.25  107.51960   12.91610   -9999.25  -39.28440   -9999.25   13.19650   14.68370    0.20180    0.06400    0.01340   11.34110    4.12780    2.60240   -9999.25   -9999.25
 7913.50000   -9999.25   -9999.25  107.84780   12.86660   -9999.25  -39.17040   -9999.25   13.25500   14.76710    0.19990    0.06200    0.01740   11.32970    4.19120    2.60450   -9999.25   -9999.25
 7914.00000   -9999.25   -9999.25  107.43850   12.83330   -9999.25  -39.05640   -9999.25   13.34070   14.78630    0.20440    0.06020    0.02030   11.31840    4.26320    2.60720   -9999.25   -9999.25
 7914.50000   -9999.25   -9999.25  107.12650   12.89700   -9999.25  -38.94230   -9999.25   13.43160   14.80080    0.21320    0.05840    0.02270   11.30700    4.32350    2.61070   -9999.25   -9999.25
 7915.00000   -9999.25   -9999.25  107.92630   13.03520   -9999.25  -38.82830   -9999.25   13.54090   14.88520    0.21080    0.05670    0.02510   11.30620    4.38670    2.61370   -9999.25   -9999.25
 7915.50000   -9999.25   -9999.25  109.00320   13.17490   -9999.25  -38.71430   -9999.25   13.65190   15.05310    0.20150    0.05660    0.02660   11.32020    4.38320    2.61510   -9999.25   -9999.25
 7916.00000   -9999.25   -9999.25  108.22090   13.31610   -9999.25  -38.60030   -9999.25   13.76390   15.31230    0.19520    0.05650    0.02810   11.34200    4.35500    2.61520   -9999.25   -9999.25
 7916.50000   -9999.25   -9999.25  105.84500   13.45880   -9999.25  -38.48630   -9999.25   13.87530   15.54790    0.19460    0.05600    0.03130   11.33070    4.23320    2.61450   -9999.25   -9999.25
 7917.00000   -9999.25   -9999.25  104.58780   13.60300   -9999.25  -38.37230   -9999.25   13.91910   15.71110    0.19720    0.05140    0.03800   11.32240    4.02700    2.61860   -9999.25   -9999.25
 7917.50000   -9999.25   -9999.25  104.14290   13.74880   -9999.25  -38.25830   -9999.25   13.96310   15.78880    0.19890    0.04310    0.04630   11.31410    4.01020    2.63380   -9999.25   -9999.25
 7918.00000   -9999.25   -9999.25  103.83080   13.76260   -9999.25  -38.22060   -9999.25   14.00710   15.78790    0.19970    0.03650    0.05500   11.30580    4.00410    2.64810   -9999.25   -9999.25
 7918.50000   -9999.25   -9999.25  103.51530   13.77650   -9999.25  -38.49740   -9999.25   14.05130   15.78920    0.20050    0.03500    0.06120   11.31090    4.03880    2.65570   -9999.25   -9999.25
 7919.00000   -9999.25   -9999.25  103.41630   13.79030   -9999.25  -38.77420   -9999.25   14.08750   15.80490    0.20130    0.03880    0.06060   11.31180    4.13740    2.65130   -9999.25   -9999.25
 7919.50000   -9999.25   -9999.25  103.68730   13.81030   -9999.25  -39.05100   -9999.25   14.11980   15.82060    0.20210    0.04460    0.05970   11.32430    4.39570    2.63810   -9999.25   -9999.25
 7920.00000   -9999.25   -9999.25  106.13210   13.85450   -9999.25  -39.32780   -9999.25   14.15230   15.84890    0.20110    0.05040    0.05870   11.32160    4.98800    2.62790   -9999.25   -9999.25
 7920.50000   -9999.25   -9999.25  109.13080   13.89890   -9999.25  -39.44100   -9999.25   14.18480   15.88870    0.19830    0.05580    0.05810   11.31880    4.92620    2.61900   -9999.25   -9999.25
 7921.00000   -9999.25   -9999.25  109.20390   13.94340   -9999.25  -39.55290   -9999.25   14.21740   15.92860    0.19540    0.05710    0.05920   11.31600    4.75210    2.61390   -9999.25   -9999.25
 7921.50000   -9999.25   -9999.25  108.73050   13.98800   -9999.25  -39.66480   -9999.25   14.25000   15.89240    0.19340    0.05550    0.06270   11.31320    4.42150    2.61570   -9999.25   -9999.25
 7922.00000   -9999.25   -9999.25  108.11840   14.03280   -9999.25  -39.77670   -9999.25   14.32390   15.71710    0.19540    0.04890    0.06880   11.31120    4.47450    2.62850   -9999.25   -9999.25
 7922.50000   -9999.25   -9999.25  107.35390   14.05440   -9999.25  -39.88860   -9999.25   14.44590   15.53380    0.19870    0.04220    0.07200   11.31430    4.69740    2.64040   -9999.25   -9999.25
 7923.00000   -9999.25   -9999.25  105.79020   14.05380   -9999.25  -40.00050   -9999.25   14.56890   15.68390    0.19740    0.04430    0.06960   11.32610    5.16450    2.63580   -9999.25   -9999.25
 7923.50000   -9999.25   -9999.25  101.58410   14.05320   -9999.25  -40.07000   -9999.25   14.69300   16.02880    0.19380    0.04990    0.06080   11.33780    5.11620    2.62680   -9999.25   -9999.25
 7924.00000   -9999.25   -9999.25   97.38270   14.05270   -9999.25  -39.91860   -9999.25   14.80990   16.53220    0.18950    0.05310    0.05870   11.34960    4.93170    2.62120   -9999.25   -9999.25
 7924.50000   -9999.25   -9999.25   94.23330   14.05210   -9999.25  -39.76720   -9999.25   14.82060   17.15060    0.19000    0.04990    0.06550   11.36780    4.71920    2.62750   -9999.25   -9999.25
 7925.00000   -9999.25   -9999.25   94.03770   14.05160   -9999.25  -39.61580   -9999.25   14.82520   17.50770    0.19140    0.04310    0.07420   11.39040    4.47990    2.63960   -9999.25   -9999.25
 7925.50000   -9999.25   -9999.25   95.86490   14.05100   -9999.25  -39.46440   -9999.25   14.82520   17.45020    0.19220    0.03750    0.07910   11.39930    4.36720    2.64790   -9999.25   -9999.25
 7926.00000   -9999.25   -9999.25  101.90770   14.05040   -9999.25  -39.31300   -9999.25   14.77700   16.97820    0.19210    0.03510    0.08200   11.41610    4.43300    2.65310   -9999.25   -9999.25
 7926.50000   -9999.25   -9999.25  106.56870   14.04990   -9999.25  -39.22850   -9999.25   14.69060   16.46330    0.19360    0.03450    0.08020   11.41560    4.56010    2.65360   -9999.25   -9999.25
 7927.00000   -9999.25   -9999.25  106.88140   14.04930   -9999.25  -39.40360   -9999.25   14.60460   16.12990    0.19330    0.03690    0.07370   11.41520    4.68580    2.64660   -9999.25   -9999.25
 7927.50000   -9999.25   -9999.25  106.03730   14.04880   -9999.25  -39.57860   -9999.25   14.51920   15.89280    0.19200    0.04440    0.06450   11.41470    4.78230    2.63400   -9999.25   -9999.25
 7928.00000   -9999.25   -9999.25  105.49450   14.04820   -9999.25  -39.75360   -9999.25   14.43430   15.82160    0.19220    0.05270    0.05810   11.41430    4.72650    2.61850   -9999.25   -9999.25
 7928.50000   -9999.25   -9999.25  106.54210   13.99460   -9999.25  -39.92870   -9999.25   14.36180   15.82470    0.19340    0.05590    0.05160   11.41460    4.70540    2.61160   -9999.25   -9999.25
 7929.00000   -9999.25   -9999.25  108.15800   13.94040   -9999.25  -40.10370   -9999.25   14.38310   15.83340    0.19470    0.05710    0.04710   11.41490    4.69910    2.61190   -9999.25   -9999.25
 7929.50000   -9999.25   -9999.25  108.47640   13.88630   -9999.25  -40.24280   -9999.25   14.40440   15.87250    0.19350    0.05720    0.04460   11.41530    4.69920    2.61220   -9999.25   -9999.25
 7930.00000   -9999.25   -9999.25  107.72590   13.83250   -9999.25  -40.29740   -9999.25   14.42570   16.09930    0.18690    0.05730    0.04250   11.41560    4.68500    2.61200   -9999.25   -9999.25
