~Version ---------------------------------------------------
VERS.   2.0 : CWLS log ASCII Standard -VERSION 2.0
WRAP.    NO : One line per depth step
DLM . SPACE : Column Data Section Delimiter
~Well ------------------------------------------------------
STRT .F                 4630.0 : START DEPTH
STOP .F                12223.0 : STOP DEPTH
STEP .F                    0.5 : STEP
NULL .                -9999.25 : NULL VALUE
COMP .                         : COMPANY
WELL .                         : WELL
FLD  .                         : FIELD
LOC  .                         : LOCATION
PROV .                         : PROVINCE
CNTY .                         : COUNTY
STAT .                         : STATE
CTRY .                         : COUNTRY
SRVC .                         : SERVICE COMPANY
DATE .                         : DATE
UWI  .                         : UNIQUE WELL ID
API  .                         : API NUMBER
SLAT .WGS84 6.1568294008363935 : SURFACE LATITUDE
SLON .WGS84  4.519130721279083 : SURFACE LONGITUDE
DATUM.F                 2304.5 : DEPTH DATUM ELEV
~Curve Information -----------------------------------------
DEPT   .F     : 1 MEASURED DEPTH
DTCO   .US/F  : DELTA-T COMPRESSIONAL
DTSM   .US/F  : DELTA-T SHEAR
GRR    .GAPI  : GAMMA RAY FROM RESISTIVITY LOG
ILD    .OHMM  : INDUCTION DEEP RESISTIVITY
CILD   .MMHO  : INDUCTION DEEP CONDUCTIVITY
SPR    .MV    : SPONTANEOUS POTENTIAL FROM RESISTIVITY LOG
SFLA   .OHMM  : SPHERICALLY FOCUSED LOG RESISTIVITY AVERAGED OVER 2.5 FT
ILM    .OHMM  : INDUCTION MEDIUM RESISTIVITY
SFLU   .OHMM  : SHALLOW FOCUSED RESISTIVITY (UNAVERAGED)
NPHI_LS.DEC   : NEUTRON POROSITY LIMESTONE
DPHI_LS.DEC   : DENSITY POROSITY LIMESTONE
DRHO   .G/C3  : BULK DENSITY CORRECTION
CALD   .IN    : CALIPER FROM DENSITY LOG
PEF    .B/E   : PHOTOELECTRIC FACTOR
RHOB   .G/C3  : BULK DENSITY
PEFL   .B/E   : LONG SPACED CORRECTED PHOTELECTRIC FACTOR
PEFS   .B/E   : SHORT SPACED CORRECTED PHOTOELECTRIC FACTOR
~Params ----------------------------------------------------
~Other -----------------------------------------------------
~ASCII -----------------------------------------------------
# ...
 10561.00000   -9999.25   -9999.25   99.27410   11.20510   -9999.25  -43.41540   -9999.25   11.86790   14.50630    0.16230    0.04590    0.04950    9.43520    4.25030    2.64030   -9999.25   -9999.25
 10561.50000   -9999.25   -9999.25   95.36130   11.67500   -9999.25  -43.39110   -9999.25   12.96500   16.67140    0.13640    0.03760    0.03670    9.43790    4.18950    2.64760   -9999.25   -9999.25
 10562.00000   -9999.25   -9999.25   90.56520   12.10480   -9999.25  -43.36690   -9999.25   14.08610   20.92870    0.12940    0.03930    0.02490    9.44060    4.12870    2.64240   -9999.25   -9999.25
 10562.50000   -9999.25   -9999.25   90.17900   12.62820   -9999.25  -43.34260   -9999.25   15.17390   23.92040    0.12190    0.04420    0.01720    9.44330    4.05890    2.63450   -9999.25   -9999.25
 10563.00000   -9999.25   -9999.25   90.52360   13.29050   -9999.25  -43.45230   -9999.25   16.03640   26.12160    0.11900    0.04600    0.01430    9.44590    3.98270    2.63130   -9999.25   -9999.25
 10563.50000   -9999.25   -9999.25   93.22660   13.77450   -9999.25  -43.58570   -9999.25   16.32930   28.26010    0.11770    0.04750    0.01290    9.44860    3.90940    2.62710   -9999.25   -9999.25
 10564.00000   -9999.25   -9999.25   97.36530   14.27610   -9999.25  -43.69050   -9999.25   15.94020   28.44950    0.13050    0.05190    0.01350    9.45130    3.82710    2.62010   -9999.25   -9999.25
 10564.50000   -9999.25   -9999.25  102.33200   14.66380   -9999.25  -43.49970   -9999.25   15.85420   25.98160    0.14600    0.05240    0.01430    9.45390    3.96030    2.62290   -9999.25   -9999.25
 10565.00000   -9999.25   -9999.25  102.27890   14.75680   -9999.25  -43.30890   -9999.25   15.85790   23.30420    0.15070    0.04810    0.01640    9.45660    4.14770    2.63310   -9999.25   -9999.25
 10565.50000   -9999.25   -9999.25   98.06000   14.83860   -9999.25  -43.19820   -9999.25   15.88080   21.04690    0.14310    0.04090    0.01880    9.45930    4.32260    2.64970   -9999.25   -9999.25
 10566.00000   -9999.25   -9999.25   92.48250   14.90220   -9999.25  -43.17290   -9999.25   16.36910   20.93920    0.12990    0.03280    0.02110    9.46010    4.38090    2.67050   -9999.25   -9999.25
 10566.50000   -9999.25   -9999.25   86.81860   14.96610   -9999.25  -43.14770   -9999.25   16.87230   22.67330    0.11650    0.02040    0.02340    9.45140    4.38200    2.67600   -9999.25   -9999.25
 10567.00000   -9999.25   -9999.25   83.00240   15.15930   -9999.25  -43.12240   -9999.25   17.47870   24.99550    0.10460    0.02040    0.02590    9.45240    4.36950    2.67530   -9999.25   -9999.25
 10567.50000   -9999.25   -9999.25   84.44880   15.37490   -9999.25  -43.09710   -9999.25   18.06890   27.35520    0.10200    0.02480    0.02840    9.45520    4.35690    2.65930   -9999.25   -9999.25
 10568.00000   -9999.25   -9999.25   88.46620   15.69840   -9999.25  -42.95900   -9999.25   18.56170   30.21620    0.11250    0.03240    0.03010    9.45790    4.34070    2.65340   -9999.25   -9999.25
 10568.50000   -9999.25   -9999.25   92.75790   16.37990   -9999.25  -42.69400   -9999.25   19.06790   30.42450    0.11920    0.03250    0.03130    9.46060    4.27270    2.66070   -9999.25   -9999.25
 10569.00000   -9999.25   -9999.25   92.93040   17.09110   -9999.25  -42.42900   -9999.25   19.31700   27.96250    0.11670    0.02830    0.03250    9.47110    4.17930    2.66860   -9999.25   -9999.25
 10569.50000   -9999.25   -9999.25   90.76160   17.54920   -9999.25  -42.25350   -9999.25   19.54110   26.00480    0.09650    0.02510    0.03390    9.51040    4.09730    2.67120   -9999.25   -9999.25
 10570.00000   -9999.25   -9999.25   87.14630   17.54420   -9999.25  -42.25200   -9999.25   20.01980   26.19560    0.08370    0.02340    0.03590    9.55610    4.01520    2.67160   -9999.25   -9999.25
 10570.50000   -9999.25   -9999.25   86.10140   17.53920   -9999.25  -42.25040   -9999.25   20.20220   28.23330    0.07860    0.02360    0.04000    9.57220    4.02860    2.66790   -9999.25   -9999.25
 10571.00000   -9999.25   -9999.25   86.24050   17.36820   -9999.25  -42.25940   -9999.25   19.90370   31.43230    0.08500    0.02720    0.04370    9.58810    4.14700    2.66100   -9999.25   -9999.25
 10571.50000   -9999.25   -9999.25   87.31560   17.15820   -9999.25  -42.27010   -9999.25   19.58950   32.28380    0.09710    0.03210    0.04670    9.60390    4.23910    2.64970   -9999.25   -9999.25
 10572.00000   -9999.25   -9999.25   87.47190   16.95080   -9999.25  -42.28070   -9999.25   19.28030   31.19160    0.10730    0.03660    0.05010    9.61080    4.20950    2.64640   -9999.25   -9999.25
 10572.50000   -9999.25   -9999.25   88.04870   16.74580   -9999.25  -42.29140   -9999.25   18.62290   28.28900    0.11220    0.03700    0.05310    9.62280    4.11130    2.65730   -9999.25   -9999.25
 10573.00000   -9999.25   -9999.25   91.14630   16.08370   -9999.25  -42.30200   -9999.25   18.16030   26.59090    0.11870    0.03080    0.05600    9.64400    4.04960    2.66280   -9999.25   -9999.25
 10573.50000   -9999.25   -9999.25   98.60390   15.39870   -9999.25  -42.34650   -9999.25   17.73900   25.48100    0.12750    0.02790    0.05710    9.66520    4.11360    2.65370   -9999.25   -9999.25
 10574.00000   -9999.25   -9999.25  105.17190   14.69100   -9999.25  -42.33880   -9999.25   17.00400   24.42550    0.13750    0.03560    0.05180    9.68640    4.35180    2.63280   -9999.25   -9999.25
 10574.50000   -9999.25   -9999.25  108.39870   13.62670   -9999.25  -42.52160   -9999.25   14.85290   23.00150    0.14620    0.04770    0.05870    9.70760    4.49750    2.61740   -9999.25   -9999.25
 10575.00000   -9999.25   -9999.25  107.57600   12.93820   -9999.25  -42.81700   -9999.25   14.24070   21.10340    0.15100    0.05650    0.06140    9.72930    4.51080    2.59780   -9999.25   -9999.25
 10575.50000   -9999.25   -9999.25  105.25210   12.37770   -9999.25  -43.11230   -9999.25   12.99530   19.46090    0.15730    0.07150    0.06230    9.76060    4.39730    2.57210   -9999.25   -9999.25
 10576.00000   -9999.25   -9999.25  102.82740   11.84130   -9999.25  -43.40760   -9999.25   12.50810   17.15980    0.15970    0.08280    0.06620    9.75870    4.24010    2.58210   -9999.25   -9999.25
 10576.50000   -9999.25   -9999.25  101.03190   11.37290   -9999.25  -43.70300   -9999.25   11.90380   16.04030    0.16070    0.06890    0.06920    9.75320    4.17130    2.60750   -9999.25   -9999.25
 10577.00000   -9999.25   -9999.25  101.14780   11.06570   -9999.25  -43.99830   -9999.25   11.82800   15.70850    0.16800    0.05720    0.06510    9.75250    4.13650    2.62200   -9999.25   -9999.25
 10577.50000   -9999.25   -9999.25  101.86580   10.78110   -9999.25  -43.77880   -9999.25   11.71670   15.68680    0.17470    0.05200    0.05990    9.75710    4.12750    2.62340   -9999.25   -9999.25
 10578.00000   -9999.25   -9999.25  103.10930   10.59890   -9999.25  -43.77000   -9999.25   11.47780   15.70040    0.17710    0.05180    0.05760    9.76160    4.19670    2.62120   -9999.25   -9999.25
 10578.50000   -9999.25   -9999.25  104.35390   10.41980   -9999.25  -43.76130   -9999.25   11.30200   15.99850    0.17710    0.05280    0.05890    9.76610    4.29430    2.61510   -9999.25   -9999.25
 10579.00000   -9999.25   -9999.25  106.01830   10.31490   -9999.25  -43.75260   -9999.25   11.30510   16.38970    0.18100    0.05920    0.06020    9.77070    4.30280    2.60860   -9999.25   -9999.25
 10579.50000   -9999.25   -9999.25  108.44510   10.34140   -9999.25  -43.74190   -9999.25   11.19450   16.43060    0.18470    0.06110    0.05820    9.77220    4.19690    2.60560   -9999.25   -9999.25
 10580.00000   -9999.25   -9999.25  110.95130   10.41960   -9999.25  -43.71270   -9999.25   11.05360   15.66600    0.18120    0.05870    0.05150    9.73010    4.05820    2.61640   -9999.25   -9999.25
 10580.50000   -9999.25   -9999.25  110.75160   10.57090   -9999.25  -43.69640   -9999.25   11.25820   15.90550    0.17710    0.05450    0.04230    9.73330    4.07920    2.62110   -9999.25   -9999.25
