~Version ---------------------------------------------------
VERS.   2.0 : CWLS log ASCII Standard -VERSION 2.0
WRAP.    NO : One line per depth step
DLM . SPACE : Column Data Section Delimiter
~Well ------------------------------------------------------
STRT .F                 4630.0 : START DEPTH
STOP .F                12223.0 : STOP DEPTH
STEP .F                    0.5 : STEP
NULL .                -9999.25 : NULL VALUE
COMP .                         : COMPANY
WELL .                         : WELL
FLD  .                         : FIELD
LOC  .                         : LOCATION
PROV .                         : PROVINCE
CNTY .                         : COUNTY
STAT .                         : STATE
CTRY .                         : COUNTRY
SRVC .                         : SERVICE COMPANY
DATE .                         : DATE
UWI  .                         : UNIQUE WELL ID
API  .                         : API NUMBER
SLAT .WGS84 6.1568294008363935 : SURFACE LATITUDE
SLON .WGS84  4.519130721279083 : SURFACE LONGITUDE
DATUM.F                 2304.5 : DEPTH DATUM ELEV
~Curve Information -----------------------------------------
DEPT   .F     : 1 MEASURED DEPTH
DTCO   .US/F  : DELTA-T COMPRESSIONAL
DTSM   .US/F  : DELTA-T SHEAR
GRR    .GAPI  : GAMMA RAY FROM RESISTIVITY LOG
ILD    .OHMM  : INDUCTION DEEP RESISTIVITY
CILD   .MMHO  : INDUCTION DEEP CONDUCTIVITY
SPR    .MV    : SPONTANEOUS POTENTIAL FROM RESISTIVITY LOG
SFLA   .OHMM  : SPHERICALLY FOCUSED LOG RESISTIVITY AVERAGED OVER 2.5 FT
ILM    .OHMM  : INDUCTION MEDIUM RESISTIVITY
SFLU   .OHMM  : SHALLOW FOCUSED RESISTIVITY (UNAVERAGED)
NPHI_LS.DEC   : NEUTRON POROSITY LIMESTONE
DPHI_LS.DEC   : DENSITY POROSITY LIMESTONE
DRHO   .G/C3  : BULK DENSITY CORRECTION
CALD   .IN    : CALIPER FROM DENSITY LOG
PEF    .B/E   : PHOTOELECTRIC FACTOR
RHOB   .G/C3  : BULK DENSITY
PEFL   .B/E   : LONG SPACED CORRECTED PHOTELECTRIC FACTOR
PEFS   .B/E   : SHORT SPACED CORRECTED PHOTOELECTRIC FACTOR
~Params ----------------------------------------------------
~Other -----------------------------------------------------
~ASCII -----------------------------------------------------
# ...
 11201.00000   62.38290  103.40680   97.98560   10.20750   -9999.25  -35.09100   -9999.25    9.29290    8.99210    0.31310    0.30110    0.01840   15.54630    9.60150    2.00010   -9999.25   -9999.25
 11201.50000   65.05770  103.46740   97.06280   10.35640   -9999.25  -35.08580   -9999.25    8.80150    8.51840    0.31880    0.30100    0.03220   16.01010    8.73520    2.00040   -9999.25   -9999.25
 11202.00000   67.94570  103.48960   97.87360   10.31310   -9999.25  -34.97220   -9999.25    8.71790    8.38820    0.32430    0.30100    0.06500   15.36900    7.87440    2.00060   -9999.25   -9999.25
 11202.50000   69.95670  103.48810   99.76610   10.01290   -9999.25  -34.74570   -9999.25    9.66070    8.57690    0.33060    0.30110    0.10330   14.14310    7.72110    2.09880   -9999.25   -9999.25
 11203.00000   71.51630  103.31680  101.60730    9.40030   -9999.25  -34.51920   -9999.25    9.06350    9.09590    0.34870    0.29700    0.12620   12.10600    8.47590    2.19400   -9999.25   -9999.25
 11203.50000   70.62210  102.35310  102.53780    8.59880   -9999.25  -34.37810   -9999.25    8.22050    8.76770    0.36480    0.27310    0.13490   10.91230    8.99790    2.24460   -9999.25   -9999.25
 11204.00000   68.20080   99.96370  102.61490    8.50890   -9999.25  -34.28780   -9999.25    7.34870    7.89040    0.37360    0.27860    0.12120   11.11080    8.75880    2.24100   -9999.25   -9999.25
 11204.50000   65.35310   97.24440  102.69190    8.52620   -9999.25  -34.19750   -9999.25    6.70620    6.82960    0.37200    0.27880    0.10890   11.58510    7.98230    2.23420   -9999.25   -9999.25
 11205.00000   62.42550  103.55070  102.76900    8.54340   -9999.25  -34.10720   -9999.25    6.62450    5.91140    0.36760    0.28910    0.09950   11.92570    7.81970    2.22510   -9999.25   -9999.25
 11205.50000   68.97760  125.17470  102.84610    8.57880   -9999.25  -34.01690   -9999.25    6.72310    5.81980    0.36310    0.30120    0.08960   11.78760    8.04280    2.18600   -9999.25   -9999.25
 11206.00000   85.43550  168.38890  102.92320    8.62000   -9999.25  -33.92660   -9999.25    6.94240    5.96530    0.35840    0.30110    0.08770   11.41470    8.01450    2.13210   -9999.25   -9999.25
 11206.50000   96.10330  187.38510  103.56940    8.47170   -9999.25  -33.83630   -9999.25    7.67710    6.37620    0.35460    0.30080    0.08810   11.06710    7.31700    2.09680   -9999.25   -9999.25
 11207.00000   92.95830  185.26200  105.24740    8.19980   -9999.25  -33.73240   -9999.25    7.39690    6.88970    0.35130    0.30090    0.09920   10.71940    6.86690    2.12340   -9999.25   -9999.25
 11207.50000   89.15590  176.74090  106.02430    8.14610   -9999.25  -33.60620   -9999.25    7.39620    7.16340    0.35490    0.28870    0.11400   10.95540    6.75160    2.18450   -9999.25   -9999.25
 11208.00000   83.66950  164.32510  105.26210    8.36810   -9999.25  -33.48010   -9999.25    7.50280    7.37080    0.37570    0.26490    0.12900   11.78680    6.76900    2.23960   -9999.25   -9999.25
 11208.50000   75.78620  142.68500  101.21230    8.77620   -9999.25  -33.35390   -9999.25    7.85740    7.35300    0.39570    0.24530    0.15270   13.07390    6.82730    2.28200   -9999.25   -9999.25
 11209.00000   67.66870  123.06420   97.43960    9.11660   -9999.25  -33.22770   -9999.25    7.92500    7.08930    0.40610    0.23530    0.16490   13.82630    6.87150    2.29940   -9999.25   -9999.25
 11209.50000   62.03490  111.45150   93.85210    9.35110   -9999.25  -33.10160   -9999.25    7.86450    6.81650    0.40910    0.22090    0.17660   13.32900    6.90850    2.32260   -9999.25   -9999.25
 11210.00000   63.40060  107.52340   90.53490    9.43540   -9999.25  -32.97540   -9999.25    7.56600    6.74760    0.40280    0.20780    0.18830   12.34760    6.95790    2.34490   -9999.25   -9999.25
 11210.50000   68.57190  111.86470   90.35900    8.99140   -9999.25  -32.84920   -9999.25    7.70630    7.43670    0.39100    0.20390    0.18900   12.20400    7.61370    2.36120   -9999.25   -9999.25
 11211.00000   78.87110  121.04870   90.66660    8.69960   -9999.25  -32.72300   -9999.25    8.01360    8.22540    0.38780    0.20960    0.17390   12.65730    8.96230    2.35130   -9999.25   -9999.25
 11211.50000   88.92860  128.51010   89.48670    8.51930   -9999.25  -32.59690   -9999.25    7.99250    8.79370    0.40470    0.22690    0.15650   13.39970    9.94600    2.31900   -9999.25   -9999.25
 11212.00000   96.25570  130.68310   88.08790    8.28620   -9999.25  -32.47070   -9999.25    7.64060    8.66830    0.39750    0.29920    0.13240   14.28080   10.00360    2.26610   -9999.25   -9999.25
 11212.50000   96.36740  131.02310   88.87990    7.92880   -9999.25  -32.34450   -9999.25    8.68270    8.12760    0.36860    0.29990    0.09590   15.46620   10.01040    2.13230   -9999.25   -9999.25
 11213.00000   94.46620  131.02310   92.16680    7.68770   -9999.25  -32.21840   -9999.25    9.80490    7.65980    0.33090    0.29990    0.07950   14.53040   10.00600    2.03020   -9999.25   -9999.25
 11213.50000   90.07320  131.02310   95.34610    7.84220   -9999.25  -31.86980   -9999.25   10.99130    7.62930    0.31190    0.29980    0.07890   12.69040    9.99140    2.00400   -9999.25   -9999.25
 11214.00000   85.17860  130.84300   98.10820    8.83330   -9999.25  -31.17540   -9999.25   11.51150    8.37700    0.29820    0.29510    0.07940   11.01910    6.70650    2.09010   -9999.25   -9999.25
 11214.50000   81.57440  129.07800  100.87040    9.81640   -9999.25  -31.11510   -9999.25   11.83820    9.44240    0.28330    0.20150    0.08050   10.24550    5.36090    2.36600   -9999.25   -9999.25
 11215.00000   79.26770  125.60600  104.01310   10.56310   -9999.25  -31.05480   -9999.25   12.02610   10.41560    0.27020    0.07790    0.08190   10.16560    4.97200    2.54240   -9999.25   -9999.25
 11215.50000   77.28520  122.23070  108.29890   10.75690   -9999.25  -30.86540   -9999.25   12.02020   11.66840    0.25930    0.04430    0.09230   10.11590    5.08130    2.62850   -9999.25   -9999.25
 11216.00000   75.63960  120.34200  110.81700   10.56310   -9999.25  -30.07820   -9999.25   11.69520   12.34970    0.25500    0.04830    0.09250   10.06610    5.43020    2.63280   -9999.25   -9999.25
 11216.50000   73.76470  117.52840  111.05630   10.37280   -9999.25  -29.86770   -9999.25   11.44650   12.61170    0.25360    0.05110    0.09440   10.02600    5.58060    2.62450   -9999.25   -9999.25
 11217.00000   70.76370  111.77990  109.81650   10.13980   -9999.25  -29.86790   -9999.25   11.20310   12.63300    0.25430    0.05230    0.10370    9.99910    5.38180    2.62060   -9999.25   -9999.25
 11217.50000   70.75530  111.75170  108.83050    9.88730   -9999.25  -29.86820   -9999.25   10.96490   12.23890    0.26860    0.05750    0.11390    9.97060    5.23090    2.61010   -9999.25   -9999.25
 11218.00000   72.98830  123.77340  108.22170    9.64110   -9999.25  -29.86870   -9999.25   10.61960   11.56830    0.28130    0.08260    0.12400    9.91440    5.37550    2.58980   -9999.25   -9999.25
 11218.50000   75.97230  141.90230  108.14140    9.36250   -9999.25  -29.87150   -9999.25   10.28320   11.10710    0.29780    0.09880    0.12470    9.78830    5.46070    2.54420   -9999.25   -9999.25
 11219.00000   77.86630  149.98810  111.18670    9.08650   -9999.25  -29.87420   -9999.25   10.03920   10.68540    0.30420    0.09040    0.12360    9.72110    5.17630    2.54360   -9999.25   -9999.25
 11219.50000   78.64590  151.11940  114.61720    8.87260   -9999.25  -29.87700   -9999.25    9.80090   10.48820    0.29650    0.06100    0.12190    9.64770    4.62090    2.59220   -9999.25   -9999.25
 11220.00000   78.99450  151.24600  117.35230    8.75670   -9999.25  -29.87070   -9999.25    9.66110   10.84060    0.28880    0.03780    0.11910    9.48150    4.70830    2.63900   -9999.25   -9999.25
 11220.50000   78.45190  150.96070  117.52820    8.64230   -9999.25  -29.87860   -9999.25   10.23730   11.17310    0.27460    0.02980    0.11380    9.24160    5.20500    2.65900   -9999.25   -9999.25
