~Version ---------------------------------------------------
VERS.   2.0 : CWLS log ASCII Standard -VERSION 2.0
WRAP.    NO : One line per depth step
DLM . SPACE : Column Data Section Delimiter
~Well ------------------------------------------------------
STRT .F                 4630.0 : START DEPTH
STOP .F                12223.0 : STOP DEPTH
STEP .F                    0.5 : STEP
NULL .                -9999.25 : NULL VALUE
COMP .                         : COMPANY
WELL .                         : WELL
FLD  .                         : FIELD
LOC  .                         : LOCATION
PROV .                         : PROVINCE
CNTY .                         : COUNTY
STAT .                         : STATE
CTRY .                         : COUNTRY
SRVC .                         : SERVICE COMPANY
DATE .                         : DATE
UWI  .                         : UNIQUE WELL ID
API  .                         : API NUMBER
SLAT .WGS84 6.1568294008363935 : SURFACE LATITUDE
SLON .WGS84  4.519130721279083 : SURFACE LONGITUDE
DATUM.F                 2304.5 : DEPTH DATUM ELEV
~Curve Information -----------------------------------------
DEPT   .F     : 1 MEASURED DEPTH
DTCO   .US/F  : DELTA-T COMPRESSIONAL
DTSM   .US/F  : DELTA-T SHEAR
GRR    .GAPI  : GAMMA RAY FROM RESISTIVITY LOG
ILD    .OHMM  : INDUCTION DEEP RESISTIVITY
CILD   .MMHO  : INDUCTION DEEP CONDUCTIVITY
SPR    .MV    : SPONTANEOUS POTENTIAL FROM RESISTIVITY LOG
SFLA   .OHMM  : SPHERICALLY FOCUSED LOG RESISTIVITY AVERAGED OVER 2.5 FT
ILM    .OHMM  : INDUCTION MEDIUM RESISTIVITY
SFLU   .OHMM  : SHALLOW FOCUSED RESISTIVITY (UNAVERAGED)
NPHI_LS.DEC   : NEUTRON POROSITY LIMESTONE
DPHI_LS.DEC   : DENSITY POROSITY LIMESTONE
DRHO   .G/C3  : BULK DENSITY CORRECTION
CALD   .IN    : CALIPER FROM DENSITY LOG
PEF    .B/E   : PHOTOELECTRIC FACTOR
RHOB   .G/C3  : BULK DENSITY
PEFL   .B/E   : LONG SPACED CORRECTED PHOTELECTRIC FACTOR
PEFS   .B/E   : SHORT SPACED CORRECTED PHOTOELECTRIC FACTOR
~Params ----------------------------------------------------
~Other -----------------------------------------------------
~ASCII -----------------------------------------------------
# ...
 7582.00000   -9999.25   -9999.25  105.81490   13.90130   -9999.25  -39.45820   -9999.25   14.23230   16.00680    0.19010    0.04430    0.01630   11.57720    3.52920    2.64120   -9999.25   -9999.25
 7582.50000   -9999.25   -9999.25  107.85300   14.46620   -9999.25  -39.54410   -9999.25   14.94650   17.25270    0.18960    0.05120    0.01960   11.57770    3.68070    2.62460   -9999.25   -9999.25
 7583.00000   -9999.25   -9999.25  109.75220   15.05410   -9999.25  -39.63010   -9999.25   15.69650   18.24100    0.18570    0.04890    0.02300   11.57620    3.80270    2.62110   -9999.25   -9999.25
 7583.50000   -9999.25   -9999.25  110.25420   15.66590   -9999.25  -39.71610   -9999.25   16.48410   18.78620    0.18070    0.04320    0.02560   11.56460    3.66490    2.63020   -9999.25   -9999.25
 7584.00000   -9999.25   -9999.25  108.43470   16.30250   -9999.25  -39.80200   -9999.25   17.28090   19.36850    0.17740    0.03700    0.02800   11.55300    3.46110    2.64130   -9999.25   -9999.25
 7584.50000   -9999.25   -9999.25  105.40730   16.97930   -9999.25  -39.88800   -9999.25   18.06940   20.14180    0.17410    0.03070    0.03000   11.50610    3.37090    2.65570   -9999.25   -9999.25
 7585.00000   -9999.25   -9999.25  103.57920   17.69610   -9999.25  -39.97400   -9999.25   18.58120   20.53080    0.17070    0.02410    0.03070   11.46360    3.38230    2.66880   -9999.25   -9999.25
 7585.50000   -9999.25   -9999.25  103.55570   18.24560   -9999.25  -40.05990   -9999.25   19.08690   20.55330    0.15840    0.01720    0.03340   11.42100    3.44200    2.67950   -9999.25   -9999.25
 7586.00000   -9999.25   -9999.25  102.22880   18.74270   -9999.25  -40.14590   -9999.25   19.70880   20.69300    0.14460    0.00950    0.03670   11.40930    3.49840    2.69040   -9999.25   -9999.25
 7586.50000   -9999.25   -9999.25   99.27840   19.09000   -9999.25  -40.23180   -9999.25   21.04280   22.08120    0.13330    0.01050    0.03650   11.40650    3.58440    2.69520   -9999.25   -9999.25
 7587.00000   -9999.25   -9999.25   95.58700   19.44370   -9999.25  -40.31780   -9999.25   21.86800   24.18290    0.13040    0.01520    0.03340   11.40630    3.62550    2.68620   -9999.25   -9999.25
 7587.50000   -9999.25   -9999.25   91.03600   19.80400   -9999.25  -40.40380   -9999.25   22.18170   26.83860    0.13000    0.02030    0.03010   11.40610    3.54350    2.67540   -9999.25   -9999.25
 7588.00000   -9999.25   -9999.25   88.29590   20.17100   -9999.25  -40.48970   -9999.25   22.18530   26.87140    0.12990    0.02240    0.02520   11.40590    3.36840    2.67160   -9999.25   -9999.25
 7588.50000   -9999.25   -9999.25   88.11120   20.30220   -9999.25  -40.57570   -9999.25   22.00580   26.22570    0.13550    0.02290    0.01950   11.41260    3.21250    2.67080   -9999.25   -9999.25
 7589.00000   -9999.25   -9999.25   90.13920   20.48400   -9999.25  -40.66170   -9999.25   21.80880   25.17810    0.13870    0.02230    0.01420   11.42410    3.23770    2.67190   -9999.25   -9999.25
 7589.50000   -9999.25   -9999.25   93.57890   20.65930   -9999.25  -40.74760   -9999.25   21.61360   24.65200    0.13930    0.02260    0.01330   11.43550    3.30850    2.67140   -9999.25   -9999.25
 7590.00000   -9999.25   -9999.25   97.60750   20.74780   -9999.25  -40.83360   -9999.25   21.42010   23.97550    0.13920    0.02830    0.01250   11.44700    3.39740    2.66210   -9999.25   -9999.25
 7590.50000   -9999.25   -9999.25  101.21310   20.65630   -9999.25  -40.91960   -9999.25   21.22840   23.36020    0.13930    0.03490    0.01180   11.45840    3.48490    2.65150   -9999.25   -9999.25
 7591.00000   -9999.25   -9999.25  104.55400   20.49170   -9999.25  -41.00550   -9999.25   21.03830   23.09670    0.14000    0.03930    0.01170   11.47840    3.49720    2.64490   -9999.25   -9999.25
 7591.50000   -9999.25   -9999.25  105.07120   20.32850   -9999.25  -41.09150   -9999.25   20.85000   22.76500    0.14020    0.03790    0.01170   11.53370    3.45660    2.64440   -9999.25   -9999.25
 7592.00000   -9999.25   -9999.25  103.13210   20.16630   -9999.25  -41.18070   -9999.25   20.69510   22.46200    0.13850    0.03580    0.01170   11.54960    3.34350    2.64690   -9999.25   -9999.25
 7592.50000   -9999.25   -9999.25  100.72670   19.97150   -9999.25  -41.31850   -9999.25   20.64510   22.52700    0.13630    0.03410    0.01220   11.56800    3.40340    2.65040   -9999.25   -9999.25
 7593.00000   -9999.25   -9999.25  100.86120   19.90200   -9999.25  -41.45630   -9999.25   20.59520   22.99850    0.13450    0.03240    0.01490   11.58650    3.52770    2.65410   -9999.25   -9999.25
 7593.50000   -9999.25   -9999.25  101.98720   19.88020   -9999.25  -41.59410   -9999.25   20.71230   23.29100    0.13600    0.03060    0.01890   11.60490    3.54510    2.65760   -9999.25   -9999.25
 7594.00000   -9999.25   -9999.25  101.73720   19.97560   -9999.25  -41.73440   -9999.25   20.89920   23.36320    0.14460    0.02810    0.02290   11.61660    3.39330    2.66200   -9999.25   -9999.25
 7594.50000   -9999.25   -9999.25   99.93880   20.15870   -9999.25  -41.94490   -9999.25   21.08780   22.64400    0.15470    0.02400    0.02700   11.61310    3.23260    2.66900   -9999.25   -9999.25
 7595.00000   -9999.25   -9999.25   97.99240   20.34360   -9999.25  -42.15530   -9999.25   21.27820   21.95300    0.16480    0.01940    0.03000   11.60950    3.14680    2.67690   -9999.25   -9999.25
 7595.50000   -9999.25   -9999.25   96.40100   20.53010   -9999.25  -42.25570   -9999.25   21.43500   21.69300    0.16080    0.01540    0.03210   11.60600    3.12200    2.68360   -9999.25   -9999.25
 7596.00000   -9999.25   -9999.25   94.27360   20.71840   -9999.25  -42.31140   -9999.25   21.64610   22.27590    0.15280    0.01630    0.03410   11.60240    3.19040    2.68220   -9999.25   -9999.25
 7596.50000   -9999.25   -9999.25   91.93420   20.90840   -9999.25  -42.36720   -9999.25   21.98260   23.39490    0.14140    0.01810    0.03450   11.59640    3.26510    2.67910   -9999.25   -9999.25
 7597.00000   -9999.25   -9999.25   88.31360   21.10010   -9999.25  -42.40590   -9999.25   22.36880   24.48360    0.13510    0.01820    0.03490   11.58480    3.39510    2.67890   -9999.25   -9999.25
 7597.50000   -9999.25   -9999.25   86.81090   21.29360   -9999.25  -42.42340   -9999.25   22.75040   24.91190    0.13320    0.01860    0.03630   11.59920    3.57220    2.67820   -9999.25   -9999.25
 7598.00000   -9999.25   -9999.25   87.20620   21.39820   -9999.25  -42.44100   -9999.25   23.06430   25.00620    0.13150    0.02160    0.03810   11.61370    3.68760    2.67310   -9999.25   -9999.25
 7598.50000   -9999.25   -9999.25   89.67640   21.40190   -9999.25  -42.45850   -9999.25   23.01100   24.99490    0.13050    0.02450    0.03810   11.62820    3.64380    2.66810   -9999.25   -9999.25
 7599.00000   -9999.25   -9999.25   92.28130   21.40550   -9999.25  -42.47600   -9999.25   22.72370   24.75580    0.13260    0.02420    0.03630   11.64270    3.51170    2.66870   -9999.25   -9999.25
 7599.50000   -9999.25   -9999.25   93.31380   21.40910   -9999.25  -42.49350   -9999.25   22.44010   24.31120    0.14140    0.02290    0.03350   11.67870    3.40630    2.67080   -9999.25   -9999.25
 7600.00000   -9999.25   -9999.25   93.50500   21.41280   -9999.25  -42.51110   -9999.25   22.04600   22.76250    0.14750    0.02090    0.03190   11.70740    3.35260    2.67420   -9999.25   -9999.25
 7600.50000   -9999.25   -9999.25   93.38850   21.58030   -9999.25  -42.52860   -9999.25   22.00240   22.29260    0.14690    0.01890    0.03190   11.73070    3.31470    2.67780   -9999.25   -9999.25
 7601.00000   -9999.25   -9999.25   92.44650   21.47710   -9999.25  -42.54610   -9999.25   21.98340   22.95090    0.14190    0.01650    0.03380   11.69210    3.31600    2.68180   -9999.25   -9999.25
 7601.50000   -9999.25   -9999.25   91.08260   21.17630   -9999.25  -42.56370   -9999.25   22.12610   23.79100    0.13970    0.01390    0.03970   11.69220    3.34610    2.68710   -9999.25   -9999.25
 7602.00000   -9999.25   -9999.25   89.82750   20.82650   -9999.25  -42.58120   -9999.25   21.90360   24.27810    0.13900    0.01010    0.04570   11.73660    3.47860    2.69490   -9999.25   -9999.25
