~Version ---------------------------------------------------
VERS.   2.0 : CWLS log ASCII Standard -VERSION 2.0
WRAP.    NO : One line per depth step
DLM . SPACE : Column Data Section Delimiter
~Well ------------------------------------------------------
STRT .F                 4630.0 : START DEPTH
STOP .F                12223.0 : STOP DEPTH
STEP .F                    0.5 : STEP
NULL .                -9999.25 : NULL VALUE
COMP .                         : COMPANY
WELL .                         : WELL
FLD  .                         : FIELD
LOC  .                         : LOCATION
PROV .                         : PROVINCE
CNTY .                         : COUNTY
STAT .                         : STATE
CTRY .                         : COUNTRY
SRVC .                         : SERVICE COMPANY
DATE .                         : DATE
UWI  .                         : UNIQUE WELL ID
API  .                         : API NUMBER
SLAT .WGS84 6.1568294008363935 : SURFACE LATITUDE
SLON .WGS84  4.519130721279083 : SURFACE LONGITUDE
DATUM.F                 2304.5 : DEPTH DATUM ELEV
~Curve Information -----------------------------------------
DEPT   .F     : 1 MEASURED DEPTH
DTCO   .US/F  : DELTA-T COMPRESSIONAL
DTSM   .US/F  : DELTA-T SHEAR
GRR    .GAPI  : GAMMA RAY FROM RESISTIVITY LOG
ILD    .OHMM  : INDUCTION DEEP RESISTIVITY
CILD   .MMHO  : INDUCTION DEEP CONDUCTIVITY
SPR    .MV    : SPONTANEOUS POTENTIAL FROM RESISTIVITY LOG
SFLA   .OHMM  : SPHERICALLY FOCUSED LOG RESISTIVITY AVERAGED OVER 2.5 FT
ILM    .OHMM  : INDUCTION MEDIUM RESISTIVITY
SFLU   .OHMM  : SHALLOW FOCUSED RESISTIVITY (UNAVERAGED)
NPHI_LS.DEC   : NEUTRON POROSITY LIMESTONE
DPHI_LS.DEC   : DENSITY POROSITY LIMESTONE
DRHO   .G/C3  : BULK DENSITY CORRECTION
CALD   .IN    : CALIPER FROM DENSITY LOG
PEF    .B/E   : PHOTOELECTRIC FACTOR
RHOB   .G/C3  : BULK DENSITY
PEFL   .B/E   : LONG SPACED CORRECTED PHOTELECTRIC FACTOR
PEFS   .B/E   : SHORT SPACED CORRECTED PHOTOELECTRIC FACTOR
~Params ----------------------------------------------------
~Other -----------------------------------------------------
~ASCII -----------------------------------------------------
# ...
 9919.00000   -9999.25   -9999.25  121.16130    6.55610   -9999.25  -42.60830   -9999.25    6.90630    8.57450    0.24800    0.02620    0.02310   11.72270    4.04850    2.66520   -9999.25   -9999.25
 9919.50000   -9999.25   -9999.25  121.05430    6.51410   -9999.25  -42.50960   -9999.25    6.79290    8.55360    0.25350    0.02640    0.03620   11.74820    4.25700    2.66480   -9999.25   -9999.25
 9920.00000   -9999.25   -9999.25  120.72920    6.47250   -9999.25  -42.39480   -9999.25    6.72110    8.32060    0.25890    0.02730    0.07050   11.77470    4.58260    2.66320   -9999.25   -9999.25
 9920.50000   -9999.25   -9999.25  119.78670    6.40550   -9999.25  -42.28000   -9999.25    6.73730    7.91210    0.26420    0.03790    0.08950   11.80400    4.99890    2.64540   -9999.25   -9999.25
 9921.00000   -9999.25   -9999.25  118.82430    6.33030   -9999.25  -42.29680   -9999.25    6.75720    7.65000    0.26830    0.05070    0.09800   11.83320    4.95900    2.62480   -9999.25   -9999.25
 9921.50000   -9999.25   -9999.25  117.04370    6.34710   -9999.25  -42.32760   -9999.25    6.77710    7.48760    0.26420    0.04440    0.09880   11.83130    4.64300    2.62990   -9999.25   -9999.25
 9922.00000   -9999.25   -9999.25  116.34190    6.36400   -9999.25  -42.35840   -9999.25    6.79730    7.39260    0.25670    0.02930    0.09510   11.81970    4.27410    2.65180   -9999.25   -9999.25
 9922.50000   -9999.25   -9999.25  116.04710    6.38090   -9999.25  -42.38910   -9999.25    6.82160    7.55040    0.24580    0.01460    0.07730   11.80810    3.98610    2.68700   -9999.25   -9999.25
 9923.00000   -9999.25   -9999.25  115.55170    6.39790   -9999.25  -42.41990   -9999.25    6.83480    8.08050    0.23860    0.02130    0.05660   11.79640    3.86240    2.67420   -9999.25   -9999.25
 9923.50000   -9999.25   -9999.25  115.57910    6.44720   -9999.25  -42.45060   -9999.25    6.86700    8.64600    0.23570    0.02830    0.03720   11.78480    3.90240    2.66190   -9999.25   -9999.25
 9924.00000   -9999.25   -9999.25  115.88400    6.59640   -9999.25  -42.48140   -9999.25    6.93290    8.62130    0.23440    0.03590    0.02860   11.77320    4.09600    2.65440   -9999.25   -9999.25
 9924.50000   -9999.25   -9999.25  120.93390    6.74900   -9999.25  -42.51210   -9999.25    7.05910    8.46680    0.24170    0.04470    0.02840   11.83740    4.56590    2.64150   -9999.25   -9999.25
 9925.00000   -9999.25   -9999.25  122.25050    6.96980   -9999.25  -42.54290   -9999.25    7.35680    8.31810    0.25050    0.06010    0.03310   11.89600    4.85990    2.61730   -9999.25   -9999.25
 9925.50000   -9999.25   -9999.25  120.08850    7.43060   -9999.25  -42.74360   -9999.25    7.67990    8.36670    0.25160    0.07500    0.04220   11.86640    4.86360    2.58550   -9999.25   -9999.25
 9926.00000   -9999.25   -9999.25  114.78360    7.88320   -9999.25  -42.84080   -9999.25    8.46070    8.84010    0.23570    0.08200    0.05130   11.83680    4.69230    2.57130   -9999.25   -9999.25
 9926.50000   -9999.25   -9999.25  109.49260    8.30550   -9999.25  -42.68970   -9999.25    9.42850   10.69060    0.19610    0.05480    0.06750   11.63760    4.51410    2.60210   -9999.25   -9999.25
 9927.00000   -9999.25   -9999.25  105.78880    8.75050   -9999.25  -42.42700   -9999.25   10.81470   13.10400    0.17660    0.03770    0.08260   11.23360    4.42720    2.63660   -9999.25   -9999.25
 9927.50000   -9999.25   -9999.25  102.26140    9.24520   -9999.25  -42.16440   -9999.25   10.94780   16.27290    0.17980    0.03700    0.08980   11.02930    4.33300    2.64620   -9999.25   -9999.25
 9928.00000   -9999.25   -9999.25  100.84140    9.76810   -9999.25  -41.90170   -9999.25   11.10020   18.91470    0.19090    0.03110    0.09370   10.92210    4.30480    2.64870   -9999.25   -9999.25
 9928.50000   -9999.25   -9999.25  102.44570   10.37930   -9999.25  -41.86100   -9999.25   11.38370   17.83970    0.19730    0.02170    0.11710   10.92020    4.35760    2.66520   -9999.25   -9999.25
 9929.00000   -9999.25   -9999.25  105.75270   11.05720   -9999.25  -41.84990   -9999.25   11.69570   15.94680    0.19990    0.02360    0.13250   10.91830    4.46500    2.67510   -9999.25   -9999.25
 9929.50000   -9999.25   -9999.25  108.90560   11.77920   -9999.25  -41.83870   -9999.25   12.05950   15.01230    0.19790    0.03000    0.12400   10.91640    4.35520    2.66280   -9999.25   -9999.25
 9930.00000   -9999.25   -9999.25  107.07010   12.54820   -9999.25  -41.80460   -9999.25   12.80710   15.13790    0.18620    0.02430    0.11660   10.91450    4.05930    2.65850   -9999.25   -9999.25
 9930.50000   -9999.25   -9999.25  103.23920   12.70340   -9999.25  -41.74480   -9999.25   13.59060   15.96760    0.16400    0.00250    0.11420   10.91260    3.93910    2.70670   -9999.25   -9999.25
 9931.00000   -9999.25   -9999.25  101.10070   12.65060   -9999.25  -41.26360   -9999.25   14.25980   18.11710    0.15750    0.01110    0.09770   10.90260    4.01000    2.70020   -9999.25   -9999.25
 9931.50000   -9999.25   -9999.25  104.07020   12.43780   -9999.25  -41.09350   -9999.25   13.92480   20.20090    0.16090    0.02200    0.07990   10.87780    4.20040    2.67680   -9999.25   -9999.25
 9932.00000   -9999.25   -9999.25  107.72360   12.55480   -9999.25  -40.79290   -9999.25   13.29730   21.30680    0.17100    0.02090    0.07520   10.85310    4.25090    2.67520   -9999.25   -9999.25
 9932.50000   -9999.25   -9999.25  110.40920   12.72680   -9999.25  -40.66790   -9999.25   13.22880   19.84900    0.18200    0.01910    0.08980   10.83390    4.17760    2.67930   -9999.25   -9999.25
 9933.00000   -9999.25   -9999.25  110.00720   12.81710   -9999.25  -40.63500   -9999.25   13.33370   18.22140    0.17800    0.02570    0.09440   10.85970    4.05630    2.66820   -9999.25   -9999.25
 9933.50000   -9999.25   -9999.25  105.49300   12.90890   -9999.25  -40.60210   -9999.25   13.48520   17.41530    0.16650    0.03320    0.09630   10.86290    4.02420    2.65800   -9999.25   -9999.25
 9934.00000   -9999.25   -9999.25  101.65920   12.64220   -9999.25  -40.56930   -9999.25   13.27510   19.06440    0.15960    0.03050    0.09840   10.81260    4.05560    2.65450   -9999.25   -9999.25
 9934.50000   -9999.25   -9999.25  101.37070   12.44620   -9999.25  -40.53640   -9999.25   12.84880   19.82080    0.17470    0.02720    0.10100   10.76530    4.15570    2.65910   -9999.25   -9999.25
 9935.00000   -9999.25   -9999.25  105.60590   12.42630   -9999.25  -40.50350   -9999.25   12.74270   18.38020    0.18960    0.02130    0.10580   10.73230    4.18330    2.66700   -9999.25   -9999.25
 9935.50000   -9999.25   -9999.25  109.70400   12.71710   -9999.25  -40.48490   -9999.25   13.06750   16.34210    0.19870    0.01160    0.10420   10.69940    4.05840    2.68210   -9999.25   -9999.25
 9936.00000   -9999.25   -9999.25  109.57600   13.09440   -9999.25  -40.47650   -9999.25   13.61940   16.43120    0.18330    0.00910    0.09700   10.66650    3.86740    2.69740   -9999.25   -9999.25
 9936.50000   -9999.25   -9999.25  106.81390   13.15960   -9999.25  -40.46660   -9999.25   14.23870   18.65600    0.16300    0.01240    0.07610   10.66740    3.51160    2.69340   -9999.25   -9999.25
 9937.00000   -9999.25   -9999.25  105.41640   13.12270   -9999.25  -40.45510   -9999.25   14.62030   21.96040    0.15060    0.01380    0.05670   10.67510    3.48090    2.68730   -9999.25   -9999.25
 9937.50000   -9999.25   -9999.25  105.84330   12.96470   -9999.25  -40.44350   -9999.25   14.09810   24.53950    0.15570    0.01340    0.04270   10.67970    3.57340    2.68740   -9999.25   -9999.25
 9938.00000   -9999.25   -9999.25  108.72200   12.77720   -9999.25  -40.42400   -9999.25   12.93600   22.58350    0.17970    0.01150    0.04040   10.67910    3.68710    2.69040   -9999.25   -9999.25
 9938.50000   -9999.25   -9999.25  111.13370   12.86910   -9999.25  -40.39630   -9999.25   11.87770   19.14920    0.20510    0.00740    0.04560   10.67850    3.82620    2.69690   -9999.25   -9999.25
 9939.00000   -9999.25   -9999.25  111.75550   13.10970   -9999.25  -40.36860   -9999.25   11.84350   17.02140    0.22640    0.00270    0.05660   10.67790    3.89030    2.70380   -9999.25   -9999.25
