~Version ---------------------------------------------------
VERS.   2.0 : CWLS log ASCII Standard -VERSION 2.0
WRAP.    NO : One line per depth step
DLM . SPACE : Column Data Section Delimiter
~Well ------------------------------------------------------
STRT .F                 4630.0 : START DEPTH
STOP .F                12223.0 : STOP DEPTH
STEP .F                    0.5 : STEP
NULL .                -9999.25 : NULL VALUE
COMP .                         : COMPANY
WELL .                         : WELL
FLD  .                         : FIELD
LOC  .                         : LOCATION
PROV .                         : PROVINCE
CNTY .                         : COUNTY
STAT .                         : STATE
CTRY .                         : COUNTRY
SRVC .                         : SERVICE COMPANY
DATE .                         : DATE
UWI  .                         : UNIQUE WELL ID
API  .                         : API NUMBER
SLAT .WGS84 6.1568294008363935 : SURFACE LATITUDE
SLON .WGS84  4.519130721279083 : SURFACE LONGITUDE
DATUM.F                 2304.5 : DEPTH DATUM ELEV
~Curve Information -----------------------------------------
DEPT   .F     : 1 MEASURED DEPTH
DTCO   .US/F  : DELTA-T COMPRESSIONAL
DTSM   .US/F  : DELTA-T SHEAR
GRR    .GAPI  : GAMMA RAY FROM RESISTIVITY LOG
ILD    .OHMM  : INDUCTION DEEP RESISTIVITY
CILD   .MMHO  : INDUCTION DEEP CONDUCTIVITY
SPR    .MV    : SPONTANEOUS POTENTIAL FROM RESISTIVITY LOG
SFLA   .OHMM  : SPHERICALLY FOCUSED LOG RESISTIVITY AVERAGED OVER 2.5 FT
ILM    .OHMM  : INDUCTION MEDIUM RESISTIVITY
SFLU   .OHMM  : SHALLOW FOCUSED RESISTIVITY (UNAVERAGED)
NPHI_LS.DEC   : NEUTRON POROSITY LIMESTONE
DPHI_LS.DEC   : DENSITY POROSITY LIMESTONE
DRHO   .G/C3  : BULK DENSITY CORRECTION
CALD   .IN    : CALIPER FROM DENSITY LOG
PEF    .B/E   : PHOTOELECTRIC FACTOR
RHOB   .G/C3  : BULK DENSITY
PEFL   .B/E   : LONG SPACED CORRECTED PHOTELECTRIC FACTOR
PEFS   .B/E   : SHORT SPACED CORRECTED PHOTOELECTRIC FACTOR
~Params ----------------------------------------------------
~Other -----------------------------------------------------
~ASCII -----------------------------------------------------
# ...
 8914.50000   -9999.25   -9999.25  114.78570    7.20740   -9999.25  -36.13290   -9999.25    7.54010    9.53080    0.25310    0.09020    0.13400   10.08800    5.47910    2.55410   -9999.25   -9999.25
 8915.00000   -9999.25   -9999.25  111.64740    7.26090   -9999.25  -36.13500   -9999.25    7.50320    9.52500    0.25520    0.09810    0.13650   10.09770    5.76840    2.54370   -9999.25   -9999.25
 8915.50000   -9999.25   -9999.25  109.59600    7.18460   -9999.25  -36.13900   -9999.25    7.46780    9.51920    0.25590    0.09070    0.14230   10.15650    5.84080    2.55770   -9999.25   -9999.25
 8916.00000   -9999.25   -9999.25  110.08860    7.05570   -9999.25  -36.18010   -9999.25    7.48510    9.28640    0.25280    0.07240    0.15040   10.24410    5.79410    2.58640   -9999.25   -9999.25
 8916.50000   -9999.25   -9999.25  113.38900    6.85690   -9999.25  -36.21040   -9999.25    7.38720    9.01720    0.24980    0.06290    0.16040   10.30580    5.77620    2.60250   -9999.25   -9999.25
 8917.00000   -9999.25   -9999.25  116.63660    6.76340   -9999.25  -36.18380   -9999.25    7.13550    8.75410    0.25450    0.06510    0.16950   10.35500    5.75840    2.59870   -9999.25   -9999.25
 8917.50000   -9999.25   -9999.25  117.29150    6.72400   -9999.25  -36.18220   -9999.25    7.01210    8.46870    0.25790    0.07130    0.18090   10.41390    5.72590    2.58890   -9999.25   -9999.25
 8918.00000   -9999.25   -9999.25  113.28160    6.68160   -9999.25  -36.19440   -9999.25    6.89850    8.11690    0.26420    0.07840    0.18230   10.52940    5.70930    2.57690   -9999.25   -9999.25
 8918.50000   -9999.25   -9999.25  108.62690    6.62620   -9999.25  -36.20670   -9999.25    6.82250    7.78160    0.27330    0.08380    0.17940   10.62560    5.79620    2.56670   -9999.25   -9999.25
 8919.00000   -9999.25   -9999.25  104.87120    6.55800   -9999.25  -36.21890   -9999.25    6.74730    7.71390    0.27480    0.08400    0.17530   10.55730    5.94610    2.56640   -9999.25   -9999.25
 8919.50000   -9999.25   -9999.25  106.64370    6.52510   -9999.25  -36.23110   -9999.25    6.74190    7.68690    0.27070    0.08020    0.17170   10.46090    5.95740    2.57280   -9999.25   -9999.25
 8920.00000   -9999.25   -9999.25  112.22320    6.54960   -9999.25  -36.24330   -9999.25    6.74000    7.81070    0.26520    0.08240    0.16850   10.32770    5.83190    2.56910   -9999.25   -9999.25
 8920.50000   -9999.25   -9999.25  117.47630    6.61090   -9999.25  -36.25550   -9999.25    6.75550    8.08810    0.26550    0.08510    0.16700   10.27640    5.60640    2.56460   -9999.25   -9999.25
 8921.00000   -9999.25   -9999.25  116.36780    6.58780   -9999.25  -36.26770   -9999.25    6.77100    8.32850    0.28420    0.08350    0.16790   10.25200    5.41120    2.56730   -9999.25   -9999.25
 8921.50000   -9999.25   -9999.25  112.46440    6.57390   -9999.25  -36.27990   -9999.25    6.78660    8.49820    0.28660    0.07690    0.17880   10.30150    5.27830    2.58270   -9999.25   -9999.25
 8922.00000   -9999.25   -9999.25  110.93260    6.62180   -9999.25  -36.32070   -9999.25    6.80220    8.46010    0.27740    0.06620    0.19220   10.40800    5.39200    2.61010   -9999.25   -9999.25
 8922.50000   -9999.25   -9999.25  111.54730    6.67010   -9999.25  -36.36620   -9999.25    6.83570    8.33150    0.26500    0.05460    0.20070   10.44670    5.72720    2.61390   -9999.25   -9999.25
 8923.00000   -9999.25   -9999.25  114.72320    6.71520   -9999.25  -36.40540   -9999.25    6.90620    8.20350    0.25300    0.06650    0.19860   10.36490    6.05560    2.59510   -9999.25   -9999.25
 8923.50000   -9999.25   -9999.25  115.76220    6.71300   -9999.25  -36.41310   -9999.25    6.97760    8.17590    0.25030    0.08000    0.19510   10.27510    6.14560    2.57280   -9999.25   -9999.25
 8924.00000   -9999.25   -9999.25  115.61110    6.71090   -9999.25  -36.43840   -9999.25    7.04960    8.38680    0.25730    0.08840    0.19140   10.16560    5.94530    2.55950   -9999.25   -9999.25
 8924.50000   -9999.25   -9999.25  114.64060    6.70870   -9999.25  -36.46360   -9999.25    7.07580    8.63460    0.26490    0.08560    0.18920   10.02740    5.82170    2.56460   -9999.25   -9999.25
 8925.00000   -9999.25   -9999.25  114.43630    6.70660   -9999.25  -36.48880   -9999.25    7.04360    8.73440    0.27260    0.08240    0.19210   10.02190    5.96210    2.56900   -9999.25   -9999.25
 8925.50000   -9999.25   -9999.25  114.70310    6.70440   -9999.25  -36.51400   -9999.25    7.00920    8.76650    0.27830    0.08420    0.19660   10.13120    5.99620    2.56600   -9999.25   -9999.25
 8926.00000   -9999.25   -9999.25  116.00460    6.70220   -9999.25  -36.54680   -9999.25    6.97990    8.56100    0.28700    0.08820    0.19900   10.19280    5.88560    2.55910   -9999.25   -9999.25
 8926.50000   -9999.25   -9999.25  115.86770    6.70010   -9999.25  -36.58560   -9999.25    7.00550    8.36580    0.29440    0.08940    0.19610   10.20970    5.70360    2.55780   -9999.25   -9999.25
 8927.00000   -9999.25   -9999.25  111.15300    6.81030   -9999.25  -36.58330   -9999.25    7.28380    8.57300    0.29460    0.07860    0.19290   10.20920    5.67370    2.57890   -9999.25   -9999.25
 8927.50000   -9999.25   -9999.25  107.01850    7.06620   -9999.25  -36.58100   -9999.25    7.56460    8.81930    0.29050    0.06900    0.17710   10.18790    5.71070    2.59540   -9999.25   -9999.25
 8928.00000   -9999.25   -9999.25  105.75460    7.20510   -9999.25  -36.57870   -9999.25    7.68790    8.96880    0.28060    0.06490    0.15730   10.13110    5.57800    2.59840   -9999.25   -9999.25
 8928.50000   -9999.25   -9999.25  109.99910    7.21170   -9999.25  -36.58020   -9999.25    7.72960    8.72400    0.26710    0.06500    0.14240   10.12620    5.37800    2.59880   -9999.25   -9999.25
 8929.00000   -9999.25   -9999.25  114.22950    7.21830   -9999.25  -36.58260   -9999.25    7.65680    8.56160    0.25470    0.06700    0.15320   10.14220    5.28480    2.59530   -9999.25   -9999.25
 8929.50000   -9999.25   -9999.25  117.44720    7.22500   -9999.25  -36.58500   -9999.25    7.64560    8.68680    0.24850    0.07790    0.16040   10.18840    5.37030    2.57940   -9999.25   -9999.25
 8930.00000   -9999.25   -9999.25  118.63560    7.16000   -9999.25  -36.60550   -9999.25    7.65190    8.77950    0.25560    0.08400    0.16650   10.29270    5.37120    2.56540   -9999.25   -9999.25
 8930.50000   -9999.25   -9999.25  120.29780    7.06020   -9999.25  -36.63250   -9999.25    7.46440    8.56690    0.26470    0.07980    0.18330   10.42700    5.16780    2.57410   -9999.25   -9999.25
 8931.00000   -9999.25   -9999.25  120.91270    6.96180   -9999.25  -36.65960   -9999.25    7.27350    8.20220    0.26650    0.07080    0.18280   10.45230    5.01890    2.58900   -9999.25   -9999.25
 8931.50000   -9999.25   -9999.25  120.80730    6.86780   -9999.25  -36.68670   -9999.25    7.08750    7.85610    0.26730    0.06870    0.17330   10.47760    5.01870    2.59260   -9999.25   -9999.25
 8932.00000   -9999.25   -9999.25  117.95850    6.77700   -9999.25  -36.72350   -9999.25    6.97920    7.92490    0.26960    0.06840    0.16190   10.50290    5.11570    2.59310   -9999.25   -9999.25
 8932.50000   -9999.25   -9999.25  114.55380    6.68730   -9999.25  -36.82850   -9999.25    6.89160    8.38510    0.27510    0.06530    0.15320   10.52690    5.20690    2.59830   -9999.25   -9999.25
 8933.00000   -9999.25   -9999.25  113.20950    6.60490   -9999.25  -36.93340   -9999.25    6.80510    8.62000    0.27940    0.06400    0.14930   10.54890    5.24670    2.60050   -9999.25   -9999.25
 8933.50000   -9999.25   -9999.25  111.86750    6.59480   -9999.25  -37.04770   -9999.25    6.79070    8.64200    0.28340    0.06220    0.14420   10.57100    5.26310    2.60400   -9999.25   -9999.25
 8934.00000   -9999.25   -9999.25  110.98130    6.58460   -9999.25  -37.17010   -9999.25    6.79260    8.64200    0.28590    0.06170    0.13870   10.63120    5.26990    2.60580   -9999.25   -9999.25
 8934.50000   -9999.25   -9999.25  112.64260    6.57460   -9999.25  -37.29260   -9999.25    6.79450    8.32570    0.28480    0.06890    0.13380   10.66040    5.32050    2.59930   -9999.25   -9999.25
