~Version ---------------------------------------------------
VERS.   2.0 : CWLS log ASCII Standard -VERSION 2.0
WRAP.    NO : One line per depth step
DLM . SPACE : Column Data Section Delimiter
~Well ------------------------------------------------------
STRT .F                 4630.0 : START DEPTH
STOP .F                12223.0 : STOP DEPTH
STEP .F                    0.5 : STEP
NULL .                -9999.25 : NULL VALUE
COMP .                         : COMPANY
WELL .                         : WELL
FLD  .                         : FIELD
LOC  .                         : LOCATION
PROV .                         : PROVINCE
CNTY .                         : COUNTY
STAT .                         : STATE
CTRY .                         : COUNTRY
SRVC .                         : SERVICE COMPANY
DATE .                         : DATE
UWI  .                         : UNIQUE WELL ID
API  .                         : API NUMBER
SLAT .WGS84 6.1568294008363935 : SURFACE LATITUDE
SLON .WGS84  4.519130721279083 : SURFACE LONGITUDE
DATUM.F                 2304.5 : DEPTH DATUM ELEV
~Curve Information -----------------------------------------
DEPT   .F     : 1 MEASURED DEPTH
DTCO   .US/F  : DELTA-T COMPRESSIONAL
DTSM   .US/F  : DELTA-T SHEAR
GRR    .GAPI  : GAMMA RAY FROM RESISTIVITY LOG
ILD    .OHMM  : INDUCTION DEEP RESISTIVITY
CILD   .MMHO  : INDUCTION DEEP CONDUCTIVITY
SPR    .MV    : SPONTANEOUS POTENTIAL FROM RESISTIVITY LOG
SFLA   .OHMM  : SPHERICALLY FOCUSED LOG RESISTIVITY AVERAGED OVER 2.5 FT
ILM    .OHMM  : INDUCTION MEDIUM RESISTIVITY
SFLU   .OHMM  : SHALLOW FOCUSED RESISTIVITY (UNAVERAGED)
NPHI_LS.DEC   : NEUTRON POROSITY LIMESTONE
DPHI_LS.DEC   : DENSITY POROSITY LIMESTONE
DRHO   .G/C3  : BULK DENSITY CORRECTION
CALD   .IN    : CALIPER FROM DENSITY LOG
PEF    .B/E   : PHOTOELECTRIC FACTOR
RHOB   .G/C3  : BULK DENSITY
PEFL   .B/E   : LONG SPACED CORRECTED PHOTELECTRIC FACTOR
PEFS   .B/E   : SHORT SPACED CORRECTED PHOTOELECTRIC FACTOR
~Params ----------------------------------------------------
~Other -----------------------------------------------------
~ASCII -----------------------------------------------------
# ...
 11541.00000   94.44940  181.81800  115.58070    4.60370   -9999.25  -17.65670   -9999.25    5.13400    5.63220    0.32430    0.11600    0.15280    9.67980    5.42690    2.51980   -9999.25   -9999.25
 11541.50000   93.86390  179.92930  110.65860    4.96980   -9999.25  -17.63140   -9999.25    5.32050    5.48990    0.30910    0.09910    0.14230    9.62910    5.47720    2.54140   -9999.25   -9999.25
 11542.00000   91.86770  178.25710  103.37020    5.27750   -9999.25  -17.60610   -9999.25    5.82570    5.67370    0.29100    0.07740    0.12150    9.44190    5.38330    2.57780   -9999.25   -9999.25
 11542.50000   91.21910  180.59230   96.52810    5.41970   -9999.25  -17.58070   -9999.25    6.40030    7.76240    0.27290    0.06070    0.08800    9.27900    5.18900    2.60620   -9999.25   -9999.25
 11543.00000   91.64430  175.38570   94.85960    5.40120   -9999.25  -17.55540   -9999.25    6.85930   11.86280    0.25600    0.05940    0.06980    9.12050    5.01040    2.60840   -9999.25   -9999.25
 11543.50000   89.81810  165.64830   98.12050    5.32270   -9999.25  -17.53010   -9999.25    6.89980   14.73130    0.25270    0.06830    0.05150    9.09260    5.06130    2.58810   -9999.25   -9999.25
 11544.00000   85.67870  161.66010  103.41210    5.18060   -9999.25  -17.50470   -9999.25    6.02470   13.36670    0.27160    0.08740    0.05490    9.06480    5.42920    2.55410   -9999.25   -9999.25
 11544.50000   85.36630  166.41670  109.02780    4.99080   -9999.25  -17.47940   -9999.25    5.24610    9.80630    0.30070    0.10170    0.07590    9.03090    5.74290    2.53170   -9999.25   -9999.25
 11545.00000   87.55540  170.98050  111.62030    4.70120   -9999.25  -17.45410   -9999.25    4.90360    6.86960    0.33760    0.11400    0.09150    9.04050    5.64210    2.51660   -9999.25   -9999.25
 11545.50000   89.48130  174.38410  114.11360    4.41090   -9999.25  -17.42870   -9999.25    4.54330    5.13140    0.34890    0.11200    0.10610    9.07050    5.32610    2.51840   -9999.25   -9999.25
 11546.00000   92.06530  177.86740  117.29810    3.98250   -9999.25  -17.40340   -9999.25    4.28140    4.81870    0.34240    0.10070    0.11350    9.02100    5.06330    2.53680   -9999.25   -9999.25
 11546.50000   95.62900  181.71930  123.16830    3.75320   -9999.25  -17.37810   -9999.25    4.07500    4.89840    0.32920    0.08450    0.11510    8.89010    4.92510    2.56540   -9999.25   -9999.25
 11547.00000   94.48010  182.28680  123.46830    3.63060   -9999.25  -17.35270   -9999.25    3.96190    5.17250    0.31440    0.06710    0.12020    8.85860    5.00610    2.59530   -9999.25   -9999.25
 11547.50000   93.36330  180.32880  123.14410    3.57700   -9999.25  -17.32740   -9999.25    3.91260    5.50650    0.30990    0.05710    0.12520    8.83830    5.12610    2.61590   -9999.25   -9999.25
 11548.00000   92.59480  177.58700  122.89540    3.54070   -9999.25  -17.30210   -9999.25    3.86390    6.02810    0.31010    0.05500    0.13020    8.86660    5.20900    2.61720   -9999.25   -9999.25
 11548.50000   90.55070  175.93010  122.04290    3.53860   -9999.25  -17.27670   -9999.25    3.81180    6.09730    0.32040    0.06390    0.13270    8.91420    5.25010    2.60060   -9999.25   -9999.25
 11549.00000   88.91110  175.78460  121.13330    3.53650   -9999.25  -17.25140   -9999.25    3.75660    5.68880    0.32250    0.07520    0.13060    8.96460    5.08400    2.58160   -9999.25   -9999.25
 11549.50000   87.67890  173.80770  120.19510    3.55540   -9999.25  -17.22600   -9999.25    3.71530    5.33250    0.32080    0.07940    0.12890    9.00650    4.84170    2.57440   -9999.25   -9999.25
 11550.00000   86.75710  170.57070  119.72080    3.57950   -9999.25  -17.20070   -9999.25    3.81710    5.24600    0.31850    0.06810    0.12720    9.02310    4.59270    2.59360   -9999.25   -9999.25
 11550.50000   88.50100  176.13820  119.47320    3.60370   -9999.25  -17.17540   -9999.25    3.93900    5.28100    0.31830    0.04990    0.12560    8.99420    4.58210    2.63060   -9999.25   -9999.25
 11551.00000   89.14110  178.47240  119.39830    3.59470   -9999.25  -17.15000   -9999.25    3.93080    5.64900    0.32870    0.03650    0.12490    8.95230    4.85790    2.65170   -9999.25   -9999.25
 11551.50000   87.97300  179.14260  119.67780    3.58300   -9999.25  -17.12470   -9999.25    3.85980    5.89670    0.33420    0.03630    0.12460    8.91650    5.02310    2.64310   -9999.25   -9999.25
 11552.00000   87.41880  177.36740  120.82670    3.57130   -9999.25  -17.09940   -9999.25    3.83740    5.76160    0.33390    0.05080    0.12430    8.88660    5.18140    2.62140   -9999.25   -9999.25
 11552.50000   87.03000  178.46840  124.59690    3.55960   -9999.25  -17.07400   -9999.25    3.86960    5.30360    0.32610    0.06620    0.12410    8.87100    5.18720    2.59840   -9999.25   -9999.25
 11553.00000   87.35160  181.17690  127.82360    3.55090   -9999.25  -17.04870   -9999.25    3.79970    5.16800    0.31890    0.07730    0.12590    8.87100    5.06410    2.57680   -9999.25   -9999.25
 11553.50000   88.48750  182.95900  129.86470    3.54260   -9999.25  -17.02340   -9999.25    3.80290    5.17860    0.32000    0.08090    0.12770    8.87100    5.05960    2.57240   -9999.25   -9999.25
 11554.00000   88.54070  182.53340  129.38620    3.53430   -9999.25  -16.98470   -9999.25    3.80740    5.18930    0.32320    0.08110    0.12950    8.88460    5.16210    2.57710   -9999.25   -9999.25
 11554.50000   88.47000  182.06390  126.32110    3.52600   -9999.25  -16.94460   -9999.25    3.77840    5.20280    0.32940    0.07600    0.13190    8.91270    5.29020    2.58330   -9999.25   -9999.25
 11555.00000   88.85000  182.16820  125.37780    3.51770   -9999.25  -16.90460   -9999.25    3.73550    5.21960    0.33470    0.07000    0.13560    8.94080    5.40550    2.59080   -9999.25   -9999.25
 11555.50000   88.77890  182.33740  126.27170    3.50950   -9999.25  -16.86460   -9999.25    3.68410    5.23650    0.32960    0.06400    0.13930    8.96680    5.71840    2.60200   -9999.25   -9999.25
 11556.00000   88.72780  182.51240  127.14210    3.48080   -9999.25  -16.82450   -9999.25    3.65720    5.25120    0.31250    0.06020    0.14300    8.96680    6.09370    2.61060   -9999.25   -9999.25
 11556.50000   88.75120  182.63010  125.39400    3.44650   -9999.25  -16.78450   -9999.25    3.64120    5.25380    0.30490    0.06090    0.14660    8.97910    6.10230    2.60430   -9999.25   -9999.25
 11557.00000   89.44030  182.55770  125.45070    3.41270   -9999.25  -16.74450   -9999.25    3.61620    5.25640    0.31650    0.06640    0.14890    8.99860    5.71900    2.59400   -9999.25   -9999.25
 11557.50000   91.22040  181.73470  127.44580    3.35850   -9999.25  -16.70440   -9999.25    3.59130    5.19720    0.32490    0.06840    0.15060    9.10030    5.36000    2.59770   -9999.25   -9999.25
 11558.00000   91.35300  181.23270  131.73320    3.29740   -9999.25  -16.66440   -9999.25    3.56660    5.13690    0.32470    0.06320    0.14680    9.23410    5.14440    2.61620   -9999.25   -9999.25
 11558.50000   91.48180  182.17180  131.66640    3.23730   -9999.25  -16.62440   -9999.25    3.54210    5.03580    0.31470    0.04860    0.13900    9.26760    5.05980    2.64100   -9999.25   -9999.25
 11559.00000   93.41710  183.28960  130.14260    3.19120   -9999.25  -16.58430   -9999.25    3.51000    4.91230    0.31340    0.03970    0.13120    9.12620    4.98740    2.64700   -9999.25   -9999.25
 11559.50000   94.74290  182.26330  128.89470    3.14680   -9999.25  -16.54430   -9999.25    3.43730    4.79180    0.31330    0.03800    0.12340    9.02130    4.94880    2.64970   -9999.25   -9999.25
 11560.00000   93.20170  179.31030  128.51220    3.10300   -9999.25  -16.50430   -9999.25    3.36610    4.73820    0.31390    0.03330    0.11710    9.01440    4.97910    2.66270   -9999.25   -9999.25
 11560.50000   91.40610  173.87980  127.43100    3.09600   -9999.25  -16.46420   -9999.25    3.33000    4.77730    0.31510    0.02590    0.11090    8.99510    5.14940    2.67770   -9999.25   -9999.25
