~Version ---------------------------------------------------
VERS.   2.0 : CWLS log ASCII Standard -VERSION 2.0
WRAP.    NO : One line per depth step
DLM . SPACE : Column Data Section Delimiter
~Well ------------------------------------------------------
STRT .F                 4630.0 : START DEPTH
STOP .F                12223.0 : STOP DEPTH
STEP .F                    0.5 : STEP
NULL .                -9999.25 : NULL VALUE
COMP .                         : COMPANY
WELL .                         : WELL
FLD  .                         : FIELD
LOC  .                         : LOCATION
PROV .                         : PROVINCE
CNTY .                         : COUNTY
STAT .                         : STATE
CTRY .                         : COUNTRY
SRVC .                         : SERVICE COMPANY
DATE .                         : DATE
UWI  .                         : UNIQUE WELL ID
API  .                         : API NUMBER
SLAT .WGS84 6.1568294008363935 : SURFACE LATITUDE
SLON .WGS84  4.519130721279083 : SURFACE LONGITUDE
DATUM.F                 2304.5 : DEPTH DATUM ELEV
~Curve Information -----------------------------------------
DEPT   .F     : 1 MEASURED DEPTH
DTCO   .US/F  : DELTA-T COMPRESSIONAL
DTSM   .US/F  : DELTA-T SHEAR
GRR    .GAPI  : GAMMA RAY FROM RESISTIVITY LOG
ILD    .OHMM  : INDUCTION DEEP RESISTIVITY
CILD   .MMHO  : INDUCTION DEEP CONDUCTIVITY
SPR    .MV    : SPONTANEOUS POTENTIAL FROM RESISTIVITY LOG
SFLA   .OHMM  : SPHERICALLY FOCUSED LOG RESISTIVITY AVERAGED OVER 2.5 FT
ILM    .OHMM  : INDUCTION MEDIUM RESISTIVITY
SFLU   .OHMM  : SHALLOW FOCUSED RESISTIVITY (UNAVERAGED)
NPHI_LS.DEC   : NEUTRON POROSITY LIMESTONE
DPHI_LS.DEC   : DENSITY POROSITY LIMESTONE
DRHO   .G/C3  : BULK DENSITY CORRECTION
CALD   .IN    : CALIPER FROM DENSITY LOG
PEF    .B/E   : PHOTOELECTRIC FACTOR
RHOB   .G/C3  : BULK DENSITY
PEFL   .B/E   : LONG SPACED CORRECTED PHOTELECTRIC FACTOR
PEFS   .B/E   : SHORT SPACED CORRECTED PHOTOELECTRIC FACTOR
~Params ----------------------------------------------------
~Other -----------------------------------------------------
~ASCII -----------------------------------------------------
# ...
 8586.50000   -9999.25   -9999.25  108.60110    6.29590   -9999.25  -35.82010   -9999.25    6.45460    7.41650    0.30380    0.15200    0.14460   10.81760    6.84600    2.45160   -9999.25   -9999.25
 8587.00000   -9999.25   -9999.25  110.39190    6.24530   -9999.25  -35.57710   -9999.25    6.35690    7.16560    0.29730    0.13830    0.16030   10.68190    6.36520    2.47350   -9999.25   -9999.25
 8587.50000   -9999.25   -9999.25  108.02950    6.19510   -9999.25  -35.33420   -9999.25    6.25440    7.12240    0.29830    0.12210    0.16960   10.58860    6.10690    2.50120   -9999.25   -9999.25
 8588.00000   -9999.25   -9999.25  104.34120    6.04920   -9999.25  -35.09120   -9999.25    6.14670    7.11360    0.30080    0.11040    0.17170   10.71090    5.86850    2.52570   -9999.25   -9999.25
 8588.50000   -9999.25   -9999.25  101.59850    5.96760   -9999.25  -34.84830   -9999.25    6.07270    7.11300    0.29860    0.10280    0.17360   10.82650    5.89740    2.53510   -9999.25   -9999.25
 8589.00000   -9999.25   -9999.25  101.05010    5.98600   -9999.25  -34.59430   -9999.25    6.06740    7.11230    0.29640    0.11630    0.17550   10.92340    6.15980    2.51580   -9999.25   -9999.25
 8589.50000   -9999.25   -9999.25  101.82930    6.02520   -9999.25  -34.37070   -9999.25    6.13210    7.11170    0.29170    0.13840    0.17740   10.90880    6.52630    2.47780   -9999.25   -9999.25
 8590.00000   -9999.25   -9999.25  104.48170    6.01220   -9999.25  -34.39730   -9999.25    6.20760    7.16510    0.29090    0.15470    0.17930   10.88890    6.75180    2.44460   -9999.25   -9999.25
 8590.50000   -9999.25   -9999.25  108.85190    5.99460   -9999.25  -34.43950   -9999.25    6.27040    7.28920    0.29070    0.14980    0.18220   10.86900    6.89650    2.45300   -9999.25   -9999.25
 8591.00000   -9999.25   -9999.25  110.41560    5.96850   -9999.25  -34.45950   -9999.25    6.21260    7.35050    0.30050    0.14330    0.19280   10.84910    6.81970    2.46590   -9999.25   -9999.25
 8591.50000   -9999.25   -9999.25  109.40100    5.94260   -9999.25  -34.47880   -9999.25    6.15530    7.36670    0.31030    0.14720    0.18510   10.82930    6.66220    2.45990   -9999.25   -9999.25
 8592.00000   -9999.25   -9999.25  107.24410    5.91670   -9999.25  -34.49820   -9999.25    6.09860    7.28850    0.31890    0.15650    0.18110   10.81450    6.53970    2.44170   -9999.25   -9999.25
 8592.50000   -9999.25   -9999.25  105.68750    5.82460   -9999.25  -34.51770   -9999.25    6.00230    7.11390    0.32820    0.16800    0.17740   10.83790    6.40770    2.42260   -9999.25   -9999.25
 8593.00000   -9999.25   -9999.25  105.37710    5.71300   -9999.25  -34.53730   -9999.25    5.87570    6.95170    0.33330    0.17910    0.16300   10.99700    6.30240    2.40370   -9999.25   -9999.25
 8593.50000   -9999.25   -9999.25  106.17940    5.60360   -9999.25  -34.55690   -9999.25    5.78880    6.67210    0.32500    0.17860    0.15310   11.39940    6.18200    2.40630   -9999.25   -9999.25
 8594.00000   -9999.25   -9999.25  109.69420    5.49620   -9999.25  -34.57650   -9999.25    5.73070    6.44660    0.32050    0.16740    0.14340   11.51350    6.15790    2.42900   -9999.25   -9999.25
 8594.50000   -9999.25   -9999.25  113.30660    5.39620   -9999.25  -34.59160   -9999.25    5.69010    6.23840    0.32480    0.15050    0.13720   11.29600    6.10500    2.45340   -9999.25   -9999.25
 8595.00000   -9999.25   -9999.25  112.38850    5.35850   -9999.25  -34.60500   -9999.25    5.53870    6.08590    0.32470    0.14320    0.13310   11.04080    5.91280    2.47230   -9999.25   -9999.25
 8595.50000   -9999.25   -9999.25  109.27490    5.32110   -9999.25  -34.61900   -9999.25    5.40620    6.03210    0.32430    0.13300    0.13370   10.92780    5.62830    2.48540   -9999.25   -9999.25
 8596.00000   -9999.25   -9999.25  106.17180    5.20930   -9999.25  -34.64030   -9999.25    5.33110    6.08690    0.32340    0.12310    0.13710   11.01680    5.48390    2.50070   -9999.25   -9999.25
 8596.50000   -9999.25   -9999.25  105.66120    4.98490   -9999.25  -34.63770   -9999.25    5.25710    6.10080    0.32680    0.11960    0.14220   11.34290    5.67430    2.50000   -9999.25   -9999.25
 8597.00000   -9999.25   -9999.25  108.71610    4.81580   -9999.25  -34.20390   -9999.25    5.01170    6.03390    0.34290    0.13770    0.14100   11.80780    6.49960    2.46780   -9999.25   -9999.25
 8597.50000   -9999.25   -9999.25  110.23040    4.83430   -9999.25  -33.77010   -9999.25    4.96320    5.92680    0.34080    0.18850    0.13660   12.25130    7.30370    2.39010   -9999.25   -9999.25
 8598.00000   -9999.25   -9999.25  107.51790    4.85600   -9999.25  -33.33630   -9999.25    4.93160    5.82150    0.33720    0.22040    0.13060   12.25150    8.12440    2.30130   -9999.25   -9999.25
 8598.50000   -9999.25   -9999.25  103.86980    4.79740   -9999.25  -33.12820   -9999.25    4.85120    5.60950    0.33020    0.28500    0.12530   11.79780    8.13280    2.21380   -9999.25   -9999.25
 8599.00000   -9999.25   -9999.25  102.56130    4.75400   -9999.25  -33.13210   -9999.25    4.84690    5.36620    0.32840    0.29950    0.12400   11.78430    7.68900    2.17980   -9999.25   -9999.25
 8599.50000   -9999.25   -9999.25  102.18250    4.74430   -9999.25  -33.13600   -9999.25    4.84520    5.18350    0.32760    0.29700    0.13470   11.77200    6.96770    2.20890   -9999.25   -9999.25
 8600.00000   -9999.25   -9999.25  102.05880    4.75820   -9999.25  -33.19980   -9999.25    4.88920    5.13390    0.32720    0.22480    0.16050   11.56740    6.28760    2.32590   -9999.25   -9999.25
 8600.50000   -9999.25   -9999.25  101.96280    4.83500   -9999.25  -33.32210   -9999.25    4.96030    5.42330    0.32310    0.16360    0.18150   11.33660    5.91080    2.43000   -9999.25   -9999.25
 8601.00000   -9999.25   -9999.25  101.11450    4.91290   -9999.25  -33.44450   -9999.25    5.05980    5.78880    0.31300    0.11500    0.19440   11.24680    5.81290    2.51300   -9999.25   -9999.25
 8601.50000   -9999.25   -9999.25  100.54200    4.99670   -9999.25  -33.56680   -9999.25    5.17050    6.09240    0.30210    0.10990    0.19150   11.26000    5.76980    2.52210   -9999.25   -9999.25
 8602.00000   -9999.25   -9999.25  100.64640    5.09290   -9999.25  -33.69850   -9999.25    5.29290    6.27880    0.29890    0.12020    0.18620   11.21080    5.74120    2.50470   -9999.25   -9999.25
 8602.50000   -9999.25   -9999.25  101.38160    5.20270   -9999.25  -33.94670   -9999.25    5.44040    6.42340    0.29580    0.12050    0.17530   10.92560    5.54230    2.50410   -9999.25   -9999.25
 8603.00000   -9999.25   -9999.25  102.89320    5.44390   -9999.25  -34.24490   -9999.25    5.59920    6.56050    0.28800    0.10740    0.16200   10.63060    5.20610    2.52630   -9999.25   -9999.25
 8603.50000   -9999.25   -9999.25  103.49570    5.62130   -9999.25  -34.55510   -9999.25    5.76270    6.69470    0.28020    0.09320    0.14870   10.32120    5.01090    2.55070   -9999.25   -9999.25
 8604.00000   -9999.25   -9999.25  103.82710    5.79350   -9999.25  -34.86530   -9999.25    5.94360    6.84280    0.27210    0.08200    0.13300   10.07910    4.86600    2.56980   -9999.25   -9999.25
 8604.50000   -9999.25   -9999.25  104.88760    5.90330   -9999.25  -35.17550   -9999.25    6.19020    7.03120    0.26380    0.07700    0.10140    9.86560    4.84030    2.57830   -9999.25   -9999.25
 8605.00000   -9999.25   -9999.25  108.82010    6.01520   -9999.25  -35.48570   -9999.25    6.44710    7.29320    0.25560    0.06920    0.08630    9.79680    4.82450    2.59170   -9999.25   -9999.25
 8605.50000   -9999.25   -9999.25  110.80770    6.11040   -9999.25  -35.79590   -9999.25    6.64080    7.53600    0.24730    0.05400    0.08610    9.78670    4.96470    2.61760   -9999.25   -9999.25
 8606.00000   -9999.25   -9999.25  111.28200    6.17910   -9999.25  -36.10610   -9999.25    6.80270    7.84800    0.23980    0.04450    0.08200    9.77660    5.12290    2.63380   -9999.25   -9999.25
 8606.50000   -9999.25   -9999.25  109.24130    6.17760   -9999.25  -36.41630   -9999.25    6.82140    8.31570    0.23800    0.05760    0.07370    9.77290    5.11660    2.61150   -9999.25   -9999.25
