~Version ---------------------------------------------------
VERS.   2.0 : CWLS log ASCII Standard -VERSION 2.0
WRAP.    NO : One line per depth step
DLM . SPACE : Column Data Section Delimiter
~Well ------------------------------------------------------
STRT .F                 4630.0 : START DEPTH
STOP .F                12223.0 : STOP DEPTH
STEP .F                    0.5 : STEP
NULL .                -9999.25 : NULL VALUE
COMP .                         : COMPANY
WELL .                         : WELL
FLD  .                         : FIELD
LOC  .                         : LOCATION
PROV .                         : PROVINCE
CNTY .                         : COUNTY
STAT .                         : STATE
CTRY .                         : COUNTRY
SRVC .                         : SERVICE COMPANY
DATE .                         : DATE
UWI  .                         : UNIQUE WELL ID
API  .                         : API NUMBER
SLAT .WGS84 6.1568294008363935 : SURFACE LATITUDE
SLON .WGS84  4.519130721279083 : SURFACE LONGITUDE
DATUM.F                 2304.5 : DEPTH DATUM ELEV
~Curve Information -----------------------------------------
DEPT   .F     : 1 MEASURED DEPTH
DTCO   .US/F  : DELTA-T COMPRESSIONAL
DTSM   .US/F  : DELTA-T SHEAR
GRR    .GAPI  : GAMMA RAY FROM RESISTIVITY LOG
ILD    .OHMM  : INDUCTION DEEP RESISTIVITY
CILD   .MMHO  : INDUCTION DEEP CONDUCTIVITY
SPR    .MV    : SPONTANEOUS POTENTIAL FROM RESISTIVITY LOG
SFLA   .OHMM  : SPHERICALLY FOCUSED LOG RESISTIVITY AVERAGED OVER 2.5 FT
ILM    .OHMM  : INDUCTION MEDIUM RESISTIVITY
SFLU   .OHMM  : SHALLOW FOCUSED RESISTIVITY (UNAVERAGED)
NPHI_LS.DEC   : NEUTRON POROSITY LIMESTONE
DPHI_LS.DEC   : DENSITY POROSITY LIMESTONE
DRHO   .G/C3  : BULK DENSITY CORRECTION
CALD   .IN    : CALIPER FROM DENSITY LOG
PEF    .B/E   : PHOTOELECTRIC FACTOR
RHOB   .G/C3  : BULK DENSITY
PEFL   .B/E   : LONG SPACED CORRECTED PHOTELECTRIC FACTOR
PEFS   .B/E   : SHORT SPACED CORRECTED PHOTOELECTRIC FACTOR
~Params ----------------------------------------------------
~Other -----------------------------------------------------
~ASCII -----------------------------------------------------
# ...
 12201.00000   69.30970  100.68950   -9999.25    4.47120   -9999.25  -20.27700   -9999.25    4.81730    6.80490    0.26770    0.09690    0.05660    4.50700   -9999.25    2.55030    4.55000    6.34360
 12201.50000   68.04820   99.02880   -9999.25    3.91820   -9999.25  -20.29810   -9999.25    4.11100    6.36910   -9999.25    0.08400    0.08330    4.50560   -9999.25    2.56490    4.68040    6.86070
 12202.00000   70.93050  115.90560   -9999.25    3.32920   -9999.25  -20.37690   -9999.25    3.50830    5.39570   -9999.25    0.06640    0.10030    4.50420   -9999.25    2.58960    4.78480    6.95910
 12202.50000   76.43280  150.02790   -9999.25    2.83620   -9999.25  -21.94730   -9999.25    2.99390    3.73440   -9999.25    0.06300    0.09520    4.50290   -9999.25    2.60530    4.93630    6.81270
 12203.00000   83.85750  172.64450   -9999.25    2.45450   -9999.25  -22.81050   -9999.25    2.54650    2.68380   -9999.25    0.07110    0.06580    4.48870   -9999.25    2.59940    5.03850    6.30740
 12203.50000   91.72760  184.48700   -9999.25    2.12410   -9999.25  -24.53580   -9999.25    2.19100    2.34090   -9999.25    0.08120    0.04080    4.47340   -9999.25    2.57980    4.83070    5.76950
 12204.00000   97.95370  186.44530   -9999.25    1.95880   -9999.25  -24.72620   -9999.25    2.04020    2.17740   -9999.25    0.08190    0.02170    4.45820   -9999.25    2.57520    4.46920    5.20970
 12204.50000  101.06370  187.45090   -9999.25    1.92710   -9999.25  -24.68690   -9999.25    2.00250    2.06280   -9999.25    0.06980    0.00810    4.44300   -9999.25    2.58980    4.19410    4.87660
 12205.00000  100.37870  187.49430   -9999.25    1.92390   -9999.25  -24.64750   -9999.25    1.99640    2.04660   -9999.25    0.05880    0.00410    4.42770   -9999.25    2.60640    4.24610    4.91780
 12205.50000   97.10020  187.51700   -9999.25    1.93030   -9999.25  -24.65160   -9999.25    2.02210    2.06420   -9999.25    0.05710    0.00400    4.41250   -9999.25    2.61310    4.33260    5.15340
 12206.00000   93.59000  187.15800   -9999.25    1.95300   -9999.25  -24.77220   -9999.25    2.09790    2.26500   -9999.25    0.06890    0.00610    4.39730   -9999.25    2.60030    4.30490    5.09070
 12206.50000   89.93780  186.25020   -9999.25    2.00100   -9999.25  -24.63410   -9999.25    2.14750    2.57470   -9999.25    0.07500    0.01350    4.38670   -9999.25    2.58680    4.17180    4.94980
 12207.00000   86.95510  181.52470   -9999.25    2.04250   -9999.25  -24.49610   -9999.25    2.19280    2.97440   -9999.25    0.06620    0.03210    4.38270   -9999.25    2.59060    4.03870    5.14900
 12207.50000   84.58880  175.60730   -9999.25    2.08590   -9999.25  -24.35800   -9999.25    2.20770    3.13150   -9999.25    0.05530    0.05070    4.37880   -9999.25    2.60670    4.00420    5.63500
 12208.00000   85.36930  178.44370   -9999.25    2.13590   -9999.25  -24.22000   -9999.25    2.23370    2.89360   -9999.25    0.04570    0.05790    4.37480   -9999.25    2.62560    4.03000    6.04750
 12208.50000   87.42510  180.72690   -9999.25    2.18720   -9999.25  -24.08190   -9999.25    2.26000    2.40900   -9999.25    0.04000    0.04580    4.37080   -9999.25    2.63910    4.23440    5.82440
 12209.00000   88.27450  181.78020   -9999.25    2.20690   -9999.25  -23.89990   -9999.25    2.26640    2.36250   -9999.25    0.03820    0.03830    4.36690   -9999.25    2.64630    4.47420    5.44950
 12209.50000   -9999.25   -9999.25   -9999.25    2.21600   -9999.25  -23.88000   -9999.25    2.27560    2.49620   -9999.25    0.03620    0.03900    4.36290   -9999.25    2.65150    4.94590    5.58460
 12210.00000   -9999.25   -9999.25   -9999.25    2.20420   -9999.25  -24.44450   -9999.25    2.26910    2.68380   -9999.25    0.03240    0.04500    4.35890   -9999.25    2.65660    5.27680    6.01620
 12210.50000   -9999.25   -9999.25   -9999.25    2.17800   -9999.25  -24.69650   -9999.25    2.25150    2.73910   -9999.25    0.03010    0.05030    4.35490   -9999.25    2.66120    5.45870    6.35070
 12211.00000   -9999.25   -9999.25   -9999.25    2.15950   -9999.25  -24.65610   -9999.25    2.23410    2.65370   -9999.25    0.03120    0.05060    4.35370   -9999.25    2.66020    5.07200    6.33090
 12211.50000   -9999.25   -9999.25   -9999.25    2.13370   -9999.25  -24.61560   -9999.25    2.20870    2.44160   -9999.25    0.03580    0.04900    4.35460   -9999.25    2.65270    4.62520    6.13610
 12212.00000   -9999.25   -9999.25   -9999.25    2.11000   -9999.25  -24.15280   -9999.25    2.17650    2.26480   -9999.25    0.04080    0.04520    4.35560   -9999.25    2.64480    4.53110    5.95200
 12212.50000   -9999.25   -9999.25   -9999.25    2.08940   -9999.25  -23.87840   -9999.25    2.15420    2.34030   -9999.25    0.04600    0.04140    4.35650   -9999.25    2.63540    4.45890    5.76620
 12213.00000   -9999.25   -9999.25   -9999.25    2.06900   -9999.25  -23.85430   -9999.25    2.14760    2.42390   -9999.25    0.05580    0.03780    4.35740   -9999.25    2.61800    4.39640    5.57080
 12213.50000   -9999.25   -9999.25   -9999.25    2.04250   -9999.25  -23.91900   -9999.25    2.13920    2.45560   -9999.25    0.06850    0.03560    4.35830   -9999.25    2.60140    4.30580    5.32380
 12214.00000   -9999.25   -9999.25   -9999.25    2.02530   -9999.25  -23.94450   -9999.25    2.13980    2.39950   -9999.25    0.06250    0.03340    4.35920   -9999.25    2.59700    4.24560    5.10100
 12214.50000   -9999.25   -9999.25   -9999.25    2.00920   -9999.25  -24.03360   -9999.25    2.14030    2.29990   -9999.25    0.05060    0.02890    4.36010   -9999.25    2.62490    4.43060    5.07430
 12215.00000   -9999.25   -9999.25   -9999.25    2.02990   -9999.25  -23.98200   -9999.25    2.14090    2.28930   -9999.25    0.05180    0.02120    4.36100   -9999.25    2.62070    4.65130    5.20530
 12215.50000   -9999.25   -9999.25   -9999.25    2.08110   -9999.25  -23.89180   -9999.25    2.14150    2.28860   -9999.25    0.07270    0.01290    4.36190   -9999.25    2.58600    4.83100    5.41450
 12216.00000   -9999.25   -9999.25   -9999.25    2.11010   -9999.25  -23.83480   -9999.25    2.15710    2.30830   -9999.25    0.09230    0.04290    4.37920   -9999.25    2.56810    4.84340    5.76240
 12216.50000   -9999.25   -9999.25   -9999.25    2.13320   -9999.25  -23.83480   -9999.25    2.17780    2.43500   -9999.25    0.07740    0.08920    4.38420   -9999.25    2.58450    4.75650    6.32550
 12217.00000   -9999.25   -9999.25   -9999.25    2.15430   -9999.25  -24.04230   -9999.25    2.19870    2.65680   -9999.25    0.05060    0.13700    4.38910   -9999.25    2.63240    4.75790    7.02270
 12217.50000   -9999.25   -9999.25   -9999.25    2.16560   -9999.25  -24.32620   -9999.25    2.22420    2.68450   -9999.25    0.02450    0.15530    4.38850   -9999.25    2.67270    4.81630    6.85270
 12218.00000   -9999.25   -9999.25   -9999.25    2.17700   -9999.25  -24.69450   -9999.25    2.25000    2.66000   -9999.25    0.03600    0.13980    4.36220   -9999.25    2.65130    4.84070    6.34930
 12218.50000   -9999.25   -9999.25   -9999.25    2.18850   -9999.25  -24.86420   -9999.25    2.27600    2.64420   -9999.25    0.04980    0.07850    4.33580   -9999.25    2.62440    4.75620    5.99880
 12219.00000   -9999.25   -9999.25   -9999.25    2.19460   -9999.25  -24.55640   -9999.25    2.28430    2.63680   -9999.25    0.05790    0.06810    4.26250   -9999.25    2.61500    4.55930    5.95380
 12219.50000   -9999.25   -9999.25   -9999.25    2.19520   -9999.25  -24.36700   -9999.25    2.28390    2.57310   -9999.25    0.05630    0.06410    4.22160   -9999.25    2.61790    4.30590    5.94930
 12220.00000   -9999.25   -9999.25   -9999.25    2.19580   -9999.25  -24.31210   -9999.25    2.28340    2.58410   -9999.25    0.05500    0.05990    4.19630   -9999.25    2.62020    4.35570    6.01540
 12220.50000   -9999.25   -9999.25   -9999.25    2.19640   -9999.25  -24.25730   -9999.25    2.28300    2.62850   -9999.25    0.05970    0.05690    4.16540   -9999.25    2.61360    4.51700    6.20640
