~Version ---------------------------------------------------
VERS.   2.0 : CWLS log ASCII Standard -VERSION 2.0
WRAP.    NO : One line per depth step
DLM . SPACE : Column Data Section Delimiter
~Well ------------------------------------------------------
STRT .F                 4630.0 : START DEPTH
STOP .F                12223.0 : STOP DEPTH
STEP .F                    0.5 : STEP
NULL .                -9999.25 : NULL VALUE
COMP .                         : COMPANY
WELL .                         : WELL
FLD  .                         : FIELD
LOC  .                         : LOCATION
PROV .                         : PROVINCE
CNTY .                         : COUNTY
STAT .                         : STATE
CTRY .                         : COUNTRY
SRVC .                         : SERVICE COMPANY
DATE .                         : DATE
UWI  .                         : UNIQUE WELL ID
API  .                         : API NUMBER
SLAT .WGS84 6.1568294008363935 : SURFACE LATITUDE
SLON .WGS84  4.519130721279083 : SURFACE LONGITUDE
DATUM.F                 2304.5 : DEPTH DATUM ELEV
~Curve Information -----------------------------------------
DEPT   .F     : 1 MEASURED DEPTH
DTCO   .US/F  : DELTA-T COMPRESSIONAL
DTSM   .US/F  : DELTA-T SHEAR
GRR    .GAPI  : GAMMA RAY FROM RESISTIVITY LOG
ILD    .OHMM  : INDUCTION DEEP RESISTIVITY
CILD   .MMHO  : INDUCTION DEEP CONDUCTIVITY
SPR    .MV    : SPONTANEOUS POTENTIAL FROM RESISTIVITY LOG
SFLA   .OHMM  : SPHERICALLY FOCUSED LOG RESISTIVITY AVERAGED OVER 2.5 FT
ILM    .OHMM  : INDUCTION MEDIUM RESISTIVITY
SFLU   .OHMM  : SHALLOW FOCUSED RESISTIVITY (UNAVERAGED)
NPHI_LS.DEC   : NEUTRON POROSITY LIMESTONE
DPHI_LS.DEC   : DENSITY POROSITY LIMESTONE
DRHO   .G/C3  : BULK DENSITY CORRECTION
CALD   .IN    : CALIPER FROM DENSITY LOG
PEF    .B/E   : PHOTOELECTRIC FACTOR
RHOB   .G/C3  : BULK DENSITY
PEFL   .B/E   : LONG SPACED CORRECTED PHOTELECTRIC FACTOR
PEFS   .B/E   : SHORT SPACED CORRECTED PHOTOELECTRIC FACTOR
~Params ----------------------------------------------------
~Other -----------------------------------------------------
~ASCII -----------------------------------------------------
# ...
 7254.00000   -9999.25   -9999.25  129.79940   19.78380   -9999.25  -35.84070   -9999.25   24.60030   31.31200    0.26990   -9999.25    0.00830    9.60180    3.32760    2.49050   -9999.25   -9999.25
 7254.50000   -9999.25   -9999.25  128.94560   19.94110   -9999.25  -35.87280   -9999.25   24.85310   32.72410    0.27330   -9999.25    0.00820    9.59800    3.44400    2.47400   -9999.25   -9999.25
 7255.00000   -9999.25   -9999.25  126.87070   20.01750   -9999.25  -35.85750   -9999.25   24.00970   34.14630    0.27610   -9999.25    0.01220    9.59800    3.69530    2.46080   -9999.25   -9999.25
 7255.50000   -9999.25   -9999.25  124.65630   19.92040   -9999.25  -35.84210   -9999.25   23.36760   33.75280    0.28150   -9999.25    0.01670    9.59800    4.02830    2.45750   -9999.25   -9999.25
 7256.00000   -9999.25   -9999.25  126.32450   19.76510   -9999.25  -35.82670   -9999.25   22.74270   31.65890    0.28810   -9999.25    0.02140    9.59800    4.00880    2.45820   -9999.25   -9999.25
 7256.50000   -9999.25   -9999.25  130.73660   19.63500   -9999.25  -35.81140   -9999.25   22.19480   29.40980    0.29090   -9999.25    0.03220    9.61260    3.85280    2.48030   -9999.25   -9999.25
 7257.00000   -9999.25   -9999.25  134.36060   19.56990   -9999.25  -35.79600   -9999.25   21.90380   27.95020    0.29350   -9999.25    0.03920    9.62740    3.72730    2.49360   -9999.25   -9999.25
 7257.50000   -9999.25   -9999.25  136.10220   19.62320   -9999.25  -35.78060   -9999.25   21.95430   27.20370    0.29640   -9999.25    0.04130    9.63880    3.58730    2.49620   -9999.25   -9999.25
 7258.00000   -9999.25   -9999.25  142.34050   20.15110   -9999.25  -35.87220   -9999.25   23.00860   27.48760    0.29410   -9999.25    0.03630    9.63730    3.52320    2.49670   -9999.25   -9999.25
 7258.50000   -9999.25   -9999.25  150.89350   20.85320   -9999.25  -36.09550   -9999.25   24.57070   28.64600    0.28540   -9999.25    0.02870    9.60730    3.50170    2.49910   -9999.25   -9999.25
 7259.00000   -9999.25   -9999.25  157.91280   21.75860   -9999.25  -36.31880   -9999.25   26.60300   31.31210    0.29090   -9999.25    0.02480    9.59790    3.49820    2.50010   -9999.25   -9999.25
 7259.50000   -9999.25   -9999.25  181.34700   23.37060   -9999.25  -36.54200   -9999.25   28.80330   36.43950    0.34930   -9999.25    0.02260    9.59790    3.51690    2.47500   -9999.25   -9999.25
 7260.00000   -9999.25   -9999.25  221.45580   24.85710   -9999.25  -36.76530   -9999.25   31.20800   43.66510    0.37470   -9999.25    0.02090    9.59830    3.57000    2.43430   -9999.25   -9999.25
 7260.50000   -9999.25   -9999.25  258.10060   24.16650   -9999.25  -36.98860   -9999.25   32.00560   49.01840    0.39950   -9999.25    0.02140    9.59870    3.74820    2.41130   -9999.25   -9999.25
 7261.00000   -9999.25   -9999.25  240.68890   21.81160   -9999.25  -37.22150   -9999.25   30.63440   49.51540    0.30800   -9999.25    0.04000    9.62320    4.42870    2.46420   -9999.25   -9999.25
 7261.50000   -9999.25   -9999.25  189.13790   19.22900   -9999.25  -37.48130   -9999.25   24.93530   43.86160    0.20990   -9999.25    0.06280    9.64060    5.25790    2.61690   -9999.25   -9999.25
 7262.00000   -9999.25   -9999.25  122.19950   15.79150   -9999.25  -37.74110   -9999.25   18.62330   30.21900    0.19560   -9999.25    0.05370    9.76170    7.75690    2.34710   -9999.25   -9999.25
 7262.50000   -9999.25   -9999.25  102.17900   11.81230   -9999.25  -38.00090   -9999.25   13.90910   20.24970    0.23950   -9999.25    0.02420   10.36240    9.58320    2.16370   -9999.25   -9999.25
 7263.00000   -9999.25   -9999.25   95.79490    8.90040   -9999.25  -38.26070   -9999.25   10.65910   12.16800    0.28760   -9999.25    0.01320   11.25220   10.00490    2.00000   -9999.25   -9999.25
 7263.50000   -9999.25   -9999.25   96.04060    6.77750   -9999.25  -38.52040   -9999.25    7.53210    9.17880    0.36000   -9999.25    0.02420   12.54760   10.01090    1.99980   -9999.25   -9999.25
 7264.00000   -9999.25   -9999.25   96.72440    5.51870   -9999.25  -38.71830   -9999.25    5.92740    6.70800    0.37550   -9999.25    0.02520   13.21010    9.99830    1.99980   -9999.25   -9999.25
 7264.50000   -9999.25   -9999.25   97.97160    4.90210   -9999.25  -38.88170   -9999.25    5.23270    5.73880    0.37680   -9999.25    0.02160   13.36550    9.82290    1.99980   -9999.25   -9999.25
 7265.00000   -9999.25   -9999.25   97.47270    4.70050   -9999.25  -38.70660   -9999.25    4.65650    5.48970    0.36470   -9999.25    0.01770   13.14140    7.85730    1.99970   -9999.25   -9999.25
 7265.50000   -9999.25   -9999.25   95.55880    4.48780   -9999.25  -38.30830   -9999.25    4.20800    5.48970    0.36330   -9999.25    0.01470   12.98040    6.16000    1.99970   -9999.25   -9999.25
 7266.00000   -9999.25   -9999.25   93.42820    4.23500   -9999.25  -37.91000   -9999.25    3.89890    5.34340    0.38570   -9999.25    0.01540   14.21060    5.74480    1.99970   -9999.25   -9999.25
 7266.50000   -9999.25   -9999.25   92.46310    4.14730   -9999.25  -37.51170   -9999.25    3.79360    5.00500    0.41330   -9999.25    0.02150   15.78360    6.39970    1.99970   -9999.25   -9999.25
 7267.00000   -9999.25   -9999.25   95.77590    4.13140   -9999.25  -37.11340   -9999.25    3.74340    4.60460    0.42420   -9999.25    0.03740   16.89020    6.88370    1.99970   -9999.25   -9999.25
 7267.50000   -9999.25   -9999.25   99.03540    4.13620   -9999.25  -36.56140   -9999.25    3.74590    4.52870    0.42910   -9999.25    0.05300   17.12070    7.05680    1.99970   -9999.25   -9999.25
 7268.00000   -9999.25   -9999.25  101.18810    4.17970   -9999.25  -35.85990   -9999.25    3.78830    4.53380    0.42500   -9999.25    0.06390   15.05740    6.38280    1.99970   -9999.25   -9999.25
 7268.50000   -9999.25   -9999.25  101.49100    4.22370   -9999.25  -35.15830   -9999.25    3.85450    4.60420    0.41670   -9999.25    0.07430   14.41350    6.02850    1.99960   -9999.25   -9999.25
 7269.00000   -9999.25   -9999.25  101.98410    4.26820   -9999.25  -34.45670   -9999.25    3.98450    4.68920    0.41260    0.29860    0.08180   14.29210    6.17470    1.99960   -9999.25   -9999.25
 7269.50000   -9999.25   -9999.25  103.88820    4.33980   -9999.25  -33.85010   -9999.25    4.12460    4.81780    0.42560    0.29880    0.08050   14.21980    6.67400    1.99960   -9999.25   -9999.25
 7270.00000   -9999.25   -9999.25  106.38090    4.50690   -9999.25  -33.52390   -9999.25    4.33630    4.94990    0.44820    0.29890    0.06540   13.86540    6.95420    1.99960   -9999.25   -9999.25
 7270.50000   -9999.25   -9999.25  106.74900    4.63700   -9999.25  -33.36770   -9999.25    4.50140    5.08570    0.46390    0.29900    0.05080   13.50390    6.36550    1.99990   -9999.25   -9999.25
 7271.00000   -9999.25   -9999.25  102.33970    4.76750   -9999.25  -33.21160   -9999.25    4.66610    5.77160    0.43610    0.29890    0.04980   12.76920    5.15100    2.24710   -9999.25   -9999.25
 7271.50000   -9999.25   -9999.25   94.96860    5.04990   -9999.25  -33.03280   -9999.25    4.80390    6.82300    0.32110    0.22720    0.05570   11.65150    4.64820    2.45150   -9999.25   -9999.25
 7272.00000   -9999.25   -9999.25   87.12020    7.30210   -9999.25  -33.39860   -9999.25    5.03810    8.23360    0.23790    0.10850    0.06040   10.83970    4.20660    2.63010   -9999.25   -9999.25
 7272.50000   -9999.25   -9999.25   82.80960    8.49790   -9999.25  -33.76450   -9999.25    8.09450   12.49600    0.16630    0.02200    0.05950   10.59030    4.01380    2.68080   -9999.25   -9999.25
 7273.00000   -9999.25   -9999.25   83.97510    9.90940   -9999.25  -34.13040   -9999.25    9.10280   19.69870    0.14650    0.01890    0.05310   10.49910    3.93700    2.67560   -9999.25   -9999.25
 7273.50000   -9999.25   -9999.25   91.04820   11.48740   -9999.25  -34.49620   -9999.25   10.23900   24.87730    0.16230    0.02640    0.04750   10.41080    3.97020    2.66480   -9999.25   -9999.25
 7274.00000   -9999.25   -9999.25   98.06840   13.62770   -9999.25  -34.86210   -9999.25   11.58680   23.71930    0.18780    0.03170    0.04180   10.34570    4.07290    2.65580   -9999.25   -9999.25
