~Version ---------------------------------------------------
VERS.   2.0 : CWLS log ASCII Standard -VERSION 2.0
WRAP.    NO : One line per depth step
DLM . SPACE : Column Data Section Delimiter
~Well ------------------------------------------------------
STRT .F                 4630.0 : START DEPTH
STOP .F                12223.0 : STOP DEPTH
STEP .F                    0.5 : STEP
NULL .                -9999.25 : NULL VALUE
COMP .                         : COMPANY
WELL .                         : WELL
FLD  .                         : FIELD
LOC  .                         : LOCATION
PROV .                         : PROVINCE
CNTY .                         : COUNTY
STAT .                         : STATE
CTRY .                         : COUNTRY
SRVC .                         : SERVICE COMPANY
DATE .                         : DATE
UWI  .                         : UNIQUE WELL ID
API  .                         : API NUMBER
SLAT .WGS84 6.1568294008363935 : SURFACE LATITUDE
SLON .WGS84  4.519130721279083 : SURFACE LONGITUDE
DATUM.F                 2304.5 : DEPTH DATUM ELEV
~Curve Information -----------------------------------------
DEPT   .F     : 1 MEASURED DEPTH
DTCO   .US/F  : DELTA-T COMPRESSIONAL
DTSM   .US/F  : DELTA-T SHEAR
GRR    .GAPI  : GAMMA RAY FROM RESISTIVITY LOG
ILD    .OHMM  : INDUCTION DEEP RESISTIVITY
CILD   .MMHO  : INDUCTION DEEP CONDUCTIVITY
SPR    .MV    : SPONTANEOUS POTENTIAL FROM RESISTIVITY LOG
SFLA   .OHMM  : SPHERICALLY FOCUSED LOG RESISTIVITY AVERAGED OVER 2.5 FT
ILM    .OHMM  : INDUCTION MEDIUM RESISTIVITY
SFLU   .OHMM  : SHALLOW FOCUSED RESISTIVITY (UNAVERAGED)
NPHI_LS.DEC   : NEUTRON POROSITY LIMESTONE
DPHI_LS.DEC   : DENSITY POROSITY LIMESTONE
DRHO   .G/C3  : BULK DENSITY CORRECTION
CALD   .IN    : CALIPER FROM DENSITY LOG
PEF    .B/E   : PHOTOELECTRIC FACTOR
RHOB   .G/C3  : BULK DENSITY
PEFL   .B/E   : LONG SPACED CORRECTED PHOTELECTRIC FACTOR
PEFS   .B/E   : SHORT SPACED CORRECTED PHOTOELECTRIC FACTOR
~Params ----------------------------------------------------
~Other -----------------------------------------------------
~ASCII -----------------------------------------------------
# ...
 8258.50000   -9999.25   -9999.25  111.32270   11.84110   -9999.25  -36.59670   -9999.25   12.31600   14.77850    0.21060    0.02130    0.01620   11.03730    3.86420    2.67350   -9999.25   -9999.25
 8259.00000   -9999.25   -9999.25  111.11390   12.30620   -9999.25  -36.59360   -9999.25   12.79500   15.20340    0.19590    0.02450    0.02000   11.03890    3.86710    2.66810   -9999.25   -9999.25
 8259.50000   -9999.25   -9999.25  111.33800   12.78970   -9999.25  -36.57610   -9999.25   13.23190   15.87140    0.19260    0.02670    0.02390   11.04040    3.73690    2.66430   -9999.25   -9999.25
 8260.00000   -9999.25   -9999.25  112.56590   13.15320   -9999.25  -36.53940   -9999.25   13.60660   16.74640    0.19530    0.02200    0.02600   11.04200    3.68710    2.67250   -9999.25   -9999.25
 8260.50000   -9999.25   -9999.25  111.00760   13.47720   -9999.25  -36.60410   -9999.25   13.99190   17.71700    0.19880    0.01940    0.02590   11.04360    3.70660    2.67670   -9999.25   -9999.25
 8261.00000   -9999.25   -9999.25  107.03530   13.69850   -9999.25  -36.60640   -9999.25   14.38820   18.21460    0.19810    0.02400    0.02550   11.04510    3.74170    2.66880   -9999.25   -9999.25
 8261.50000   -9999.25   -9999.25  104.10950   13.83540   -9999.25  -36.63790   -9999.25   14.73890   18.39880    0.19690    0.03040    0.02550   11.08260    3.80760    2.65790   -9999.25   -9999.25
 8262.00000   -9999.25   -9999.25  100.88360   13.58640   -9999.25  -36.66930   -9999.25   14.87830   18.38600    0.19710    0.03440    0.02920   11.12170    4.10940    2.65120   -9999.25   -9999.25
 8262.50000   -9999.25   -9999.25  100.54410   13.24180   -9999.25  -36.70080   -9999.25   14.37900   18.34960    0.20770    0.03770    0.04390   11.15290    4.68040    2.64140   -9999.25   -9999.25
 8263.00000   -9999.25   -9999.25  101.48800   12.84770   -9999.25  -36.73220   -9999.25   13.59010   17.80510    0.22140    0.04980    0.05990   11.17080    5.20130    2.62010   -9999.25   -9999.25
 8263.50000   -9999.25   -9999.25  102.49500   12.34820   -9999.25  -36.76370   -9999.25   12.84450   16.52990    0.23350    0.06640    0.07620   11.18880    5.32590    2.58920   -9999.25   -9999.25
 8264.00000   -9999.25   -9999.25  103.94090   11.86810   -9999.25  -36.79520   -9999.25   12.13970   14.84060    0.24010    0.08300    0.09510   11.20850    5.02090    2.56540   -9999.25   -9999.25
 8264.50000   -9999.25   -9999.25  107.47240   11.43720   -9999.25  -36.82660   -9999.25   11.80520   13.58370    0.23920    0.07690    0.10580   11.22110    4.72000    2.58510   -9999.25   -9999.25
 8265.00000   -9999.25   -9999.25  110.40530   11.17380   -9999.25  -36.85810   -9999.25   11.55650   13.25780    0.23460    0.06080    0.09940   11.22230    4.48770    2.60620   -9999.25   -9999.25
 8265.50000   -9999.25   -9999.25  112.94010   11.05030   -9999.25  -36.88950   -9999.25   11.39330   13.34030    0.22670    0.04650    0.09230   11.21660    4.26120    2.63710   -9999.25   -9999.25
 8266.00000   -9999.25   -9999.25  112.69250   10.99330   -9999.25  -36.92100   -9999.25   11.27370   13.64750    0.21920    0.03100    0.08560   11.21090    4.26210    2.66890   -9999.25   -9999.25
 8266.50000   -9999.25   -9999.25  111.90030   10.99460   -9999.25  -36.95240   -9999.25   11.27490   13.90900    0.21910    0.02420    0.07860   11.20510    4.24370    2.66760   -9999.25   -9999.25
 8267.00000   -9999.25   -9999.25  111.88100   11.06880   -9999.25  -36.98390   -9999.25   11.36150   13.97680    0.22020    0.02770    0.07120   11.18160    4.11330    2.66270   -9999.25   -9999.25
 8267.50000   -9999.25   -9999.25  112.52500   11.32740   -9999.25  -37.01540   -9999.25   11.64040   14.02740    0.21800    0.02710    0.06310   11.11310    3.98230    2.66710   -9999.25   -9999.25
 8268.00000   -9999.25   -9999.25  112.33420   11.76820   -9999.25  -37.02130   -9999.25   12.14530   14.28140    0.21130    0.01900    0.05260   11.06710    4.01010    2.68430   -9999.25   -9999.25
 8268.50000   -9999.25   -9999.25  109.79050   12.22620   -9999.25  -37.02380   -9999.25   12.67400   15.12130    0.20320    0.01570    0.03890   11.03820    4.12260    2.68170   -9999.25   -9999.25
 8269.00000   -9999.25   -9999.25  110.24550   12.68810   -9999.25  -37.02640   -9999.25   13.22570   16.39180    0.19570    0.02240    0.02270   11.00820    4.12940    2.67030   -9999.25   -9999.25
 8269.50000   -9999.25   -9999.25  112.23570   12.90530   -9999.25  -36.98900   -9999.25   13.78540   17.09770    0.19030    0.03170    0.01570   10.97820    3.91850    2.65700   -9999.25   -9999.25
 8270.00000   -9999.25   -9999.25  113.32070   13.41870   -9999.25  -36.84780   -9999.25   14.31650   17.69940    0.18630    0.03460    0.01540   10.96690    3.73000    2.65040   -9999.25   -9999.25
 8270.50000   -9999.25   -9999.25  112.33050   13.92250   -9999.25  -36.70650   -9999.25   14.86810   18.14130    0.18240    0.03170    0.02100   10.95730    3.77640    2.65920   -9999.25   -9999.25
 8271.00000   -9999.25   -9999.25  110.53800   14.44620   -9999.25  -36.56520   -9999.25   15.44090   19.17440    0.17990    0.02660    0.02900   10.91960    3.91930    2.66610   -9999.25   -9999.25
 8271.50000   -9999.25   -9999.25  108.44650   14.99660   -9999.25  -36.42400   -9999.25   15.91790   20.62320    0.18380    0.02990    0.03590   10.89260    4.23370    2.65800   -9999.25   -9999.25
 8272.00000   -9999.25   -9999.25  106.35500   15.56790   -9999.25  -36.28270   -9999.25   16.39880   21.32730    0.19130    0.04050    0.04080   10.88330    4.19110    2.63180   -9999.25   -9999.25
 8272.50000   -9999.25   -9999.25  104.20190   16.03140   -9999.25  -36.14140   -9999.25   16.84210   20.32790    0.19100    0.05020    0.04560   10.87410    3.94020    2.62330   -9999.25   -9999.25
 8273.00000   -9999.25   -9999.25  100.23790   16.34420   -9999.25  -36.00020   -9999.25   17.29730   18.62270    0.18070    0.04300    0.04640   10.86490    3.74160    2.64110   -9999.25   -9999.25
 8273.50000   -9999.25   -9999.25   94.87750   16.49530   -9999.25  -35.85890   -9999.25   17.54410   18.26950    0.17070    0.02910    0.04300   10.85810    3.75240    2.66200   -9999.25   -9999.25
 8274.00000   -9999.25   -9999.25   93.49900   16.57730   -9999.25  -35.71760   -9999.25   17.73970   21.48090    0.16290    0.03160    0.02740   10.85990    3.93440    2.65780   -9999.25   -9999.25
 8274.50000   -9999.25   -9999.25   97.29280   16.53070   -9999.25  -35.57640   -9999.25   17.93760   24.14770    0.15860    0.03490    0.01830   10.86170    4.09180    2.65030   -9999.25   -9999.25
 8275.00000   -9999.25   -9999.25  101.18110   16.48410   -9999.25  -35.43510   -9999.25   18.13770   24.01390    0.15930    0.03740    0.01630   10.86300    4.10360    2.64660   -9999.25   -9999.25
 8275.50000   -9999.25   -9999.25  102.19420   16.43770   -9999.25  -35.29380   -9999.25   18.04780   23.86110    0.16560    0.03890    0.01960   10.86420    4.06530    2.64430   -9999.25   -9999.25
 8276.00000   -9999.25   -9999.25  102.57940   16.39140   -9999.25  -35.15260   -9999.25   17.91190   23.24210    0.17680    0.04030    0.03150   10.86530    4.02030    2.64240   -9999.25   -9999.25
 8276.50000   -9999.25   -9999.25  102.86550   16.34520   -9999.25  -35.13660   -9999.25   17.77710   21.93120    0.18300    0.04060    0.04480   10.86250    4.01990    2.64320   -9999.25   -9999.25
 8277.00000   -9999.25   -9999.25  103.12580   16.28740   -9999.25  -35.12850   -9999.25   17.50330   20.47760    0.18130    0.03510    0.05420   10.82440    4.10090    2.65230   -9999.25   -9999.25
 8277.50000   -9999.25   -9999.25  103.60070   16.14440   -9999.25  -35.14990   -9999.25   17.19910   19.36470    0.17510    0.02550    0.06390   10.77190    4.29890    2.66810   -9999.25   -9999.25
 8278.00000   -9999.25   -9999.25  104.27440   16.00270   -9999.25  -35.19430   -9999.25   16.90020   19.80870    0.17280    0.02010    0.07490   10.74260    4.50140    2.67750   -9999.25   -9999.25
 8278.50000   -9999.25   -9999.25  106.05510   15.75850   -9999.25  -35.23870   -9999.25   16.60660   21.83880    0.17540    0.02330    0.08250   10.77950    4.48910    2.67120   -9999.25   -9999.25
