~Version ---------------------------------------------------
VERS.   2.0 : CWLS log ASCII Standard -VERSION 2.0
WRAP.    NO : One line per depth step
DLM . SPACE : Column Data Section Delimiter
~Well ------------------------------------------------------
STRT .F                 4630.0 : START DEPTH
STOP .F                12223.0 : STOP DEPTH
STEP .F                    0.5 : STEP
NULL .                -9999.25 : NULL VALUE
COMP .                         : COMPANY
WELL .                         : WELL
FLD  .                         : FIELD
LOC  .                         : LOCATION
PROV .                         : PROVINCE
CNTY .                         : COUNTY
STAT .                         : STATE
CTRY .                         : COUNTRY
SRVC .                         : SERVICE COMPANY
DATE .                         : DATE
UWI  .                         : UNIQUE WELL ID
API  .                         : API NUMBER
SLAT .WGS84 6.1568294008363935 : SURFACE LATITUDE
SLON .WGS84  4.519130721279083 : SURFACE LONGITUDE
DATUM.F                 2304.5 : DEPTH DATUM ELEV
~Curve Information -----------------------------------------
DEPT   .F     : 1 MEASURED DEPTH
DTCO   .US/F  : DELTA-T COMPRESSIONAL
DTSM   .US/F  : DELTA-T SHEAR
GRR    .GAPI  : GAMMA RAY FROM RESISTIVITY LOG
ILD    .OHMM  : INDUCTION DEEP RESISTIVITY
CILD   .MMHO  : INDUCTION DEEP CONDUCTIVITY
SPR    .MV    : SPONTANEOUS POTENTIAL FROM RESISTIVITY LOG
SFLA   .OHMM  : SPHERICALLY FOCUSED LOG RESISTIVITY AVERAGED OVER 2.5 FT
ILM    .OHMM  : INDUCTION MEDIUM RESISTIVITY
SFLU   .OHMM  : SHALLOW FOCUSED RESISTIVITY (UNAVERAGED)
NPHI_LS.DEC   : NEUTRON POROSITY LIMESTONE
DPHI_LS.DEC   : DENSITY POROSITY LIMESTONE
DRHO   .G/C3  : BULK DENSITY CORRECTION
CALD   .IN    : CALIPER FROM DENSITY LOG
PEF    .B/E   : PHOTOELECTRIC FACTOR
RHOB   .G/C3  : BULK DENSITY
PEFL   .B/E   : LONG SPACED CORRECTED PHOTELECTRIC FACTOR
PEFS   .B/E   : SHORT SPACED CORRECTED PHOTOELECTRIC FACTOR
~Params ----------------------------------------------------
~Other -----------------------------------------------------
~ASCII -----------------------------------------------------
# ...
 11861.00000   55.52070   91.23690   44.98600    3.78880   -9999.25    1.27600   -9999.25    5.56710   17.78980    0.13340    0.11990    0.02270    8.78570    5.89940    2.55000   -9999.25   -9999.25
 11861.50000   55.48440   90.96760   43.71650    4.32850   -9999.25    1.23160   -9999.25    6.85740   35.49000    0.12500    0.04240    0.03620    8.70650    5.92400    2.64570   -9999.25   -9999.25
 11862.00000   55.11780   89.85200   53.09920    5.56840   -9999.25    1.15580   -9999.25    8.59280   65.32560    0.14650    0.03560    0.03660    8.63590    5.89050    2.64920   -9999.25   -9999.25
 11862.50000   55.86920   90.81870   59.34430    7.82400   -9999.25    1.08000   -9999.25   11.12430   68.32790    0.18940    0.04150    0.03660    8.58690    5.79860    2.63800   -9999.25   -9999.25
 11863.00000   57.10330   92.93930   59.44540    8.11740   -9999.25    1.00420   -9999.25   10.45440   54.71110    0.24250    0.05240    0.03880    8.54120    5.71050    2.61960   -9999.25   -9999.25
 11863.50000   57.62540   93.72780   53.70270    7.45420   -9999.25    0.92830   -9999.25    8.35210   40.81920    0.36730    0.06390    0.05000    8.52910    5.62890    2.60070   -9999.25   -9999.25
 11864.00000   57.44990   90.23380   47.74330    5.43310   -9999.25    0.84580   -9999.25    6.16630   25.65390    0.45810    0.07770    0.07540    8.45860    5.64280    2.57710   -9999.25   -9999.25
 11864.50000   57.22730   86.38700   47.14440    3.84570   -9999.25    0.70840   -9999.25    4.10990    9.00670    0.56330    0.09360    0.10260    8.38300    5.86860    2.55000   -9999.25   -9999.25
 11865.00000   56.38100   86.84580   54.02420    3.19350   -9999.25    0.57090   -9999.25    2.94800    4.05050    0.58670    0.10070    0.13570    8.30730    6.18170    2.53780   -9999.25   -9999.25
 11865.50000   54.44920   91.42800   61.36450    2.81470   -9999.25    0.50000   -9999.25    2.50290    2.92480    0.52770    0.10120    0.16840    8.22160    6.49490    2.53690   -9999.25   -9999.25
 11866.00000   52.71590   90.40800   60.52600    2.73190   -9999.25    0.48070   -9999.25    2.44350    2.91840    0.41230    0.09880    0.19590    8.20090    6.74120    2.54260   -9999.25   -9999.25
 11866.50000   50.05480   91.14350   53.24360    2.73330   -9999.25    0.46140   -9999.25    2.66610    2.98300    0.26790   -9999.25   -9999.25   -9999.25   -9999.25   -9999.25   -9999.25   -9999.25
 11867.00000   46.24210   92.40900   44.44380    3.00890   -9999.25    0.77910   -9999.25    3.47640    3.37630    0.15860   -9999.25   -9999.25   -9999.25   -9999.25   -9999.25   -9999.25   -9999.25
 11867.50000   47.89040   95.13240   39.10350    3.54990   -9999.25    1.18890   -9999.25    4.45420    6.90000    0.09730   -9999.25   -9999.25   -9999.25   -9999.25   -9999.25   -9999.25   -9999.25
 11868.00000   52.28580  102.03210   35.56730    4.40030   -9999.25    1.59880   -9999.25    5.68710   13.79760    0.08640   -9999.25   -9999.25   -9999.25   -9999.25   -9999.25   -9999.25   -9999.25
 11868.50000   64.18520  110.08010   37.78970    5.16050   -9999.25    2.00870   -9999.25    6.90170   51.26300    0.13120   -9999.25   -9999.25   -9999.25   -9999.25   -9999.25   -9999.25   -9999.25
 11869.00000   70.08610  116.76910   38.70960    6.70120   -9999.25    2.41850   -9999.25    7.46930  122.49790    0.19260   -9999.25   -9999.25   -9999.25   -9999.25   -9999.25   -9999.25   -9999.25
 11869.50000   72.73310  117.82760   50.21750    8.45650   -9999.25    2.44460   -9999.25    7.60400  102.33770    0.23760   -9999.25   -9999.25   -9999.25   -9999.25   -9999.25   -9999.25   -9999.25
 11870.00000   72.41470  114.43880   56.98750    8.59650   -9999.25    2.30240   -9999.25    7.18540   37.26910    0.27300   -9999.25   -9999.25   -9999.25   -9999.25   -9999.25   -9999.25   -9999.25
 11870.50000   71.88640  112.29490   61.80170    7.29690   -9999.25    2.16020   -9999.25    6.62890   12.32980    0.28880   -9999.25   -9999.25   -9999.25   -9999.25   -9999.25   -9999.25   -9999.25
 11871.00000   72.96950  116.11050   63.73450    6.35840   -9999.25    2.01800   -9999.25    6.25420    6.96420    0.29970   -9999.25   -9999.25   -9999.25   -9999.25   -9999.25   -9999.25   -9999.25
 11871.50000   73.82120  123.57020   63.11160    5.37770   -9999.25    1.87580   -9999.25    5.90060    6.70630    0.35820   -9999.25   -9999.25   -9999.25   -9999.25   -9999.25   -9999.25   -9999.25
 11872.00000   71.86750  132.88300   59.78830    4.33650   -9999.25    1.73370   -9999.25    4.66160    6.64310    0.40260   -9999.25   -9999.25   -9999.25   -9999.25   -9999.25   -9999.25   -9999.25
 11872.50000   69.71890  143.15370   56.18130    3.89620   -9999.25    1.58430   -9999.25    3.50180    5.75000    0.49310   -9999.25   -9999.25   -9999.25   -9999.25   -9999.25   -9999.25   -9999.25
 11873.00000   69.12300  149.32920   60.39870    3.64760   -9999.25    1.47500   -9999.25    3.11970    5.10030    0.55590   -9999.25   -9999.25   -9999.25   -9999.25   -9999.25   -9999.25   -9999.25
 11873.50000   68.65370  150.30750   72.10230    3.53520   -9999.25    1.42500   -9999.25    3.00350    4.84490    0.58540   -9999.25   -9999.25   -9999.25   -9999.25   -9999.25   -9999.25   -9999.25
 11874.00000   68.09660  143.95060   80.28700    3.38520   -9999.25    1.36710   -9999.25    2.96310    4.65150    0.59660   -9999.25   -9999.25   -9999.25   -9999.25   -9999.25   -9999.25   -9999.25
 11874.50000   65.09190  129.08660   83.61420    3.13450   -9999.25    1.29410   -9999.25    3.00540    4.46760    0.59500   -9999.25   -9999.25   -9999.25   -9999.25   -9999.25   -9999.25   -9999.25
 11875.00000   58.06510  109.10970   79.70040    2.98960   -9999.25    1.22110   -9999.25    3.05480    4.31940    0.53730   -9999.25   -9999.25   -9999.25   -9999.25   -9999.25   -9999.25   -9999.25
 11875.50000   50.77690   96.65360   72.54550    2.92960   -9999.25    1.14800   -9999.25    3.03170    4.02350    0.46160   -9999.25   -9999.25   -9999.25   -9999.25   -9999.25   -9999.25   -9999.25
 11876.00000   49.95180   96.29820   66.34690    3.02190   -9999.25    1.07500   -9999.25    3.27280    3.61040    0.38720   -9999.25   -9999.25   -9999.25   -9999.25   -9999.25   -9999.25   -9999.25
 11876.50000   52.53620  100.02600   64.42030    3.30950   -9999.25    1.19380   -9999.25    3.69740    3.55960    0.25120   -9999.25   -9999.25   -9999.25   -9999.25   -9999.25   -9999.25   -9999.25
 11877.00000   54.99300  105.10740   63.74500    3.66660   -9999.25    2.15440   -9999.25    4.22730    4.05320    0.19940   -9999.25   -9999.25   -9999.25   -9999.25   -9999.25   -9999.25   -9999.25
 11877.50000   55.87040  104.23840   63.16460    4.06210   -9999.25    3.02410   -9999.25    4.71670    5.84800    0.17860   -9999.25   -9999.25   -9999.25   -9999.25   -9999.25   -9999.25   -9999.25
 11878.00000   56.61820   98.69690   63.14280    4.44860   -9999.25    3.70090   -9999.25    5.24520    8.22570    0.16930   -9999.25   -9999.25   -9999.25   -9999.25   -9999.25   -9999.25   -9999.25
 11878.50000   57.77420   92.07590   65.23850    4.72790   -9999.25    4.37770   -9999.25    5.19990   12.01820    0.17000   -9999.25   -9999.25   -9999.25   -9999.25   -9999.25   -9999.25   -9999.25
 11879.00000   57.70710   86.87920   66.71810    5.05290   -9999.25    5.05450   -9999.25    5.16910   12.27990    0.19820   -9999.25   -9999.25   -9999.25   -9999.25   -9999.25   -9999.25   -9999.25
 11879.50000   56.68350   83.80080   67.97250    5.10320   -9999.25    5.73130   -9999.25    5.19330   10.24480    0.24240   -9999.25   -9999.25   -9999.25   -9999.25   -9999.25   -9999.25   -9999.25
 11880.00000   55.55250   83.62820   69.12360    4.77930   -9999.25    6.27410   -9999.25    5.00230    7.39600    0.28660   -9999.25   -9999.25   -9999.25   -9999.25   -9999.25   -9999.25   -9999.25
 11880.50000   54.60730   84.31220   72.66110    4.38940   -9999.25    6.66760   -9999.25    4.63040    5.72200    0.33090   -9999.25   -9999.25   -9999.25   -9999.25   -9999.25   -9999.25   -9999.25
