~Version ---------------------------------------------------
VERS.   2.0 : CWLS log ASCII Standard -VERSION 2.0
WRAP.    NO : One line per depth step
DLM . SPACE : Column Data Section Delimiter
~Well ------------------------------------------------------
STRT .F                 4630.0 : START DEPTH
STOP .F                12223.0 : STOP DEPTH
STEP .F                    0.5 : STEP
NULL .                -9999.25 : NULL VALUE
COMP .                         : COMPANY
WELL .                         : WELL
FLD  .                         : FIELD
LOC  .                         : LOCATION
PROV .                         : PROVINCE
CNTY .                         : COUNTY
STAT .                         : STATE
CTRY .                         : COUNTRY
SRVC .                         : SERVICE COMPANY
DATE .                         : DATE
UWI  .                         : UNIQUE WELL ID
API  .                         : API NUMBER
SLAT .WGS84 6.1568294008363935 : SURFACE LATITUDE
SLON .WGS84  4.519130721279083 : SURFACE LONGITUDE
DATUM.F                 2304.5 : DEPTH DATUM ELEV
~Curve Information -----------------------------------------
DEPT   .F     : 1 MEASURED DEPTH
DTCO   .US/F  : DELTA-T COMPRESSIONAL
DTSM   .US/F  : DELTA-T SHEAR
GRR    .GAPI  : GAMMA RAY FROM RESISTIVITY LOG
ILD    .OHMM  : INDUCTION DEEP RESISTIVITY
CILD   .MMHO  : INDUCTION DEEP CONDUCTIVITY
SPR    .MV    : SPONTANEOUS POTENTIAL FROM RESISTIVITY LOG
SFLA   .OHMM  : SPHERICALLY FOCUSED LOG RESISTIVITY AVERAGED OVER 2.5 FT
ILM    .OHMM  : INDUCTION MEDIUM RESISTIVITY
SFLU   .OHMM  : SHALLOW FOCUSED RESISTIVITY (UNAVERAGED)
NPHI_LS.DEC   : NEUTRON POROSITY LIMESTONE
DPHI_LS.DEC   : DENSITY POROSITY LIMESTONE
DRHO   .G/C3  : BULK DENSITY CORRECTION
CALD   .IN    : CALIPER FROM DENSITY LOG
PEF    .B/E   : PHOTOELECTRIC FACTOR
RHOB   .G/C3  : BULK DENSITY
PEFL   .B/E   : LONG SPACED CORRECTED PHOTELECTRIC FACTOR
PEFS   .B/E   : SHORT SPACED CORRECTED PHOTOELECTRIC FACTOR
~Params ----------------------------------------------------
~Other -----------------------------------------------------
~ASCII -----------------------------------------------------
# ...
 9570.50000   -9999.25   -9999.25  100.87840    5.68130   -9999.25  -38.58290   -9999.25    5.87800    7.21260    0.25450    0.08200    0.18740   12.12460    6.13220    2.56970   -9999.25   -9999.25
 9571.00000   -9999.25   -9999.25  101.20490    5.67090   -9999.25  -38.57510   -9999.25    5.84690    7.02680    0.26000    0.09620    0.17960   12.13250    6.37150    2.54550   -9999.25   -9999.25
 9571.50000   -9999.25   -9999.25  103.44510    5.66060   -9999.25  -38.56730   -9999.25    5.84090    6.82520    0.25700    0.11250    0.17960   12.13350    6.64900    2.51750   -9999.25   -9999.25
 9572.00000   -9999.25   -9999.25  104.75960    5.63960   -9999.25  -38.55950   -9999.25    5.88420    6.78180    0.25370    0.12890    0.18690   12.10630    6.92800    2.48950   -9999.25   -9999.25
 9572.50000   -9999.25   -9999.25  104.86970    5.61740   -9999.25  -38.55180   -9999.25    5.92770    6.83540    0.25360    0.13300    0.18980   12.07900    7.17090    2.48260   -9999.25   -9999.25
 9573.00000   -9999.25   -9999.25  105.29830    5.61580   -9999.25  -38.54390   -9999.25    5.97150    6.95450    0.25690    0.12850    0.19230   12.05180    7.06610    2.49030   -9999.25   -9999.25
 9573.50000   -9999.25   -9999.25  106.22100    5.68630   -9999.25  -38.53620   -9999.25    6.07590    7.07400    0.25870    0.11820    0.19500   12.01330    6.87000    2.50790   -9999.25   -9999.25
 9574.00000   -9999.25   -9999.25  107.01130    5.77280   -9999.25  -38.52840   -9999.25    6.30290    7.27350    0.25110    0.09970    0.19720   11.97410    6.81880    2.53950   -9999.25   -9999.25
 9574.50000   -9999.25   -9999.25  105.73540    5.93710   -9999.25  -38.52060   -9999.25    6.38320    7.47080    0.23970    0.08270    0.18460   11.93020    6.80140    2.56620   -9999.25   -9999.25
 9575.00000   -9999.25   -9999.25  102.67000    6.04910   -9999.25  -38.51280   -9999.25    6.49560    7.58800    0.22350    0.08300    0.17710   11.83860    6.82450    2.57020   -9999.25   -9999.25
 9575.50000   -9999.25   -9999.25  101.07720    6.10210   -9999.25  -38.50500   -9999.25    6.64060    7.68160    0.20980    0.08750    0.17180   11.78930    7.01620    2.55890   -9999.25   -9999.25
 9576.00000   -9999.25   -9999.25  101.85410    6.13580   -9999.25  -38.49720   -9999.25    6.65290    7.98450    0.21190    0.11120    0.16320   11.79590    7.38610    2.51990   -9999.25   -9999.25
 9576.50000   -9999.25   -9999.25  103.53140    6.16010   -9999.25  -38.48940   -9999.25    6.59400    8.25100    0.22480    0.13370    0.15810   11.83820    7.56670    2.48230   -9999.25   -9999.25
 9577.00000   -9999.25   -9999.25  102.20580    6.18160   -9999.25  -38.48160   -9999.25    6.51270    8.00100    0.24480    0.14430    0.16060   11.88570    7.39050    2.46330   -9999.25   -9999.25
 9577.50000   -9999.25   -9999.25  101.70730    6.08680   -9999.25  -38.47380   -9999.25    6.40130    7.76690    0.25590    0.14700    0.16450   11.92180    6.95440    2.45870   -9999.25   -9999.25
 9578.00000   -9999.25   -9999.25  103.05160    5.99350   -9999.25  -38.46600   -9999.25    6.27230    7.51590    0.26120    0.14610    0.16630   11.95780    6.61790    2.46020   -9999.25   -9999.25
 9578.50000   -9999.25   -9999.25  105.68220    5.90170   -9999.25  -38.45820   -9999.25    6.13010    7.27300    0.25900    0.14150    0.16480   11.97520    6.54070    2.46810   -9999.25   -9999.25
 9579.00000   -9999.25   -9999.25  107.84310    5.83430   -9999.25  -38.45040   -9999.25    6.11080    7.21730    0.25230    0.13280    0.16280   11.97510    6.66730    2.48330   -9999.25   -9999.25
 9579.50000   -9999.25   -9999.25  104.50000    5.82590   -9999.25  -38.44260   -9999.25    6.06510    7.21130    0.24800    0.11870    0.16300   11.98350    6.83320    2.50570   -9999.25   -9999.25
 9580.00000   -9999.25   -9999.25   99.16000    5.81760   -9999.25  -38.43480   -9999.25    6.03420    7.21240    0.25330    0.11120    0.16740   12.02840    6.77570    2.51990   -9999.25   -9999.25
 9580.50000   -9999.25   -9999.25   94.55390    5.81030   -9999.25  -38.42700   -9999.25    6.04140    7.21900    0.26180    0.10460    0.17460   12.09190    6.64280    2.53120   -9999.25   -9999.25
 9581.00000   -9999.25   -9999.25   94.03140    5.80610   -9999.25  -38.41920   -9999.25    6.05720    7.23370    0.26570    0.09730    0.18660   12.15210    6.54330    2.54430   -9999.25   -9999.25
 9581.50000   -9999.25   -9999.25   94.06130    5.80190   -9999.25  -38.41140   -9999.25    6.10810    7.25370    0.26280    0.09210    0.19860   12.25060    6.82740    2.55380   -9999.25   -9999.25
 9582.00000   -9999.25   -9999.25   95.32450    5.79770   -9999.25  -38.40810   -9999.25    6.18380    7.27670    0.26020    0.10070    0.20420   12.38050    7.21910    2.53420   -9999.25   -9999.25
 9582.50000   -9999.25   -9999.25   96.08530    5.79360   -9999.25  -38.41260   -9999.25    6.13550    7.29970    0.25900    0.11640    0.20360   12.51350    7.41910    2.49890   -9999.25   -9999.25
 9583.00000   -9999.25   -9999.25   95.58960    5.79140   -9999.25  -38.41710   -9999.25    6.00810    7.32280    0.26150    0.13850    0.19030   12.57880    7.25400    2.47320   -9999.25   -9999.25
 9583.50000   -9999.25   -9999.25   95.13130    5.78980   -9999.25  -38.42160   -9999.25    5.95450    7.34210    0.26860    0.15040    0.18020   12.57400    6.90740    2.45270   -9999.25   -9999.25
 9584.00000   -9999.25   -9999.25   95.10160    5.78820   -9999.25  -38.42610   -9999.25    5.94440    7.27240    0.27600    0.14580    0.17720   12.56910    6.73860    2.46060   -9999.25   -9999.25
 9584.50000   -9999.25   -9999.25   95.08430    5.78660   -9999.25  -38.43050   -9999.25    5.93440    7.15980    0.28240    0.13420    0.17310   12.56940    6.93390    2.48620   -9999.25   -9999.25
 9585.00000   -9999.25   -9999.25   94.59520    5.78510   -9999.25  -38.43500   -9999.25    5.92430    6.95690    0.27970    0.12260    0.17190   12.57420    7.45050    2.50230   -9999.25   -9999.25
 9585.50000   -9999.25   -9999.25   94.15500    5.78350   -9999.25  -38.43950   -9999.25    5.91660    6.81810    0.27540    0.12430    0.17170   12.63080    7.87950    2.49980   -9999.25   -9999.25
 9586.00000   -9999.25   -9999.25   93.54100    5.78190   -9999.25  -38.44400   -9999.25    5.93610    6.77620    0.27210    0.13570    0.17110   12.63940    7.99670    2.46750   -9999.25   -9999.25
 9586.50000   -9999.25   -9999.25   92.41030    5.77620   -9999.25  -38.44840   -9999.25    5.95560    6.83340    0.26920    0.15890    0.17040   12.53240    7.13700    2.43910   -9999.25   -9999.25
 9587.00000   -9999.25   -9999.25   92.24190    5.72770   -9999.25  -38.45290   -9999.25    5.97520    6.90200    0.26970    0.15300    0.17080   12.42550    6.38650    2.44840   -9999.25   -9999.25
 9587.50000   -9999.25   -9999.25   92.87300    5.67960   -9999.25  -38.45740   -9999.25    6.01900    6.94380    0.27540    0.12930    0.17830   12.35480    5.93580    2.48930   -9999.25   -9999.25
 9588.00000   -9999.25   -9999.25   94.39100    5.63200   -9999.25  -38.46190   -9999.25    6.09680    6.96990    0.27670    0.10650    0.18300   12.33580    5.82570    2.52790   -9999.25   -9999.25
 9588.50000   -9999.25   -9999.25   95.19160    5.61050   -9999.25  -38.46640   -9999.25    6.12270    6.91420    0.27080    0.09230    0.17190   12.37910    5.88250    2.55200   -9999.25   -9999.25
 9589.00000   -9999.25   -9999.25   96.11640    5.59340   -9999.25  -38.47080   -9999.25    6.08910    6.86550    0.27150    0.09270    0.16310   12.47390    5.93830    2.55150   -9999.25   -9999.25
 9589.50000   -9999.25   -9999.25   98.59280    5.57630   -9999.25  -38.47530   -9999.25    6.02330    6.81980    0.27980    0.09470    0.16200   12.65030    6.06210    2.54800   -9999.25   -9999.25
 9590.00000   -9999.25   -9999.25  101.34290    5.55930   -9999.25  -38.47980   -9999.25    5.92700    6.79730    0.28200    0.10880    0.16460   12.81250    6.49160    2.52400   -9999.25   -9999.25
 9590.50000   -9999.25   -9999.25  101.79390    5.54230   -9999.25  -38.48430   -9999.25    5.83320    6.80140    0.27600    0.12440    0.17220   12.81980    6.83550    2.49720   -9999.25   -9999.25
