~Version ---------------------------------------------------
VERS.   2.0 : CWLS log ASCII Standard -VERSION 2.0
WRAP.    NO : One line per depth step
DLM . SPACE : Column Data Section Delimiter
~Well ------------------------------------------------------
STRT .F                 4630.0 : START DEPTH
STOP .F                12223.0 : STOP DEPTH
STEP .F                    0.5 : STEP
NULL .                -9999.25 : NULL VALUE
COMP .                         : COMPANY
WELL .                         : WELL
FLD  .                         : FIELD
LOC  .                         : LOCATION
PROV .                         : PROVINCE
CNTY .                         : COUNTY
STAT .                         : STATE
CTRY .                         : COUNTRY
SRVC .                         : SERVICE COMPANY
DATE .                         : DATE
UWI  .                         : UNIQUE WELL ID
API  .                         : API NUMBER
SLAT .WGS84 6.1568294008363935 : SURFACE LATITUDE
SLON .WGS84  4.519130721279083 : SURFACE LONGITUDE
DATUM.F                 2304.5 : DEPTH DATUM ELEV
~Curve Information -----------------------------------------
DEPT   .F     : 1 MEASURED DEPTH
DTCO   .US/F  : DELTA-T COMPRESSIONAL
DTSM   .US/F  : DELTA-T SHEAR
GRR    .GAPI  : GAMMA RAY FROM RESISTIVITY LOG
ILD    .OHMM  : INDUCTION DEEP RESISTIVITY
CILD   .MMHO  : INDUCTION DEEP CONDUCTIVITY
SPR    .MV    : SPONTANEOUS POTENTIAL FROM RESISTIVITY LOG
SFLA   .OHMM  : SPHERICALLY FOCUSED LOG RESISTIVITY AVERAGED OVER 2.5 FT
ILM    .OHMM  : INDUCTION MEDIUM RESISTIVITY
SFLU   .OHMM  : SHALLOW FOCUSED RESISTIVITY (UNAVERAGED)
NPHI_LS.DEC   : NEUTRON POROSITY LIMESTONE
DPHI_LS.DEC   : DENSITY POROSITY LIMESTONE
DRHO   .G/C3  : BULK DENSITY CORRECTION
CALD   .IN    : CALIPER FROM DENSITY LOG
PEF    .B/E   : PHOTOELECTRIC FACTOR
RHOB   .G/C3  : BULK DENSITY
PEFL   .B/E   : LONG SPACED CORRECTED PHOTELECTRIC FACTOR
PEFS   .B/E   : SHORT SPACED CORRECTED PHOTOELECTRIC FACTOR
~Params ----------------------------------------------------
~Other -----------------------------------------------------
~ASCII -----------------------------------------------------
# ...
 10881.00000   -9999.25   -9999.25   87.16400    5.65880   -9999.25  -40.83190   -9999.25    5.90390   13.73890    0.24340    0.10990    0.10150    9.17920    5.73400    2.55160   -9999.25   -9999.25
 10881.50000   -9999.25   -9999.25  100.04800    5.56510   -9999.25  -40.55630   -9999.25    5.72510    8.85960    0.23580    0.09550    0.10200    9.37270    5.45670    2.52520   -9999.25   -9999.25
 10882.00000   -9999.25   -9999.25  109.85000    5.47290   -9999.25  -40.45590   -9999.25    5.91600    7.16980    0.22070    0.06160    0.10100    9.38190    5.61290    2.52670   -9999.25   -9999.25
 10882.50000   -9999.25   -9999.25  110.90420    5.28850   -9999.25  -40.38120   -9999.25    5.90630    8.08750    0.22170    0.05680    0.08990    9.32250    6.10660    2.55750   -9999.25   -9999.25
 10883.00000   -9999.25   -9999.25  111.43890    4.78190   -9999.25  -40.30660   -9999.25    5.58980   10.24690    0.23490    0.09230    0.07340    9.28620    5.89630    2.56340   -9999.25   -9999.25
 10883.50000   -9999.25   -9999.25  113.31980    4.64660   -9999.25  -40.23190   -9999.25    4.93370   10.83980    0.25090    0.11290    0.05240    9.29810    5.29980    2.54870   -9999.25   -9999.25
 10884.00000   -9999.25   -9999.25  113.26380    4.71120   -9999.25  -40.15720   -9999.25    4.89500    9.16030    0.24960    0.11100    0.05050    9.31000    5.14880    2.52620   -9999.25   -9999.25
 10884.50000   -9999.25   -9999.25  109.84950    4.80870   -9999.25  -40.08250   -9999.25    4.97770    7.84550    0.24450    0.09060    0.06430    9.32190    5.28450    2.53560   -9999.25   -9999.25
 10885.00000   -9999.25   -9999.25  102.22380    4.82920   -9999.25  -40.00790   -9999.25    5.14020    7.90960    0.24140    0.08150    0.06810    9.32840    5.51190    2.57000   -9999.25   -9999.25
 10885.50000   -9999.25   -9999.25   96.75510    4.83720   -9999.25  -39.93320   -9999.25    5.26440    8.89630    0.23960    0.08110    0.05750    9.33440    5.56110    2.57130   -9999.25   -9999.25
 10886.00000   -9999.25   -9999.25   96.28850    4.84510   -9999.25  -39.85850   -9999.25    5.33910    9.36610    0.23180    0.07430    0.04940    9.34040    5.51480    2.57780   -9999.25   -9999.25
 10886.50000   -9999.25   -9999.25   97.32100    4.94000   -9999.25  -39.83090   -9999.25    5.40950    9.52010    0.22490    0.06750    0.05820    9.34640    5.53560    2.59170   -9999.25   -9999.25
 10887.00000   -9999.25   -9999.25   99.16780    5.03460   -9999.25  -39.79410   -9999.25    5.43100    9.57810    0.22950    0.07850    0.05140    9.35240    5.65380    2.59100   -9999.25   -9999.25
 10887.50000   -9999.25   -9999.25  101.02860    5.08000   -9999.25  -39.75480   -9999.25    5.35820    9.59320    0.23370    0.09180    0.03920    9.35840    5.91920    2.55270   -9999.25   -9999.25
 10888.00000   -9999.25   -9999.25  103.40710    4.94910   -9999.25  -39.71560   -9999.25    5.40500    8.74790    0.23360    0.11070    0.04390    9.35090    6.35950    2.53420   -9999.25   -9999.25
 10888.50000   -9999.25   -9999.25  108.34930    4.76070   -9999.25  -39.67630   -9999.25    5.44520    8.25330    0.23410    0.13440    0.07370    9.35050    7.13220    2.49160   -9999.25   -9999.25
 10889.00000   -9999.25   -9999.25  113.30960    4.56340   -9999.25  -39.65600   -9999.25    5.16570    8.03010    0.25340    0.17000    0.07800    9.56730    7.70900    2.45120   -9999.25   -9999.25
 10889.50000   -9999.25   -9999.25  120.14090    4.25160   -9999.25  -39.78920   -9999.25    4.59040    7.30250    0.27680    0.18980    0.08320   10.15070    8.31680    2.40800   -9999.25   -9999.25
 10890.00000   -9999.25   -9999.25  127.17860    3.95990   -9999.25  -39.92240   -9999.25    4.15420    5.99250    0.30540    0.21580    0.09340   10.60650    8.81260    2.34590   -9999.25   -9999.25
 10890.50000   -9999.25   -9999.25  125.23090    3.73110   -9999.25  -40.05570   -9999.25    3.88300    4.96030    0.33810    0.26640    0.10380   10.79500    9.27870    2.26830   -9999.25   -9999.25
 10891.00000   -9999.25   -9999.25  120.85220    3.62080   -9999.25  -40.18480   -9999.25    3.86320    4.46940    0.33910    0.28000    0.11350   10.84330    8.95090    2.23820   -9999.25   -9999.25
 10891.50000   -9999.25   -9999.25  114.62040    3.51130   -9999.25  -40.22220   -9999.25    3.88380    4.52740    0.33140    0.24940    0.12180   10.89170    8.69650    2.26360   -9999.25   -9999.25
 10892.00000   -9999.25   -9999.25  112.44030    3.33270   -9999.25  -40.25960   -9999.25    3.61570    4.90680    0.32850    0.22850    0.12200   11.03120    9.68230    2.31700   -9999.25   -9999.25
 10892.50000   -9999.25   -9999.25  113.11010    3.25710   -9999.25  -40.29700   -9999.25    3.33270    5.13070    0.34620    0.26560    0.11280   11.18290    9.99530    2.29030   -9999.25   -9999.25
 10893.00000   -9999.25   -9999.25  113.78020    3.26600   -9999.25  -40.33450   -9999.25    3.38340    4.96360    0.36900    0.29980    0.10360   11.25970    9.99510    2.12230   -9999.25   -9999.25
 10893.50000   -9999.25   -9999.25  113.40250    3.33160   -9999.25  -40.37190   -9999.25    3.68980    4.79380    0.37970    0.29960    0.09820   11.29790    9.99010    2.01940   -9999.25   -9999.25
 10894.00000   -9999.25   -9999.25  113.06320    3.77710   -9999.25  -40.40930   -9999.25    4.04010    4.62630    0.37560    0.29980    0.09680   11.26080    9.96050    2.00210   -9999.25   -9999.25
 10894.50000   -9999.25   -9999.25  115.04540    4.10270   -9999.25  -40.44670   -9999.25    4.29200    4.62060    0.34070    0.30010    0.09870   10.82910    7.75170    2.12610   -9999.25   -9999.25
 10895.00000   -9999.25   -9999.25  119.12270    4.38740   -9999.25  -40.48480   -9999.25    4.85910    5.05910    0.31050    0.21410    0.09900   10.38180    6.25300    2.34380   -9999.25   -9999.25
 10895.50000   -9999.25   -9999.25  122.35940    4.61330   -9999.25  -40.56500   -9999.25    5.68780    6.30360    0.27970    0.13140    0.09240    9.83860    5.41240    2.48530   -9999.25   -9999.25
 10896.00000   -9999.25   -9999.25  124.00710    4.89880   -9999.25  -40.54000   -9999.25    6.53440    8.00690    0.26900    0.07690    0.09450    9.43260    5.10290    2.58320   -9999.25   -9999.25
 10896.50000   -9999.25   -9999.25  123.71040    5.94030   -9999.25  -40.37860   -9999.25    6.87940    9.54860    0.26130    0.03710    0.09840    9.25960    5.10480    2.64620   -9999.25   -9999.25
 10897.00000   -9999.25   -9999.25  123.56770    6.32190   -9999.25  -40.21720   -9999.25    7.23290   10.66390    0.25480    0.04570    0.08130    9.24030    5.31820    2.63180   -9999.25   -9999.25
 10897.50000   -9999.25   -9999.25  124.97930    6.59840   -9999.25  -40.05580   -9999.25    7.59420   11.03790    0.25390    0.07760    0.06470    9.22100    5.55080    2.57730   -9999.25   -9999.25
 10898.00000   -9999.25   -9999.25  125.69510    6.77340   -9999.25  -39.89450   -9999.25    7.65870   11.10100    0.26290    0.12310    0.04970    9.20170    5.66020    2.49940   -9999.25   -9999.25
 10898.50000   -9999.25   -9999.25  124.04430    6.88450   -9999.25  -39.73310   -9999.25    7.06260   10.75480    0.27550    0.16350    0.05050    9.26300    5.57400    2.43050   -9999.25   -9999.25
 10899.00000   -9999.25   -9999.25  121.40740    7.18530   -9999.25  -39.54540   -9999.25    6.56990    9.65570    0.28430    0.18200    0.05360    9.32510    5.30940    2.39880   -9999.25   -9999.25
 10899.50000   -9999.25   -9999.25  120.50930    7.80710   -9999.25  -39.24490   -9999.25    6.55660    8.57830    0.28660    0.15600    0.05500    9.34450    4.89540    2.44330   -9999.25   -9999.25
 10900.00000   -9999.25   -9999.25  120.33530    7.84440   -9999.25  -38.94450   -9999.25    6.61870    8.07060    0.28160    0.11150    0.05100    9.30900    4.50920    2.51920   -9999.25   -9999.25
 10900.50000   -9999.25   -9999.25  118.25180    7.75730   -9999.25  -38.79570   -9999.25    6.74660    8.24500    0.24980    0.08110    0.03760    9.25870    4.12310    2.58100   -9999.25   -9999.25
