~Version ---------------------------------------------------
VERS.   2.0 : CWLS log ASCII Standard -VERSION 2.0
WRAP.    NO : One line per depth step
DLM . SPACE : Column Data Section Delimiter
~Well ------------------------------------------------------
STRT .F                 3554.5 : START DEPTH
STOP .F                12582.0 : STOP DEPTH
STEP .F                    0.5 : STEP
NULL .                -9999.25 : NULL VALUE
COMP .                         : COMPANY
WELL .                         : WELL
FLD  .                         : FIELD
LOC  .                         : LOCATION
PROV .                         : PROVINCE
CNTY .                         : COUNTY
STAT .                         : STATE
CTRY .                         : COUNTRY
SRVC .                         : SERVICE COMPANY
DATE .                         : DATE
UWI  .                         : UNIQUE WELL ID
API  .                         : API NUMBER
SLAT .WGS84  5.986212384306398 : SURFACE LATITUDE
SLON .WGS84 4.1205887986095036 : SURFACE LONGITUDE
DATUM.F                2057.64 : DEPTH DATUM ELEV
~Curve Information -----------------------------------------
DEPT.F     : 
CILD.MMHO  : CONDUCTIVITY INDUCTION LOG DEEP
TEND.LBS   : TENSION FROM DENSITY LOG
RHOB.G/C3  : BULK DENSITY
PEF .B/E   : PHOTOELECTRIC FACTOR
NPHI.DEC   : NEUTRON POROSITY SANDSTONE
DRHO.G/C3  : DENSITY CORRECTION
TENR.LBS   : TENSION FROM RESISTIVITY
ILM .OHMM  : INDUCTION LOG MEDIUM RESISTIVITY
DTCO.US/F  : ACOUSTIC TRANSIT TIME SLOWNESS, DELTA T
DTSM.US/F  : SHEAR-WAVE INTERVAL TRANSIT TIME DELTA-T
TENS.LBS   : TENSION FROM SONIC
CALD.IN    : CALIPER FROM DENSITY LOG
SFLU.OHMM  : PHERICALLY FOCUSED LOG
SPR .MV    : SPONTANEOUS POTENTIAL
ILD .OHMM  : DEEP INDUCTION RESISTIVITY
GRR .GAPI  : GAMMA RAY
~Params ----------------------------------------------------
~Other -----------------------------------------------------
~ASCII -----------------------------------------------------
# ...
 7725.50000   -9999.25 3132.08690    2.24100    2.91600    0.27900    0.11700 2829.71410    7.93000   -9999.25   -9999.25   -9999.25   11.28800    9.47600   15.94800    8.27000   87.13700
 7726.00000   -9999.25 3148.68800    2.19500    3.04500    0.27900    0.11300 2831.06010    8.17900   -9999.25   -9999.25   -9999.25   11.41500    9.59700   15.80300    8.42900   89.95900
 7726.50000   -9999.25 3161.41700    2.14400    2.99400    0.29300    0.09500 2832.40600    8.42900   -9999.25   -9999.25   -9999.25   11.13000    9.62700   15.64900    8.58700   92.58500
 7727.00000   -9999.25 3142.44800    2.09500    2.81800    0.29200    0.08100 2833.75200    8.76500   -9999.25   -9999.25   -9999.25   10.76300    9.75500   15.48400    8.74500   95.28300
 7727.50000   -9999.25 3119.81010    2.11900    2.88100    0.29100    0.06400 2835.09790    8.60800   -9999.25   -9999.25   -9999.25   10.38200    9.88300   15.33100    8.92600   97.98800
 7728.00000   -9999.25 3097.17310    2.22500    3.06100    0.28100    0.04800 2836.44410    8.92600   -9999.25   -9999.25   -9999.25   10.02000   11.01000   15.17100    9.58900  100.84300
 7728.50000   -9999.25 3074.53490    2.36500    3.26400    0.26700    0.04000 2837.79000    9.80700   -9999.25   -9999.25   -9999.25    9.68000   13.28000   15.01400   10.35800  104.72700
 7729.00000   -9999.25 3051.89700    2.47900    3.21300    0.26700    0.03100 2839.13600   10.62900   -9999.25   -9999.25   -9999.25    9.68700   15.54900   14.85500   11.12700  106.59400
 7729.50000   -9999.25 3029.25900    2.44200    3.09600    0.27000    0.01200 2840.48190   11.45200   -9999.25   -9999.25   -9999.25    9.71100   17.81900   14.69800   11.89700  107.21900
 7730.00000   -9999.25 3006.62110    2.37300    3.18900    0.27500    0.01900 2841.82790   12.27400   -9999.25   -9999.25   -9999.25    9.74400   19.82000   14.53600   12.66600  108.04300
 7730.50000   -9999.25 2983.98390    2.39100    3.57100    0.27700    0.04300 2843.17410   13.06100   -9999.25   -9999.25   -9999.25    9.77200   18.44900   14.38200   13.43600  108.65000
 7731.00000   -9999.25 2964.56690    2.44600    3.56500    0.27700    0.06100 2844.52000   12.49400   -9999.25   -9999.25   -9999.25    9.80300   17.22300   14.23300   13.79200  108.86200
 7731.50000   -9999.25 2950.34400    2.46000    3.45900    0.27800    0.08100 2845.86600   11.43800   -9999.25   -9999.25   -9999.25    9.82700   15.94400   14.29300   12.71500  107.77500
 7732.00000   -9999.25 2937.89400    2.40300    3.17000    0.27800    0.10800 2846.05810   10.38200   -9999.25   -9999.25   -9999.25    9.86700   15.54500   14.36100   11.60500  106.04900
 7732.50000   -9999.25 2925.19700    2.30800    2.89000    0.29600    0.11400 2845.34910    9.32600   -9999.25   -9999.25   -9999.25    9.84300   14.46900   14.43700   10.49600  101.20800
 7733.00000   -9999.25 2925.19700    2.16100    2.61000    0.34500    0.09200 2844.63890    8.27000   -9999.25   -9999.25   -9999.25   10.05700   12.78700   14.50700    9.59700   97.15800
 7733.50000   -9999.25 2940.01000    2.01100    2.49100    0.37600    0.05800 2843.92990    6.80000   -9999.25   -9999.25   -9999.25   10.23000   11.10500   14.57900    9.25500   92.35600
 7734.00000   -9999.25 2952.46090    2.00300    2.49000    0.34900    0.03500 2843.22000    6.95900   -9999.25   -9999.25   -9999.25   10.42700    8.45300   14.65100    9.08900   91.93600
 7734.50000   -9999.25 2964.56690    2.08200    2.77000    0.31100    0.02500 2842.51000    7.70000   -9999.25   -9999.25   -9999.25   10.10700    9.94200   14.72500    9.42500   97.37600
 7735.00000   -9999.25 2964.56690    2.29600    3.13600    0.30200    0.01400 2841.80100    8.44200   -9999.25   -9999.25   -9999.25    9.96000   13.46200   14.79300   10.30300  102.97000
 7735.50000   -9999.25 2964.56690    2.46300    3.37100    0.30400    0.01400 2841.09110    9.18400   -9999.25   -9999.25   -9999.25    9.86600   16.98300   14.87500   11.15700  109.14800
 7736.00000   -9999.25 2973.22800    2.45600    3.45200    0.31700    0.01800 2840.38210    9.92600   -9999.25   -9999.25   -9999.25    9.82900   20.50300   14.93200   12.01200  107.91000
 7736.50000   -9999.25 3006.42990    2.46100    3.65800    0.30500    0.02100 2839.67210   12.09300   -9999.25   -9999.25   -9999.25    9.85600   23.75900   15.01400   12.86600  191.14400
 7737.00000   -9999.25 3043.30690    2.50100    3.91500    0.28600    0.02400 2838.96290   13.66200   -9999.25   -9999.25   -9999.25    9.87700   23.33200   15.11100   13.72100  190.37500
 7737.50000   -9999.25 2999.01610    2.53800    4.04500    0.25800    0.02900 2838.25290   14.56200   -9999.25   -9999.25   -9999.25    9.90000   23.75900   15.05000   14.57600  187.79600
 7738.00000   -9999.25 2967.02390    2.54900    3.92000    0.24200    0.02900 2837.54300   14.41300   -9999.25   -9999.25   -9999.25    9.92400   23.59300   16.10600   15.10000  187.79600
 7738.50000   -9999.25 2974.99190    2.52200    3.60700    0.26300    0.05500 2836.83400   13.92800   -9999.25   -9999.25   -9999.25    9.94000   22.09500   17.12000   15.10000  110.28300
 7739.00000   -9999.25 2982.96090    2.47300    3.27800    0.28300    0.04900 2836.12400   13.44400   -9999.25   -9999.25   -9999.25    9.94900   19.70400   16.84000   14.66000  105.08900
 7739.50000   -9999.25 2990.92900    2.43300    3.22600    0.31000    0.04200 2835.41500   12.95900   -9999.25   -9999.25   -9999.25    9.97100   17.31400   16.70600   14.05500   97.80500
 7740.00000   -9999.25 2998.89790    2.39000    3.37300    0.31000    0.03900 2834.70510   12.47400   -9999.25   -9999.25   -9999.25    9.99200   14.82900   16.56100   13.45100   89.24000
 7740.50000   -9999.25 3006.86600    2.43700    3.77800    0.27000    0.04600 2833.99510   11.98900   -9999.25   -9999.25   -9999.25   10.01400   16.81500   16.38000   12.84600   78.11300
 7741.00000   -9999.25 3014.83500    2.59400    3.92100    0.16900    0.05200 2833.28590   11.50500   -9999.25   -9999.25   -9999.25   10.03300   18.88400   16.23800   12.24100   81.14300
 7741.50000   -9999.25 3022.80300    2.65200    3.80800    0.16900    0.05700 2832.57590   11.02000   -9999.25   -9999.25   -9999.25   10.06000   20.55100   16.12800   11.63600   85.41000
 7742.00000   -9999.25 3030.77200    2.62100    3.32700    0.20600    0.04200 2831.86690   10.53500   -9999.25   -9999.25   -9999.25   10.10400   18.16400   16.49600   11.03100   90.10500
 7742.50000   -9999.25 3038.74000    2.49600    2.91100    0.24900    0.03500 2831.15700   10.05000   -9999.25   -9999.25   -9999.25   10.13500   15.17300   16.82900   10.31900   89.74800
 7743.00000   -9999.25 3025.08400    2.43600    2.87200    0.28800    0.03000 2830.44700    9.77300   -9999.25   -9999.25   -9999.25   10.38000   11.09500   17.18800   10.06400   89.54700
 7743.50000   -9999.25 2982.39600    2.44800    2.97500    0.28600    0.02600 2829.73800    9.77300   -9999.25   -9999.25   -9999.25   10.68900   11.17800   17.53100    9.95100   89.31000
 7744.00000   -9999.25 2939.70800    2.48000    3.14900    0.27000    0.02100 2829.02810    9.77300   -9999.25   -9999.25   -9999.25   10.67300   11.50500   17.88100    9.97200   89.04500
 7744.50000   -9999.25 2928.48390    2.51900    3.46900    0.24000    0.01800 2828.31910    9.77300   -9999.25   -9999.25   -9999.25   10.53000   13.09400   18.22900    9.99600   88.76900
 7745.00000   -9999.25 2933.46510    2.55500    3.51000    0.20900    0.01700 2827.60890    9.77300   -9999.25   -9999.25   -9999.25   10.41200   14.60000   18.57700   10.02000   88.52100
 7745.50000   -9999.25 2938.44510    2.58700    3.52100    0.19300    0.01900 2826.89990    9.72600   -9999.25   -9999.25   -9999.25   10.32000   16.10600   18.92500   10.04500   88.21500
 7746.00000   -9999.25 2943.42500    2.61900    3.51000    0.18100    0.02500 2826.18990    9.65800   -9999.25   -9999.25   -9999.25   10.23900   17.45700   19.27400   10.06900   88.03000
 7746.50000   -9999.25 2948.40600    2.62700    3.45000    0.18300    0.03000 2825.48000    9.59100   -9999.25   -9999.25   -9999.25   10.30200   18.10200   19.62200   10.09300   87.73600
