~Version ---------------------------------------------------
VERS.   2.0 : CWLS log ASCII Standard -VERSION 2.0
WRAP.    NO : One line per depth step
DLM . SPACE : Column Data Section Delimiter
~Well ------------------------------------------------------
STRT .F                 3554.5 : START DEPTH
STOP .F                12582.0 : STOP DEPTH
STEP .F                    0.5 : STEP
NULL .                -9999.25 : NULL VALUE
COMP .                         : COMPANY
WELL .                         : WELL
FLD  .                         : FIELD
LOC  .                         : LOCATION
PROV .                         : PROVINCE
CNTY .                         : COUNTY
STAT .                         : STATE
CTRY .                         : COUNTRY
SRVC .                         : SERVICE COMPANY
DATE .                         : DATE
UWI  .                         : UNIQUE WELL ID
API  .                         : API NUMBER
SLAT .WGS84  5.986212384306398 : SURFACE LATITUDE
SLON .WGS84 4.1205887986095036 : SURFACE LONGITUDE
DATUM.F                2057.64 : DEPTH DATUM ELEV
~Curve Information -----------------------------------------
DEPT.F     : 
CILD.MMHO  : CONDUCTIVITY INDUCTION LOG DEEP
TEND.LBS   : TENSION FROM DENSITY LOG
RHOB.G/C3  : BULK DENSITY
PEF .B/E   : PHOTOELECTRIC FACTOR
NPHI.DEC   : NEUTRON POROSITY SANDSTONE
DRHO.G/C3  : DENSITY CORRECTION
TENR.LBS   : TENSION FROM RESISTIVITY
ILM .OHMM  : INDUCTION LOG MEDIUM RESISTIVITY
DTCO.US/F  : ACOUSTIC TRANSIT TIME SLOWNESS, DELTA T
DTSM.US/F  : SHEAR-WAVE INTERVAL TRANSIT TIME DELTA-T
TENS.LBS   : TENSION FROM SONIC
CALD.IN    : CALIPER FROM DENSITY LOG
SFLU.OHMM  : PHERICALLY FOCUSED LOG
SPR .MV    : SPONTANEOUS POTENTIAL
ILD .OHMM  : DEEP INDUCTION RESISTIVITY
GRR .GAPI  : GAMMA RAY
~Params ----------------------------------------------------
~Other -----------------------------------------------------
~ASCII -----------------------------------------------------
# ...
 10477.50000   -9999.25 3751.96900    2.64400    3.59000    0.14200   -0.00200 3386.89790   11.60500   -9999.25   -9999.25   -9999.25    9.94100   14.16200   17.79000   11.40100  105.12100
 10478.00000   -9999.25 3751.96900    2.64300    3.74600    0.15000   -0.00200 3385.53100   10.59000   -9999.25   -9999.25   -9999.25    9.94100   12.60100   18.42600   10.75400  105.48700
 10478.50000   -9999.25 3751.96900    2.63900    3.76900    0.15600   -0.00200 3384.16410   11.08100   -9999.25   -9999.25   -9999.25    9.94100   11.18300   19.05800   10.39900  103.80300
 10479.00000   -9999.25 3751.96900    2.64000    3.70900    0.15800   -0.00400 3382.79710   12.16700   -9999.25   -9999.25   -9999.25    9.94100   11.31900   19.73700   11.61500   99.39600
 10479.50000   -9999.25 3751.96900    2.64200    3.60600    0.15600   -0.00400 3381.42990   13.25300   -9999.25   -9999.25   -9999.25    9.94100   12.91800   20.38100   12.76800   94.73800
 10480.00000   -9999.25 3751.96900    2.64400    3.58700    0.15200   -0.00400 3380.06200   14.33900   -9999.25   -9999.25   -9999.25    9.94100   16.18600   20.82400   13.92000   87.95000
 10480.50000   -9999.25 3751.96900    2.64600    3.55700    0.14000   -0.00200 3378.69510   15.42500   -9999.25   -9999.25   -9999.25    9.94100   19.45300   19.44500   15.07200   81.91100
 10481.00000   -9999.25 3751.96900    2.64800    3.54700    0.12800   -0.00200 3377.32790   16.51100   -9999.25   -9999.25   -9999.25    9.94100   22.72100   18.22000   16.22400   75.04600
 10481.50000   -9999.25 3751.96900    2.65800    3.54000    0.11600   -0.00200 3375.96090   17.59700   -9999.25   -9999.25   -9999.25    9.94100   25.98800   17.57700   17.37600   72.45700
 10482.00000   -9999.25 3751.96900    2.67400    3.44500    0.10400   -0.00200 3374.59400   18.68300   -9999.25   -9999.25   -9999.25    9.94100   28.24400   16.81200   18.52800   70.99400
 10482.50000   -9999.25 3751.96900    2.66800    3.25900    0.09300   -0.00300 3373.22710   19.64000   -9999.25   -9999.25   -9999.25    9.94100   28.24400   16.20100   19.84600   68.33000
 10483.00000   -9999.25 3749.39890    2.65000    3.08600    0.09100   -0.00300 3371.85890   18.66900   -9999.25   -9999.25   -9999.25    9.94000   26.82100   15.77600   19.50100   67.60200
 10483.50000   -9999.25 3746.77810    2.63300    2.91200    0.08900   -0.00300 3370.49190   17.80200   -9999.25   -9999.25   -9999.25    9.95000   24.85000   15.21100   18.81000   71.64800
 10484.00000   -9999.25 3744.15700    2.62000    2.84200    0.08400   -0.00400 3369.12500   16.93400   -9999.25   -9999.25   -9999.25    9.97600   22.87900   14.68800   18.11900   79.18900
 10484.50000   -9999.25 3741.53490    2.62300    3.01700    0.08500   -0.00400 3367.75810   15.50900   -9999.25   -9999.25   -9999.25   10.00100   20.90800   15.33900   16.98300   86.44000
 10485.00000   -9999.25 3738.91410    2.62400    3.27300    0.10000   -0.00500 3366.33690   15.84500   -9999.25   -9999.25   -9999.25   10.02500   18.93700   16.05400   17.29100   92.91800
 10485.50000   -9999.25 3736.29300    2.62200    3.68900    0.11200   -0.00500 3366.33690   16.78700   -9999.25   -9999.25   -9999.25   10.05100   17.29500   16.86800   18.15100   93.30100
 10486.00000   -9999.25 3733.67210    2.62300    3.58600    0.12500   -0.00600 3366.33690   17.72800   -9999.25   -9999.25   -9999.25   10.07500   17.29500   17.58200   19.01200   87.24400
 10486.50000   -9999.25 3731.05100    2.62800    3.48100    0.12500   -0.00600 3366.33690   18.67000   -9999.25   -9999.25   -9999.25   10.09700   24.24200   18.21300   19.87300   75.64900
 10487.00000   -9999.25 3728.42900    2.63400    3.12600    0.10400   -0.00600 3366.33690   19.61200   -9999.25   -9999.25   -9999.25   10.10300   31.35800   17.34900   20.74000   66.22200
 10487.50000   -9999.25 3725.80810    2.63300    3.18400    0.08600   -0.00600 3366.33690   20.74000   -9999.25   -9999.25   -9999.25   10.11400   39.88700   16.52700   20.03700   65.18900
 10488.00000   -9999.25 3723.18700    2.63100    3.25600    0.06800   -0.00500 3366.33690   19.27100   -9999.25   -9999.25   -9999.25   10.12200   40.61800   15.66700   19.32900   68.36300
 10488.50000   -9999.25 3720.56590    2.63500    3.30500    0.05700   -0.00400 3366.33690   17.43900   -9999.25   -9999.25   -9999.25   10.13100   35.73100   14.66200   18.62100   76.28900
 10489.00000   -9999.25 3717.94410    2.64300    3.32500    0.07300   -0.00400 3366.33690   16.27500   -9999.25   -9999.25   -9999.25   10.15100   27.73400   15.04100   17.91200   84.10300
 10489.50000   -9999.25 3715.32300    2.65200    3.34900    0.08900   -0.00400 3366.33690   16.03200   -9999.25   -9999.25   -9999.25   10.19200   15.23000   16.18300   17.20400   87.75500
 10490.00000   -9999.25 3712.59790    2.65700    3.37600    0.11000   -0.00200 3366.33690   15.78900   -9999.25   -9999.25   -9999.25   10.23200   16.20200   17.23600   16.49500   85.67900
 10490.50000   -9999.25 3712.59790    2.65800    3.39700    0.10500   -0.00200 3366.33690   15.50900   -9999.25   -9999.25   -9999.25   10.27300   18.43000   18.42500   15.78700   81.54100
 10491.00000   -9999.25 3712.59790    2.65600    3.43800    0.09600   -0.00200 3366.33690   15.28600   -9999.25   -9999.25   -9999.25   10.31400   20.65900   18.39100   15.07900   79.33300
 10491.50000   -9999.25 3712.59790    2.65300    3.52500    0.08900   -0.00200 3366.33690   14.79400   -9999.25   -9999.25   -9999.25   10.35500   22.30300   18.12100   14.37000   84.12800
 10492.00000   -9999.25 3712.59790    2.64900    3.57600    0.09200   -0.00200 3366.33690   14.30200   -9999.25   -9999.25   -9999.25   10.39400   22.08400   17.80900   13.66200   87.05100
 10492.50000   -9999.25 3712.59790    2.65400    3.51400    0.10000   -0.00200 3366.33690   13.80900   -9999.25   -9999.25   -9999.25   10.44400   21.05700   17.80400   12.95400   92.42500
 10493.00000   -9999.25 3712.59790    2.66500    3.46400    0.11800   -0.00200 3366.33690   13.31700   -9999.25   -9999.25   -9999.25   10.50300   18.01500   18.06500   12.24500   99.28200
 10493.50000   -9999.25 3712.59790    2.67500    3.38400    0.13700   -0.00200 3366.33690   12.82500   -9999.25   -9999.25   -9999.25   10.55900   14.97400   18.31800   11.73600  103.96700
 10494.00000   -9999.25 3712.59790    2.67600    3.32600    0.15500   -0.00200 3366.33690   12.33300   -9999.25   -9999.25   -9999.25   10.61500   11.81000   18.57700   11.31700  106.22300
 10494.50000   -9999.25 3712.59790    2.67700    3.34400    0.16700   -0.00200 3366.33690   11.84000   -9999.25   -9999.25   -9999.25   10.67200   11.82800   18.83400   10.89700  103.00600
 10495.00000   -9999.25 3712.59790    2.67200    3.49800    0.16300   -0.00300 3366.33690   11.34800   -9999.25   -9999.25   -9999.25   10.72800   11.88900   19.09300   10.47800  100.42600
 10495.50000   -9999.25 3712.59790    2.66400    3.67900    0.15600   -0.00300 3366.33690   10.85600   -9999.25   -9999.25   -9999.25   10.78400   11.95000   19.34100   10.02800   97.55300
 10496.00000   -9999.25 3712.59790    2.65600    3.90900    0.14700   -0.00400 3366.33690   10.36300   -9999.25   -9999.25   -9999.25   10.84000   12.01000   19.61200    9.77400   98.46000
 10496.50000   -9999.25 3712.59790    2.64600    3.84000    0.14200   -0.00500 3366.33690    9.87100   -9999.25   -9999.25   -9999.25   10.89700   11.68900   19.85400    9.49900   99.75400
 10497.00000   -9999.25 3712.59790    2.64400    3.72700    0.14900   -0.00500 3366.33690    9.37900   -9999.25   -9999.25   -9999.25   10.95300   11.23200   20.05300    9.22500  102.74600
 10497.50000   -9999.25 3712.59790    2.65000    3.55000    0.15700   -0.00600 3366.33690    8.88700   -9999.25   -9999.25   -9999.25   11.00900   10.77600   20.57100    8.95100  106.04200
 10498.00000   -9999.25 3712.59790    2.65900    3.28400    0.16500   -0.00400 3366.33690    8.67200   -9999.25   -9999.25   -9999.25   11.06600   10.31900   21.94200    8.82000  108.83100
 10498.50000   -9999.25 3712.59790    2.66700    3.20300    0.17100   -0.00200 3366.33690    8.67200   -9999.25   -9999.25   -9999.25   11.12200    9.86300   21.37200    8.80100  111.16800
