~Version ---------------------------------------------------
VERS.   2.0 : CWLS log ASCII Standard -VERSION 2.0
WRAP.    NO : One line per depth step
DLM . SPACE : Column Data Section Delimiter
~Well ------------------------------------------------------
STRT .F                 3554.5 : START DEPTH
STOP .F                12582.0 : STOP DEPTH
STEP .F                    0.5 : STEP
NULL .                -9999.25 : NULL VALUE
COMP .                         : COMPANY
WELL .                         : WELL
FLD  .                         : FIELD
LOC  .                         : LOCATION
PROV .                         : PROVINCE
CNTY .                         : COUNTY
STAT .                         : STATE
CTRY .                         : COUNTRY
SRVC .                         : SERVICE COMPANY
DATE .                         : DATE
UWI  .                         : UNIQUE WELL ID
API  .                         : API NUMBER
SLAT .WGS84  5.986212384306398 : SURFACE LATITUDE
SLON .WGS84 4.1205887986095036 : SURFACE LONGITUDE
DATUM.F                2057.64 : DEPTH DATUM ELEV
~Curve Information -----------------------------------------
DEPT.F     : 
CILD.MMHO  : CONDUCTIVITY INDUCTION LOG DEEP
TEND.LBS   : TENSION FROM DENSITY LOG
RHOB.G/C3  : BULK DENSITY
PEF .B/E   : PHOTOELECTRIC FACTOR
NPHI.DEC   : NEUTRON POROSITY SANDSTONE
DRHO.G/C3  : DENSITY CORRECTION
TENR.LBS   : TENSION FROM RESISTIVITY
ILM .OHMM  : INDUCTION LOG MEDIUM RESISTIVITY
DTCO.US/F  : ACOUSTIC TRANSIT TIME SLOWNESS, DELTA T
DTSM.US/F  : SHEAR-WAVE INTERVAL TRANSIT TIME DELTA-T
TENS.LBS   : TENSION FROM SONIC
CALD.IN    : CALIPER FROM DENSITY LOG
SFLU.OHMM  : PHERICALLY FOCUSED LOG
SPR .MV    : SPONTANEOUS POTENTIAL
ILD .OHMM  : DEEP INDUCTION RESISTIVITY
GRR .GAPI  : GAMMA RAY
~Params ----------------------------------------------------
~Other -----------------------------------------------------
~ASCII -----------------------------------------------------
# ...
 12154.50000   -9999.25 4112.51810    2.63300   -9999.25    0.16700   -0.00600 3741.61690   16.15400   -9999.25   -9999.25   -9999.25    8.25100   22.30300  -25.92100   15.72300  108.93400
 12155.00000   -9999.25 4117.12700    2.64000   -9999.25    0.16800   -0.00600 3741.61690   15.94300   -9999.25   -9999.25   -9999.25    8.25100   22.13100  -25.87600   15.57800  111.40400
 12155.50000   -9999.25 4121.73580    2.64700   -9999.25    0.16800   -0.00600 3741.61690   15.73200   -9999.25   -9999.25   -9999.25    8.25100   21.58700  -25.82200   15.23000  115.68300
 12156.00000   -9999.25 4126.34620    2.65100   -9999.25    0.16900   -0.00600 3741.61690   15.50900   -9999.25   -9999.25   -9999.25    8.25100   21.04200  -25.78000   14.53900  119.81900
 12156.50000   -9999.25 4130.95510    2.65100   -9999.25    0.17000   -0.00600 3741.61690   14.79700   -9999.25   -9999.25   -9999.25    8.25100   20.49800  -25.75900   13.92800  120.93400
 12157.00000   -9999.25 4135.56400    2.65100   -9999.25    0.17600   -0.00600 3741.61690   14.04300   -9999.25   -9999.25   -9999.25    8.25100   19.29300  -26.03700   13.31700  118.57800
 12157.50000   -9999.25 4140.17290    2.65000   -9999.25    0.18200   -0.00600 3741.61690   13.28900   -9999.25   -9999.25   -9999.25    8.25100   17.87800  -26.27300   12.70600  112.63000
 12158.00000   -9999.25 4141.45410    2.64500   -9999.25    0.18800   -0.00600 3741.61690   12.53500   -9999.25   -9999.25   -9999.25    8.25100   16.46400  -26.52100   12.09500  108.81500
 12158.50000   -9999.25 4141.45410    2.64500   -9999.25    0.19400   -0.00600 3741.61690   11.78100   -9999.25   -9999.25   -9999.25    8.25100   15.04900  -26.53100   11.48400  111.77200
 12159.00000   -9999.25 4133.65580    2.64900   -9999.25    0.19900   -0.00600 3741.61690   11.02800   -9999.25   -9999.25   -9999.25    8.25100   13.65700  -26.53500   10.87300  118.50400
 12159.50000   -9999.25 4110.80620    2.65300   -9999.25    0.20200   -0.00600 3741.61690   10.27400   -9999.25   -9999.25   -9999.25    8.25100   13.14900  -26.53200   10.35700  125.72100
 12160.00000   -9999.25 4087.95510    2.65700   -9999.25    0.20500   -0.00600 3741.61690    9.84800   -9999.25   -9999.25   -9999.25    8.25100   12.47100  -26.53400   10.16800  128.04800
 12160.50000   -9999.25 4065.10500    2.65400   -9999.25    0.20800   -0.00600 3741.61690    9.73100   -9999.25   -9999.25   -9999.25    8.25100   12.56800  -26.52800    9.97900  125.87700
 12161.00000   -9999.25 4042.25490    2.65000   -9999.25    0.20700   -0.00600 3741.61690    9.62000   -9999.25   -9999.25   -9999.25    8.25100   12.93200  -26.54600    9.79000  123.50800
 12161.50000   -9999.25 4023.57590    2.64600   -9999.25    0.20500   -0.00600 3741.61690    9.50800   -9999.25   -9999.25   -9999.25    8.25100   12.62200  -26.40500    9.60100  117.89300
 12162.00000   -9999.25 4023.57590    2.65100   -9999.25    0.20200   -0.00500 3741.61690    9.39600   -9999.25   -9999.25   -9999.25    8.25100   12.33800  -26.17000    9.41200  111.13300
 12162.50000   -9999.25 4023.57590    2.65300   -9999.25    0.20000   -0.00500 3741.61690    9.28400   -9999.25   -9999.25   -9999.25    8.25100   12.02600  -25.95700    9.22300  105.88400
 12163.00000   -9999.25 4023.57590    2.65100   -9999.25    0.20100   -0.00500 3741.61690    9.17200   -9999.25   -9999.25   -9999.25    8.25100   11.90500  -25.74200    9.03400  109.20600
 12163.50000   -9999.25 4031.13890    2.64800   -9999.25    0.20600   -0.00500 3741.61690    9.06000   -9999.25   -9999.25   -9999.25    8.25100   11.77000  -25.52600    8.83100  115.13200
 12164.00000   -9999.25 4043.51710    2.64100   -9999.25    0.21300   -0.00500 3741.61690    8.94800   -9999.25   -9999.25   -9999.25    8.25100   11.63600  -25.30900    8.83100  121.08500
 12164.50000   -9999.25 4055.89400    2.64100   -9999.25    0.21700   -0.00500 3741.61690    8.83100   -9999.25   -9999.25   -9999.25    8.25100   11.50100  -25.09800    8.87700  124.38400
 12165.00000   -9999.25 4062.86790    2.64500   -9999.25    0.21900   -0.00500 3741.61690    8.91600   -9999.25   -9999.25   -9999.25    8.25100   11.38800  -24.87700    8.91800  125.47200
 12165.50000   -9999.25 4062.86790    2.64900   -9999.25    0.21900   -0.00500 3741.61690    9.06900   -9999.25   -9999.25   -9999.25    8.25100   12.05900  -24.65800    8.95900  125.19200
 12166.00000   -9999.25 4061.92410    2.65100   -9999.25    0.21600   -0.00500 3741.61690    9.22200   -9999.25   -9999.25   -9999.25    8.25100   12.63900  -24.47000    8.99300  122.42900
 12166.50000   -9999.25 4060.81100    2.65300   -9999.25    0.21200   -0.00700 3741.61690    9.37500   -9999.25   -9999.25   -9999.25    8.25100   13.21800  -24.17200    9.26100  118.57100
 12167.00000   -9999.25 4059.69800    2.65500   -9999.25    0.20800   -0.00700 3741.61690    9.49600   -9999.25   -9999.25   -9999.25    8.25100   13.90700  -24.68100    9.48700  114.08600
 12167.50000   -9999.25 4058.58590    2.65700   -9999.25    0.20000   -0.00700 3741.61690    9.65700   -9999.25   -9999.25   -9999.25    8.25100   13.90700  -25.78700    9.71400  111.08400
 12168.00000   -9999.25 4057.47290    2.65900   -9999.25    0.19300   -0.00700 3741.61690    9.85400   -9999.25   -9999.25   -9999.25    8.25100   13.90700  -26.52100    9.94000  114.30800
 12168.50000   -9999.25 4056.36110    2.65700   -9999.25    0.18500   -0.00700 3741.61690   10.05200   -9999.25   -9999.25   -9999.25    8.25100   13.90700  -26.51800   10.16700  120.40500
 12169.00000   -9999.25 4055.24800    2.65200   -9999.25    0.18500   -0.00800 3741.61690   10.25000   -9999.25   -9999.25   -9999.25    8.25100   14.41700  -26.54300   10.39400  123.89300
 12169.50000   -9999.25 4054.13600    2.64900   -9999.25    0.18600   -0.00800 3741.61690   10.44800   -9999.25   -9999.25   -9999.25    8.25200   15.20300  -26.52900   10.62000  123.42900
 12170.00000   -9999.25 4053.02290    2.65200   -9999.25    0.18700   -0.00800 3741.61690   10.64600   -9999.25   -9999.25   -9999.25    8.25300   16.08300  -26.53300   10.78400  120.61000
 12170.50000   -9999.25 4051.91090    2.65700   -9999.25    0.18600   -0.00800 3741.61690   10.84300   -9999.25   -9999.25   -9999.25    8.25400   14.68600  -26.53400   10.85800  119.04200
 12171.00000   -9999.25 4050.79810    2.65900   -9999.25    0.18300   -0.00800 3741.61690   11.18300   -9999.25   -9999.25   -9999.25    8.25500   15.03700  -26.53200   10.98200  117.37400
 12171.50000   -9999.25 4049.68510    2.66200   -9999.25    0.17900   -0.00800 3741.61690   11.03500   -9999.25   -9999.25   -9999.25    8.25600   15.54000  -26.52800   10.91300  117.11800
 12172.00000   -9999.25 4048.57300    2.66400   -9999.25    0.18100   -0.00800 3741.61690   10.87100   -9999.25   -9999.25   -9999.25    8.25700   16.04400  -26.45200   10.77900  114.41900
 12172.50000   -9999.25 4047.46000    2.66400   -9999.25    0.18400   -0.00800 3741.61690   10.70700   -9999.25   -9999.25   -9999.25    8.25800   16.54800  -26.38300   10.64500  112.54500
 12173.00000   -9999.25 4046.34790    2.66100   -9999.25    0.18700   -0.00900 3741.61690   10.54400   -9999.25   -9999.25   -9999.25    8.25900   16.67800  -26.30900   10.51100  110.64500
 12173.50000   -9999.25 4045.23510    2.65900   -9999.25    0.19000   -0.00900 3741.61690   10.38000   -9999.25   -9999.25   -9999.25    8.25900   15.98300  -26.23800   10.37700  111.74600
 12174.00000   -9999.25 4044.12300    2.65700   -9999.25    0.19900   -0.00900 3741.61690   10.21200   -9999.25   -9999.25   -9999.25    8.26000   14.73800  -26.16600   10.24300  116.09400
 12174.50000   -9999.25 4043.01000    2.65400   -9999.25    0.21100   -0.01100 3741.79490   10.21200   -9999.25   -9999.25   -9999.25    8.26100   13.49200  -26.09400   10.02800  123.41500
 12175.00000   -9999.25 4041.89790    2.64000   -9999.25    0.22000   -0.01600 3742.10210   10.21200   -9999.25   -9999.25   -9999.25    8.26200   12.24700  -26.02100   10.06500  131.36900
 12175.50000   -9999.25 4040.78490    2.62600   -9999.25    0.21700   -0.01900 3742.40890   10.24400   -9999.25   -9999.25   -9999.25    8.26300   13.18600  -25.95200   10.15800  127.94900
