~Version ---------------------------------------------------
VERS.   2.0 : CWLS log ASCII Standard -VERSION 2.0
WRAP.    NO : One line per depth step
DLM . SPACE : Column Data Section Delimiter
~Well ------------------------------------------------------
STRT .F                 3554.5 : START DEPTH
STOP .F                12582.0 : STOP DEPTH
STEP .F                    0.5 : STEP
NULL .                -9999.25 : NULL VALUE
COMP .                         : COMPANY
WELL .                         : WELL
FLD  .                         : FIELD
LOC  .                         : LOCATION
PROV .                         : PROVINCE
CNTY .                         : COUNTY
STAT .                         : STATE
CTRY .                         : COUNTRY
SRVC .                         : SERVICE COMPANY
DATE .                         : DATE
UWI  .                         : UNIQUE WELL ID
API  .                         : API NUMBER
SLAT .WGS84  5.986212384306398 : SURFACE LATITUDE
SLON .WGS84 4.1205887986095036 : SURFACE LONGITUDE
DATUM.F                2057.64 : DEPTH DATUM ELEV
~Curve Information -----------------------------------------
DEPT.F     : 
CILD.MMHO  : CONDUCTIVITY INDUCTION LOG DEEP
TEND.LBS   : TENSION FROM DENSITY LOG
RHOB.G/C3  : BULK DENSITY
PEF .B/E   : PHOTOELECTRIC FACTOR
NPHI.DEC   : NEUTRON POROSITY SANDSTONE
DRHO.G/C3  : DENSITY CORRECTION
TENR.LBS   : TENSION FROM RESISTIVITY
ILM .OHMM  : INDUCTION LOG MEDIUM RESISTIVITY
DTCO.US/F  : ACOUSTIC TRANSIT TIME SLOWNESS, DELTA T
DTSM.US/F  : SHEAR-WAVE INTERVAL TRANSIT TIME DELTA-T
TENS.LBS   : TENSION FROM SONIC
CALD.IN    : CALIPER FROM DENSITY LOG
SFLU.OHMM  : PHERICALLY FOCUSED LOG
SPR .MV    : SPONTANEOUS POTENTIAL
ILD .OHMM  : DEEP INDUCTION RESISTIVITY
GRR .GAPI  : GAMMA RAY
~Params ----------------------------------------------------
~Other -----------------------------------------------------
~ASCII -----------------------------------------------------
# ...
 11832.00000   -9999.25 3944.99000    2.63400   -9999.25    0.15600   -0.01900 3741.61690    6.84800   74.31900  132.04800 3633.97610    8.35000   13.17000  -33.25900    6.56100   84.69300
 11832.50000   -9999.25 3944.99000    2.62600   -9999.25    0.15900   -0.02100 3741.61690    6.72400   74.90800  132.84300 3634.60110    8.35100   11.44800  -33.33600    6.48400   86.89300
 11833.00000   -9999.25 3944.99000    2.60600   -9999.25    0.16700   -0.02100 3741.61690    6.60300   75.49800  134.82800 3635.22610    8.35200    9.97200  -33.41300    6.40800   93.33000
 11833.50000   -9999.25 3944.99000    2.58800   -9999.25    0.17500   -0.02100 3741.61690    6.46100   76.08700  137.26100 3635.85110    8.35300    7.91900  -33.49100    6.33200   99.69600
 11834.00000   -9999.25 3944.99000    2.58700   -9999.25    0.18300   -0.01900 3741.61690    6.43200   76.67600  139.69400 3636.47610    8.35400    8.00200  -33.56800    6.25500   97.78400
 11834.50000   -9999.25 3944.99000    2.59000   -9999.25    0.19000   -0.01700 3741.61690    6.40200   77.17700  141.59000 3637.10110    8.35500    8.39000  -33.64600    6.17900   95.59300
 11835.00000   -9999.25 3944.99000    2.59400   -9999.25    0.18900   -0.01600 3741.61690    6.36800   77.17700  142.38600 3637.72610    8.35600    8.77800  -33.72400    6.10200   92.26500
 11835.50000   -9999.25 3944.99000    2.59400   -9999.25    0.18500   -0.01500 3741.61690    6.42800   77.17700  142.38600 3638.35110    8.35800    9.04600  -33.80100    6.03000   92.69700
 11836.00000   -9999.25 3944.99000    2.59600   -9999.25    0.18000   -0.01400 3741.61690    6.56300   76.71400  141.63800 3638.97610    8.35900    9.16700  -33.87900    6.13000   92.48600
 11836.50000   -9999.25 3944.99000    2.60100   -9999.25    0.17500   -0.01300 3741.08400    6.69800   76.11300  139.63400 3639.60210    8.36000    9.28700  -33.95600    6.22500   91.40600
 11837.00000   -9999.25 3944.99000    2.61000   -9999.25    0.17300   -0.01200 3739.95090    6.84800   75.51200  137.63000 3640.22710    8.36100    9.49800  -34.03300    6.36800   88.29100
 11837.50000   -9999.25 3944.99000    2.62000   -9999.25    0.17200   -0.01100 3738.81810    6.84800   74.79100  135.22900 3640.85210    8.36200    9.75200  -34.11000    6.27300   88.05200
 11838.00000   -9999.25 3944.99000    2.62900   -9999.25    0.17200   -0.01000 3737.68510    6.60700   74.79100  135.22900 3641.47710    8.36300   10.02800  -34.19100    6.08100   90.03800
 11838.50000   -9999.25 3944.99000    2.63900   -9999.25    0.17100   -0.00900 3736.55200    6.38800   74.94400  135.22900 3642.10210    8.36400    9.75800  -34.25700    5.88900   92.46700
 11839.00000   -9999.25 3984.28300    2.64300   -9999.25    0.16800   -0.00800 3735.41800    6.16800   75.19500  135.62600 3642.72710    8.36500    9.46100  -34.35600    5.69600   92.80800
 11839.50000   -9999.25 3984.28300    2.64500   -9999.25    0.16600   -0.00700 3734.28490    5.94900   75.44500  137.72000 3643.35210    8.36600    8.92500  -34.41100    5.50400   93.80700
 11840.00000   -9999.25 3984.28300    2.64400   -9999.25    0.16300   -0.00600 3733.15210    5.73000   75.69600  139.79100 3643.97710    8.36700    8.18500  -34.43600    5.31200   94.76000
 11840.50000   -9999.25 3984.28300    2.64300   -9999.25    0.16500   -0.00500 3732.01900    5.51100   75.94600  141.86100 3644.60210    8.36900    7.44400  -33.70300    5.12000   95.91400
 11841.00000   -9999.25 3984.28300    2.64100   -9999.25    0.16900   -0.00400 3730.88600    5.29200   76.19700  143.93200 3645.22800    8.37000    6.70400  -33.45600    4.84900   97.00700
 11841.50000   -9999.25 3984.28300    2.64000   -9999.25    0.17400   -0.00300 3729.75290    5.02800   76.38200  146.00300 3645.85300    8.37100    5.81500  -33.21200    4.91700  100.72200
 11842.00000   -9999.25 3984.28300    2.64300   -9999.25    0.17900   -0.00400 3728.61890    5.02800   76.38200  148.07400 3646.47800    8.37300    5.92400  -32.99600    5.03300  100.60500
 11842.50000   -9999.25 3984.28300    2.64600   -9999.25    0.18500   -0.00700 3727.48610    5.15100   77.17700  149.14500 3647.10300    8.37700    6.32500  -32.90100    5.14800   95.75700
 11843.00000   -9999.25 3984.28300    2.64800   -9999.25    0.17300   -0.00900 3726.35300    5.71700   76.18400  149.54300 3647.72800    8.38000    7.68000  -32.91000    5.41700   90.17600
 11843.50000   -9999.25 3984.28300    2.65000   -9999.25    0.16000   -0.01200 3725.22000    6.28300   75.05700  147.55500 3648.35300    8.38300    9.03600  -32.91000    5.89100   85.32200
 11844.00000   -9999.25 3984.28300    2.65400   -9999.25    0.14600   -0.01500 3724.08690    6.84900   73.92900  139.91700 3648.97800    8.38700   10.39200  -32.90800    6.36500   83.24100
 11844.50000   -9999.25 3984.28300    2.66100   -9999.25    0.13500   -0.01700 3722.95410    7.41500   72.80200  131.40000 3649.60300    8.39000   11.59700  -32.90900    6.83900   80.36200
 11845.00000   -9999.25 3984.28300    2.66800   -9999.25    0.12500   -0.01700 3721.82010    7.98100   71.67500  127.27600 3650.22800    8.39300   11.86400  -32.90800    7.31300   77.76400
 11845.50000   -9999.25 3984.28300    2.67600   -9999.25    0.12100   -0.01700 3720.68700    8.54700   70.54800  126.15500 3650.85300    8.39700   12.17100  -32.90900    7.78700   75.80600
 11846.00000   -9999.25 3984.28300    2.67800   -9999.25    0.12000   -0.01700 3719.55400    8.83100   70.02000  125.28800 3651.47900    8.40000   12.47800  -32.90800    8.21200   74.27200
 11846.50000   -9999.25 3984.28300    2.67400   -9999.25    0.12000   -0.01700 3718.42090    8.70500   70.02000  124.89100 3652.10400    8.40300   12.78600  -32.90800    8.05100   72.74100
 11847.00000   -9999.25 3984.28300    2.66700   -9999.25    0.12000   -0.01700 3717.28810    8.52700   70.29400  125.28800 3652.72900    8.40700   12.93200  -32.90900    7.90600   71.47400
 11847.50000   -9999.25 3984.28300    2.66000   -9999.25    0.12100   -0.01800 3716.15410    8.34900   70.81500  125.28800 3653.35400    8.41000   13.17000  -32.90800    7.76000   72.16900
 11848.00000   -9999.25 3984.28300    2.65600   -9999.25    0.12100   -0.01800 3715.02100    8.17100   71.13600  127.40500 3653.97900    8.41000   11.95300  -32.90900    7.63600   76.21100
 11848.50000   -9999.25 3984.28300    2.65300   -9999.25    0.12200   -0.01800 3713.88790    7.99400   70.81500  129.66200 3654.60400    8.41000   10.15600  -32.90800    7.63600   80.84900
 11849.00000   -9999.25 3984.28300    2.65200   -9999.25    0.14200   -0.01800 3712.75490    7.81600   69.97700  131.25200 3655.22900    8.41000    8.67200  -32.90700    7.53100   83.44900
 11849.50000   -9999.25 3984.28300    2.65400   -9999.25    0.15600   -0.01800 3711.62210    7.63600   69.11800  129.47500 3655.85400    8.41000    8.67200  -32.91400    7.34600   83.16500
 11850.00000   -9999.25 3984.28300    2.66400   -9999.25    0.15600   -0.01800 3710.48900    7.63600   68.42900  128.27000 3656.47900    8.41000   12.12700  -32.89500    7.16000   77.92800
 11850.50000   -9999.25 3984.28300    2.67600   -9999.25    0.14200   -0.01900 3709.35500    8.67200   68.13900  125.13400 3657.10500    8.41000   16.98300  -33.05500    6.97500   72.63800
 11851.00000   -9999.25 3984.28300    2.68400   -9999.25    0.13800   -0.01900 3708.22190    8.67200   67.40100  123.30000 3657.73000    8.41000   16.67800  -33.51100    6.79000   69.14600
 11851.50000   -9999.25 3984.28300    2.68000   -9999.25    0.13800   -0.01900 3707.08910    8.23600   68.08300  124.97300 3658.35500    8.41000   14.51500  -33.61400    6.60500   74.23700
 11852.00000   -9999.25 3984.28300    2.66500   -9999.25    0.14200   -0.01900 3705.95610    7.70300   70.34600  126.61400 3658.98000    8.41000   11.87000  -33.31000    6.41900   80.36700
 11852.50000   -9999.25 3984.28300    2.65100   -9999.25    0.14900   -0.01900 3704.82300    7.17000   72.60900  129.87700 3659.60500    8.41000    9.22600  -33.05300    6.23400   86.26200
 11853.00000   -9999.25 3984.28300    2.63500   -9999.25    0.15400   -0.01900 3703.68990    6.63700   74.87300  136.11000 3660.23000    8.41000    7.17800  -32.78300    6.04900   87.33800
