~Version ---------------------------------------------------
VERS.   2.0 : CWLS log ASCII Standard -VERSION 2.0
WRAP.    NO : One line per depth step
DLM . SPACE : Column Data Section Delimiter
~Well ------------------------------------------------------
STRT .F                 3554.5 : START DEPTH
STOP .F                12582.0 : STOP DEPTH
STEP .F                    0.5 : STEP
NULL .                -9999.25 : NULL VALUE
COMP .                         : COMPANY
WELL .                         : WELL
FLD  .                         : FIELD
LOC  .                         : LOCATION
PROV .                         : PROVINCE
CNTY .                         : COUNTY
STAT .                         : STATE
CTRY .                         : COUNTRY
SRVC .                         : SERVICE COMPANY
DATE .                         : DATE
UWI  .                         : UNIQUE WELL ID
API  .                         : API NUMBER
SLAT .WGS84  5.986212384306398 : SURFACE LATITUDE
SLON .WGS84 4.1205887986095036 : SURFACE LONGITUDE
DATUM.F                2057.64 : DEPTH DATUM ELEV
~Curve Information -----------------------------------------
DEPT.F     : 
CILD.MMHO  : CONDUCTIVITY INDUCTION LOG DEEP
TEND.LBS   : TENSION FROM DENSITY LOG
RHOB.G/C3  : BULK DENSITY
PEF .B/E   : PHOTOELECTRIC FACTOR
NPHI.DEC   : NEUTRON POROSITY SANDSTONE
DRHO.G/C3  : DENSITY CORRECTION
TENR.LBS   : TENSION FROM RESISTIVITY
ILM .OHMM  : INDUCTION LOG MEDIUM RESISTIVITY
DTCO.US/F  : ACOUSTIC TRANSIT TIME SLOWNESS, DELTA T
DTSM.US/F  : SHEAR-WAVE INTERVAL TRANSIT TIME DELTA-T
TENS.LBS   : TENSION FROM SONIC
CALD.IN    : CALIPER FROM DENSITY LOG
SFLU.OHMM  : PHERICALLY FOCUSED LOG
SPR .MV    : SPONTANEOUS POTENTIAL
ILD .OHMM  : DEEP INDUCTION RESISTIVITY
GRR .GAPI  : GAMMA RAY
~Params ----------------------------------------------------
~Other -----------------------------------------------------
~ASCII -----------------------------------------------------
# ...
 9467.00000   -9999.25 3429.95290    2.67300    3.28800    0.17300   -0.00100 3128.71290    9.68800   -9999.25   -9999.25   -9999.25   11.00000   10.43300   16.95300    9.53400  101.03900
 9467.50000   -9999.25 3433.93700    2.67700    3.38400    0.17500    0.00100 3128.71290    9.71200   -9999.25   -9999.25   -9999.25   11.00000   10.46700   16.95300    9.47400  101.41900
 9468.00000   -9999.25 3437.00810    2.67800    3.50300    0.17800    0.00200 3128.71290    9.73600   -9999.25   -9999.25   -9999.25   11.00000   10.71200   16.95300    9.41400  100.75200
 9468.50000   -9999.25 3423.16310    2.67100    3.51700    0.18200    0.00300 3128.71290    9.76000   -9999.25   -9999.25   -9999.25   11.00000   10.98200   16.95300    9.35400   98.75200
 9469.00000   -9999.25 3406.56200    2.66600    3.46600    0.18400    0.00400 3128.71290    9.78400   -9999.25   -9999.25   -9999.25   11.00000   10.64600   16.95300    9.29400   96.61200
 9469.50000   -9999.25 3389.96090    2.67000    3.37600    0.18200    0.00400 3128.71290    9.80800   -9999.25   -9999.25   -9999.25   11.00000   10.27200   16.95300    9.23400   97.08600
 9470.00000   -9999.25 3373.36010    2.67800    3.30000    0.18000    0.00400 3128.71290    9.83200   -9999.25   -9999.25   -9999.25   11.00000    9.89700   16.95300    8.99300   97.98600
 9470.50000   -9999.25 3358.26810    2.68500    3.31300    0.17800    0.00300 3128.71290    9.84800   -9999.25   -9999.25   -9999.25   11.00000    9.49600   16.95300    9.18300   97.86900
 9471.00000   -9999.25 3406.56200    2.68000    3.34300    0.17400    0.00300 3128.71290    9.84800   -9999.25   -9999.25   -9999.25   11.00000    9.84900   16.95300    9.76900   95.84800
 9471.50000   -9999.25 3450.83110    2.67500    3.37800    0.16200    0.00200 3128.71290   10.35800   -9999.25   -9999.25   -9999.25   11.00000   10.22800   16.95400   10.35500   90.72400
 9472.00000   -9999.25 3495.10110    2.66900    3.40700    0.14600    0.00200 3128.71290   10.80700   -9999.25   -9999.25   -9999.25   11.00000   11.38500   16.95200   10.94000   85.89300
 9472.50000   -9999.25 3506.88990    2.66400    3.43000    0.13100    0.00200 3128.71290   11.25600   -9999.25   -9999.25   -9999.25   11.00000   13.18600   16.95400   11.52600   82.67200
 9473.00000   -9999.25 3490.28910    2.66200    3.37000    0.12800    0.00100 3128.71290   11.70500   -9999.25   -9999.25   -9999.25   11.00000   14.68600   16.96100   12.11200   84.34000
 9473.50000   -9999.25 3473.68800    2.66100    3.31300    0.12500    0.00100 3128.71290   12.15400   -9999.25   -9999.25   -9999.25   11.00000   15.08900   17.05100   12.34400   87.73500
 9474.00000   -9999.25 3457.08690    2.66400    3.26800    0.12300    0.00100 3128.71290   12.69200   -9999.25   -9999.25   -9999.25   11.00000   15.43500   17.13000   12.47100   92.24400
 9474.50000   -9999.25 3440.48610    2.66800    3.23000    0.12300    0.00000 3128.71290   12.67800   -9999.25   -9999.25   -9999.25   11.00000   15.19200   17.21300   12.59800   94.11700
 9475.00000   -9999.25 3434.19600    2.66600    3.19800    0.12700    0.00000 3128.71290   12.65100   -9999.25   -9999.25   -9999.25   11.00000   14.78800   17.29500   12.70000   93.14200
 9475.50000   -9999.25 3430.63790    2.66400    3.13100    0.13200    0.00000 3128.71290   12.62300   -9999.25   -9999.25   -9999.25   11.00000   14.38400   17.37500   12.56500   92.12600
 9476.00000   -9999.25 3427.08110    2.66200    3.02900    0.13600   -0.00100 3128.71290   12.59600   -9999.25   -9999.25   -9999.25   11.00000   13.90700   17.45900   12.45300   91.39100
 9476.50000   -9999.25 3423.52390    2.66700    3.03900    0.14100   -0.00100 3128.71290   12.56800   -9999.25   -9999.25   -9999.25   11.00000   13.65100   17.54600   12.34100   91.66100
 9477.00000   -9999.25 3419.96610    2.67500    3.11800    0.14500   -0.00100 3128.71290   12.54100   -9999.25   -9999.25   -9999.25   11.00000   13.63700   17.60600   12.22900   92.43700
 9477.50000   -9999.25 3416.40890    2.68000    3.18900    0.14900   -0.00200 3128.71290   12.51300   -9999.25   -9999.25   -9999.25   11.00000   13.62300   17.74500   12.11700   92.71200
 9478.00000   -9999.25 3412.85210    2.68200    3.25600    0.15400   -0.00200 3128.71290   12.48600   -9999.25   -9999.25   -9999.25   11.00000   13.61000   17.30300   12.00400   91.20200
 9478.50000   -9999.25 3409.29390    2.67800    3.33200    0.15600   -0.00200 3128.71290   12.24700   -9999.25   -9999.25   -9999.25   11.00000   13.59600   16.39400   11.89200   89.94800
 9479.00000   -9999.25 3405.73710    2.66900    3.34100    0.15400   -0.00200 3128.71290   12.21300   -9999.25   -9999.25   -9999.25   11.00000   13.58200   16.40500   11.81600   91.73300
 9479.50000   -9999.25 3402.17900    2.66200    3.35200    0.15200   -0.00200 3128.71290   12.18200   -9999.25   -9999.25   -9999.25   11.00000   13.56800   16.87700   11.84100   95.35600
 9480.00000   -9999.25 3398.62210    2.65500    3.36000    0.15000   -0.00100 3128.71290   12.14700   -9999.25   -9999.25   -9999.25   11.00000   13.55500   17.28800   11.86600   98.10400
 9480.50000   -9999.25 3399.39500    2.65400    3.43900    0.15000   -0.00100 3128.71290   12.11900   -9999.25   -9999.25   -9999.25   11.00000   13.54100   17.75200   11.89100  100.61300
 9481.00000   -9999.25 3401.82400    2.66100    3.51400    0.15100   -0.00100 3128.71290   12.08800   -9999.25   -9999.25   -9999.25   11.00000   13.52700   18.03000   11.91500  102.56900
 9481.50000   -9999.25 3404.25390    2.66700    3.47800    0.15000   -0.00100 3128.71290   12.05600   -9999.25   -9999.25   -9999.25   11.00000   13.51300   18.73500   11.94000   98.17300
 9482.00000   -9999.25 3406.68310    2.67200    3.35800    0.14800   -0.00100 3128.71290   12.02400   -9999.25   -9999.25   -9999.25   11.00000   13.50000   16.62600   11.96500   91.01300
 9482.50000   -9999.25 3409.11300    2.67600    3.28900    0.14600   -0.00100 3128.71290   11.99300   -9999.25   -9999.25   -9999.25   11.00000   13.48600   16.25300   11.99000   88.85400
 9483.00000   -9999.25 3411.54200    2.67900    3.24900    0.14400    0.00000 3128.71290   11.96100   -9999.25   -9999.25   -9999.25   11.00000   13.47200   16.43900   12.01500   85.67600
 9483.50000   -9999.25 3413.97190    2.68200    3.20200    0.14300    0.00000 3128.71290   11.93000   -9999.25   -9999.25   -9999.25   11.00000   13.45900   16.72700   12.02700   86.84000
 9484.00000   -9999.25 3416.40090    2.68400    3.16400    0.14000    0.00000 3128.71290   11.89800   -9999.25   -9999.25   -9999.25   11.00000   13.44400   16.86600   12.02700   89.10900
 9484.50000   -9999.25 3418.83010    2.68000    3.14100    0.14100    0.00000 3128.71290   11.86700   -9999.25   -9999.25   -9999.25   11.00000   13.42900   17.10000   12.00000   91.76100
 9485.00000   -9999.25 3421.26000    2.67500    3.11800    0.14600    0.00000 3128.71290   11.83600   -9999.25   -9999.25   -9999.25   11.00000   13.41400   17.29500   11.94900   94.47300
 9485.50000   -9999.25 3423.68900    2.67400    3.11400    0.15000    0.00000 3128.71290   11.80400   -9999.25   -9999.25   -9999.25   11.00000   13.48500   17.49900   11.89800   95.54400
 9486.00000   -9999.25 3426.11890    2.67700    3.20000    0.15200   -0.00100 3128.71290   11.77300   -9999.25   -9999.25   -9999.25   11.00000   13.62100   17.70100   11.84700   95.25700
 9486.50000   -9999.25 3428.54810    2.68500    3.50300    0.14900   -0.00100 3128.71290   11.74100   -9999.25   -9999.25   -9999.25   11.00000   13.75600   17.90500   11.80600   95.09300
 9487.00000   -9999.25 3430.97800    2.68000    3.72500    0.14700   -0.00100 3128.71290   11.71000   -9999.25   -9999.25   -9999.25   11.00000   13.89400   18.11200   11.69500   95.05200
 9487.50000   -9999.25 3433.40700    2.66800    3.73000    0.14600   -0.00100 3128.71290   11.67800   -9999.25   -9999.25   -9999.25   11.00000   13.47600   18.30100   11.60300   96.43000
 9488.00000   -9999.25 3435.83590    2.65800    3.70300    0.14600   -0.00100 3128.71290   11.64700   -9999.25   -9999.25   -9999.25   11.00000   13.04100   18.53200   11.50800   99.39700
