~Version ---------------------------------------------------
VERS.   2.0 : CWLS log ASCII Standard -VERSION 2.0
WRAP.    NO : One line per depth step
DLM . SPACE : Column Data Section Delimiter
~Well ------------------------------------------------------
STRT .F                 3554.5 : START DEPTH
STOP .F                12582.0 : STOP DEPTH
STEP .F                    0.5 : STEP
NULL .                -9999.25 : NULL VALUE
COMP .                         : COMPANY
WELL .                         : WELL
FLD  .                         : FIELD
LOC  .                         : LOCATION
PROV .                         : PROVINCE
CNTY .                         : COUNTY
STAT .                         : STATE
CTRY .                         : COUNTRY
SRVC .                         : SERVICE COMPANY
DATE .                         : DATE
UWI  .                         : UNIQUE WELL ID
API  .                         : API NUMBER
SLAT .WGS84  5.986212384306398 : SURFACE LATITUDE
SLON .WGS84 4.1205887986095036 : SURFACE LONGITUDE
DATUM.F                2057.64 : DEPTH DATUM ELEV
~Curve Information -----------------------------------------
DEPT.F     : 
CILD.MMHO  : CONDUCTIVITY INDUCTION LOG DEEP
TEND.LBS   : TENSION FROM DENSITY LOG
RHOB.G/C3  : BULK DENSITY
PEF .B/E   : PHOTOELECTRIC FACTOR
NPHI.DEC   : NEUTRON POROSITY SANDSTONE
DRHO.G/C3  : DENSITY CORRECTION
TENR.LBS   : TENSION FROM RESISTIVITY
ILM .OHMM  : INDUCTION LOG MEDIUM RESISTIVITY
DTCO.US/F  : ACOUSTIC TRANSIT TIME SLOWNESS, DELTA T
DTSM.US/F  : SHEAR-WAVE INTERVAL TRANSIT TIME DELTA-T
TENS.LBS   : TENSION FROM SONIC
CALD.IN    : CALIPER FROM DENSITY LOG
SFLU.OHMM  : PHERICALLY FOCUSED LOG
SPR .MV    : SPONTANEOUS POTENTIAL
ILD .OHMM  : DEEP INDUCTION RESISTIVITY
GRR .GAPI  : GAMMA RAY
~Params ----------------------------------------------------
~Other -----------------------------------------------------
~ASCII -----------------------------------------------------
# ...
 9144.50000   -9999.25 3279.52810    2.47600    2.45700    0.25700    0.06200 2962.16210    5.48100   -9999.25   -9999.25   -9999.25   11.98700    6.27500   18.56600    5.54300  110.65600
 9145.00000   -9999.25 3283.46510    2.45400    2.46000    0.25500    0.06200 2962.43900    5.46300   -9999.25   -9999.25   -9999.25   12.05900    6.25800   18.54500    5.48500  108.37000
 9145.50000   -9999.25 3290.52290    2.45000    2.63500    0.25300    0.06200 2962.71610    5.44500   -9999.25   -9999.25   -9999.25   12.10600    6.22600   18.52600    5.42700  109.79900
 9146.00000   -9999.25 3297.58200    2.46200    2.75400    0.26000    0.06400 2962.99290    5.42700   -9999.25   -9999.25   -9999.25   12.11100    6.14100   18.49800    5.36900  113.33600
 9146.50000   -9999.25 3304.63990    2.47200    2.98600    0.26900    0.06500 2963.27000    5.40700   -9999.25   -9999.25   -9999.25   12.12200    6.05700   18.46300    5.31000  116.70900
 9147.00000   -9999.25 3311.69900    2.49000    2.91400    0.26500    0.07500 2963.54590    5.37400   -9999.25   -9999.25   -9999.25   12.13300    5.97200   18.42900    5.25200  120.20600
 9147.50000   -9999.25 3318.89790    2.50700    2.81500    0.25700    0.09400 2963.82300    5.31400   -9999.25   -9999.25   -9999.25   12.14200    5.88800   18.39500    5.19400  121.33100
 9148.00000   -9999.25 3316.18600    2.51600    2.71400    0.26900    0.11100 2964.10010    5.25400   -9999.25   -9999.25   -9999.25   12.15400    5.80300   18.36100    5.13600  119.48000
 9148.50000   -9999.25 3313.41990    2.47400    2.54700    0.28100    0.12700 2964.37700    5.19400   -9999.25   -9999.25   -9999.25   12.16400    5.71900   18.32700    5.07800  116.71900
 9149.00000   -9999.25 3310.65410    2.42300    2.42900    0.29400    0.14600 2964.65310    5.13300   -9999.25   -9999.25   -9999.25   12.17000    5.63400   18.29300    5.02000  116.36300
 9149.50000   -9999.25 3307.88790    2.37400    2.44500    0.29600    0.15600 2964.92990    5.12100   -9999.25   -9999.25   -9999.25   12.22500    5.54900   18.25900    4.96100  116.16700
 9150.00000   -9999.25 3305.12110    2.36700    2.53800    0.29100    0.16900 2965.20700    5.08700   -9999.25   -9999.25   -9999.25   12.35700    5.46500   18.22500    4.92000  114.94600
 9150.50000   -9999.25 3302.35500    2.39800    2.62000    0.28700    0.18300 2965.48390    5.05200   -9999.25   -9999.25   -9999.25   12.48400    5.38000   18.19000    4.89100  111.94400
 9151.00000   -9999.25 3299.58910    2.43400    2.55200    0.29400    0.19800 2965.76000    5.01800   -9999.25   -9999.25   -9999.25   12.61800    5.29600   18.15600    4.86200  109.41800
 9151.50000   -9999.25 3296.82200    2.45000    2.49600    0.30400    0.19400 2966.03710    4.98400   -9999.25   -9999.25   -9999.25   12.73300    5.21400   18.12200    4.83200  106.41300
 9152.00000   -9999.25 3294.05590    2.46900    2.43800    0.30600    0.18700 2966.31400    4.95000   -9999.25   -9999.25   -9999.25   12.82900    5.21400   18.08800    4.80300  107.12100
 9152.50000   -9999.25 3291.29000    2.48800    2.50600    0.30100    0.17900 2966.59110    4.91600   -9999.25   -9999.25   -9999.25   12.93100    5.21400   18.05400    4.77400  108.89300
 9153.00000   -9999.25 3288.52290    2.50200    2.59000    0.29400    0.17200 2966.86690    4.88200   -9999.25   -9999.25   -9999.25   13.00100    5.21400   18.02000    4.74400  107.90900
 9153.50000   -9999.25 3285.75710    2.49600    2.66500    0.27500    0.16600 2967.14400    4.84800   -9999.25   -9999.25   -9999.25   12.99900    5.21400   17.98600    4.71500  106.58700
 9154.00000   -9999.25 3282.99100    2.46000    2.60600    0.27200    0.16500 2967.42090    4.81300   -9999.25   -9999.25   -9999.25   13.00100    5.21400   17.95200    4.68600  103.47000
 9154.50000   -9999.25 3280.22510    2.42100    2.57400    0.27400    0.16500 2967.69800    4.77900   -9999.25   -9999.25   -9999.25   13.00100    5.19100   17.91800    4.65700  101.04200
 9155.00000   -9999.25 3290.21410    2.41900    2.65600    0.27900    0.17400 2967.97510    4.74500   -9999.25   -9999.25   -9999.25   12.99600    5.14500   17.88400    4.62700  102.65600
 9155.50000   -9999.25 3304.49900    2.42900    2.72800    0.28600    0.17700 2968.25100    4.71100   -9999.25   -9999.25   -9999.25   13.04100    5.09900   17.84900    4.59800  106.49700
 9156.00000   -9999.25 3318.78490    2.44400    2.79300    0.29500    0.17600 2968.52810    4.67700   -9999.25   -9999.25   -9999.25   13.12300    5.05200   17.81500    4.56900  108.71800
 9156.50000   -9999.25 3333.07100    2.41500    2.73500    0.31000    0.17600 2968.80490    4.64300   -9999.25   -9999.25   -9999.25   13.21000    5.00600   17.78200    4.53900  106.51400
 9157.00000   -9999.25 3347.35690    2.36200    2.62800    0.32100    0.17600 2969.08200    4.60800   -9999.25   -9999.25   -9999.25   13.30500    4.96000   17.74600    4.50900  103.59400
 9157.50000   -9999.25 3361.64210    2.31300    2.47700    0.32400    0.17500 2969.35790    4.57400   -9999.25   -9999.25   -9999.25   13.39800    4.91400   17.73700    4.49400  100.87500
 9158.00000   -9999.25 3375.92800    2.26400    2.34900    0.32600    0.17500 2969.63500    4.54000   -9999.25   -9999.25   -9999.25   13.49000    4.86800   17.75200    4.47900  102.89700
 9158.50000   -9999.25 3390.21410    2.18900    2.17200    0.32800    0.17500 2969.91210    4.50600   -9999.25   -9999.25   -9999.25   13.58200    4.84900   17.76500    4.46300  104.88300
 9159.00000   -9999.25 3388.90500    2.19400    2.23000    0.33000    0.17400 2970.18900    4.47200   -9999.25   -9999.25   -9999.25   13.66700    4.84900   17.77800    4.44800  108.85600
 9159.50000   -9999.25 3370.72290    2.22300    2.34200    0.33300    0.16500 2970.46510    4.43800   -9999.25   -9999.25   -9999.25   13.60900    4.84600   17.79200    4.43200  113.66100
 9160.00000   -9999.25 3352.54100    2.28100    2.45700    0.33100    0.15600 2970.74190    4.40400   -9999.25   -9999.25   -9999.25   13.40500    4.84100   17.80500    4.41600  113.86000
 9160.50000   -9999.25 3334.35890    2.33800    2.50400    0.32700    0.15200 2971.01900    4.36900   -9999.25   -9999.25   -9999.25   13.37600    4.83600   17.81900    4.40100  112.03200
 9161.00000   -9999.25 3318.89790    2.35900    2.45600    0.32700    0.15800 2971.29590    4.33500   -9999.25   -9999.25   -9999.25   13.45900    4.83100   17.83200    4.38500  107.07800
 9161.50000   -9999.25 3318.89790    2.35100    2.39600    0.33800    0.15600 2971.57300    4.30100   -9999.25   -9999.25   -9999.25   13.53900    4.82600   17.84600    4.37000  103.68400
 9162.00000   -9999.25 3318.89790    2.26600    2.36100    0.34600    0.15000 2971.84910    4.27000   -9999.25   -9999.25   -9999.25   13.62200    4.82100   17.85900    4.35400  102.53500
 9162.50000   -9999.25 3318.89790    2.17900    2.30200    0.34100    0.13500 2972.12600    4.25700   -9999.25   -9999.25   -9999.25   13.66800    4.81600   17.87300    4.33900  101.99400
 9163.00000   -9999.25 3318.89790    2.13400    2.26100    0.33200    0.12100 2972.40310    4.24600   -9999.25   -9999.25   -9999.25   13.60500    4.81200   17.88600    4.32300  101.27700
 9163.50000   -9999.25 3318.89790    2.14500    2.41100    0.32300    0.11900 2972.67990    4.23500   -9999.25   -9999.25   -9999.25   13.54800    4.80700   17.90000    4.30800  103.20200
 9164.00000   -9999.25 3318.89790    2.22600    2.51200    0.31300    0.13100 2972.95610    4.22300   -9999.25   -9999.25   -9999.25   13.49200    4.80200   17.91300    4.29200  110.51300
 9164.50000   -9999.25 3318.89790    2.29900    2.66700    0.30600    0.14400 2973.23290    4.21200   -9999.25   -9999.25   -9999.25   13.43800    4.79700   17.92700    4.27700  113.12200
 9165.00000   -9999.25 3318.89790    2.30400    2.65200    0.30800    0.15500 2973.51000    4.20000   -9999.25   -9999.25   -9999.25   13.37300    4.79200   17.94000    4.25900  114.89600
 9165.50000   -9999.25 3318.89790    2.30900    2.60100    0.31400    0.15500 2973.78710    4.18900   -9999.25   -9999.25   -9999.25   13.41700    4.78700   17.95400    4.23900  115.94300
