~Version ---------------------------------------------------
VERS.   2.0 : CWLS log ASCII Standard -VERSION 2.0
WRAP.    NO : One line per depth step
DLM . SPACE : Column Data Section Delimiter
~Well ------------------------------------------------------
STRT .F                 3554.5 : START DEPTH
STOP .F                12582.0 : STOP DEPTH
STEP .F                    0.5 : STEP
NULL .                -9999.25 : NULL VALUE
COMP .                         : COMPANY
WELL .                         : WELL
FLD  .                         : FIELD
LOC  .                         : LOCATION
PROV .                         : PROVINCE
CNTY .                         : COUNTY
STAT .                         : STATE
CTRY .                         : COUNTRY
SRVC .                         : SERVICE COMPANY
DATE .                         : DATE
UWI  .                         : UNIQUE WELL ID
API  .                         : API NUMBER
SLAT .WGS84  5.986212384306398 : SURFACE LATITUDE
SLON .WGS84 4.1205887986095036 : SURFACE LONGITUDE
DATUM.F                2057.64 : DEPTH DATUM ELEV
~Curve Information -----------------------------------------
DEPT.F     : 
CILD.MMHO  : CONDUCTIVITY INDUCTION LOG DEEP
TEND.LBS   : TENSION FROM DENSITY LOG
RHOB.G/C3  : BULK DENSITY
PEF .B/E   : PHOTOELECTRIC FACTOR
NPHI.DEC   : NEUTRON POROSITY SANDSTONE
DRHO.G/C3  : DENSITY CORRECTION
TENR.LBS   : TENSION FROM RESISTIVITY
ILM .OHMM  : INDUCTION LOG MEDIUM RESISTIVITY
DTCO.US/F  : ACOUSTIC TRANSIT TIME SLOWNESS, DELTA T
DTSM.US/F  : SHEAR-WAVE INTERVAL TRANSIT TIME DELTA-T
TENS.LBS   : TENSION FROM SONIC
CALD.IN    : CALIPER FROM DENSITY LOG
SFLU.OHMM  : PHERICALLY FOCUSED LOG
SPR .MV    : SPONTANEOUS POTENTIAL
ILD .OHMM  : DEEP INDUCTION RESISTIVITY
GRR .GAPI  : GAMMA RAY
~Params ----------------------------------------------------
~Other -----------------------------------------------------
~ASCII -----------------------------------------------------
# ...
 7381.50000   -9999.25   -9999.25   -9999.25   -9999.25   -9999.25   -9999.25 2610.23610    6.08800   -9999.25   -9999.25   -9999.25   -9999.25    6.22000   16.36000    5.99700   82.75800
 7382.00000   -9999.25   -9999.25   -9999.25   -9999.25   -9999.25   -9999.25 2610.23610    5.84500   -9999.25   -9999.25   -9999.25   -9999.25    5.90600   15.96400    5.90000   83.64600
 7382.50000   -9999.25   -9999.25   -9999.25   -9999.25   -9999.25   -9999.25 2610.23610    5.60200   -9999.25   -9999.25   -9999.25   -9999.25    5.65900   15.43600    5.80300   84.19600
 7383.00000   -9999.25   -9999.25   -9999.25   -9999.25   -9999.25   -9999.25 2610.23610    5.47100   -9999.25   -9999.25   -9999.25   -9999.25    5.58300   15.16900    5.67300   84.57900
 7383.50000   -9999.25   -9999.25   -9999.25   -9999.25   -9999.25   -9999.25 2610.23610    5.54800   -9999.25   -9999.25   -9999.25   -9999.25    5.61600   15.37900    5.69200   85.33500
 7384.00000   -9999.25   -9999.25   -9999.25   -9999.25   -9999.25   -9999.25 2610.23610    5.62000   -9999.25   -9999.25   -9999.25   -9999.25    5.78300   15.51900    5.76300   86.10700
 7384.50000   -9999.25   -9999.25   -9999.25   -9999.25   -9999.25   -9999.25 2610.23610    5.69200   -9999.25   -9999.25   -9999.25   -9999.25    5.95100   15.67800    5.83500   87.20500
 7385.00000   -9999.25   -9999.25   -9999.25   -9999.25   -9999.25   -9999.25 2610.23610    5.76500   -9999.25   -9999.25   -9999.25   -9999.25    6.11900   15.84300    5.90600   88.36700
 7385.50000   -9999.25   -9999.25   -9999.25   -9999.25   -9999.25   -9999.25 2610.23610    5.83700   -9999.25   -9999.25   -9999.25   -9999.25    6.28700   15.99500    5.97700   89.46400
 7386.00000   -9999.25   -9999.25   -9999.25   -9999.25   -9999.25   -9999.25 2610.23610    5.91000   -9999.25   -9999.25   -9999.25   -9999.25    6.44000   16.06300    6.04900   90.92300
 7386.50000   -9999.25   -9999.25   -9999.25   -9999.25   -9999.25   -9999.25 2610.23610    5.99000   -9999.25   -9999.25   -9999.25   -9999.25    6.63700   14.83300    6.08900   89.93100
 7387.00000   -9999.25   -9999.25   -9999.25   -9999.25   -9999.25   -9999.25 2610.23610    5.90100   -9999.25   -9999.25   -9999.25   -9999.25    6.80000   14.43400    6.05200   87.13200
 7387.50000   -9999.25   -9999.25   -9999.25   -9999.25   -9999.25   -9999.25 2610.23610    5.80100   -9999.25   -9999.25   -9999.25   -9999.25    6.67800   15.22800    6.01600   85.07800
 7388.00000   -9999.25   -9999.25   -9999.25   -9999.25   -9999.25   -9999.25 2610.23610    5.70200   -9999.25   -9999.25   -9999.25   -9999.25    6.45300   15.89800    5.98000   83.78000
 7388.50000   -9999.25   -9999.25   -9999.25   -9999.25   -9999.25   -9999.25 2610.23610    5.57100   -9999.25   -9999.25   -9999.25   -9999.25    6.20300   16.65900    5.94300   83.13000
 7389.00000   -9999.25   -9999.25   -9999.25   -9999.25   -9999.25   -9999.25 2610.23610    5.57100   -9999.25   -9999.25   -9999.25   -9999.25    5.95400   17.07700    5.90700   83.31600
 7389.50000   -9999.25   -9999.25   -9999.25   -9999.25   -9999.25   -9999.25 2610.23610    5.57100   -9999.25   -9999.25   -9999.25   -9999.25    5.88200   17.14000    5.85400   84.84700
 7390.00000   -9999.25   -9999.25   -9999.25   -9999.25   -9999.25   -9999.25 2610.23610    5.52100   -9999.25   -9999.25   -9999.25   -9999.25    5.88200   17.27100    5.76300   86.03000
 7390.50000   -9999.25   -9999.25   -9999.25   -9999.25   -9999.25   -9999.25 2610.23610    5.42500   -9999.25   -9999.25   -9999.25   -9999.25    5.88200   17.38900    5.67200   87.15700
 7391.00000   -9999.25   -9999.25   -9999.25   -9999.25   -9999.25   -9999.25 2610.23610    5.32900   -9999.25   -9999.25   -9999.25   -9999.25    5.88200   17.50400    5.58200   86.96500
 7391.50000   -9999.25   -9999.25   -9999.25   -9999.25   -9999.25   -9999.25 2610.23610    5.23300   -9999.25   -9999.25   -9999.25   -9999.25    5.88200   17.62200    5.49100   86.37000
 7392.00000   -9999.25   -9999.25   -9999.25   -9999.25   -9999.25   -9999.25 2610.23610    5.13700   -9999.25   -9999.25   -9999.25   12.13700    5.79700   17.74600    5.40100   87.33200
 7392.50000   -9999.25   -9999.25   -9999.25   -9999.25   -9999.25   -9999.25 2610.23610    5.04100   -9999.25   -9999.25   -9999.25   12.13700    5.63700   17.85600    5.31000   89.54500
 7393.00000   -9999.25   -9999.25   -9999.25   -9999.25   -9999.25   -9999.25 2610.23610    4.99700   -9999.25   -9999.25   -9999.25   12.13700    5.47700   17.95400    5.21900   91.17500
 7393.50000   -9999.25   -9999.25   -9999.25   -9999.25   -9999.25   -9999.25 2610.23610    5.10800   -9999.25   -9999.25   -9999.25   12.00900    5.37200   17.69400    5.12900   90.45200
 7394.00000   -9999.25 2925.19700    2.47500    2.76600   -9999.25    0.11600 2610.23610    5.20600   -9999.25   -9999.25   -9999.25   11.71700    5.37200   17.48700    5.08800   88.23000
 7394.50000   -9999.25 2925.19700    2.47500    2.76600   -9999.25    0.11600 2610.23610    5.30400   -9999.25   -9999.25   -9999.25   11.57700    5.47100   17.25700    5.25200   85.35600
 7395.00000   -9999.25 2925.19700    2.47500    2.87400   -9999.25    0.11600 2610.23610    5.40200   -9999.25   -9999.25   -9999.25   11.55600    5.67300   16.85300    5.39400   84.41500
 7395.50000   -9999.25 2925.19700    2.47500    2.97200   -9999.25    0.11600 2610.23610    5.50000   -9999.25   -9999.25   -9999.25   11.56500    5.82900   16.54100    5.53700   84.32700
 7396.00000   -9999.25 2925.19700    2.46700    3.01900    0.26400    0.11400 2610.23610    5.59800   -9999.25   -9999.25   -9999.25   11.57900    6.26200   17.56700    5.67900   84.21100
 7396.50000   -9999.25 2925.19700    2.42100    2.94500    0.28300    0.11000 2610.23610    5.69600   -9999.25   -9999.25   -9999.25   11.61800    6.69500   17.78500    5.82100   82.60500
 7397.00000   -9999.25 2925.19700    2.32300    2.87200    0.28600    0.10000 2610.23610    5.77600   -9999.25   -9999.25   -9999.25   11.66300    7.05100   17.08500    5.94700   81.44000
 7397.50000   -9999.25 2929.53390    2.33000    2.83900    0.27900    0.09300 2610.23610    5.89700   -9999.25   -9999.25   -9999.25   11.70000    6.93100   16.46300    6.06000   81.78500
 7398.00000   -9999.25 2925.19700    2.24500    2.75200    0.24900    0.06000 2610.23610    6.05300   -9999.25   -9999.25   -9999.25   11.73600    6.77600   15.82300    6.17300   84.20700
 7398.50000   -9999.25 2925.19700    2.19200    2.68900    0.24000    0.06400 2610.23610    6.21100   -9999.25   -9999.25   -9999.25   11.58900    6.55800   15.20100    6.28600   87.52900
 7399.00000   -9999.25 2925.19700    2.23800    2.61600    0.23900    0.08400 2610.23610    6.15700   -9999.25   -9999.25   -9999.25   11.44800    6.65000   15.26100    6.39900   89.06400
 7399.50000   -9999.25 2925.19700    2.28100    2.54700    0.24400    0.10600 2610.23610    6.06600   -9999.25   -9999.25   -9999.25   11.41100    6.80700   15.34400    6.51300   87.60400
 7400.00000   -9999.25 2925.19700    2.32400    2.46600    0.25100    0.12000 2610.23610    5.97500   -9999.25   -9999.25   -9999.25   11.73700    6.96400   15.45700    6.55800   85.63600
 7400.50000   -9999.25 2925.19700    2.36700    2.47200    0.25200    0.12800 2610.23610    5.88400   -9999.25   -9999.25   -9999.25   12.00800    7.18000   15.54800    6.48100   83.54000
 7401.00000   -9999.25 2925.19700    2.39500    2.59900    0.25400    0.13900 2610.23610    5.77600   -9999.25   -9999.25   -9999.25   12.30400    6.91300   15.64900    6.41600   83.03400
 7401.50000   -9999.25 2925.19700    2.39000    2.71100    0.25600    0.14800 2610.23610    5.77600   -9999.25   -9999.25   -9999.25   12.58500    6.32500   15.74700    6.35200   84.02200
 7402.00000   -9999.25 2925.19700    2.38400    2.83300    0.25500    0.16800 2610.23610    5.77600   -9999.25   -9999.25   -9999.25   12.86800    6.34100   15.84700    6.28700   84.11100
 7402.50000   -9999.25 2937.00810    2.39100    2.83400    0.24400    0.18100 2610.23610    5.88200   -9999.25   -9999.25   -9999.25   13.18400    6.40600   15.93900    6.22300   83.38500
