~Version ---------------------------------------------------
VERS.   2.0 : CWLS log ASCII Standard -VERSION 2.0
WRAP.    NO : One line per depth step
DLM . SPACE : Column Data Section Delimiter
~Well ------------------------------------------------------
STRT .F                 3554.5 : START DEPTH
STOP .F                12582.0 : STOP DEPTH
STEP .F                    0.5 : STEP
NULL .                -9999.25 : NULL VALUE
COMP .                         : COMPANY
WELL .                         : WELL
FLD  .                         : FIELD
LOC  .                         : LOCATION
PROV .                         : PROVINCE
CNTY .                         : COUNTY
STAT .                         : STATE
CTRY .                         : COUNTRY
SRVC .                         : SERVICE COMPANY
DATE .                         : DATE
UWI  .                         : UNIQUE WELL ID
API  .                         : API NUMBER
SLAT .WGS84  5.986212384306398 : SURFACE LATITUDE
SLON .WGS84 4.1205887986095036 : SURFACE LONGITUDE
DATUM.F                2057.64 : DEPTH DATUM ELEV
~Curve Information -----------------------------------------
DEPT.F     : 
CILD.MMHO  : CONDUCTIVITY INDUCTION LOG DEEP
TEND.LBS   : TENSION FROM DENSITY LOG
RHOB.G/C3  : BULK DENSITY
PEF .B/E   : PHOTOELECTRIC FACTOR
NPHI.DEC   : NEUTRON POROSITY SANDSTONE
DRHO.G/C3  : DENSITY CORRECTION
TENR.LBS   : TENSION FROM RESISTIVITY
ILM .OHMM  : INDUCTION LOG MEDIUM RESISTIVITY
DTCO.US/F  : ACOUSTIC TRANSIT TIME SLOWNESS, DELTA T
DTSM.US/F  : SHEAR-WAVE INTERVAL TRANSIT TIME DELTA-T
TENS.LBS   : TENSION FROM SONIC
CALD.IN    : CALIPER FROM DENSITY LOG
SFLU.OHMM  : PHERICALLY FOCUSED LOG
SPR .MV    : SPONTANEOUS POTENTIAL
ILD .OHMM  : DEEP INDUCTION RESISTIVITY
GRR .GAPI  : GAMMA RAY
~Params ----------------------------------------------------
~Other -----------------------------------------------------
~ASCII -----------------------------------------------------
# ...
 8478.00000   -9999.25 3200.78710    2.16600    2.52900    0.34100    0.05000 2789.55490    5.92100   -9999.25   -9999.25   -9999.25   11.85300    7.36400   18.36200    6.72400  110.92300
 8478.50000   -9999.25 3200.78710    2.09100    2.52300    0.38700    0.05600 2790.19900    5.92100   -9999.25   -9999.25   -9999.25   12.14500    7.36400   17.73100    6.73400  113.61400
 8479.00000   -9999.25 3200.78710    2.08300    2.50000    0.38700    0.05000 2790.84300    5.99500   -9999.25   -9999.25   -9999.25   12.11100    7.04800   18.02500    6.74400  117.06300
 8479.50000   -9999.25 3200.78710    2.19800    2.49100    0.36000    0.04500 2791.48610    6.06500   -9999.25   -9999.25   -9999.25   12.11800    6.60300   18.14900    6.75500  118.93200
 8480.00000   -9999.25 3200.78710    2.34900    2.50100    0.30100    0.05100 2792.12990    6.13500   -9999.25   -9999.25   -9999.25   11.98200    6.83000   18.33500    6.76600  120.31200
 8480.50000   -9999.25 3188.30100    2.35400    2.53800    0.29100    0.06200 2792.77390    6.20400   -9999.25   -9999.25   -9999.25   11.71900    7.04100   18.51200    6.77700  121.90700
 8481.00000   -9999.25 3174.12790    2.31200    2.55000    0.28500    0.05500 2793.41800    6.27400   -9999.25   -9999.25   -9999.25   11.68500    7.25200   18.68000    6.78700  121.77300
 8481.50000   -9999.25 3159.95510    2.25600    2.55200    0.27900    0.05100 2794.06200    6.34400   -9999.25   -9999.25   -9999.25   11.90300    7.46300   18.85700    6.79800  120.67300
 8482.00000   -9999.25 3145.78200    2.20100    2.55900    0.28900    0.04800 2794.70610    6.41400   -9999.25   -9999.25   -9999.25   11.97200    7.77600   19.02900    6.80900  119.75300
 8482.50000   -9999.25 3131.60890    2.16700    2.56700    0.32500    0.04500 2795.35010    6.48400   -9999.25   -9999.25   -9999.25   11.94200    7.63500   19.20200    6.81900  118.76100
 8483.00000   -9999.25 3117.43510    2.15400    2.57000    0.30800    0.04500 2795.99390    6.55300   -9999.25   -9999.25   -9999.25   11.91300    7.23100   19.37700    6.83000  117.73700
 8483.50000   -9999.25 3103.26200    2.15800    2.59500    0.30100    0.04600 2796.63700    6.62300   -9999.25   -9999.25   -9999.25   11.91800    7.29200   19.54700    6.84100  116.66300
 8484.00000   -9999.25 3089.08910    2.22300    2.62300    0.29800    0.04800 2797.28100    6.69300   -9999.25   -9999.25   -9999.25   11.96200    7.40700   19.72700    6.87100  114.32300
 8484.50000   -9999.25 3112.31200    2.27100    2.65100    0.29400    0.05600 2797.92500    6.72400   -9999.25   -9999.25   -9999.25   12.00100    7.52100   19.89300    6.93800  111.65300
 8485.00000   -9999.25 3166.42800    2.39900    2.68000    0.28900    0.07100 2798.56910    6.72400   -9999.25   -9999.25   -9999.25   12.07600    7.63600   20.05600    7.00600  108.43300
 8485.50000   -9999.25 3220.54390    2.42200    2.71200    0.28300    0.08600 2799.21290    6.72400   -9999.25   -9999.25   -9999.25   12.18100    7.75000   19.89500    7.07300  111.49000
 8486.00000   -9999.25 3274.65990    2.44800    2.68100    0.27500    0.10000 2799.85690    6.72400   -9999.25   -9999.25   -9999.25   12.29200    7.98800   19.71400    7.14100  118.50100
 8486.50000   -9999.25 3318.89790    2.42200    2.56800    0.27400    0.11100 2800.50100    6.72400   -9999.25   -9999.25   -9999.25   12.24700    8.21200   19.52000    7.20800  125.86700
 8487.00000   -9999.25 3336.94700    2.39700    2.66200    0.27300    0.10000 2801.14500    6.72400   -9999.25   -9999.25   -9999.25   12.02300    7.92600   19.33700    7.27600  129.68800
 8487.50000   -9999.25 3352.21090    2.37500    2.87700    0.26000    0.08800 2801.78910    6.75800   -9999.25   -9999.25   -9999.25   11.79600    7.63600   19.14800    7.34300  127.80500
 8488.00000   -9999.25 3367.47410    2.40300    3.12200    0.24400    0.08500 2802.43190    6.81400   -9999.25   -9999.25   -9999.25   11.65500    7.88100   18.96100    7.41100  121.98800
 8488.50000   -9999.25 3382.73800    2.43300    3.37400    0.27000    0.08000 2803.07590    6.86900   -9999.25   -9999.25   -9999.25   11.66900    8.18600   18.77600    7.47800  121.11600
 8489.00000   -9999.25 3397.63790    2.41500    3.12000    0.29600    0.07800 2803.72000    6.92500   -9999.25   -9999.25   -9999.25   11.65400    8.36200   18.58100    7.54600  122.34000
 8489.50000   -9999.25 3346.85010    2.38700    2.84200    0.31700    0.07500 2804.36400    6.98100   -9999.25   -9999.25   -9999.25   11.64400    7.91900   18.56200    7.61300  123.80100
 8490.00000   -9999.25 3297.24390    2.38200    2.71800    0.30000    0.07400 2805.00810    7.03700   -9999.25   -9999.25   -9999.25   11.63100    7.91900   18.77500    7.68100  125.07800
 8490.50000   -9999.25 3247.63790    2.44100    2.67400    0.29800    0.08200 2805.65210    7.10100   -9999.25   -9999.25   -9999.25   11.62300    7.98500   18.97700    7.74800  122.02200
 8491.00000   -9999.25 3200.78710    2.54100    2.79800    0.26000    0.11200 2806.29590    7.21800   -9999.25   -9999.25   -9999.25   11.55500    8.25600   19.18600    7.81600  119.40300
 8491.50000   -9999.25 3200.78710    2.60900    2.91200    0.23500    0.12500 2806.93990    7.35500   -9999.25   -9999.25   -9999.25   11.49800    8.52700   19.39200    7.88300  116.58400
 8492.00000   -9999.25 3204.10600    2.63600    3.02200    0.23200    0.13900 2807.58400    7.49200   -9999.25   -9999.25   -9999.25   11.41700    8.79700   19.60100    7.91900  116.49000
 8492.50000   -9999.25 3211.19190    2.62500    3.11800    0.23400    0.13300 2808.22710    7.62900   -9999.25   -9999.25   -9999.25   11.41100    9.00000   19.80500    7.91900  117.56600
 8493.00000   -9999.25 3218.27910    2.58500    3.16700    0.24100    0.11500 2808.87110    7.76600   -9999.25   -9999.25   -9999.25   11.39100    9.02800   20.01100    7.97700  118.68600
 8493.50000   -9999.25 3225.36600    2.54600    3.10900    0.24800    0.09800 2809.51490    7.90300   -9999.25   -9999.25   -9999.25   11.37500    9.05600   20.12100    8.04300  118.75500
 8494.00000   -9999.25 3232.45190    2.50500    2.99100    0.25500    0.08200 2810.15890    8.04000   -9999.25   -9999.25   -9999.25   11.35900    9.08300   20.24600    8.10800  119.93000
 8494.50000   -9999.25 3240.15700    2.46400    2.83000    0.26000    0.07100 2810.80300    8.17700   -9999.25   -9999.25   -9999.25   11.34000    9.11100   20.37900    8.17400  121.16600
 8495.00000   -9999.25 3229.92090    2.44500    2.76100    0.25700    0.06200 2811.44700    8.31400   -9999.25   -9999.25   -9999.25   11.29600    9.13900   20.50900    8.24000  121.82900
 8495.50000   -9999.25 3210.07910    2.47400    2.77400    0.24700    0.05200 2811.47000    8.51600   -9999.25   -9999.25   -9999.25   11.25000    9.30000   20.63500    8.30600  124.14200
 8496.00000   -9999.25 3200.78710    2.51500    2.90400    0.23400    0.04500 2810.20700    8.48200   -9999.25   -9999.25   -9999.25   11.20700    9.73900   20.79300    8.36300  127.34200
 8496.50000   -9999.25 3200.78710    2.55600    3.05300    0.22500    0.03300 2808.94310    8.42000   -9999.25   -9999.25   -9999.25   11.16100   10.02800   20.71200    8.33200  131.87800
 8497.00000   -9999.25 3200.78710    2.57800    3.16900    0.22400    0.02700 2807.67990    8.35700   -9999.25   -9999.25   -9999.25   11.19100   10.02800   20.22800    8.29100  129.82800
 8497.50000   -9999.25 3200.78710    2.57600    3.15000    0.22500    0.02300 2806.41700    8.29500   -9999.25   -9999.25   -9999.25   11.22500   10.02800   19.77800    8.24900  123.45900
 8498.00000   -9999.25 3200.78710    2.55200    3.07700    0.22600    0.02000 2805.15410    8.23200   -9999.25   -9999.25   -9999.25   11.26200   10.02800   19.31100    8.20800  118.52700
 8498.50000   -9999.25 3200.78710    2.52800    3.00300    0.23000    0.01700 2803.88990    8.17000   -9999.25   -9999.25   -9999.25   11.29900    9.92600   18.84600    8.16600  113.73000
 8499.00000   -9999.25 3200.78710    2.50400    2.92500    0.23800    0.02400 2802.62700    8.10700   -9999.25   -9999.25   -9999.25   11.31100    9.65200   18.39600    8.12500  113.91700
