~Version ---------------------------------------------------
VERS.   2.0 : CWLS log ASCII Standard -VERSION 2.0
WRAP.    NO : One line per depth step
DLM . SPACE : Column Data Section Delimiter
~Well ------------------------------------------------------
STRT .F                 3554.5 : START DEPTH
STOP .F                12582.0 : STOP DEPTH
STEP .F                    0.5 : STEP
NULL .                -9999.25 : NULL VALUE
COMP .                         : COMPANY
WELL .                         : WELL
FLD  .                         : FIELD
LOC  .                         : LOCATION
PROV .                         : PROVINCE
CNTY .                         : COUNTY
STAT .                         : STATE
CTRY .                         : COUNTRY
SRVC .                         : SERVICE COMPANY
DATE .                         : DATE
UWI  .                         : UNIQUE WELL ID
API  .                         : API NUMBER
SLAT .WGS84  5.986212384306398 : SURFACE LATITUDE
SLON .WGS84 4.1205887986095036 : SURFACE LONGITUDE
DATUM.F                2057.64 : DEPTH DATUM ELEV
~Curve Information -----------------------------------------
DEPT.F     : 
CILD.MMHO  : CONDUCTIVITY INDUCTION LOG DEEP
TEND.LBS   : TENSION FROM DENSITY LOG
RHOB.G/C3  : BULK DENSITY
PEF .B/E   : PHOTOELECTRIC FACTOR
NPHI.DEC   : NEUTRON POROSITY SANDSTONE
DRHO.G/C3  : DENSITY CORRECTION
TENR.LBS   : TENSION FROM RESISTIVITY
ILM .OHMM  : INDUCTION LOG MEDIUM RESISTIVITY
DTCO.US/F  : ACOUSTIC TRANSIT TIME SLOWNESS, DELTA T
DTSM.US/F  : SHEAR-WAVE INTERVAL TRANSIT TIME DELTA-T
TENS.LBS   : TENSION FROM SONIC
CALD.IN    : CALIPER FROM DENSITY LOG
SFLU.OHMM  : PHERICALLY FOCUSED LOG
SPR .MV    : SPONTANEOUS POTENTIAL
ILD .OHMM  : DEEP INDUCTION RESISTIVITY
GRR .GAPI  : GAMMA RAY
~Params ----------------------------------------------------
~Other -----------------------------------------------------
~ASCII -----------------------------------------------------
# ...
 10133.50000   -9999.25 3562.75610    2.63000    3.84400    0.23800    0.01300 3201.54200    5.57600   -9999.25   -9999.25   -9999.25    9.85700    6.06900   17.47400    5.79100  118.18100
 10134.00000   -9999.25 3515.74800    2.62800    3.99700    0.22400    0.00200 3202.22610    6.04900   -9999.25   -9999.25   -9999.25    9.85600    6.93700   17.53400    6.18100  120.17800
 10134.50000   -9999.25 3515.74800    2.63000    4.16000    0.21200    0.00000 3202.90990    6.52200   -9999.25   -9999.25   -9999.25    9.85300    7.80500   17.59400    6.57000  116.88900
 10135.00000   -9999.25 3640.85690    2.63100    4.09000    0.20700    0.00000 3203.59500    6.99500   -9999.25   -9999.25   -9999.25    9.85100    8.57700   17.65300    6.96000  109.37100
 10135.50000   -9999.25 3762.59790    2.63300    3.96000    0.20300    0.00000 3204.27910    7.46800   -9999.25   -9999.25   -9999.25    9.84900    9.17600   17.71400    7.34900   99.58500
 10136.00000   -9999.25 3884.33910    2.63400    3.87200    0.19800   -0.00100 3204.96410    7.94100   -9999.25   -9999.25   -9999.25    9.84700    9.77600   17.73600    7.73900   92.24600
 10136.50000   -9999.25 3925.39400    2.64100    3.93900    0.18500   -0.00100 3205.64790    8.41400   -9999.25   -9999.25   -9999.25    9.84400   10.18300   17.73400    8.12800   87.08500
 10137.00000   -9999.25 3875.59110    2.64900    4.03500    0.18100   -0.00100 3206.33200    8.51600   -9999.25   -9999.25   -9999.25    9.84200   10.45000   17.73400    8.31300   88.40000
 10137.50000   -9999.25 3825.78710    2.64500    3.99300    0.17700   -0.00200 3207.01710    8.51600   -9999.25   -9999.25   -9999.25    9.84000   10.71700   17.73500    8.57300   92.35300
 10138.00000   -9999.25 3775.98390    2.64000    3.95500    0.17100   -0.00200 3207.70090    8.44700   -9999.25   -9999.25   -9999.25    9.83700   10.98200   17.73300    8.83100   96.61000
 10138.50000   -9999.25 3726.18090    2.63600    3.91400    0.17300   -0.00200 3208.38500    8.27600   -9999.25   -9999.25   -9999.25    9.83500   10.46000   17.73400    8.25200  104.50500
 10139.00000   -9999.25 3673.22800    2.63200    3.86700    0.17700   -0.00200 3209.07010    8.10600   -9999.25   -9999.25   -9999.25    9.83300    9.94200   17.67600    7.91900  102.54100
 10139.50000   -9999.25 3665.45290    2.62900    3.83200    0.18100   -0.00200 3209.75390    7.93500   -9999.25   -9999.25   -9999.25    9.83000    9.42400   17.59200    7.81500   97.90300
 10140.00000   -9999.25 3657.15210    2.62500    3.79200    0.18800   -0.00300 3210.43900    7.76500   -9999.25   -9999.25   -9999.25    9.82800    8.90600   17.50900    7.71300   93.33100
 10140.50000   -9999.25 3648.85210    2.62200    3.78200    0.19500   -0.00300 3211.12300    7.64400   -9999.25   -9999.25   -9999.25    9.82600    8.51600   17.42700    7.63600   92.70600
 10141.00000   -9999.25 3640.55100    2.61800    3.76200    0.19700   -0.00300 3211.80690    7.67600   -9999.25   -9999.25   -9999.25    9.82400    8.66800   17.34500    7.63600   94.50300
 10141.50000   -9999.25 3632.25100    2.61400    3.74300    0.19900   -0.00300 3212.49190    7.70800   -9999.25   -9999.25   -9999.25    9.82400    9.00400   17.26300    7.63600   97.69200
 10142.00000   -9999.25 3623.95000    2.61000    3.69300    0.20300   -0.00400 3213.17600    7.74000   -9999.25   -9999.25   -9999.25    9.82300    9.34000   17.18000    7.63600  102.95800
 10142.50000   -9999.25 3615.64990    2.60600    3.68000    0.20500   -0.00400 3213.86010    7.77600   -9999.25   -9999.25   -9999.25    9.82400    9.67600   17.09800    7.83200  109.21900
 10143.00000   -9999.25 3607.34910    2.60900    3.69200    0.19900   -0.00400 3214.54490    8.07600   -9999.25   -9999.25   -9999.25    9.82400   10.01200   17.01600    8.12200  115.71700
 10143.50000   -9999.25 3599.04910    2.61300    3.69800    0.19400   -0.00400 3215.22900    8.41700   -9999.25   -9999.25   -9999.25    9.82400   10.34800   16.93300    8.41200  116.71200
 10144.00000   -9999.25 3594.48800    2.61700    3.71000    0.18800   -0.00500 3215.91410    8.99300   -9999.25   -9999.25   -9999.25    9.82400   10.68400   16.85100    8.67200  113.85700
 10144.50000   -9999.25 3594.48800    2.62500    3.72800    0.18400   -0.00500 3216.59790    8.95700   -9999.25   -9999.25   -9999.25    9.82400   11.02000   16.76900    8.99300  112.14100
 10145.00000   -9999.25 3594.48800    2.62900    3.72100    0.18400   -0.00500 3217.28200    8.84100   -9999.25   -9999.25   -9999.25    9.82400   11.18300   16.68600    8.85600  113.17400
 10145.50000   -9999.25 3594.48800    2.62500    3.79500    0.18500   -0.00500 3217.96700    8.67200   -9999.25   -9999.25   -9999.25    9.82400   10.98200   16.60400    8.70500  114.02000
 10146.00000   -9999.25 3594.48800    2.62100    3.87200    0.18600   -0.00600 3218.65090    8.69400   -9999.25   -9999.25   -9999.25    9.82400   10.70300   16.52200    8.55500  112.34700
 10146.50000   -9999.25 3594.48800    2.61600    3.70600    0.19100   -0.00600 3219.33500    8.73700   -9999.25   -9999.25   -9999.25    9.82400   10.40300   16.43900    8.81100  110.26900
 10147.00000   -9999.25 3594.48800    2.61100    3.42700    0.19800   -0.00400 3220.02000    8.78000   -9999.25   -9999.25   -9999.25    9.82400   10.10200   16.35700    9.01200  107.27700
 10147.50000   -9999.25 3594.48800    2.60800    3.35000    0.20500   -0.00300 3220.70410    8.82200   -9999.25   -9999.25   -9999.25    9.82400    9.84800   16.27600    9.04600  102.75200
 10148.00000   -9999.25 3594.48800    2.60600    3.35000    0.20500   -0.00200 3221.38890    8.86500   -9999.25   -9999.25   -9999.25    9.82400   10.59300   16.19100    9.08100  102.45700
 10148.50000   -9999.25 3594.48800    2.60000    3.33600    0.20500   -0.00200 3222.07300    8.90700   -9999.25   -9999.25   -9999.25    9.82400   11.38800   16.20200    9.11600  100.73400
 10149.00000   -9999.25 3594.48800    2.59300    3.39700    0.20200   -0.00200 3222.75710    8.95000   -9999.25   -9999.25   -9999.25    9.82400   11.43900   16.29300    9.15000  101.02600
 10149.50000   -9999.25 3594.48800    2.58600    3.52000    0.19800   -0.00200 3223.44190    8.99300   -9999.25   -9999.25   -9999.25    9.82400   11.52700   16.38000    9.40400  101.56600
 10150.00000   -9999.25 3612.94310    2.57900    3.38200    0.20600   -0.00400 3224.12600    9.49600   -9999.25   -9999.25   -9999.25    9.82400   11.59700   16.46800    9.71800  103.71100
 10150.50000   -9999.25 3631.61890    2.57200    3.24800    0.21400   -0.00600 3224.81010   10.25800   -9999.25   -9999.25   -9999.25    9.82400   13.34400   16.55600   10.03100  100.55400
 10151.00000   -9999.25 3650.29490    2.57400    3.20700    0.21900   -0.00800 3225.49510   10.21200   -9999.25   -9999.25   -9999.25    9.82400   14.80100   16.64400   10.39900   97.28400
 10151.50000   -9999.25 3668.97090    2.57500    3.35700    0.21700   -0.01000 3226.17900    9.94700   -9999.25   -9999.25   -9999.25    9.82400   16.25800   16.73200   10.13000   95.40400
 10152.00000   -9999.25 3687.64790    2.57500    3.58200    0.21400   -0.01200 3226.86400    9.62700   -9999.25   -9999.25   -9999.25    9.82400   17.93500   16.82000    9.80300   97.66800
 10152.50000   -9999.25 3706.32400    2.57200    3.63400    0.21500   -0.01400 3227.54810    9.32500   -9999.25   -9999.25   -9999.25    9.82400   16.34300   16.90900    9.49600  104.46300
 10153.00000   -9999.25 3696.06300    2.57200    3.57300    0.21600   -0.01600 3228.23190    9.23100   -9999.25   -9999.25   -9999.25    9.82400   14.25000   16.99700    8.99300  113.29000
 10153.50000   -9999.25 3671.16090    2.57400    3.47900    0.21500   -0.01700 3228.91700    9.14100   -9999.25   -9999.25   -9999.25    9.82400   12.15600   17.08500    8.98000  114.39300
 10154.00000   -9999.25 3646.26000    2.57000    3.47300    0.21300   -0.01400 3229.60110    9.05200   -9999.25   -9999.25   -9999.25    9.82400    9.84800   17.17200    8.95500  111.22100
 10154.50000   -9999.25 3621.35790    2.56400    3.55100    0.21200   -0.01200 3230.28490    8.96300   -9999.25   -9999.25   -9999.25    9.82400   10.37300   17.26100    8.92900  106.85300
