~Version ---------------------------------------------------
VERS.   2.0 : CWLS log ASCII Standard -VERSION 2.0
WRAP.    NO : One line per depth step
DLM . SPACE : Column Data Section Delimiter
~Well ------------------------------------------------------
STRT .F                 3554.5 : START DEPTH
STOP .F                12582.0 : STOP DEPTH
STEP .F                    0.5 : STEP
NULL .                -9999.25 : NULL VALUE
COMP .                         : COMPANY
WELL .                         : WELL
FLD  .                         : FIELD
LOC  .                         : LOCATION
PROV .                         : PROVINCE
CNTY .                         : COUNTY
STAT .                         : STATE
CTRY .                         : COUNTRY
SRVC .                         : SERVICE COMPANY
DATE .                         : DATE
UWI  .                         : UNIQUE WELL ID
API  .                         : API NUMBER
SLAT .WGS84  5.986212384306398 : SURFACE LATITUDE
SLON .WGS84 4.1205887986095036 : SURFACE LONGITUDE
DATUM.F                2057.64 : DEPTH DATUM ELEV
~Curve Information -----------------------------------------
DEPT.F     : 
CILD.MMHO  : CONDUCTIVITY INDUCTION LOG DEEP
TEND.LBS   : TENSION FROM DENSITY LOG
RHOB.G/C3  : BULK DENSITY
PEF .B/E   : PHOTOELECTRIC FACTOR
NPHI.DEC   : NEUTRON POROSITY SANDSTONE
DRHO.G/C3  : DENSITY CORRECTION
TENR.LBS   : TENSION FROM RESISTIVITY
ILM .OHMM  : INDUCTION LOG MEDIUM RESISTIVITY
DTCO.US/F  : ACOUSTIC TRANSIT TIME SLOWNESS, DELTA T
DTSM.US/F  : SHEAR-WAVE INTERVAL TRANSIT TIME DELTA-T
TENS.LBS   : TENSION FROM SONIC
CALD.IN    : CALIPER FROM DENSITY LOG
SFLU.OHMM  : PHERICALLY FOCUSED LOG
SPR .MV    : SPONTANEOUS POTENTIAL
ILD .OHMM  : DEEP INDUCTION RESISTIVITY
GRR .GAPI  : GAMMA RAY
~Params ----------------------------------------------------
~Other -----------------------------------------------------
~ASCII -----------------------------------------------------
# ...
 8048.00000   -9999.25 3063.42210    2.66200    3.18000    0.17000    0.00600 2807.08690   11.09400   -9999.25   -9999.25   -9999.25   11.29100   12.17700   20.52800   11.11700   83.54300
 8048.50000   -9999.25 3054.36600    2.66200    3.26600    0.17300    0.00400 2807.08690   10.90300   -9999.25   -9999.25   -9999.25   11.24000   12.10100   20.71700   10.91100   85.99700
 8049.00000   -9999.25 3045.31100    2.66100    3.21300    0.17600    0.00400 2807.08690   10.71200   -9999.25   -9999.25   -9999.25   11.19800   12.04000   20.71400   10.50800   86.03700
 8049.50000   -9999.25 3045.98190    2.66000    3.15300    0.17800   -0.00100 2807.08690   10.52100   -9999.25   -9999.25   -9999.25   11.15600   11.97800   20.55700   10.40800   86.63800
 8050.00000   -9999.25 3049.41600    2.66000    3.11600    0.18000   -0.00200 2807.08690   10.33000   -9999.25   -9999.25   -9999.25   11.11800   11.92900   20.42100   10.28100   88.17500
 8050.50000   -9999.25 3052.85110    2.65700    3.07800    0.18200   -0.00400 2807.08690   10.13900   -9999.25   -9999.25   -9999.25   11.08100   11.74500   20.28200   10.15400   89.56900
 8051.00000   -9999.25 3056.28590    2.65300    3.03500    0.18200   -0.00500 2807.08690    9.94800   -9999.25   -9999.25   -9999.25   11.06900   11.51600   20.14100   10.02700   88.87500
 8051.50000   -9999.25 3059.72000    2.64900    2.99600    0.18100   -0.00600 2807.08690    9.75700   -9999.25   -9999.25   -9999.25   11.04900   11.29800   20.00200    9.89900   88.12600
 8052.00000   -9999.25 3063.15500    2.64600    2.98300    0.18100   -0.00700 2807.08690    9.56600   -9999.25   -9999.25   -9999.25   11.03100   10.67800   19.86200    9.77200   88.30300
 8052.50000   -9999.25 3066.59010    2.64300    2.97500    0.18200   -0.00800 2807.08690    9.37500   -9999.25   -9999.25   -9999.25   11.01300   10.13300   19.72200    9.64500   90.91400
 8053.00000   -9999.25 3070.02390    2.65000    3.04700    0.18700   -0.00800 2807.08690    9.18400   -9999.25   -9999.25   -9999.25   11.00100   10.13300   19.58200    9.51800   92.23800
 8053.50000   -9999.25 3073.45900    2.65600    3.15800    0.19000   -0.00900 2807.08690    9.08900   -9999.25   -9999.25   -9999.25   11.00400   10.32900   19.44200    9.39100   91.91500
 8054.00000   -9999.25 3076.89400    2.65800    3.27100    0.18700   -0.01000 2807.08690    9.08900   -9999.25   -9999.25   -9999.25   11.00600   10.54600   19.30200    9.25500   90.39500
 8054.50000   -9999.25 3080.32910    2.65700    3.28100    0.18000   -0.01100 2807.08690    9.08900   -9999.25   -9999.25   -9999.25   11.00900   10.76400   19.16300    9.25500   88.83900
 8055.00000   -9999.25 3083.76290    2.65700    3.29200    0.17300   -0.01200 2807.08690    9.08900   -9999.25   -9999.25   -9999.25   11.01200   10.98200   19.02000    9.67600   89.03700
 8055.50000   -9999.25 3087.19800    2.65500    3.29600    0.17600   -0.01200 2807.08690    9.08900   -9999.25   -9999.25   -9999.25   11.01400   11.20000   18.90300   10.04500   91.11700
 8056.00000   -9999.25 3090.63310    2.65200    3.28600    0.17900   -0.01400 2807.08690    9.67300   -9999.25   -9999.25   -9999.25   11.01700   11.41700   18.82400   10.41400   91.69900
 8056.50000   -9999.25 3094.06690    2.64900    3.26100    0.17600   -0.01200 2807.08690   10.17000   -9999.25   -9999.25   -9999.25   11.02000   11.50500   18.75400   10.78300   90.25700
 8057.00000   -9999.25 3097.50200    2.65300    3.25400    0.17300   -0.01000 2807.08690   10.66800   -9999.25   -9999.25   -9999.25   11.02300   11.78300   18.68400   11.15200   87.08700
 8057.50000   -9999.25 3100.93700    2.66000    3.26000    0.17000   -0.00800 2807.08690   11.16600   -9999.25   -9999.25   -9999.25   11.02500   12.01400   18.61400   11.52100   84.78900
 8058.00000   -9999.25 3104.37110    2.66600    3.24700    0.16700   -0.00600 2807.08690   11.66400   -9999.25   -9999.25   -9999.25   11.02800   12.24500   18.54400   11.89000   85.34200
 8058.50000   -9999.25 3107.80590    2.66600    3.13000    0.16500   -0.00400 2807.08690   12.16100   -9999.25   -9999.25   -9999.25   11.03100   12.47600   18.47400   12.25900   87.52000
 8059.00000   -9999.25 3111.24100    2.66900    2.93300    0.14700   -0.00200 2807.08690   12.65900   -9999.25   -9999.25   -9999.25   11.03400   12.59600   18.40400   12.59600   86.42500
 8059.50000   -9999.25 3114.67600    2.67700    2.97300    0.13000   -0.00200 2807.08690   13.15700   -9999.25   -9999.25   -9999.25   11.03600   16.44800   18.33400   13.00900   83.48100
 8060.00000   -9999.25 3118.11010    2.68300    3.04500    0.10700   -0.00200 2807.08690   13.65400   -9999.25   -9999.25   -9999.25   11.03900   19.99200   18.26400   13.38800   81.66000
 8060.50000   -9999.25 3122.04710    2.69200    3.11700    0.11700   -0.00200 2807.64400   13.82700   -9999.25   -9999.25   -9999.25   11.04200   24.19400   18.19300   13.79200   80.78100
 8061.00000   -9999.25 3109.89890    2.68800    3.19600    0.13500   -0.00200 2808.41310   13.93400   -9999.25   -9999.25   -9999.25   11.08200   22.40000   18.12500   13.65600   83.86800
 8061.50000   -9999.25 3095.66890    2.67800    3.22000    0.15200   -0.00200 2809.18190   14.04400   -9999.25   -9999.25   -9999.25   11.11700   19.09700   18.05100   13.40700   87.41300
 8062.00000   -9999.25 3081.43990    2.66900    3.21900    0.16400   -0.00200 2809.95190   13.83800   -9999.25   -9999.25   -9999.25   11.15200   13.79200   17.98000   13.15800   89.51800
 8062.50000   -9999.25 3067.21000    2.65900    3.21800    0.16500    0.00000 2810.72090   13.48000   -9999.25   -9999.25   -9999.25   11.19200   13.90700   17.77300   12.90900   90.00700
 8063.00000   -9999.25 3052.98100    2.65700    3.20000    0.15600    0.00000 2811.49000   13.12200   -9999.25   -9999.25   -9999.25   11.20700   14.20000   17.52000   12.66100   89.90500
 8063.50000   -9999.25 3038.75100    2.66400    3.12100    0.15800    0.00000 2812.25900   12.76400   -9999.25   -9999.25   -9999.25   11.23900   14.49200   17.27100   12.41200   88.92100
 8064.00000   -9999.25 3024.52200    2.67200    3.07500    0.16100    0.00000 2813.02810   12.40600   -9999.25   -9999.25   -9999.25   11.26700   14.82900   17.01800   12.16300   87.50400
 8064.50000   -9999.25 3010.29200    2.67800    3.01100    0.16600    0.00000 2813.79810   11.92900   -9999.25   -9999.25   -9999.25   11.29700   14.35200   16.77000   11.92900   86.77600
 8065.00000   -9999.25 3038.38600    2.67800    3.05300    0.17100    0.00100 2814.56690   11.96700   -9999.25   -9999.25   -9999.25   11.32700   13.79100   16.52300   12.00900   88.04800
 8065.50000   -9999.25 3100.63990    2.67000    3.11600    0.16900    0.00100 2815.33590   12.02200   -9999.25   -9999.25   -9999.25   11.35600   13.06100   16.24500   12.08300   90.19800
 8066.00000   -9999.25 3162.89400    2.66300    3.14500    0.17000    0.00100 2816.10500   12.07700   -9999.25   -9999.25   -9999.25   11.38600   13.17000   16.12100   12.15800   90.13900
 8066.50000   -9999.25 3161.41700    2.65500    3.42500    0.17400    0.00100 2816.87500   12.13300   -9999.25   -9999.25   -9999.25   11.41600   13.32400   16.28600   12.23300   88.03900
 8067.00000   -9999.25 3161.41700    2.65300    3.36100    0.18000    0.00200 2817.64400   12.14800   -9999.25   -9999.25   -9999.25   11.44500   13.47900   16.41100   12.30700   86.38500
 8067.50000   -9999.25 3161.41700    2.65200    3.24600    0.17800    0.00200 2818.41310   12.14800   -9999.25   -9999.25   -9999.25   11.47500   13.63300   16.55800   12.37000   85.89800
 8068.00000   -9999.25 3161.41700    2.65200    2.98100    0.17400    0.00200 2819.18190   11.69600   -9999.25   -9999.25   -9999.25   11.50500   13.79200   16.70300   11.89100   86.32700
 8068.50000   -9999.25 3161.41700    2.65700    3.05300    0.17000    0.00200 2819.95190   11.06500   -9999.25   -9999.25   -9999.25   11.53300   14.27600   16.80900   11.47800   86.67500
 8069.00000   -9999.25 3161.41700    2.67400    3.46600    0.17300    0.00300 2820.72090   10.43500   -9999.25   -9999.25   -9999.25   11.57900   15.10000   17.04600   11.06500   87.23400
