~Version ---------------------------------------------------
VERS.   2.0 : CWLS log ASCII Standard -VERSION 2.0
WRAP.    NO : One line per depth step
DLM . SPACE : Column Data Section Delimiter
~Well ------------------------------------------------------
STRT .F                 3554.5 : START DEPTH
STOP .F                12582.0 : STOP DEPTH
STEP .F                    0.5 : STEP
NULL .                -9999.25 : NULL VALUE
COMP .                         : COMPANY
WELL .                         : WELL
FLD  .                         : FIELD
LOC  .                         : LOCATION
PROV .                         : PROVINCE
CNTY .                         : COUNTY
STAT .                         : STATE
CTRY .                         : COUNTRY
SRVC .                         : SERVICE COMPANY
DATE .                         : DATE
UWI  .                         : UNIQUE WELL ID
API  .                         : API NUMBER
SLAT .WGS84  5.986212384306398 : SURFACE LATITUDE
SLON .WGS84 4.1205887986095036 : SURFACE LONGITUDE
DATUM.F                2057.64 : DEPTH DATUM ELEV
~Curve Information -----------------------------------------
DEPT.F     : 
CILD.MMHO  : CONDUCTIVITY INDUCTION LOG DEEP
TEND.LBS   : TENSION FROM DENSITY LOG
RHOB.G/C3  : BULK DENSITY
PEF .B/E   : PHOTOELECTRIC FACTOR
NPHI.DEC   : NEUTRON POROSITY SANDSTONE
DRHO.G/C3  : DENSITY CORRECTION
TENR.LBS   : TENSION FROM RESISTIVITY
ILM .OHMM  : INDUCTION LOG MEDIUM RESISTIVITY
DTCO.US/F  : ACOUSTIC TRANSIT TIME SLOWNESS, DELTA T
DTSM.US/F  : SHEAR-WAVE INTERVAL TRANSIT TIME DELTA-T
TENS.LBS   : TENSION FROM SONIC
CALD.IN    : CALIPER FROM DENSITY LOG
SFLU.OHMM  : PHERICALLY FOCUSED LOG
SPR .MV    : SPONTANEOUS POTENTIAL
ILD .OHMM  : DEEP INDUCTION RESISTIVITY
GRR .GAPI  : GAMMA RAY
~Params ----------------------------------------------------
~Other -----------------------------------------------------
~ASCII -----------------------------------------------------
# ...
 11144.00000   -9999.25 3902.47090    2.60400    4.63500    0.21100    0.04900 3450.15890    4.99100   -9999.25   -9999.25   -9999.25    8.56800    5.92200    6.61000    5.08500  120.40600
 11144.50000   -9999.25 3899.03590    2.61100    4.53800    0.20800    0.05100 3450.70610    4.99400   -9999.25   -9999.25   -9999.25    8.52200    5.92200    6.41200    5.07000  118.92700
 11145.00000   -9999.25 3895.60110    2.61700    4.45500    0.20800    0.05200 3451.25200    4.99600   -9999.25   -9999.25   -9999.25    8.51800    5.92100    6.20600    5.05600  119.43400
 11145.50000   -9999.25 3892.16700    2.62200    4.30300    0.21100    0.05400 3451.79910    4.99900   -9999.25   -9999.25   -9999.25    8.50600    5.92100    6.00300    5.04200  120.09300
 11146.00000   -9999.25 3888.73190    2.62600    4.10300    0.21500    0.05600 3452.34590    5.00100   -9999.25   -9999.25   -9999.25    8.49300    5.92200    5.80000    5.02700  116.38300
 11146.50000   -9999.25 3885.29710    2.63000    3.95700    0.21900    0.05800 3452.89310    5.00400   -9999.25   -9999.25   -9999.25    8.53400    5.92300    5.59500    5.01300  113.72100
 11147.00000   -9999.25 3881.86300    2.63400    4.02800    0.21600    0.06000 3453.43990    5.00600   -9999.25   -9999.25   -9999.25    8.64400    5.92300    5.39400    4.99800  116.25700
 11147.50000   -9999.25 3878.42800    2.63300    4.18700    0.21300    0.06200 3453.98710    5.00900   -9999.25   -9999.25   -9999.25    8.62200    5.92300    5.18800    4.98400  118.46300
 11148.00000   -9999.25 3874.99290    2.62000    4.30700    0.21000    0.06400 3454.53390    5.01100   -9999.25   -9999.25   -9999.25    8.60600    5.83400    4.98600    4.97000  120.57200
 11148.50000   -9999.25 3871.55910    2.60900    4.18800    0.20800    0.06600 3455.08110    5.01400   -9999.25   -9999.25   -9999.25    8.58500    5.67500    4.78700    4.95600  117.56700
 11149.00000   -9999.25 3881.41700    2.60200    4.11100    0.20800    0.07000 3455.62790    5.01700   -9999.25   -9999.25   -9999.25    8.56500    5.60800    4.55900    4.94100  112.68400
 11149.50000   -9999.25 3901.33910    2.61500    4.10400    0.21100    0.07700 3456.17500    5.01900   -9999.25   -9999.25   -9999.25    8.54600    5.63800    4.53500    4.93700  111.12400
 11150.00000   -9999.25 3921.26000    2.62500    4.10400    0.21300    0.08300 3456.72190    5.02200   -9999.25   -9999.25   -9999.25    8.53000    5.66500    4.80400    4.93100  112.51000
 11150.50000   -9999.25 3941.18090    2.63600    4.10600    0.21500    0.09000 3457.26900    5.02400   -9999.25   -9999.25   -9999.25    8.55900    5.69100    5.04300    4.92500  115.83600
 11151.00000   -9999.25 3948.81910    2.63700    4.10300    0.21700    0.09700 3457.81590    5.02700   -9999.25   -9999.25   -9999.25    8.59600    5.71700    5.29000    4.91900  118.91500
 11151.50000   -9999.25 3948.81910    2.63900    4.06300    0.21900    0.10000 3458.36210    5.02800   -9999.25   -9999.25   -9999.25    8.63400    5.74300    5.53800    4.91300  121.17100
 11152.00000   -9999.25 3948.81910    2.63600    3.84500    0.22100    0.08700 3458.90890    5.02800   -9999.25   -9999.25   -9999.25    8.67100    5.76900    5.78400    4.90700  122.18900
 11152.50000   -9999.25 3948.81910    2.63100    3.78600    0.21700    0.07500 3459.45610    5.02800   -9999.25   -9999.25   -9999.25    8.70800    5.79600    6.03100    4.90000  123.61400
 11153.00000   -9999.25 3948.81910    2.63000    3.61800    0.21100    0.06600 3460.00290    5.02800   -9999.25   -9999.25   -9999.25    8.74600    5.81100    6.27700    4.89400  125.35300
 11153.50000   -9999.25 3948.81910    2.62900    3.55600    0.21300    0.05100 3460.55000    5.01200   -9999.25   -9999.25   -9999.25    8.78800    5.79500    6.52400    4.88800  128.96700
 11154.00000   -9999.25 3948.81910    2.62800    3.48900    0.21600    0.03600 3461.09690    4.99300   -9999.25   -9999.25   -9999.25    8.83900    5.77900    6.76900    4.88200  132.77000
 11154.50000   -9999.25 3948.81910    2.62700    3.44700    0.22100    0.01800 3461.64400    4.97400   -9999.25   -9999.25   -9999.25    8.84100    5.76300    7.02200    4.87500  133.65100
 11155.00000   -9999.25 3944.73610    2.63100    3.40600    0.22000    0.01100 3462.19090    4.95500   -9999.25   -9999.25   -9999.25    8.81600    5.74700    7.25400    4.86900  131.08100
 11155.50000   -9999.25 3941.04710    2.63300    3.35300    0.21700    0.00900 3462.73800    4.93600   -9999.25   -9999.25   -9999.25    8.79100    5.73100    7.50600    4.86300  128.25200
 11156.00000   -9999.25 3937.35790    2.63700    3.33800    0.21400    0.00800 3463.28490    4.91700   -9999.25   -9999.25   -9999.25    8.76600    5.71500    7.13700    4.85600  127.58700
 11156.50000   -9999.25 3933.66890    2.63700    3.36400    0.21400    0.00600 3463.83200    4.89900   -9999.25   -9999.25   -9999.25    8.74000    5.69900    6.50500    4.85000  125.38400
 11157.00000   -9999.25 3929.98000    2.63700    3.39200    0.21800    0.00300 3464.37890    4.88000   -9999.25   -9999.25   -9999.25    8.72400    5.68300    5.88400    4.82200  122.06100
 11157.50000   -9999.25 3926.29000    2.63500    3.36100    0.22200    0.00300 3464.92500    4.86100   -9999.25   -9999.25   -9999.25    8.72600    5.66700    5.27300    4.78500  118.65500
 11158.00000   -9999.25 3922.60110    2.63300    3.33400    0.22200    0.00200 3465.47190    4.84900   -9999.25   -9999.25   -9999.25    8.72500    5.65200    4.66100    4.74900  115.69800
 11158.50000   -9999.25 3918.91210    2.63100    3.30200    0.21900    0.00200 3466.01900    4.78100   -9999.25   -9999.25   -9999.25    8.72600    5.63600    4.00100    4.71300  113.17400
 11159.00000   -9999.25 3915.22290    2.63100    3.46900    0.22000    0.00200 3466.56590    4.71300   -9999.25   -9999.25   -9999.25    8.72800    5.62000    3.64200    4.67700  116.00200
 11159.50000   -9999.25 3911.53390    2.62900    3.68000    0.22400    0.00800 3467.11300    4.64500   -9999.25   -9999.25   -9999.25    8.77900    5.60700    3.68400    4.64100  120.33400
 11160.00000   -9999.25 3909.44900    2.60300    3.89300    0.23400    0.01300 3467.65990    4.57700   -9999.25   -9999.25   -9999.25    8.80300    5.53400    3.67200    4.60500  123.75400
 11160.50000   -9999.25 3909.44900    2.58000    4.12200    0.23500    0.03400 3468.20700    4.50900   -9999.25   -9999.25   -9999.25    8.75500    5.44600    3.67100    4.54600  121.69000
 11161.00000   -9999.25 3909.44900    2.57600    4.18300    0.23300    0.05400 3468.75390    4.44100   -9999.25   -9999.25   -9999.25    8.71100    5.35800    3.67400    4.47500  119.13500
 11161.50000   -9999.25 3909.44900    2.59100    4.05300    0.23200    0.07700 3469.30100    4.37300   -9999.25   -9999.25   -9999.25    8.66300    5.27000    3.67100    4.40400  122.74800
 11162.00000   -9999.25 3909.44900    2.60500    3.94300    0.23700    0.08800 3469.84790    4.30500   -9999.25   -9999.25   -9999.25    8.62000    5.18200    3.66800    4.33300  125.46800
 11162.50000   -9999.25 3909.44900    2.61500    3.82000    0.24800    0.10100 3470.39500    4.23700   -9999.25   -9999.25   -9999.25    8.57400    5.09200    3.68300    4.26100  127.90400
 11163.00000   -9999.25 3906.64890    2.61400    3.80000    0.24800    0.10700 3470.94190    4.16900   -9999.25   -9999.25   -9999.25    8.62900    4.99400    3.53100    4.19000  128.91600
 11163.50000   -9999.25 3901.11500    2.59200    3.88300    0.24700    0.11000 3471.48900    4.10100   -9999.25   -9999.25   -9999.25    8.69300    4.89600    3.20900    4.11900  128.28400
 11164.00000   -9999.25 3895.58200    2.57400    3.95000    0.24200    0.11300 3472.03490    4.03300   -9999.25   -9999.25   -9999.25    8.76000    4.79800    2.91000    4.04800  125.90200
 11164.50000   -9999.25 3890.04810    2.53700    3.89200    0.24400    0.11700 3472.58200    3.96500   -9999.25   -9999.25   -9999.25    8.82900    4.70000    2.60900    3.97700  123.40400
 11165.00000   -9999.25 3884.51390    2.51300    3.72100    0.25200    0.12100 3473.12890    3.89700   -9999.25   -9999.25   -9999.25    8.88300    4.60200    2.28600    3.90600  120.81600
