~Version ---------------------------------------------------
VERS.   2.0 : CWLS log ASCII Standard -VERSION 2.0
WRAP.    NO : One line per depth step
DLM . SPACE : Column Data Section Delimiter
~Well ------------------------------------------------------
STRT .F                 3554.5 : START DEPTH
STOP .F                12582.0 : STOP DEPTH
STEP .F                    0.5 : STEP
NULL .                -9999.25 : NULL VALUE
COMP .                         : COMPANY
WELL .                         : WELL
FLD  .                         : FIELD
LOC  .                         : LOCATION
PROV .                         : PROVINCE
CNTY .                         : COUNTY
STAT .                         : STATE
CTRY .                         : COUNTRY
SRVC .                         : SERVICE COMPANY
DATE .                         : DATE
UWI  .                         : UNIQUE WELL ID
API  .                         : API NUMBER
SLAT .WGS84  5.986212384306398 : SURFACE LATITUDE
SLON .WGS84 4.1205887986095036 : SURFACE LONGITUDE
DATUM.F                2057.64 : DEPTH DATUM ELEV
~Curve Information -----------------------------------------
DEPT.F     : 
CILD.MMHO  : CONDUCTIVITY INDUCTION LOG DEEP
TEND.LBS   : TENSION FROM DENSITY LOG
RHOB.G/C3  : BULK DENSITY
PEF .B/E   : PHOTOELECTRIC FACTOR
NPHI.DEC   : NEUTRON POROSITY SANDSTONE
DRHO.G/C3  : DENSITY CORRECTION
TENR.LBS   : TENSION FROM RESISTIVITY
ILM .OHMM  : INDUCTION LOG MEDIUM RESISTIVITY
DTCO.US/F  : ACOUSTIC TRANSIT TIME SLOWNESS, DELTA T
DTSM.US/F  : SHEAR-WAVE INTERVAL TRANSIT TIME DELTA-T
TENS.LBS   : TENSION FROM SONIC
CALD.IN    : CALIPER FROM DENSITY LOG
SFLU.OHMM  : PHERICALLY FOCUSED LOG
SPR .MV    : SPONTANEOUS POTENTIAL
ILD .OHMM  : DEEP INDUCTION RESISTIVITY
GRR .GAPI  : GAMMA RAY
~Params ----------------------------------------------------
~Other -----------------------------------------------------
~ASCII -----------------------------------------------------
# ...
 11488.00000   -9999.25 3905.69700    2.61100   -9999.25    0.17000   -0.02100 3565.35500   17.93500   70.02000  118.52900 3531.53490    8.41000   26.26500  -42.04400   16.78200   95.50500
 11488.50000   -9999.25 3905.69700    2.61500   -9999.25    0.16900   -0.02100 3565.88990   17.61200   70.02000  118.13100 3531.86210    8.41000   25.89100  -41.79400   16.37700   95.31100
 11489.00000   -9999.25 3905.69700    2.62100   -9999.25    0.16600   -0.02100 3566.42600   17.29500   70.02000  118.43300 3532.18900    8.41000   24.67500  -41.65600   16.91500   95.13800
 11489.50000   -9999.25 3905.69700    2.61900   -9999.25    0.16300   -0.02100 3566.96190   17.54700   69.62200  118.52900 3532.51490    8.41000   23.45800  -41.57700   17.50700   94.65900
 11490.00000   -9999.25 3905.69700    2.61500   -9999.25    0.16000   -0.02100 3567.49800   18.34700   69.62200  118.52900 3532.84200    8.41000   22.24100  -41.47700   18.09800   91.92000
 11490.50000   -9999.25 3905.69700    2.60500   -9999.25    0.15700   -0.02100 3568.03390   19.14700   69.62200  118.63200 3533.16890    8.41000   24.61000  -41.37800   18.26300   86.71800
 11491.00000   -9999.25 3905.69700    2.59600   -9999.25    0.15400   -0.02100 3568.56910   19.94700   69.62200  118.77400 3533.49610    8.41000   28.36500  -41.28300   18.26300   81.92000
 11491.50000   -9999.25 3905.69700    2.59300   -9999.25    0.15100   -0.02100 3569.10500   20.74700   69.62200  118.92600 3533.82200    8.41000   32.12000  -41.18500   18.26300   76.71200
 11492.00000   -9999.25 3905.69700    2.59500   -9999.25    0.14800   -0.02100 3569.64110   21.12000   69.71100  118.92600 3534.14890    8.41000   33.87100  -41.08800   18.26300   74.59100
 11492.50000   -9999.25 3905.69700    2.60400   -9999.25    0.15200   -0.02100 3570.17700   21.50700   69.87700  119.89100 3534.47610    8.41000   30.20800  -40.99100   18.26300   78.01100
 11493.00000   -9999.25 3905.69700    2.61200   -9999.25    0.15600   -0.02100 3570.71290   20.38400   70.02000  120.11900 3534.80200    8.41000   26.98200  -40.89300   18.26300   84.82000
 11493.50000   -9999.25 3905.69700    2.61800   -9999.25    0.16000   -0.02100 3571.24900   19.18800   70.59000  120.51700 3535.12890    8.41000   23.75600  -40.79600   18.26300   91.12600
 11494.00000   -9999.25 3905.69700    2.62100   -9999.25    0.16400   -0.02100 3571.78390   17.99300   70.54100  120.51700 3535.45610    8.41000   22.30300  -40.69900   17.41800   94.51200
 11494.50000   -9999.25 3905.69700    2.62500   -9999.25    0.16600   -0.02100 3572.32010   16.79800   70.04200  120.32900 3535.78300    8.41000   21.61900  -40.60200   16.52600   93.31900
 11495.00000   -9999.25 3905.69700    2.62800   -9999.25    0.16200   -0.02100 3572.85600   15.79300   69.54300  120.11900 3536.10890    8.41000   21.12000  -40.50500   15.63300   89.63500
 11495.50000   -9999.25 3905.69700    2.63100   -9999.25    0.15900   -0.02100 3573.39210   15.09900   69.62200  120.63600 3536.43600    8.41000   19.90700  -40.40700   14.74100   88.83100
 11496.00000   -9999.25 3905.69700    2.63500   -9999.25    0.15600   -0.02100 3573.92800   14.50000   70.41700  122.06200 3536.76290    8.41000   18.81300  -40.31000   13.84900   91.13500
 11496.50000   -9999.25 3905.69700    2.63300   -9999.25    0.16000   -0.01900 3574.46290   13.90200   70.81500  123.48800 3537.08910    8.41100   17.71900  -40.21300   12.93200   99.19400
 11497.00000   -9999.25 3905.69700    2.62900   -9999.25    0.16600   -0.01900 3574.99900   13.30300   71.29500  124.49300 3537.41600    8.41300   16.62500  -40.11600   12.70000  103.09400
 11497.50000   -9999.25 3905.69700    2.62500   -9999.25    0.17300   -0.01900 3575.53490   12.95000   71.43700  125.66600 3537.74290    8.41400   15.50900  -40.01900   12.42900  107.44600
 11498.00000   -9999.25 3905.69700    2.62100   -9999.25    0.18000   -0.01900 3576.07100   12.37100   71.61000  126.48100 3538.07010    8.41500   15.68500  -39.92200   12.19800  105.83000
 11498.50000   -9999.25 3905.69700    2.61700   -9999.25    0.18000   -0.01900 3576.60690   12.24700   71.22500  127.07200 3538.39600    8.41600   15.86500  -39.82400   11.96700  101.32900
 11499.00000   -9999.25 3905.69700    2.61800   -9999.25    0.17900   -0.01800 3577.14210   12.22500   70.41700  126.87900 3538.72290    8.41800   16.08300  -39.72800   11.59700   95.32700
 11499.50000   -9999.25 3905.69700    2.62400   -9999.25    0.17800   -0.01700 3577.67800   12.18800   70.11400  126.34800 3539.05000    8.41900   15.42200  -39.62900   11.64300   92.20200
 11500.00000   -9999.25 3905.69700    2.62900   -9999.25    0.17600   -0.01700 3578.21410   12.15100   70.23200  125.67900 3539.37600    8.42000   14.42200  -39.53300   11.75900   93.62200
 11500.50000   -9999.25 3905.69700    2.63400   -9999.25    0.17500   -0.01700 3578.75000   12.11300   70.35000  125.00900 3539.70290    8.42200   14.42200  -39.44000   11.87500   98.16100
 11501.00000   -9999.25 3905.69700    2.63900   -9999.25    0.17400   -0.01700 3579.28590   12.07600   70.46800  124.34000 3540.03000    8.42300   14.83900  -39.32500   11.99100  105.19000
 11501.50000   -9999.25 3905.69700    2.64400   -9999.25    0.17300   -0.01700 3579.82200   12.02600   70.58600  123.67100 3540.35690    8.42400   15.25100  -39.38100   12.10800  103.31500
 11502.00000   -9999.25 3905.69700    2.64700   -9999.25    0.17100   -0.01700 3580.35690   12.27100   70.70400  123.00200 3540.68310    8.42500   15.66400  -39.64800   12.22400  100.45600
 11502.50000   -9999.25 3905.69700    2.64400   -9999.25    0.17000   -0.01700 3580.89310   12.65300   70.81500  122.33200 3541.01000    8.42700   16.07600  -39.89500   12.34000   97.79900
 11503.00000   -9999.25 3905.69700    2.64200   -9999.25    0.16900   -0.01600 3581.42900   12.93200   70.81500  122.10700 3541.33690    8.42800   16.37700  -40.14600   12.47100  100.45500
 11503.50000   -9999.25 3905.69700    2.64000   -9999.25    0.16800   -0.01600 3581.96510   13.17000   70.59500  122.50500 3541.66310    8.42900   16.71500  -40.40100   12.49900  102.91900
 11504.00000   -9999.25 3905.69700    2.63800   -9999.25    0.16600   -0.01500 3582.50100   13.41100   70.81500  122.58300 3541.99000    8.43100   16.79200  -40.65100   12.55700  105.81200
 11504.50000   -9999.25 3905.69700    2.63600   -9999.25    0.16600   -0.01500 3583.03590   13.41100   70.66400  122.65500 3542.31690    8.43200   16.86900  -40.86700   12.61600  107.30900
 11505.00000   -9999.25 3905.69700    2.63600   -9999.25    0.16700   -0.01500 3583.57200   13.41100   70.36200  122.72600 3542.64400    8.43300   16.94700  -40.87300   12.67400  107.63100
 11505.50000   -9999.25 3905.69700    2.63500   -9999.25    0.16800   -0.01500 3586.01200   13.46800   70.06000  122.79800 3542.97000    8.43400   17.00800  -40.87800   12.73200  108.06100
 11506.00000   -9999.25 3905.69700    2.64000   -9999.25    0.16900   -0.01500 3590.17090   13.53000   69.75800  122.87000 3543.29710    8.43600   17.05400  -40.87500   12.79100  107.10700
 11506.50000   -9999.25 3905.69700    2.65100   -9999.25    0.17000   -0.01500 3594.32910   13.59300   69.62200  122.94200 3543.62400    8.43700   17.10000  -40.87600   12.84900  106.08600
 11507.00000   -9999.25 3905.69700    2.65100   -9999.25    0.17000   -0.01500 3598.48800   13.65700   70.08000  123.01400 3543.95000    8.43800   17.14700  -40.87600   12.93200  108.31100
 11507.50000   -9999.25 3905.69700    2.65000   -9999.25    0.17000   -0.01600 3602.64600   13.59500   70.68400  123.08600 3544.27710    8.44000   17.19300  -40.87600   12.87500  109.71100
 11508.00000   -9999.25 3905.69700    2.64800   -9999.25    0.16900   -0.01600 3606.80490   13.48700   71.21300  123.15800 3544.60400    8.44100   17.23900  -40.87600   12.77600  107.69000
 11508.50000   -9999.25 3905.69700    2.64600   -9999.25    0.16800   -0.01700 3610.96290   13.37900   71.61000  123.22900 3544.92990    8.44200   17.29500  -40.87600   12.67600  105.68800
 11509.00000   -9999.25 3905.69700    2.64500   -9999.25    0.16700   -0.01700 3615.12210   13.27200   72.00800  123.30000 3545.25710    8.44300   17.08700  -40.87800   12.57600  104.88400
