~Version ---------------------------------------------------
VERS.   2.0 : CWLS log ASCII Standard -VERSION 2.0
WRAP.    NO : One line per depth step
DLM . SPACE : Column Data Section Delimiter
~Well ------------------------------------------------------
STRT .F                 3554.5 : START DEPTH
STOP .F                12582.0 : STOP DEPTH
STEP .F                    0.5 : STEP
NULL .                -9999.25 : NULL VALUE
COMP .                         : COMPANY
WELL .                         : WELL
FLD  .                         : FIELD
LOC  .                         : LOCATION
PROV .                         : PROVINCE
CNTY .                         : COUNTY
STAT .                         : STATE
CTRY .                         : COUNTRY
SRVC .                         : SERVICE COMPANY
DATE .                         : DATE
UWI  .                         : UNIQUE WELL ID
API  .                         : API NUMBER
SLAT .WGS84  5.986212384306398 : SURFACE LATITUDE
SLON .WGS84 4.1205887986095036 : SURFACE LONGITUDE
DATUM.F                2057.64 : DEPTH DATUM ELEV
~Curve Information -----------------------------------------
DEPT.F     : 
CILD.MMHO  : CONDUCTIVITY INDUCTION LOG DEEP
TEND.LBS   : TENSION FROM DENSITY LOG
RHOB.G/C3  : BULK DENSITY
PEF .B/E   : PHOTOELECTRIC FACTOR
NPHI.DEC   : NEUTRON POROSITY SANDSTONE
DRHO.G/C3  : DENSITY CORRECTION
TENR.LBS   : TENSION FROM RESISTIVITY
ILM .OHMM  : INDUCTION LOG MEDIUM RESISTIVITY
DTCO.US/F  : ACOUSTIC TRANSIT TIME SLOWNESS, DELTA T
DTSM.US/F  : SHEAR-WAVE INTERVAL TRANSIT TIME DELTA-T
TENS.LBS   : TENSION FROM SONIC
CALD.IN    : CALIPER FROM DENSITY LOG
SFLU.OHMM  : PHERICALLY FOCUSED LOG
SPR .MV    : SPONTANEOUS POTENTIAL
ILD .OHMM  : DEEP INDUCTION RESISTIVITY
GRR .GAPI  : GAMMA RAY
~Params ----------------------------------------------------
~Other -----------------------------------------------------
~ASCII -----------------------------------------------------
# ...
 10800.00000   -9999.25 3776.65990    2.26600   10.03000    0.30500    0.00200 3446.44190    5.35100   -9999.25   -9999.25   -9999.25   10.26300    5.72900   10.59100    4.85200  110.91300
 10800.50000   -9999.25 3818.14210    2.32300   10.04100    0.29800    0.00400 3446.74290    4.50900   -9999.25   -9999.25   -9999.25   10.45900    5.81500   10.69600    4.04300  101.29200
 10801.00000   -9999.25 3859.62400    2.39400    9.49800    0.22500    0.00500 3447.04490    6.64500   -9999.25   -9999.25   -9999.25   10.03900    7.23100   10.70200    6.00500   80.74800
 10801.50000   -9999.25 3901.10600    2.46700    5.43900    0.15300    0.00700 3447.34590    8.75500   -9999.25   -9999.25   -9999.25    9.64200   27.70500   10.70100    7.94300   64.43300
 10802.00000   -9999.25 3948.81910    2.54100    4.37900    0.08100    0.00900 3447.64790   11.18300   -9999.25   -9999.25   -9999.25    9.15100   52.48900   10.70500    9.88100   51.15100
 10802.50000   -9999.25 3933.72710    2.58000    3.31900    0.03500    0.00900 3447.95000   14.47400   -9999.25   -9999.25   -9999.25    9.12700   77.27300   10.69600   11.82000   46.01500
 10803.00000   -9999.25 3896.06300    2.57800    2.90700    0.02400    0.00700 3448.25100   18.34600   -9999.25   -9999.25   -9999.25    9.12500   95.39600   10.68900   14.19200   43.92500
 10803.50000   -9999.25 3846.26000    2.57700    2.84400    0.02400    0.00600 3448.55300   21.12000   -9999.25   -9999.25   -9999.25    9.14400  116.49700   10.25800   16.78300   44.84600
 10804.00000   -9999.25 3791.33910    2.57800    2.86400    0.02300    0.00400 3448.85400   20.98800   -9999.25   -9999.25   -9999.25    9.15100   96.10200    9.70900   20.36700   53.46000
 10804.50000   -9999.25 3791.33910    2.57800    3.16200    0.02200    0.00200 3449.15600   19.21100   -9999.25   -9999.25   -9999.25    9.15500   73.93100    9.16300   19.55100   72.39600
 10805.00000   -9999.25 3791.33910    2.57700    3.49400    0.02100    0.00100 3449.45700   17.29500   -9999.25   -9999.25   -9999.25    9.16800   51.76000    8.62200   17.92700   75.34100
 10805.50000   -9999.25 3791.33910    2.57800    3.65200    0.02100   -0.00200 3449.75900   17.29500   -9999.25   -9999.25   -9999.25    9.18800   14.95500    8.07300   15.23000   72.55500
 10806.00000   -9999.25 3791.33910    2.58000    3.14000    0.02000   -0.00200 3450.06010   20.80800   -9999.25   -9999.25   -9999.25    9.20700   20.87800    7.53900   16.88000   62.89100
 10806.50000   -9999.25 3791.33910    2.58200    2.93500    0.04100   -0.00200 3450.36210   23.91600   -9999.25   -9999.25   -9999.25    9.22500   38.30200    6.98100   21.73600   55.04500
 10807.00000   -9999.25 3791.33910    2.58300    2.74600    0.09900   -0.00200 3450.66310   27.02300   -9999.25   -9999.25   -9999.25    9.24500   55.72500    6.78800   26.74600   47.25700
 10807.50000   -9999.25 3791.33910    2.58600    2.72600    0.16900   -0.00200 3450.96510   30.13100   -9999.25   -9999.25   -9999.25    9.26100   70.05000    6.80100   26.74600   44.58700
 10808.00000   -9999.25 3791.33910    2.58700    2.73300    0.21700   -0.00200 3451.26610   33.23900   -9999.25   -9999.25   -9999.25    9.28200   95.31600    6.80000   21.50700   41.81800
 10808.50000   -9999.25 3791.33910    2.58700    3.02700    0.26000   -0.00200 3451.56810   34.49200   -9999.25   -9999.25   -9999.25    9.30600  110.31800    6.81200   18.92900   44.74700
 10809.00000   -9999.25 3791.33910    2.59000    3.81300    0.29700   -0.00200 3451.86890   24.36900   -9999.25   -9999.25   -9999.25    9.29900   93.89600    6.75900   16.33000   54.11700
 10809.50000   -9999.25 3791.33910    2.52100    4.95700    0.29100   -0.00200 3452.17090   15.94500   -9999.25   -9999.25   -9999.25    9.48500   72.93000    7.28300   13.73100   72.65300
 10810.00000   -9999.25 3791.33910    2.41800    8.37100    0.28200   -0.00200 3452.47190   10.31100   -9999.25   -9999.25   -9999.25    9.85200   49.90400    8.43800   11.13200   85.92600
 10810.50000   -9999.25 3791.33910    2.31600    9.96300    0.28100   -0.00200 3452.77390    8.30300   -9999.25   -9999.25   -9999.25   10.19900   26.87900    9.52800    8.53300   98.44300
 10811.00000   -9999.25 3791.33910    2.22000   10.06100    0.28100    0.01200 3453.07500    6.29600   -9999.25   -9999.25   -9999.25   10.53500    5.31000   10.62100    5.93400  105.57000
 10811.50000   -9999.25 3791.33910    2.15500   10.03600    0.28200    0.02800 3453.37700    4.04300   -9999.25   -9999.25   -9999.25   10.88300    4.41400   11.74100    4.04600  107.22900
 10812.00000   -9999.25 3791.33910    2.14900   10.02600    0.28100    0.04400 3453.67800    4.20300   -9999.25   -9999.25   -9999.25   10.91200    4.36400   12.83500    4.05600  100.89000
 10812.50000   -9999.25 3791.33910    2.17700   10.01700    0.27800    0.05500 3453.98000    4.38500   -9999.25   -9999.25   -9999.25   10.83500    4.34800   13.77600    4.06600   89.14300
 10813.00000   -9999.25 3791.33910    2.25100   10.00800    0.28000    0.05400 3454.28100    4.56600   -9999.25   -9999.25   -9999.25   10.75900    4.34800   13.93400    4.07600   80.32300
 10813.50000   -9999.25 3791.33910    2.33200    9.99800    0.28600    0.05400 3454.58300    4.76200   -9999.25   -9999.25   -9999.25   10.56100    5.39900   14.34800    4.08600   75.95400
 10814.00000   -9999.25 3791.33910    2.41300    9.99000    0.29600    0.05300 3454.88400    4.76200   -9999.25   -9999.25   -9999.25   10.37700    6.86800   14.72400    4.09500   74.88600
 10814.50000   -9999.25 3791.33910    2.57900    6.25000    0.29500    0.05300 3455.18600    4.34800   -9999.25   -9999.25   -9999.25   10.15300    8.99300   15.12200    4.10500   78.81900
 10815.00000   -9999.25 3791.33910    2.60700    6.36900    0.29200    0.04900 3455.48710    4.28400   -9999.25   -9999.25   -9999.25   10.14900    8.30000   15.50500    4.11500   84.90200
 10815.50000   -9999.25 3791.33910    2.56100    6.76000    0.28800    0.04600 3455.78910    4.16700   -9999.25   -9999.25   -9999.25   10.18200    7.04800   15.94500    4.07400   90.60700
 10816.00000   -9999.25 3791.33910    2.50500    6.68600    0.28300    0.04200 3456.09010    4.11800   -9999.25   -9999.25   -9999.25   10.02500    5.79500   16.04900    4.01800   93.11300
 10816.50000   -9999.25 3791.33910    2.51500    5.66300    0.27900    0.06100 3456.39210    4.04200   -9999.25   -9999.25   -9999.25    9.91900    4.54300   15.55600    3.96100   95.29200
 10817.00000   -9999.25 3791.33910    2.55300    5.70000    0.26400    0.08800 3456.69310    3.97800   -9999.25   -9999.25   -9999.25    9.94300    4.04300   15.12400    3.90500   95.58200
 10817.50000   -9999.25 3791.33910    2.59100    5.93700    0.25100    0.11200 3456.99510    3.91400   -9999.25   -9999.25   -9999.25    9.94800    4.68100   14.66500    3.84800   94.40200
 10818.00000   -9999.25 3791.33910    2.61900    6.30500    0.23800    0.14100 3457.29710    3.85000   -9999.25   -9999.25   -9999.25   10.06200    5.50600   14.21100    3.79200   91.58000
 10818.50000   -9999.25 3791.33910    2.61200    7.35300    0.24100    0.14300 3457.59790    3.78600   -9999.25   -9999.25   -9999.25   10.20500    5.29100   13.84000    3.73500   89.31300
 10819.00000   -9999.25 3791.33910    2.59600    8.51600    0.25000    0.14500 3457.89990    3.72200   -9999.25   -9999.25   -9999.25   10.34600    4.80000   13.87400    3.67900   86.73600
 10819.50000   -9999.25 3791.33910    2.58000    9.97100    0.26100    0.14300 3458.20090    3.65800   -9999.25   -9999.25   -9999.25   10.48700    4.30900   13.98100    3.62600   89.18000
 10820.00000   -9999.25 3791.33910    2.56200    9.60000    0.27200    0.13100 3458.50290    3.59400   -9999.25   -9999.25   -9999.25   10.62600    3.76000   14.10500    3.59100   93.97400
 10820.50000   -9999.25 3830.07910    2.56600    8.10000    0.28100    0.12300 3458.80400    3.56100   -9999.25   -9999.25   -9999.25   10.76600    3.76000   14.21500    3.56100   99.06200
 10821.00000   -9999.25 3909.76390    2.57300    7.52500    0.27300    0.05000 3459.10600    3.67500   -9999.25   -9999.25   -9999.25   10.91900    4.12500   14.32200    3.70000  100.83800
