~Version ---------------------------------------------------
VERS.   2.0 : CWLS log ASCII Standard -VERSION 2.0
WRAP.    NO : One line per depth step
DLM . SPACE : Column Data Section Delimiter
~Well ------------------------------------------------------
STRT .F                 3554.5 : START DEPTH
STOP .F                12582.0 : STOP DEPTH
STEP .F                    0.5 : STEP
NULL .                -9999.25 : NULL VALUE
COMP .                         : COMPANY
WELL .                         : WELL
FLD  .                         : FIELD
LOC  .                         : LOCATION
PROV .                         : PROVINCE
CNTY .                         : COUNTY
STAT .                         : STATE
CTRY .                         : COUNTRY
SRVC .                         : SERVICE COMPANY
DATE .                         : DATE
UWI  .                         : UNIQUE WELL ID
API  .                         : API NUMBER
SLAT .WGS84  5.986212384306398 : SURFACE LATITUDE
SLON .WGS84 4.1205887986095036 : SURFACE LONGITUDE
DATUM.F                2057.64 : DEPTH DATUM ELEV
~Curve Information -----------------------------------------
DEPT.F     : 
CILD.MMHO  : CONDUCTIVITY INDUCTION LOG DEEP
TEND.LBS   : TENSION FROM DENSITY LOG
RHOB.G/C3  : BULK DENSITY
PEF .B/E   : PHOTOELECTRIC FACTOR
NPHI.DEC   : NEUTRON POROSITY SANDSTONE
DRHO.G/C3  : DENSITY CORRECTION
TENR.LBS   : TENSION FROM RESISTIVITY
ILM .OHMM  : INDUCTION LOG MEDIUM RESISTIVITY
DTCO.US/F  : ACOUSTIC TRANSIT TIME SLOWNESS, DELTA T
DTSM.US/F  : SHEAR-WAVE INTERVAL TRANSIT TIME DELTA-T
TENS.LBS   : TENSION FROM SONIC
CALD.IN    : CALIPER FROM DENSITY LOG
SFLU.OHMM  : PHERICALLY FOCUSED LOG
SPR .MV    : SPONTANEOUS POTENTIAL
ILD .OHMM  : DEEP INDUCTION RESISTIVITY
GRR .GAPI  : GAMMA RAY
~Params ----------------------------------------------------
~Other -----------------------------------------------------
~ASCII -----------------------------------------------------
# ...
 8800.50000   -9999.25 3279.52810    2.64100    3.18200    0.21800    0.06700 2911.87400   11.10000   -9999.25   -9999.25   -9999.25   13.06700   15.23000   16.24900   12.99000  111.56600
 8801.00000   -9999.25 3279.52810    2.66700    3.18900    0.21900    0.07500 2907.12700   10.74100   -9999.25   -9999.25   -9999.25   13.11300   15.23000   16.13500   12.54200  110.50200
 8801.50000   -9999.25 3279.52810    2.68200    3.22900    0.22100    0.08300 2902.37990   10.38200   -9999.25   -9999.25   -9999.25   13.15500   15.23000   16.18200   12.09500  112.20300
 8802.00000   -9999.25 3279.52810    2.65000    3.25500    0.22500    0.08800 2897.63310   10.02300   -9999.25   -9999.25   -9999.25   13.28700   14.33000   16.17300   11.64800  114.67800
 8802.50000   -9999.25 3279.52810    2.60700    3.17300    0.23700    0.08300 2892.88600    9.67000   -9999.25   -9999.25   -9999.25   13.63800   13.44200   16.16400   11.38800  118.30900
 8803.00000   -9999.25 3279.52810    2.53400    3.08300    0.25000    0.07800 2891.08910    9.77500   -9999.25   -9999.25   -9999.25   13.98300   12.55300   16.16400   11.33600  121.80600
 8803.50000   -9999.25 3279.52810    2.46400    2.92100    0.26100    0.07200 2891.36890   10.24600   -9999.25   -9999.25   -9999.25   14.43900   11.22100   15.89300   11.28400  123.60300
 8804.00000   -9999.25 3279.52810    2.47800    2.78100    0.26000    0.06700 2891.70900   10.71600   -9999.25   -9999.25   -9999.25   14.30800   11.24400   15.56600   11.23300  121.07000
 8804.50000   -9999.25 3279.52810    2.52000    2.84700    0.24000    0.06000 2892.04810   11.04200   -9999.25   -9999.25   -9999.25   13.81400   12.38100   15.23500   11.18300  116.53800
 8805.00000   -9999.25 3279.52810    2.56600    3.04400    0.23000    0.05600 2892.38790   11.18000   -9999.25   -9999.25   -9999.25   13.30900   13.51700   14.91000   11.25300  113.41500
 8805.50000   -9999.25 3279.52810    2.61300    3.01200    0.22000    0.05300 2892.72710   11.31900   -9999.25   -9999.25   -9999.25   13.25500   14.65300   14.57900   11.54600  113.44300
 8806.00000   -9999.25 3279.52810    2.63900    3.02400    0.21000    0.05200 2893.06690   11.45700   -9999.25   -9999.25   -9999.25   13.21300   15.49400   14.25600   11.83900  113.34600
 8806.50000   -9999.25 3279.52810    2.63900    3.02300    0.20200    0.05100 2893.40600   11.59600   -9999.25   -9999.25   -9999.25   13.20000   15.43600   13.92800   12.13100  113.44300
 8807.00000   -9999.25 3279.52810    2.62500    3.02000    0.20200    0.05000 2893.74610   11.73400   -9999.25   -9999.25   -9999.25   13.19500   15.37800   13.79800   12.42400  113.37800
 8807.50000   -9999.25 3279.52810    2.61000    3.02200    0.20700    0.05000 2894.08500   11.85900   -9999.25   -9999.25   -9999.25   13.19500   15.31900   13.76200   12.71700  113.14500
 8808.00000   -9999.25 3279.52810    2.59200    3.02200    0.21200    0.04700 2894.42500   11.96800   -9999.25   -9999.25   -9999.25   13.19600   15.23000   13.72300   12.93200  109.92600
 8808.50000   -9999.25 3279.52810    2.60600    3.02200    0.20600    0.04100 2894.76390   12.24700   -9999.25   -9999.25   -9999.25   13.19300   15.34000   13.68200   12.66900  109.00200
 8809.00000   -9999.25 3279.52810    2.63400    3.02100    0.20000    0.03600 2895.10400   12.24700   -9999.25   -9999.25   -9999.25   13.17900   15.57800   13.64300   12.36400  112.09000
 8809.50000   -9999.25 3279.52810    2.62600    3.03600    0.19500    0.03000 2895.44410   11.97000   -9999.25   -9999.25   -9999.25   13.16300   15.81600   13.60400   12.06000  113.93800
 8810.00000   -9999.25 3279.52810    2.54800    3.03400    0.19600    0.03400 2895.78300   11.65200   -9999.25   -9999.25   -9999.25   13.17100   16.08300   13.56400   11.59700  114.10400
 8810.50000   -9999.25 3279.52810    2.47400    2.94200    0.20600    0.03800 2896.12300   11.33500   -9999.25   -9999.25   -9999.25   13.20900   15.36700   13.52500   11.67100  114.30700
 8811.00000   -9999.25 3279.52810    2.49200    2.86900    0.21600    0.04300 2896.46190   10.98200   -9999.25   -9999.25   -9999.25   13.24600   14.55500   13.48500   11.82500  115.32200
 8811.50000   -9999.25 3279.52810    2.53300    2.87100    0.22900    0.04900 2896.80200   10.98200   -9999.25   -9999.25   -9999.25   13.27800   13.17000   13.44600   11.97900  114.08200
 8812.00000   -9999.25 3279.52810    2.57500    3.02500    0.24100    0.04700 2897.14110   11.38800   -9999.25   -9999.25   -9999.25   13.31300   13.46300   13.40700   12.13200  110.42900
 8812.50000   -9999.25 3279.52810    2.61200    3.19000    0.24500    0.03800 2897.48100   11.67500   -9999.25   -9999.25   -9999.25   13.19000   14.46000   13.36700   12.28600  108.32900
 8813.00000   -9999.25 3279.52810    2.64100    3.19700    0.22600    0.02900 2897.82010   12.02600   -9999.25   -9999.25   -9999.25   13.05000   15.45700   13.32800   12.44000  106.07900
 8813.50000   -9999.25 3279.52810    2.65000    3.06200    0.20300    0.02100 2898.15990   12.24700   -9999.25   -9999.25   -9999.25   12.91700   16.45300   13.28800   12.59400  104.44400
 8814.00000   -9999.25 3279.52810    2.64600    2.95100    0.19000    0.01200 2898.49900   12.93200   -9999.25   -9999.25   -9999.25   12.81600   17.93500   13.24900   12.80600  104.04500
 8814.50000   -9999.25 3279.52810    2.64700    2.84400    0.19100    0.00800 2898.83910   12.87400   -9999.25   -9999.25   -9999.25   12.84600   17.78100   13.21000   13.15000  106.69600
 8815.00000   -9999.25 3279.52810    2.65100    2.94900    0.19200    0.00600 2899.17800   12.76000   -9999.25   -9999.25   -9999.25   12.83100   17.48300   13.17100   13.49300  109.07600
 8815.50000   -9999.25 3279.52810    2.65600    3.05500    0.19200    0.00600 2899.51810   12.64600   -9999.25   -9999.25   -9999.25   12.82700   16.98300   13.13000   13.90700  110.19100
 8816.00000   -9999.25 3279.52810    2.65500    3.10600    0.19200    0.01600 2899.85690   12.53300   -9999.25   -9999.25   -9999.25   12.82000   17.15500   13.09300   13.82300  106.24000
 8816.50000   -9999.25 3279.52810    2.65100    3.08500    0.19500    0.02600 2900.19700   12.41900   -9999.25   -9999.25   -9999.25   12.81200   17.61200   13.05000   13.56600  105.07000
 8817.00000   -9999.25 3279.52810    2.65100    3.04400    0.20100    0.03700 2900.53710   12.30500   -9999.25   -9999.25   -9999.25   12.80300   17.17000   13.04700   13.30800  109.24000
 8817.50000   -9999.25 3280.44600    2.65200    3.00300    0.20800    0.04700 2900.87600   12.19100   -9999.25   -9999.25   -9999.25   12.77300   16.77900   13.04600   13.05100  118.98500
 8818.00000   -9999.25 3282.65990    2.65600    3.00400    0.21400    0.05100 2901.21610   12.07800   -9999.25   -9999.25   -9999.25   12.73200   16.00900   13.04700   12.79300  127.55000
 8818.50000   -9999.25 3284.87300    2.67400    3.05200    0.22000    0.04200 2901.55490   12.02600   -9999.25   -9999.25   -9999.25   12.69300   15.10700   13.04700   12.52400  131.84800
 8819.00000   -9999.25 3287.08690    2.67400    3.20700    0.21900    0.03200 2901.89500   12.44800   -9999.25   -9999.25   -9999.25   12.60800   14.16200   13.04700   12.63200  134.67300
 8819.50000   -9999.25 3289.30000    2.67000    3.34300    0.20600    0.02100 2902.23390   12.86100   -9999.25   -9999.25   -9999.25   12.52700   14.34300   13.04700   12.84600  132.65800
 8820.00000   -9999.25 3291.51390    2.66400    3.21800    0.18800    0.01100 2902.57400   12.93200   -9999.25   -9999.25   -9999.25   12.44700   16.00900   13.04700   13.06100  130.66500
 8820.50000   -9999.25 3293.72710    2.66000    3.15900    0.17700    0.00700 2902.91310   13.19800   -9999.25   -9999.25   -9999.25   12.37500   18.10500   13.04700   13.27500  125.38800
 8821.00000   -9999.25 3295.94090    2.65500    3.12000    0.17900    0.00500 2903.25290   13.24800   -9999.25   -9999.25   -9999.25   12.37400   18.59800   13.04700   13.41100  119.88500
 8821.50000   -9999.25 3298.15410    2.65400    3.08400    0.18000    0.00900 2903.59200   13.29900   -9999.25   -9999.25   -9999.25   12.37200   18.59800   13.04600   13.46100  116.59400
