~Version ---------------------------------------------------
VERS.   2.0 : CWLS log ASCII Standard -VERSION 2.0
WRAP.    NO : One line per depth step
DLM . SPACE : Column Data Section Delimiter
~Well ------------------------------------------------------
STRT .F                 3554.5 : START DEPTH
STOP .F                12582.0 : STOP DEPTH
STEP .F                    0.5 : STEP
NULL .                -9999.25 : NULL VALUE
COMP .                         : COMPANY
WELL .                         : WELL
FLD  .                         : FIELD
LOC  .                         : LOCATION
PROV .                         : PROVINCE
CNTY .                         : COUNTY
STAT .                         : STATE
CTRY .                         : COUNTRY
SRVC .                         : SERVICE COMPANY
DATE .                         : DATE
UWI  .                         : UNIQUE WELL ID
API  .                         : API NUMBER
SLAT .WGS84  5.986212384306398 : SURFACE LATITUDE
SLON .WGS84 4.1205887986095036 : SURFACE LONGITUDE
DATUM.F                2057.64 : DEPTH DATUM ELEV
~Curve Information -----------------------------------------
DEPT.F     : 
CILD.MMHO  : CONDUCTIVITY INDUCTION LOG DEEP
TEND.LBS   : TENSION FROM DENSITY LOG
RHOB.G/C3  : BULK DENSITY
PEF .B/E   : PHOTOELECTRIC FACTOR
NPHI.DEC   : NEUTRON POROSITY SANDSTONE
DRHO.G/C3  : DENSITY CORRECTION
TENR.LBS   : TENSION FROM RESISTIVITY
ILM .OHMM  : INDUCTION LOG MEDIUM RESISTIVITY
DTCO.US/F  : ACOUSTIC TRANSIT TIME SLOWNESS, DELTA T
DTSM.US/F  : SHEAR-WAVE INTERVAL TRANSIT TIME DELTA-T
TENS.LBS   : TENSION FROM SONIC
CALD.IN    : CALIPER FROM DENSITY LOG
SFLU.OHMM  : PHERICALLY FOCUSED LOG
SPR .MV    : SPONTANEOUS POTENTIAL
ILD .OHMM  : DEEP INDUCTION RESISTIVITY
GRR .GAPI  : GAMMA RAY
~Params ----------------------------------------------------
~Other -----------------------------------------------------
~ASCII -----------------------------------------------------
# ...
 12498.50000   -9999.25 4723.43900    2.23700   -9999.25    0.22000   -0.00500 3872.41600    4.21900   -9999.25   -9999.25   -9999.25    8.57900    5.02800  -21.31800    4.27700  113.53700
 12499.00000   -9999.25 4691.55180    2.24900   -9999.25    0.21600   -0.00100 3869.36890    4.02500   -9999.25   -9999.25   -9999.25    8.76600    4.91800  -21.41400    3.98600  113.38500
 12499.50000   -9999.25 4652.25880    2.23100   -9999.25    0.21300    0.03000 3866.32100    3.82900   -9999.25   -9999.25   -9999.25    8.97000    4.72700  -21.51200    3.69200  111.67500
 12500.00000   -9999.25 4571.82080    2.27600   -9999.25    0.21100    0.05300 3863.27390    3.76100   -9999.25   -9999.25   -9999.25    9.04800    4.53600  -21.63400    3.63500  110.78000
 12500.50000   -9999.25 4490.73780    2.31800   -9999.25    0.21200    0.07900 3860.22610    3.66000   -9999.25   -9999.25   -9999.25    8.98600    4.34500  -21.66100    3.57700  112.45600
 12501.00000   -9999.25 4409.65580    2.31100   -9999.25    0.21200    0.08100 3857.17900    3.57900   -9999.25   -9999.25   -9999.25    8.94200    4.15500  -22.36700    3.51900  113.34400
 12501.50000   -9999.25 4328.57420    2.30300   -9999.25    0.21300    0.08300 3854.13110    3.49900   -9999.25   -9999.25   -9999.25    8.91200    3.97100  -23.59000    3.46100  112.91900
 12502.00000   -9999.25 4288.35500    2.29800   -9999.25    0.21300    0.08400 3851.08400    3.41800   -9999.25   -9999.25   -9999.25    9.06000    4.09300  -24.67700    3.40300  111.73300
 12502.50000   -9999.25 4412.26120    2.29700   -9999.25    0.21300    0.08500 3848.03590    3.33800   -9999.25   -9999.25   -9999.25    9.05000    4.34800  -25.66400    3.37200  111.31800
 12503.00000   -9999.25 4536.16700    2.31300   -9999.25    0.21400    0.08600 3844.98900    3.31100   -9999.25   -9999.25   -9999.25    8.96700    4.33200  -25.45300    3.35500  113.02200
 12503.50000   -9999.25 4652.25880    2.34000   -9999.25    0.21500    0.08600 3841.94190    3.30300   -9999.25   -9999.25   -9999.25    8.87600    4.27300  -25.23600    3.33900  115.18200
 12504.00000   -9999.25 4527.07520    2.37300   -9999.25    0.21600    0.08500 3838.89400    3.29400   -9999.25   -9999.25   -9999.25    8.80800    4.21400  -24.96000    3.32400  117.17600
 12504.50000   -9999.25 4500.04100    2.40300   -9999.25    0.21600    0.06100 3835.84690    3.28500   -9999.25   -9999.25   -9999.25    8.70400    4.15400  -25.08800    3.30800  119.40700
 12505.00000   -9999.25 4473.00680    2.39800   -9999.25    0.21500    0.04200 3832.79910    3.27600   -9999.25   -9999.25   -9999.25    8.72300    4.09500  -25.26700    3.29200   -9999.25
 12505.50000   -9999.25 4445.97220    2.36000   -9999.25    0.21500    0.01900 3829.75200    3.26700   -9999.25   -9999.25   -9999.25    8.75600    4.04300  -25.41600    3.27600   -9999.25
 12506.00000   -9999.25 4416.50290    2.31100   -9999.25    0.21500   -0.02300 3826.70410    3.25800   -9999.25   -9999.25   -9999.25    8.80900    4.14800  -25.59000    3.26100   -9999.25
 12506.50000   -9999.25 4416.50290    2.25700   -9999.25    0.21600   -0.04100 3823.65700    3.24900   -9999.25   -9999.25   -9999.25    8.69500    4.24000  -25.88800    3.24500   -9999.25
 12507.00000   -9999.25 4416.50290    2.22100   -9999.25    0.22000   -0.02400 3820.51290    3.24000   -9999.25   -9999.25   -9999.25    8.19400    4.33300  -26.65600    3.22900   -9999.25
 12507.50000   -9999.25 4416.50290    2.20100   -9999.25    0.22400   -0.01200 3821.78390    3.23100   -9999.25   -9999.25   -9999.25    7.84400    4.42500  -26.67000    3.21300   -9999.25
 12508.00000   -9999.25 4416.50290    2.20300   -9999.25    0.22600    0.00200 3823.09790    3.22200   -9999.25   -9999.25   -9999.25    7.64600    4.51800  -26.84300    3.19800   -9999.25
 12508.50000   -9999.25 4416.50290    2.21600   -9999.25    0.22600    0.02300 3824.41090    3.21300   -9999.25   -9999.25   -9999.25    7.58300    4.59200  -26.95400    3.18200   -9999.25
 12509.00000   -9999.25 4416.50290    2.25600   -9999.25    0.22600    0.05200 3825.72410    3.20400   -9999.25   -9999.25   -9999.25    7.56100    4.47100  -27.08300    3.16600   -9999.25
 12509.50000   -9999.25 4416.50290    2.27000   -9999.25    0.22600    0.07300 3827.03710    3.19300   -9999.25   -9999.25   -9999.25    7.54200    4.37000  -27.20900    3.15100   -9999.25
 12510.00000   -9999.25 4416.50290    2.26600   -9999.25    0.22700    0.07100 3828.35010    3.19300   -9999.25   -9999.25   -9999.25    7.53300    4.26900  -27.31000    3.13500   -9999.25
 12510.50000   -9999.25 4416.50290    2.26000   -9999.25   -9999.25    0.06600 3829.66410    3.19300   -9999.25   -9999.25   -9999.25    7.53300    4.19300  -27.13600    3.13600   -9999.25
 12511.00000   -9999.25 4357.56400    2.25300   -9999.25   -9999.25    0.06100 3830.97710    3.19300   -9999.25   -9999.25   -9999.25    7.53400    4.27000  -26.96000    3.13500   -9999.25
 12511.50000   -9999.25 4308.00100    2.24700   -9999.25   -9999.25    0.05800 3832.29000    3.19300   -9999.25   -9999.25   -9999.25    7.53400    4.27000  -26.77100    3.13300   -9999.25
 12512.00000   -9999.25 4258.43900    2.24500   -9999.25   -9999.25    0.05600 3833.60300    3.19300   -9999.25   -9999.25   -9999.25   -9999.25    4.27000  -26.59200    3.13100   -9999.25
 12512.50000   -9999.25 4208.87700    2.24400   -9999.25   -9999.25    0.05600 3834.91600    3.19300   -9999.25   -9999.25   -9999.25   -9999.25    4.27000  -26.40600    3.18400   -9999.25
 12513.00000   -9999.25 4159.31400    2.24300   -9999.25   -9999.25    0.05600 3836.23000    3.19300   -9999.25   -9999.25   -9999.25   -9999.25    4.27000  -26.22400   -9999.25   -9999.25
 12513.50000   -9999.25 4109.75200    2.24900   -9999.25   -9999.25    0.05800 3837.54300   -9999.25   -9999.25   -9999.25   -9999.25   -9999.25    4.27000  -26.04400   -9999.25   -9999.25
 12514.00000   -9999.25 4060.18900    2.25600   -9999.25   -9999.25   -9999.25 3838.85600   -9999.25   -9999.25   -9999.25   -9999.25   -9999.25   -9999.25  -25.84500   -9999.25   -9999.25
 12514.50000   -9999.25 4010.62700    2.25900   -9999.25   -9999.25   -9999.25 3840.16890   -9999.25   -9999.25   -9999.25   -9999.25   -9999.25   -9999.25  -25.72700   -9999.25   -9999.25
 12515.00000   -9999.25 3961.06400   -9999.25   -9999.25   -9999.25   -9999.25 3841.48190   -9999.25   -9999.25   -9999.25   -9999.25   -9999.25   -9999.25  -25.74100   -9999.25   -9999.25
 12515.50000   -9999.25 3911.50200   -9999.25   -9999.25   -9999.25   -9999.25 3842.79590   -9999.25   -9999.25   -9999.25   -9999.25   -9999.25   -9999.25  -25.73700   -9999.25   -9999.25
 12516.00000   -9999.25 3861.93990   -9999.25   -9999.25   -9999.25   -9999.25 3844.10890   -9999.25   -9999.25   -9999.25   -9999.25   -9999.25   -9999.25  -25.73700   -9999.25   -9999.25
 12516.50000   -9999.25 3810.27200   -9999.25   -9999.25   -9999.25   -9999.25 3845.42210   -9999.25   -9999.25   -9999.25   -9999.25   -9999.25   -9999.25  -25.73800   -9999.25   -9999.25
 12517.00000   -9999.25 3753.62890   -9999.25   -9999.25   -9999.25   -9999.25 3846.73510   -9999.25   -9999.25   -9999.25   -9999.25   -9999.25   -9999.25  -25.73700   -9999.25   -9999.25
 12517.50000   -9999.25 3696.98710   -9999.25   -9999.25   -9999.25   -9999.25 3848.04810   -9999.25   -9999.25   -9999.25   -9999.25   -9999.25   -9999.25  -25.73700   -9999.25   -9999.25
 12518.00000   -9999.25 3630.64790   -9999.25   -9999.25   -9999.25   -9999.25 3849.36210   -9999.25   -9999.25   -9999.25   -9999.25   -9999.25   -9999.25  -25.73700   -9999.25   -9999.25
 12518.50000   -9999.25 3630.64790   -9999.25   -9999.25   -9999.25   -9999.25 3850.67500   -9999.25   -9999.25   -9999.25   -9999.25   -9999.25   -9999.25  -25.73700   -9999.25   -9999.25
 12519.00000   -9999.25 3630.64790   -9999.25   -9999.25   -9999.25   -9999.25 3851.98800   -9999.25   -9999.25   -9999.25   -9999.25   -9999.25   -9999.25  -25.73700   -9999.25   -9999.25
 12519.50000   -9999.25 3630.64790   -9999.25   -9999.25   -9999.25   -9999.25 3853.30100   -9999.25   -9999.25   -9999.25   -9999.25   -9999.25   -9999.25  -25.73600   -9999.25   -9999.25
