~Version ---------------------------------------------------
VERS.   2.0 : CWLS log ASCII Standard -VERSION 2.0
WRAP.    NO : One line per depth step
DLM . SPACE : Column Data Section Delimiter
~Well ------------------------------------------------------
STRT .F                 3554.5 : START DEPTH
STOP .F                12582.0 : STOP DEPTH
STEP .F                    0.5 : STEP
NULL .                -9999.25 : NULL VALUE
COMP .                         : COMPANY
WELL .                         : WELL
FLD  .                         : FIELD
LOC  .                         : LOCATION
PROV .                         : PROVINCE
CNTY .                         : COUNTY
STAT .                         : STATE
CTRY .                         : COUNTRY
SRVC .                         : SERVICE COMPANY
DATE .                         : DATE
UWI  .                         : UNIQUE WELL ID
API  .                         : API NUMBER
SLAT .WGS84  5.986212384306398 : SURFACE LATITUDE
SLON .WGS84 4.1205887986095036 : SURFACE LONGITUDE
DATUM.F                2057.64 : DEPTH DATUM ELEV
~Curve Information -----------------------------------------
DEPT.F     : 
CILD.MMHO  : CONDUCTIVITY INDUCTION LOG DEEP
TEND.LBS   : TENSION FROM DENSITY LOG
RHOB.G/C3  : BULK DENSITY
PEF .B/E   : PHOTOELECTRIC FACTOR
NPHI.DEC   : NEUTRON POROSITY SANDSTONE
DRHO.G/C3  : DENSITY CORRECTION
TENR.LBS   : TENSION FROM RESISTIVITY
ILM .OHMM  : INDUCTION LOG MEDIUM RESISTIVITY
DTCO.US/F  : ACOUSTIC TRANSIT TIME SLOWNESS, DELTA T
DTSM.US/F  : SHEAR-WAVE INTERVAL TRANSIT TIME DELTA-T
TENS.LBS   : TENSION FROM SONIC
CALD.IN    : CALIPER FROM DENSITY LOG
SFLU.OHMM  : PHERICALLY FOCUSED LOG
SPR .MV    : SPONTANEOUS POTENTIAL
ILD .OHMM  : DEEP INDUCTION RESISTIVITY
GRR .GAPI  : GAMMA RAY
~Params ----------------------------------------------------
~Other -----------------------------------------------------
~ASCII -----------------------------------------------------
# ...
 9811.00000   -9999.25 3485.72290    2.30500    3.56900    0.33700    0.13300 3169.12790    4.33800   -9999.25   -9999.25   -9999.25   13.73800    4.93800   20.80900    4.27600  110.08600
 9811.50000   -9999.25 3485.07500    2.38000    3.48300    0.33300    0.15300 3168.72410    4.39400   -9999.25   -9999.25   -9999.25   13.99500    5.02700   20.67600    4.38300  112.72700
 9812.00000   -9999.25 3484.42700    2.42000    3.52600    0.32000    0.16600 3168.31690    4.48600   -9999.25   -9999.25   -9999.25   14.16600    5.18000   20.55500    4.49000  115.20000
 9812.50000   -9999.25 3483.77910    2.42900    3.59100    0.31900    0.15600 3207.92090    4.63400   -9999.25   -9999.25   -9999.25   13.80500    5.33300   20.43200    4.59700  118.93600
 9813.00000   -9999.25 3483.12990    2.46600    3.59100    0.31900    0.14700 3207.92090    4.78300   -9999.25   -9999.25   -9999.25   13.24200    5.48700   20.30800    4.70500  117.63300
 9813.50000   -9999.25 3482.48190    2.48400    3.48700    0.31900    0.13800 3207.92090    4.93200   -9999.25   -9999.25   -9999.25   13.34000    5.59400   20.18200    4.81200  113.34300
 9814.00000   -9999.25 3481.83400    2.42300    3.43400    0.31900    0.13000 3207.92090    5.08100   -9999.25   -9999.25   -9999.25   13.58300    5.50600   20.08000    4.91900  110.43100
 9814.50000   -9999.25 3481.18600    2.35100    3.49700    0.31900    0.12200 3207.92090    5.22900   -9999.25   -9999.25   -9999.25   13.81400    5.62400   19.93600    5.02600  108.38700
 9815.00000   -9999.25 3480.53810    2.36200    3.56600    0.31900    0.12200 3207.92090    5.37800   -9999.25   -9999.25   -9999.25   13.77900    5.81300   19.73300    5.13400  107.59000
 9815.50000   -9999.25 3479.88890    2.37800    3.63100    0.31800    0.15600 3207.92090    5.52700   -9999.25   -9999.25   -9999.25   13.74500    6.00100   19.53700    5.21400  111.48000
 9816.00000   -9999.25 3479.24100    2.39400    3.63000    0.31800    0.18100 3207.92090    5.67600   -9999.25   -9999.25   -9999.25   13.67100    6.18900   19.33900    5.36000  113.97600
 9816.50000   -9999.25 3478.59300    2.41100    3.63000    0.29400    0.18000 3207.92090    5.82400   -9999.25   -9999.25   -9999.25   13.58700    6.31700   19.14400    5.53100  116.22200
 9817.00000   -9999.25 3477.94510    2.42800    3.59400    0.29800    0.17600 3207.92090    5.97300   -9999.25   -9999.25   -9999.25   13.49600    6.48500   18.94000    5.70200  114.16800
 9817.50000   -9999.25 3477.29710    2.44200    3.62400    0.29300    0.17300 3207.92090    6.12200   -9999.25   -9999.25   -9999.25   13.48600    6.82700   18.75400    5.87400  112.01800
 9818.00000   -9999.25 3476.64790    2.44200    3.65900    0.29800    0.16900 3207.92090    6.27100   -9999.25   -9999.25   -9999.25   13.51900    7.15900   18.54000    6.03000  106.21000
 9818.50000   -9999.25 3481.67500    2.43300    3.67500    0.33000    0.16600 3207.92090    6.41900   -9999.25   -9999.25   -9999.25   13.54600    7.49000   18.68100    6.24100  100.44500
 9819.00000   -9999.25 3490.76610    2.41700    3.68900    0.34300    0.16600 3207.92090    6.56800   -9999.25   -9999.25   -9999.25   13.57500    7.91900   18.87600    6.54700   97.43200
 9819.50000   -9999.25 3499.85690    2.38300    3.59900    0.34200    0.17300 3207.92090    6.71700   -9999.25   -9999.25   -9999.25   13.60200    7.74400   19.07900    6.85200   99.59700
 9820.00000   -9999.25 3508.94800    2.33500    3.51800    0.33500    0.17900 3207.92090    6.97300   -9999.25   -9999.25   -9999.25   13.62000    7.49600   19.27300    7.36400  103.68600
 9820.50000   -9999.25 3518.03910    2.32200    3.42500    0.32800    0.18500 3207.92090    6.92700   -9999.25   -9999.25   -9999.25   13.53700    7.23100   19.47100    7.34500  107.70800
 9821.00000   -9999.25 3527.12990    2.35400    3.39600    0.32100    0.19100 3207.92090    6.78300   -9999.25   -9999.25   -9999.25   13.46100    7.25300   19.66900    7.28700  107.31300
 9821.50000   -9999.25 3536.22000    2.41600    3.43700    0.31300    0.19800 3207.92090    6.64000   -9999.25   -9999.25   -9999.25   13.37900    7.27700   19.86500    7.22900  104.96200
 9822.00000   -9999.25 3545.31100    2.47700    3.50800    0.30900    0.20700 3207.92090    6.49600   -9999.25   -9999.25   -9999.25   13.31500    7.30100   20.07300    7.17100  104.62800
 9822.50000   -9999.25 3554.40210    2.51200    3.58400    0.30300    0.21900 3207.92090    6.35300   -9999.25   -9999.25   -9999.25   13.28100    7.32500   20.30800    7.11300  105.62400
 9823.00000   -9999.25 3563.49290    2.49700    3.64500    0.29600    0.20800 3207.92090    6.21000   -9999.25   -9999.25   -9999.25   13.23200    7.36400   20.54900    7.05600  105.00200
 9823.50000   -9999.25 3572.58400    2.45100    3.86200    0.29200    0.18400 3207.92090    6.06600   -9999.25   -9999.25   -9999.25   13.18900    7.15700   20.79500    6.99800  101.98000
 9824.00000   -9999.25 3581.67500    2.39300    4.07000    0.29300    0.16000 3207.92090    5.92300   -9999.25   -9999.25   -9999.25   13.14100    6.60100   20.68700    6.70600   98.76100
 9824.50000   -9999.25 3590.76610    2.33200    4.15700    0.29900    0.13600 3207.92090    5.77900   -9999.25   -9999.25   -9999.25   13.09300    6.04500   20.44800    6.24400   96.13200
 9825.00000   -9999.25 3594.48800    2.28400    4.01000    0.34200    0.11800 3207.92090    5.60700   -9999.25   -9999.25   -9999.25   13.12400    5.48900   20.21400    5.78100   97.44200
 9825.50000   -9999.25 3583.92800    2.24200    3.90500    0.34000    0.11100 3207.92090    5.67600   -9999.25   -9999.25   -9999.25   13.32400    4.93800   19.98600    5.50600   99.84600
 9826.00000   -9999.25 3575.10400    2.19900    3.82900    0.31800    0.10400 3207.92090    5.76100   -9999.25   -9999.25   -9999.25   13.48500    5.05200   19.74800    5.50600  102.56900
 9826.50000   -9999.25 3566.28100    2.18300    3.85100    0.31900    0.11500 3207.92090    5.84600   -9999.25   -9999.25   -9999.25   13.65600    5.31000   19.52200    5.62600  102.09100
 9827.00000   -9999.25 3557.45700    2.17800    3.87000    0.32400    0.12800 3207.92090    5.93100   -9999.25   -9999.25   -9999.25   13.79500    5.30300   19.30300    5.77300  102.61100
 9827.50000   -9999.25 3548.63400    2.18100    3.86200    0.32800    0.14200 3207.92090    6.01600   -9999.25   -9999.25   -9999.25   13.81800    5.27100   19.36800    5.92000  106.08600
 9828.00000   -9999.25 3539.81010    2.22100    3.85200    0.32100    0.15100 3207.92090    6.10100   -9999.25   -9999.25   -9999.25   13.85100    5.23900   19.48900    6.05200  107.75800
 9828.50000   -9999.25 3530.98710    2.25200    3.85200    0.31400    0.15300 3207.92090    6.18600   -9999.25   -9999.25   -9999.25   13.50400    5.20700   19.60800    6.14000  109.75800
 9829.00000   -9999.25 3522.16310    2.25100    3.83500    0.30700    0.11500 3207.92090    6.27100   -9999.25   -9999.25   -9999.25   13.14600    5.17500   19.72000    6.22800  110.90900
 9829.50000   -9999.25 3513.34010    2.23000    3.86000    0.28900    0.08900 3207.92090    6.35600   -9999.25   -9999.25   -9999.25   12.95100    5.12800   19.84000    6.31600  110.87800
 9830.00000   -9999.25 3504.51610    2.21300    3.93700    0.29100    0.06500 3207.92090    6.44100   -9999.25   -9999.25   -9999.25   12.74200    5.30700   19.95600    6.40400  108.27300
 9830.50000   -9999.25 3495.69190    2.21200    4.14000    0.29700    0.05400 3207.92090    6.54100   -9999.25   -9999.25   -9999.25   12.61400    5.92100   20.06000    6.49200  105.25300
 9831.00000   -9999.25 3486.86890    2.19800    4.33000    0.32200    0.05100 3207.92090    6.65900   -9999.25   -9999.25   -9999.25   12.66800    5.80100   20.19000    6.58000  103.23000
 9831.50000   -9999.25 3476.37790    2.17800    4.39900    0.33300    0.05400 3207.92090    6.77700   -9999.25   -9999.25   -9999.25   12.86300    5.50600   20.44000    6.66800  104.28400
 9832.00000   -9999.25 3498.00490    2.17200    4.43700    0.32500    0.05600 3207.92090    6.89400   -9999.25   -9999.25   -9999.25   13.04300    5.54400   20.66700    6.75600  105.63100
