~Version ---------------------------------------------------
VERS.   2.0 : CWLS log ASCII Standard -VERSION 2.0
WRAP.    NO : One line per depth step
DLM . SPACE : Column Data Section Delimiter
~Well ------------------------------------------------------
STRT .F                6269.0 : START DEPTH
STOP .F               11187.0 : STOP DEPTH
STEP .F                   0.5 : STEP
NULL .               -9999.25 : NULL VALUE
COMP .                        : COMPANY
WELL .                        : WELL
FLD  .                        : FIELD
LOC  .                        : LOCATION
PROV .                        : PROVINCE
CNTY .                        : COUNTY
STAT .                        : STATE
CTRY .                        : COUNTRY
SRVC .                        : SERVICE COMPANY
DATE .                        : DATE
UWI  .                        : UNIQUE WELL ID
API  .                        : API NUMBER
SLAT .WGS84 2.444653947148602 : SURFACE LATITUDE
SLON .WGS84 7.424080268820987 : SURFACE LONGITUDE
DATUM.F                   nan : DEPTH DATUM ELEV
~Curve Information -----------------------------------------
DEPT.F     : DEPTH (BOREHOLE) {F12.4}
C2  .IN    : Caliper 2 {F11.4}
CALI.IN    : Caliper {F11.4}
CBL .MV    : CBL {F11.4}
CGR .GAPI  : Gamma Ray Contribution from Thorium and Potassium {F11.4}
DCAL.IN    : Differential Caliper {F11.4}
DEVI.DEG   : Hole Deviation {F11.4}
DPHI.CFCF  : Density Porosity {F11.4}
DRHO.G/C3  : Bulk Density Correction {F11.4}
DTCO.US/F  : Delta-T Compressional {F11.4}
DTSM.US/F  : Delta-T Shear {F11.4}
GR  .GAPI  : Gamma Ray {F11.4}
GTEM.DEGF  : Generalized Borehole Temperature {F11.4}
PEF .      : Photoelectric Factor {F11.4}
PHIX.CFCF  : CrossPlot Porosity {F11.4}
POTA.%     : Average Potassium Yield {F11.4}
RB  .DEG   : Relative Bearing {F11.4}
RHOB.G/C3  : Bulk Density {F11.4}
SGR .GAPI  : Spectral GR {F11.4}
STIT.F     : Stuck Tool Indicator, Total {F11.4}
TENS.LBF   : Cable Tension {F11.4}
THOR.PPM   : Average Thorium Yield {F11.4}
TNPH.CFCF  : Thermal Neutron Porosity {F11.4}
URAN.PPM   : Average Uranium Yield {F11.4}
WTEP.DEGF  : Well Temperature {F11.4}
~Params ----------------------------------------------------
~Other -----------------------------------------------------
~ASCII -----------------------------------------------------
# ...
 8879.00000    7.98590    8.07520    7.04710   10.37630    0.15540   87.54890   -0.07520    0.03010   48.51990   96.41690   65.42030  102.09510    3.12580    0.01660    0.36680  187.29280    2.83100   44.84910    0.00000   26.38260    1.03690    0.05820    4.69630  111.86340
 8879.50000    7.99000    8.06580    5.62730   10.52400    0.15280   90.00000   -0.07550    0.02540   50.41000   96.56640   63.94260  102.09710    3.09530    0.01620    0.37650  188.41640    2.83160   44.54190    0.00000   25.89550    1.02420    0.05730    4.63430  111.83000
 8880.00000    7.99000    8.07940   -0.05310   10.67020    0.15960   86.31230   -0.05450    0.00840   51.26190   95.51720   65.01730  102.09900    3.10230    0.02580    0.38620  186.47610    2.79780   44.22560    0.00000   25.41670    1.01120    0.06440    4.57130  111.79400
 8880.50000    7.99000    8.09410   15.50480   10.81360    0.16690   86.72550   -0.05340    0.00760   51.72190   94.68180   70.56980  102.10090    3.12700    0.02310    0.39570  190.66700    2.79600   43.89500    0.00000   24.94400    0.99780    0.05610    4.50680  111.77000
 8881.00000    7.99000    8.10170    1.91060   11.19910    0.17060   89.10290   -0.04930    0.00420   50.63740   94.24390   67.48010  102.10280    3.13630    0.02040    0.41250  184.49040    2.78940   43.60790    0.00000   24.46810    1.01670    0.04560    4.41510  111.81200
 8881.50000    8.00380    8.10760   15.33860   12.36790    0.18060   85.88180   -0.04730   -0.00030   50.02060   94.12250   65.19640  102.10470    3.10640    0.02260    0.44990  186.99100    2.78610   43.32980    0.00000   23.97680    1.15780    0.04970    4.21800  111.79700
 8882.00000    8.00840    8.15710    5.92960   13.28670    0.20740   89.85330   -0.04290   -0.00020   49.98280   94.25810   60.85300  102.10670    3.17550    0.02230    0.48140  186.46980    2.77900   43.26570    0.00000   23.48580    1.25560    0.04590    4.08410  111.84350
 8882.50000    7.99000    8.20750   10.79280   14.00770    0.22300   88.82180   -0.03630   -0.00140   52.07930   94.51280   61.07690  102.10860    3.16520    0.02360    0.50860  187.08850    2.76840   43.28990    0.00000   23.00390    1.31690    0.04440    3.98920  111.81200
 8883.00000    8.01760    8.17730    9.27320   14.72100    0.22200   86.84760   -0.05780    0.02260   55.70830   94.89560   57.58420  102.11050    3.20180    0.01890    0.53560  187.53510    2.80310   43.29530    0.00000   22.53050    1.37750    0.04840    3.89270  111.79850
 8883.50000    7.99820    8.18100   19.77760   15.44180    0.21410   87.82400   -0.06140    0.03120   56.99370   95.08600   56.77820  102.11240    3.20950    0.01740    0.56280  187.54230    2.80890   43.32760    0.00000   22.05750    1.43890    0.04730    3.79890  111.84800
 8884.00000    7.98690    8.15710   20.14000   16.17090    0.19660   86.09370   -0.07350    0.04810   49.62440   95.30080   57.22600  102.11430    3.25170    0.01340    0.59030  189.98180    2.82840   43.38500    0.00000   21.57460    1.50100    0.04650    3.70740  111.85250
 8884.50000    7.98470    8.12590   12.22970   16.89480    0.18000   86.42530   -0.07380    0.04780   53.70470   95.46210   56.73340  102.11630    3.17380    0.01540    0.61760  186.97700    2.82890   43.42970    0.00000   21.08790    1.56270    0.05300    3.61490  111.80600
 8885.00000    7.97770    8.11300   -8.51770   17.63890    0.17010   87.65270   -0.05880    0.03060   51.53670   95.22060   54.31540  102.11820    3.12730    0.02020    0.64570  188.54530    2.80470   43.52590    0.00000   20.59850    1.62620    0.05300    3.52660  111.84800
 8885.50000    7.97770    8.09410   12.22560   18.38500    0.16070   92.07970   -0.06680    0.03290   52.15210   95.11800   51.62880  102.12010    3.04720    0.02010    0.67390  187.75180    2.81750   43.62460    0.00000   20.11220    1.68990    0.06020    3.43840  111.81200
 8886.00000    7.98080    8.05320    4.46830   19.12520    0.14190   86.79650   -0.03550    0.00480   54.78410   95.46350   55.21100  102.12200    2.97720    0.03000    0.70180  187.16120    2.76720   43.70740    0.00000   19.63030    1.75300    0.05880    3.34890  111.88850
 8886.50000    7.98390    8.04880   10.97790   19.48510    0.14120   87.03690   -0.03820    0.00110   52.12780   95.34510   57.22600  102.12390    2.91600    0.03100    0.72010  188.63340    2.77150   43.88320    0.00000   19.14830    1.75420    0.06330    3.32380  111.82550
 8887.00000    7.98300    8.11100   11.79390   19.49500    0.17180   89.01400   -0.02990   -0.00400   54.68990   95.25470   58.30060  102.12590    2.91790    0.03110    0.72920  188.91110    2.75810   44.19150    0.00000   18.66640    1.70170    0.05720    3.36450  111.86600
 8887.50000    7.99000    8.12010   15.23440   19.36320    0.17980   89.11450   -0.05110    0.01210   50.23570   95.43460   56.39930  102.12780    2.89130    0.02530    0.72570  188.44320    2.79230   44.55310    0.00000   18.03330    1.68150    0.05990    3.43170  111.84800
 8888.00000    7.99000    8.11090    4.54150   19.15210    0.17520   84.79480   -0.04720    0.00740   50.82540   95.91670   58.01130  102.12970    2.91070    0.02420    0.71920  188.62940    2.78590   44.73290    0.00000   16.70000    1.65430    0.05380    3.48490  111.80300
 8888.50000    7.97360    8.11300   -2.17670   18.97430    0.16800   88.40420   -0.04470    0.00540   50.92740   96.00360   60.69800  102.13160    2.96590    0.02100    0.71390  188.00700    2.78190   44.98960    0.00000   16.70000    1.63000    0.04390    3.54410  111.83000
 8889.00000    7.98590    8.11890    4.84830   18.82390    0.17710   87.99790   -0.04550    0.00650   49.54180   96.05190   62.24110  102.13350    2.94950    0.02350    0.70860  189.65990    2.78320   45.23070    0.00000   16.70000    1.61490    0.05070    3.59750  111.77000
 8889.50000    7.97570    8.14940    1.59140   18.61040    0.18700   87.77350   -0.05190    0.01010   50.73780   95.99160   61.52460  102.13550    2.93780    0.01890    0.70210  187.50000    2.79360   45.40690    0.00000   16.26670    1.58770    0.04380    3.65050  111.81650
 8890.00000    7.98390    8.15290    9.53890   18.41460    0.19290   87.57700   -0.07030    0.02940   52.36540   95.78240   62.06200  102.13740    3.03660    0.01260    0.69610  189.43740    2.82320   45.62480    0.00000   15.78470    1.56200    0.04110    3.70690  111.82100
 8890.50000    7.97460    8.15890   16.81030   18.21350    0.19120   89.40550   -0.06570    0.02990   51.39480   95.70050   61.34550  102.13930    3.08290    0.01310    0.69000  189.70660    2.81580   45.82840    0.00000   15.30280    1.53580    0.03880    3.76200  111.83000
 8891.00000    7.99610    8.15460    6.80530   17.99230    0.20000   87.62410   -0.06070    0.03260   52.19180   95.91800   56.68860  102.14120    3.07480    0.01420    0.68310  188.55040    2.80770   45.97930    0.00000   14.82080    1.50800    0.03790    3.81270  111.83600
 8891.50000    7.99610    8.13820    3.55810   17.55130    0.19190   89.80120   -0.05910    0.02980   50.74180   96.09900   57.06480  102.14310    3.06360    0.01370    0.66990  188.57990    2.80520   46.12520    0.00000   14.34550    1.44940    0.03530    3.89270  111.81800
 8892.00000    7.97770    8.09410    4.50790   17.14290    0.16070   88.83090   -0.07630    0.04030   50.54010   96.29480   57.15430  102.14510    3.11710    0.01240    0.65170  188.21280    2.83290   46.32310    0.00000   13.87280    1.43180    0.04590    3.97530  111.88400
 8892.50000    7.98470    8.08570    6.07450   16.92730    0.16010   85.90070   -0.10220    0.05660   52.82320   96.72530   59.48280  102.14700    3.12320    0.00510    0.63720  190.61970    2.87460   46.14480    0.00000   13.56810    1.45270    0.04930    3.98040  111.84800
 8893.00000    7.98390    8.07940   18.29430   16.49150    0.15650   87.34820   -0.09470    0.04600   54.52400   97.59250   57.22600  102.14890    3.12630    0.00920    0.61100  188.95840    2.86250   45.87970    0.00000   13.40110    1.47530    0.05570    4.00360  111.81060
