~Version ---------------------------------------------------
VERS.   2.0 : CWLS log ASCII Standard -VERSION 2.0
WRAP.    NO : One line per depth step
DLM . SPACE : Column Data Section Delimiter
~Well ------------------------------------------------------
STRT .F                6269.0 : START DEPTH
STOP .F               11187.0 : STOP DEPTH
STEP .F                   0.5 : STEP
NULL .               -9999.25 : NULL VALUE
COMP .                        : COMPANY
WELL .                        : WELL
FLD  .                        : FIELD
LOC  .                        : LOCATION
PROV .                        : PROVINCE
CNTY .                        : COUNTY
STAT .                        : STATE
CTRY .                        : COUNTRY
SRVC .                        : SERVICE COMPANY
DATE .                        : DATE
UWI  .                        : UNIQUE WELL ID
API  .                        : API NUMBER
SLAT .WGS84 2.444653947148602 : SURFACE LATITUDE
SLON .WGS84 7.424080268820987 : SURFACE LONGITUDE
DATUM.F                   nan : DEPTH DATUM ELEV
~Curve Information -----------------------------------------
DEPT.F     : DEPTH (BOREHOLE) {F12.4}
C2  .IN    : Caliper 2 {F11.4}
CALI.IN    : Caliper {F11.4}
CBL .MV    : CBL {F11.4}
CGR .GAPI  : Gamma Ray Contribution from Thorium and Potassium {F11.4}
DCAL.IN    : Differential Caliper {F11.4}
DEVI.DEG   : Hole Deviation {F11.4}
DPHI.CFCF  : Density Porosity {F11.4}
DRHO.G/C3  : Bulk Density Correction {F11.4}
DTCO.US/F  : Delta-T Compressional {F11.4}
DTSM.US/F  : Delta-T Shear {F11.4}
GR  .GAPI  : Gamma Ray {F11.4}
GTEM.DEGF  : Generalized Borehole Temperature {F11.4}
PEF .      : Photoelectric Factor {F11.4}
PHIX.CFCF  : CrossPlot Porosity {F11.4}
POTA.%     : Average Potassium Yield {F11.4}
RB  .DEG   : Relative Bearing {F11.4}
RHOB.G/C3  : Bulk Density {F11.4}
SGR .GAPI  : Spectral GR {F11.4}
STIT.F     : Stuck Tool Indicator, Total {F11.4}
TENS.LBF   : Cable Tension {F11.4}
THOR.PPM   : Average Thorium Yield {F11.4}
TNPH.CFCF  : Thermal Neutron Porosity {F11.4}
URAN.PPM   : Average Uranium Yield {F11.4}
WTEP.DEGF  : Well Temperature {F11.4}
~Params ----------------------------------------------------
~Other -----------------------------------------------------
~ASCII -----------------------------------------------------
# ...
 9865.00000    8.06360    8.36010    7.55030   24.95120    0.33550   88.80170    0.10490   -0.01520   90.40840   -9999.25   50.15110  105.88140    3.96130    0.12460    0.85010  190.54600    2.54120   45.41920    0.00000   15.83950    2.69070    0.13990    2.78840  112.56800
 9865.50000    8.05130    8.41170    9.83970   24.65270    0.35460   92.62080    0.14440   -0.02340   88.69850   -9999.25   50.26620  105.88330    4.38990    0.12780    0.84490  189.36650    2.47750   45.63470    0.00000   15.36380    2.62750    0.10680    2.85840  112.44200
 9866.00000    8.06360    8.40810   24.57840   24.34360    0.35900   86.27860    0.13660   -0.00500   89.14690   -9999.25   52.68420  105.88520    4.55220    0.12340    0.83940  189.96560    2.49010   45.83060    0.00000   14.90110    2.56320    0.10680    2.92720  112.47200
 9866.50000    8.05660    8.41660    4.62990   23.69860    0.35960   88.81070    0.14100   -0.00880   89.20380   -9999.25   53.31110  105.88710    4.52310    0.13060    0.82240  189.56010    2.48300   45.81460    0.00000   14.03070    2.46300    0.11720    3.01290  112.46000
 9867.00000    8.06360    8.40440   15.23030   23.07270    0.35720   90.30780    0.13380   -0.00280   89.27420   -9999.25   54.53930  105.88900    4.17090    0.15980    0.80610  188.65250    2.49460   45.83570    0.00000   13.83000    2.36470    0.18270    3.10110  112.44200
 9867.50000    8.08810    8.39630   -1.61870   22.38980    0.36570   88.34020    0.09830    0.01930   89.32090   -9999.25   58.30070  105.89100    3.53940    0.15920    0.78880  185.29010    2.55170   45.83720    0.00000   13.49250    2.25390    0.21500    3.19430  112.50050
 9868.00000    8.06970    8.41990    1.65820   21.75220    0.36790   86.25040    0.05310    0.04660   89.05990   -9999.25   58.70370  105.89290    3.12250    0.14240    0.77220  188.13010    2.62450   45.85480    0.00000   13.02600    2.15400    0.22450    3.28350  112.47800
 9868.50000    8.06360    8.60160    0.65240   21.12250    0.45330   90.31010    0.00580    0.07790   88.00740   -9999.25   61.16000  105.89480    2.94510    0.07640    0.75580  187.88160    2.70070   45.89070    0.00000   12.68230    2.05480    0.12990    3.37420  112.41500
 9869.00000    8.05310    8.68120  -12.04770   20.48500    0.48630   85.84330    0.00150    0.07840   88.69220   -9999.25   60.89140  105.89670    3.03140    0.08870    0.73910  187.89020    2.70760   45.91170    0.00000   12.44430    1.95480    0.16250    3.46390  112.56800
 9869.50000    8.05950    8.73570    3.53740   19.84840    0.51580   87.23990    0.03250    0.05030   45.52130  106.16010   66.93640  105.89860    3.06570    0.10130    0.72250  187.69600    2.65770   45.93640    0.00000   11.33000    1.85490    0.15890    3.55400  112.44200
 9870.00000    8.06360    8.81290    1.42520   19.22460    0.55490   90.58580    0.03350    0.05090   88.76980  180.31000   67.52490  105.90060    3.27480    0.11100    0.70640  187.34300    2.65610   45.99370    0.00000   11.12600    1.75600    0.17880    3.64680  112.45100
 9870.50000    8.05130    8.80630   -5.37150   18.41100    0.54540   91.70650    0.03700    0.05190   89.53790  141.45910   63.49490  105.90250    3.36310    0.10520    0.68750  187.84840    2.65050   45.84020    0.00000   10.65970    1.61380    0.16280    3.73670  112.46000
 9871.00000    8.06360    8.82040    2.86310   17.54480    0.55850   87.13440    0.01190    0.07350   53.29070   93.30450   57.49460  105.90440    3.38510    0.09620    0.66670  187.87390    2.69080   45.56010    0.00000   10.18870    1.46680    0.16840    3.81660  112.47350
 9871.50000    8.05950    8.81810    3.49710   16.89320    0.55530   89.04310    0.02270    0.06300   50.69620   93.38480   57.88870  105.90630    3.36510    0.11270    0.65180  188.11780    2.67340   45.11090    0.00000    9.71080    1.35150    0.19350    3.84420  112.48830
 9872.00000    8.05130    8.82570   -3.20670   16.70290    0.55460   87.58540    0.02330    0.06690   50.50460   92.53520   58.69470  105.90820    3.39210    0.09560    0.64340  189.71060    2.67240   44.66120    0.00000    9.24440    1.34280    0.15550    3.80880  112.52300
 9872.50000    8.04520    8.78030  -13.37560   16.51620    0.52970   89.11120    0.06040    0.03160   48.73120   93.28600   61.73960  105.91020    3.20660    0.11450    0.63520  186.83100    2.61280   44.22120    0.00000    8.78780    1.33440    0.15970    3.77430  112.50500
 9873.00000    8.06050    8.37360    2.39920   16.35540    0.34060   88.21410    0.08790    0.00760   47.95650   94.00080   62.42020  105.91210    3.15020    0.12700    0.62790  187.76520    2.56850   43.85050    0.00000    8.31200    1.32810    0.15960    3.74570  112.48400
 9873.50000    8.05750    8.28300    5.76470   16.32060    0.29450   89.79880    0.09400   -0.00600   48.41710  114.27320   65.19640  105.91400    3.09210    0.15530    0.62550  186.45130    2.55870   43.81830    0.00000    7.83740    1.33200    0.21130    3.74610  112.44800
 9874.00000    8.06150    8.27040   -2.26820   16.20140    0.29030   87.75000    0.06210    0.00040   87.96200  139.49150   59.95740  105.91590    3.05450    0.15440    0.61980  184.62590    2.61000   43.56020    0.00000    7.37550    1.32920    0.23950    3.72720  112.49600
 9874.50000    8.06360    8.25660    2.06200   16.06110    0.28450   89.11310    0.02900    0.00870   87.58020  177.88070   57.18120  105.91780    2.99650    0.13910    0.61330  187.01500    2.66330   43.24580    0.00000    6.90690    1.32470    0.24060    3.70340  112.47800
 9875.00000    8.05750    8.24530    1.17630   15.93710    0.27580   91.72510    0.01360    0.01430   67.08240  115.29690   57.36030  105.91980    2.98570    0.11870    0.60740  186.34020    2.68810   42.97570    0.00000    6.48140    1.32160    0.21480    3.68350  112.49600
 9875.50000    8.05950    8.24110    1.27210   15.74840    0.27480   89.69750    0.04190   -0.01320   44.81610  113.95220   62.46500  105.92170    2.92640    0.10710    0.59900  189.11420    2.64260   42.53150    0.00000   46.98950    1.31310    0.16210    3.64870  112.46000
 9876.00000    8.06970    8.24530    1.60450   15.85340    0.28200   87.19880    0.05200   -0.02120   48.03640  113.91010   65.06210  105.92360    2.95550    0.10810    0.59550  184.72690    2.62630   42.30810    0.00000   46.40380    1.36790    0.15420    3.60400  112.48700
 9876.50000    8.06770    8.25570    8.24220   15.94600    0.28620   90.19470    0.04430   -0.01510   45.57490  102.86900   60.76340  105.92550    2.95940    0.09990    0.59160  185.26500    2.63860   42.05110    0.00000   45.90780    1.42170    0.14420    3.55640  112.52000
 9877.00000    8.07090    8.29350    9.17560   16.76160    0.30650   88.12590    0.03000   -0.01200   48.83610  113.64990   57.31550  105.92740    2.90960    0.09680    0.60380  185.71910    2.66170   42.17550    0.00000   45.41750    1.60560    0.15140    3.46220  112.46510
 9877.50000    8.06970    8.29770    2.06200   17.53320    0.30790   88.81730    0.03130   -0.01540   47.74530  113.43350   52.22370  105.92940    2.91070    0.09470    0.61450  187.71190    2.65960   42.19280    0.00000   44.92900    1.78510    0.14570    3.35940  112.52000
 9878.00000    8.07280    8.31130    2.29710   17.54350    0.31620   91.46860    0.02010   -0.00550   46.46660  112.94340   53.29830  105.93130    2.93390    0.09020    0.60300  188.25470    2.67770   41.78390    0.00000   44.43470    1.85900    0.14690    3.30230  112.46000
 9878.50000    8.06080    8.33760    4.25210   17.81820    0.32300   87.81110    0.02850   -0.00960   47.60650   90.51710   51.10420  105.93320    2.92810    0.09100    0.60090  187.98930    2.66400   42.01520    0.00000   44.06400    1.95920    0.14010    3.29640  112.46000
 9879.00000    8.06770    8.35430    9.90900   18.16070    0.33480   87.81970    0.02230   -0.00400   51.35450   92.75220   50.10630  105.93510    2.94160    0.08470    0.60120  188.15810    2.67410   42.40870    0.00000   43.81460    2.06640    0.13230    3.30340  112.49000
