~Version ---------------------------------------------------
VERS.   2.0 : CWLS log ASCII Standard -VERSION 2.0
WRAP.    NO : One line per depth step
DLM . SPACE : Column Data Section Delimiter
~Well ------------------------------------------------------
STRT .F                6269.0 : START DEPTH
STOP .F               11187.0 : STOP DEPTH
STEP .F                   0.5 : STEP
NULL .               -9999.25 : NULL VALUE
COMP .                        : COMPANY
WELL .                        : WELL
FLD  .                        : FIELD
LOC  .                        : LOCATION
PROV .                        : PROVINCE
CNTY .                        : COUNTY
STAT .                        : STATE
CTRY .                        : COUNTRY
SRVC .                        : SERVICE COMPANY
DATE .                        : DATE
UWI  .                        : UNIQUE WELL ID
API  .                        : API NUMBER
SLAT .WGS84 2.444653947148602 : SURFACE LATITUDE
SLON .WGS84 7.424080268820987 : SURFACE LONGITUDE
DATUM.F                   nan : DEPTH DATUM ELEV
~Curve Information -----------------------------------------
DEPT.F     : DEPTH (BOREHOLE) {F12.4}
C2  .IN    : Caliper 2 {F11.4}
CALI.IN    : Caliper {F11.4}
CBL .MV    : CBL {F11.4}
CGR .GAPI  : Gamma Ray Contribution from Thorium and Potassium {F11.4}
DCAL.IN    : Differential Caliper {F11.4}
DEVI.DEG   : Hole Deviation {F11.4}
DPHI.CFCF  : Density Porosity {F11.4}
DRHO.G/C3  : Bulk Density Correction {F11.4}
DTCO.US/F  : Delta-T Compressional {F11.4}
DTSM.US/F  : Delta-T Shear {F11.4}
GR  .GAPI  : Gamma Ray {F11.4}
GTEM.DEGF  : Generalized Borehole Temperature {F11.4}
PEF .      : Photoelectric Factor {F11.4}
PHIX.CFCF  : CrossPlot Porosity {F11.4}
POTA.%     : Average Potassium Yield {F11.4}
RB  .DEG   : Relative Bearing {F11.4}
RHOB.G/C3  : Bulk Density {F11.4}
SGR .GAPI  : Spectral GR {F11.4}
STIT.F     : Stuck Tool Indicator, Total {F11.4}
TENS.LBF   : Cable Tension {F11.4}
THOR.PPM   : Average Thorium Yield {F11.4}
TNPH.CFCF  : Thermal Neutron Porosity {F11.4}
URAN.PPM   : Average Uranium Yield {F11.4}
WTEP.DEGF  : Well Temperature {F11.4}
~Params ----------------------------------------------------
~Other -----------------------------------------------------
~ASCII -----------------------------------------------------
 6269.00000    8.27540    8.22170   18.43450   42.43120    0.37350   46.36400    0.04320    0.05800   68.94070  125.41760  131.86160   92.07280    2.84840    0.09650    1.56580  192.57550    2.64050   72.16450    0.00000   43.77960    3.83480    0.18980    4.05060  109.92200
 6269.50000    8.18560    8.27490    0.97090   42.43120    0.35510   42.23140    0.04320    0.05800   68.94070  125.41760  128.27940   92.07470    2.84840    0.09650    1.56580  203.20910    2.64050   72.16450    0.00000   43.53930    3.83480    0.13810    4.05060  109.90480
 6270.00000    8.36320    8.25590    2.66650   42.43120    0.43430   42.62520   -0.00310    0.06770   68.94070  125.41760  116.35060   92.07660    2.96800    0.07190    1.56580  194.65680    2.71500   72.16450    0.00000   41.66000    3.83480    0.12850    4.05060  109.85000
 6270.50000    8.54710    8.25360   10.76010   42.43120    0.52410   46.77780   -0.01410    0.05260   71.34600  123.12490   97.97380   92.07860    2.97800    0.06060    1.56580  199.98310    2.73280   72.16450    0.00000   41.66000    3.83480    0.11300    4.05060  109.95800
 6271.00000    8.61870    8.33020   14.21790   42.43120    0.59820   39.86930   -0.01560    0.03960   65.64550  120.34320   91.88400   92.08050    2.98950    0.05750    1.56580  197.98140    2.73520   72.16450    0.00000   41.61690    3.83480    0.10700    4.05060  109.96700
 6271.50000    8.59470    8.39310    3.59790   42.43120    0.61830   44.55870   -0.00930    0.02680   65.80650  113.92020   88.76750   92.08240    2.97220    0.05760    1.56580  203.90500    2.72490   72.16450    0.00000   41.13630    3.83480    0.10120    4.05060  109.88900
 6272.00000    8.33100    8.45760    1.56370   42.43120    0.51910   42.49040   -0.00570    0.02290   57.51210  110.40400   85.65090   92.08430    2.92540    0.05730    1.56580  200.42230    2.71920   72.16450    0.00000   40.65570    3.83480    0.09710    4.05060  109.91000
 6272.50000    8.20180    8.52830   13.81290   42.43120    0.48850   45.47370    0.00270    0.01730   61.56250  110.23680   84.93450   92.08630    2.83790    0.06140    1.56580  198.34580    2.70570   72.16450    0.00000   40.17510    3.83480    0.09880    4.05060  109.86200
 6273.00000    8.10840    8.44730    3.72450   42.43120    0.40110   40.59060    0.02340    0.00260   58.90930  110.27150   84.82700   92.08820    2.84240    0.07290    1.56580  195.17990    2.67230   72.16450    0.00000   39.69280    3.83480    0.10570    4.05060  109.94000
 6273.50000    8.05750    8.28540   14.91030   42.43120    0.29560   42.55300    0.02310    0.00150   62.77540  111.46640   92.77950   92.09010    2.89340    0.07720    1.56580  197.61260    2.67280   72.16450    0.00000   39.20810    3.83480    0.11510    4.05060  109.89500
 6274.00000    8.05130    8.12350    3.18870   42.43120    0.21230   45.30130   -0.00080    0.02210   65.04300  111.95700   93.13780   92.09200    2.98250    0.07640    1.56580  197.76090    2.71130   72.16450    0.00000   38.72340    3.83480    0.13680    4.05060  109.94000
 6274.50000    8.04640    8.10120    5.58910   41.02390    0.19880   43.43470   -0.02560    0.04140   66.76240  110.54500   90.63020   92.09390    3.01860    0.06390    1.51230  196.26510    2.75120   70.76000    0.00000   38.24270    3.71690    0.13310    4.05100  109.96060
 6275.00000    8.08320    8.09410   -0.18740   40.25580    0.21360   41.88020   -0.01790    0.03480   63.12400  109.98690   82.89260   92.09580    3.09280    0.06860    1.48950  194.31680    2.73880   69.66440    0.00000   37.76210    3.61350    0.13610    4.00640  109.93400
 6275.50000    8.06970    8.09410   -4.28300   39.49980    0.20690   43.99370   -0.01470    0.03740   61.26380  107.76920   75.19080   92.09780    3.10050    0.07150    1.45410  196.00400    2.73370   68.67110    0.00000   37.28560    3.59180    0.13980    3.97410  109.92650
 6276.00000    8.06360    8.02480   10.72650   38.89780    0.16920   39.92870   -0.01320    0.04400   61.73110  107.76220   76.62370   92.09970    3.02010    0.06670    1.42420  195.13580    2.73130   67.94670    0.00000   36.69180    3.58420    0.12670    3.95740  109.93100
 6276.50000    8.08190    8.01610    1.91890   37.93250    0.17400   43.05510   -0.00840    0.04250   61.52960  107.76120   76.30130   92.10160    2.87450    0.06770    1.38220  193.51250    2.72350   67.06050    0.00000   35.75000    3.53660    0.12400    3.96820  109.85900
 6277.00000    8.06360    7.99020    2.61250   37.35030    0.15180   46.41990   -0.00050    0.03230   61.98660  107.77830   76.83870   92.10350    2.88330    0.07460    1.34770  191.46950    2.71080   66.27250    0.00000   35.75000    3.56400    0.13210    3.94010  109.89500
 6277.50000    8.07890    8.08150    1.21990   37.06030    0.20520   45.17300   -0.01090    0.03840   61.29190  107.61960   69.31600   92.10540    2.84820    0.06580    1.32260  188.44210    2.72750   65.45820    0.00000   35.36590    3.62660    0.12220    3.86870  109.92500
 6278.00000    8.04400    8.29980    3.44640   36.34300    0.29590   40.27460   -0.02500    0.05050   61.56550  107.58220   70.74890   92.10740    2.85620    0.05030    1.28570  186.87000    2.75030   64.18420    0.00000   34.88120    3.62640    0.09890    3.79290  109.93550
 6278.50000    8.03300    8.37030    4.31250   35.48550    0.32490   43.64000   -0.02270    0.04840   59.63380  106.97330   77.33120   92.10930    2.84530    0.05660    1.24390  188.61560    2.74650   62.66260    0.00000   34.40080    3.61140    0.11200    3.70240  109.92200
 6279.00000    8.05130    8.42220    4.35110   34.58510    0.35970   46.86570   -0.00080    0.03370   60.16340  111.64760   84.49570   92.11120    2.90810    0.06200    1.19480  185.46020    2.71130   61.27570    0.00000   33.92780    3.62790    0.10330    3.63610  109.89500
 6279.50000    8.06360    8.39840   -1.44660   34.12880    0.35430   43.67940   -0.00170    0.03960   58.50540  108.64490   89.68990   92.11310    2.85630    0.06460    1.15720  183.62660    2.71270   60.50980    0.00000   33.45120    3.71430    0.11030    3.59390  109.97600
 6280.00000    8.06970    8.36060   -1.97350   33.69960    0.33890   45.07130    0.01320    0.03460   62.22370  108.98710   91.70490   92.11500    2.83630    0.07190    1.12060  194.30030    2.68880   59.79210    0.00000   32.97460    3.80340    0.11260    3.55460  109.97000
 6280.50000    8.06050    8.26410    1.24550   33.73440    0.28670   44.26190    0.03170    0.01860   65.79830  110.59320   95.64530   92.11700    2.78230    0.08450    1.11130  187.29860    2.65900   59.95150    0.00000   32.49300    3.87210    0.12300    3.57160  109.95800
 6281.00000    8.03700    8.24320    2.98110   33.78240    0.26450   44.53060    0.04300    0.00680   65.67780  113.88030   99.04840   92.11890    2.76030    0.09750    1.11520  185.79280    2.64080   60.68500    0.00000   32.00820    3.86320    0.14040    3.66500  109.92500
 6281.50000    8.05130    8.26410    6.25310   33.93520    0.28200   43.11670    0.02700    0.01760   66.63830  113.99810   99.83160   92.12080    2.76640    0.09090    1.12260  183.81410    2.66650   61.60420    0.00000   31.40880    3.86640    0.14140    3.76940  109.90850
 6282.00000    8.06360    8.28510    4.57220   34.05720    0.29860   42.62660   -0.00010    0.03480   65.64910  114.40110  105.24970   92.12270    2.76730    0.06240    1.12890  183.81410    2.71020   62.46650    0.00000   30.50000    3.86600    0.10360    3.87030  109.95800
 6282.50000    8.06360    8.25000    7.85430   34.38630    0.28130   43.09260    0.00060    0.02790   66.70670  116.42970  103.81680   92.12460    2.76970    0.06420    1.14210  185.00580    2.70900   63.71080    0.00000   30.50000    3.88920    0.10720    3.99490  109.93100
 6283.00000    8.07330    8.21170   -1.02190   34.93980    0.26720   44.28240   -0.00760    0.02370   65.51110  114.32850  103.83970   92.12660    2.83040    0.06460    1.16280  188.50330    2.72230   65.38090    0.00000   30.07890    3.93740    0.11610    4.14710  109.97300
