~Version ---------------------------------------------------
VERS.   2.0 : CWLS log ASCII Standard -VERSION 2.0
WRAP.    NO : One line per depth step
DLM . SPACE : Column Data Section Delimiter
~Well ------------------------------------------------------
STRT .F                6269.0 : START DEPTH
STOP .F               11187.0 : STOP DEPTH
STEP .F                   0.5 : STEP
NULL .               -9999.25 : NULL VALUE
COMP .                        : COMPANY
WELL .                        : WELL
FLD  .                        : FIELD
LOC  .                        : LOCATION
PROV .                        : PROVINCE
CNTY .                        : COUNTY
STAT .                        : STATE
CTRY .                        : COUNTRY
SRVC .                        : SERVICE COMPANY
DATE .                        : DATE
UWI  .                        : UNIQUE WELL ID
API  .                        : API NUMBER
SLAT .WGS84 2.444653947148602 : SURFACE LATITUDE
SLON .WGS84 7.424080268820987 : SURFACE LONGITUDE
DATUM.F                   nan : DEPTH DATUM ELEV
~Curve Information -----------------------------------------
DEPT.F     : DEPTH (BOREHOLE) {F12.4}
C2  .IN    : Caliper 2 {F11.4}
CALI.IN    : Caliper {F11.4}
CBL .MV    : CBL {F11.4}
CGR .GAPI  : Gamma Ray Contribution from Thorium and Potassium {F11.4}
DCAL.IN    : Differential Caliper {F11.4}
DEVI.DEG   : Hole Deviation {F11.4}
DPHI.CFCF  : Density Porosity {F11.4}
DRHO.G/C3  : Bulk Density Correction {F11.4}
DTCO.US/F  : Delta-T Compressional {F11.4}
DTSM.US/F  : Delta-T Shear {F11.4}
GR  .GAPI  : Gamma Ray {F11.4}
GTEM.DEGF  : Generalized Borehole Temperature {F11.4}
PEF .      : Photoelectric Factor {F11.4}
PHIX.CFCF  : CrossPlot Porosity {F11.4}
POTA.%     : Average Potassium Yield {F11.4}
RB  .DEG   : Relative Bearing {F11.4}
RHOB.G/C3  : Bulk Density {F11.4}
SGR .GAPI  : Spectral GR {F11.4}
STIT.F     : Stuck Tool Indicator, Total {F11.4}
TENS.LBF   : Cable Tension {F11.4}
THOR.PPM   : Average Thorium Yield {F11.4}
TNPH.CFCF  : Thermal Neutron Porosity {F11.4}
URAN.PPM   : Average Uranium Yield {F11.4}
WTEP.DEGF  : Well Temperature {F11.4}
~Params ----------------------------------------------------
~Other -----------------------------------------------------
~ASCII -----------------------------------------------------
# ...
 7255.00000    7.98390    8.22400   16.14330   11.40390    0.22800   89.39570   -0.06560    0.01450   54.88740  101.52260   39.22540   95.85900    3.20680    0.04130    0.41310  200.15520    2.81570   30.07020    0.00000   34.34880    1.07810    0.12010    2.54290  110.97800
 7255.50000    8.00230    8.20540    8.15480   11.91880    0.22820   90.31050   -0.07320    0.01980   55.84730  101.39130   37.34470   95.86090    3.37910    0.03420    0.43070  198.97500    2.82790   30.28190    0.00000   33.84000    1.13330    0.10930    2.50160  110.99300
 7256.00000    7.98390    8.17350    8.94690   12.43750    0.20310   89.19140   -0.08380    0.03350   55.64770  101.20440   38.59850   95.86290    3.51200    0.02690    0.44850  199.58580    2.84500   30.50060    0.00000   33.69870    1.18880    0.10080    2.46080  110.97800
 7256.50000    8.00230    8.18100    8.34920   12.96920    0.21620   90.39950   -0.06990    0.03200   54.81810   99.03830   36.01930   95.86480    3.49180    0.03370    0.46670  199.12980    2.82250   30.74750    0.00000   33.22710    1.24570    0.10390    2.42200  110.95400
 7257.00000    7.96830    8.18000   17.44610   13.53130    0.19840   88.94990   -0.05080    0.02330   57.10150  100.13730   35.57150   95.86670    3.45230    0.04300    0.48590  196.58430    2.79170   31.05980    0.00000   32.75550    1.30550    0.10740    2.38790  110.93000
 7257.50000    7.97160    8.16570    2.83530   14.07710    0.19300   90.00000   -0.04540    0.02360   58.13680  100.44360   34.31770   95.86860    3.49820    0.04380    0.50460  197.16190    2.78310   31.32770    0.00000   31.47760    1.36370    0.10360    2.35010  110.89400
 7258.00000    7.96540    8.19490    5.55270   14.36340    0.20430   90.29740   -0.03270    0.01390   57.26860  100.25680   31.25490   95.87050    3.38240    0.05940    0.50840  197.21210    2.76270   31.60740    0.00000   31.04000    1.43140    0.12970    2.34920  111.03800
 7258.50000    7.98470    8.21690    2.57540   14.60090    0.22500   90.66090   -0.05440    0.03390   53.08950  101.33720   30.35940   95.87250    3.30640    0.04250    0.51050  196.76260    2.79760   31.78100    0.00000   31.04000    1.49410    0.11020    2.34050  110.91200
 7259.00000    7.97160    8.23010   -4.84160   14.48270    0.22480   89.22610   -0.04330    0.02920   57.43060  101.64560   30.44890   95.87440    3.34110    0.06270    0.50110  198.19020    2.77980   31.74620    0.00000   30.85310    1.51460    0.14960    2.35180  110.96090
 7259.50000    7.98690    8.25940    9.13530   14.30740    0.24700   88.64760   -0.04970    0.04950   45.80530   92.74610   35.82220   95.87630    3.32680    0.06290    0.48970  196.77120    2.79000   31.58460    0.00000   30.37740    1.52900    0.15720    2.35370  110.98850
 7260.00000    7.97770    8.29600    9.02340   13.94550    0.26030   89.53730   -0.02820    0.04850   52.21000  103.45790   39.98660   95.87820    3.25810    0.06840    0.47380  191.49140    2.75540   31.56880    0.00000   29.90190    1.51210    0.14680    2.40090  110.94800
 7260.50000    7.99000    8.21090   -4.78200   13.58780    0.22470   89.39680   -0.00980    0.03640  103.29950  183.37370   41.24040   95.88010    3.21130    0.07510    0.45920  195.57250    2.72590   31.55250    0.00000   29.43050    1.48820    0.14300    2.44740  110.98400
 7261.00000    7.98390    8.18440   -4.22230   13.22170    0.20850   88.74780   -0.01570    0.03420  104.31690  185.03650   42.31500   95.88210    3.21260    0.07590    0.44440  191.98540    2.73530   31.51480    0.00000   28.95910    1.46340    0.15110    2.49210  111.00200
 7261.50000    7.99700    8.16700   18.85560   12.88270    0.20660   89.10470   -0.03650    0.04020  105.62290  185.46470   43.88220   95.88400    3.10450    0.06050    0.43040  197.58550    2.76870   31.54040    0.00000   28.48140    1.44150    0.13670    2.54180  110.93900
 7262.00000    8.00540    8.16030    8.17440   12.53780    0.20740   89.05150   -0.04550    0.03130  107.29650  185.95320   47.22140   95.88590    3.16440    0.04590    0.41630  198.24400    2.78330   31.55210    0.00000   28.00130    1.41900    0.10940    2.59040  111.00710
 7262.50000    8.00230    8.16430    8.95980   12.18480    0.20790   90.45510   -0.04020    0.01180  108.44730  184.81850   44.44520   95.88780    3.19180    0.04800    0.40190  199.97020    2.77470   31.54250    0.00000   27.52680    1.39550    0.10890    2.63710  110.96150
 7263.00000    8.01050    8.14410    7.70930   11.85850    0.20200   88.02290   -0.03770    0.00780  105.68930  184.93530   42.20630   95.88970    3.16280    0.04870    0.38840  198.93530    2.77070   31.60290    0.00000   27.05630    1.37510    0.10800    2.68980  110.91800
 7263.50000    7.99000    8.12250    8.75410   11.46870    0.18100   89.79810   -0.04170    0.01060  103.64200  184.58820   37.79250   95.89170    3.10100    0.04270    0.37350  197.22150    2.77710   31.41670    0.00000   26.57620    1.34280    0.09670    2.71760  111.00800
 7264.00000    7.99410    8.11090    4.70140   11.02000    0.17730   92.54920   -0.03510    0.00650  102.86200  183.91580   37.07600   95.89360    3.17090    0.04450    0.36000  196.82140    2.76640   31.29750    0.00000   26.09620    1.28340    0.09450    2.76250  111.00200
 7264.50000    7.98390    8.11680    2.71120   10.57920    0.17510   89.41610   -0.04520    0.01170  102.22670  183.56900   36.00140   95.89550    3.11280    0.03980    0.34680  195.97210    2.78280   31.20340    0.00000   25.38920    1.22490    0.09280    2.80970  110.97800
 7265.00000    7.98300    8.08940    2.64630   10.24800    0.16100   89.74190   -0.05150    0.01690  101.35280  183.10090   38.50890   95.89740    3.10580    0.03570    0.34310  196.03990    2.79300   31.01120    0.00000   24.66900    1.14230    0.08870    2.82860  110.99940
 7265.50000    7.97160    8.08030   14.54610    9.85040    0.15070   88.21540   -0.04470    0.00900  100.19370  183.05940   41.91200   95.89930    3.10180    0.04280    0.34100  194.22870    2.78190   30.51030    0.00000   24.42000    1.02910    0.10020    2.81450  111.05000
 7266.00000    8.00230    8.07960    3.48960    9.19810    0.16580   89.39160   -0.04310    0.00870   99.81890  182.17750   43.52400   95.90130    3.09170    0.04310    0.33410  193.66730    2.77940   30.00160    0.00000   23.96620    0.86410    0.09940    2.83410  110.94800
 7266.50000    8.01150    8.07730    6.18600    8.83230    0.16930   89.70580   -0.03540    0.00360  101.63300  182.56880   45.31510   95.90320    3.09740    0.05200    0.33280  193.96490    2.76690   29.60990    0.00000   23.32000    0.75580    0.11400    2.83060  110.95700
 7267.00000    8.02680    8.12920    5.54530    8.47180    0.20290   90.29940   -0.03980    0.00830  103.16190  183.33780   39.22540   95.90510    3.12160    0.04920    0.33170  193.60050    2.77400   29.23470    0.00000   23.23160    0.64800    0.11150    2.82860  110.96600
 7267.50000    8.02070    8.18390    7.39810    8.11590    0.22690   88.35370   -0.03190   -0.00080   44.61900  103.43490   37.61340   95.90700    3.12980    0.05050    0.33080  193.60050    2.76140   28.87550    0.00000   22.75590    0.54060    0.10640    2.82810  111.00200
 7268.00000    8.03090    8.16260    7.94580    7.75030    0.22150   89.59840   -0.04310    0.00840   44.73920  103.71350   34.65800   95.90890    3.12330    0.04380    0.32950  193.89010    2.77930   28.48110    0.00000   22.28020    0.43260    0.10110    2.82420  111.00200
 7268.50000    8.02990    8.13460    9.35180    7.38490    0.20710   87.25520   -0.05380    0.01510   47.65450  103.74590   41.46420   95.91090    3.14720    0.03850    0.32810  194.27420    2.79670   28.08530    0.00000   21.81840    0.32490    0.09870    2.82010  110.97200
 7269.00000    8.02680    8.15550    0.31380    7.02390    0.21590   88.94450   -0.07770    0.03320   53.71350  101.49400   41.73290   95.91280    3.13870    0.02950    0.32690  192.46340    2.83510   27.70450    0.00000   21.34310    0.21740    0.10100    2.81740  111.02000
