~Version ---------------------------------------------------
VERS.   2.0 : CWLS log ASCII Standard -VERSION 2.0
WRAP.    NO : One line per depth step
DLM . SPACE : Column Data Section Delimiter
~Well ------------------------------------------------------
STRT .F                6269.0 : START DEPTH
STOP .F               11187.0 : STOP DEPTH
STEP .F                   0.5 : STEP
NULL .               -9999.25 : NULL VALUE
COMP .                        : COMPANY
WELL .                        : WELL
FLD  .                        : FIELD
LOC  .                        : LOCATION
PROV .                        : PROVINCE
CNTY .                        : COUNTY
STAT .                        : STATE
CTRY .                        : COUNTRY
SRVC .                        : SERVICE COMPANY
DATE .                        : DATE
UWI  .                        : UNIQUE WELL ID
API  .                        : API NUMBER
SLAT .WGS84 2.444653947148602 : SURFACE LATITUDE
SLON .WGS84 7.424080268820987 : SURFACE LONGITUDE
DATUM.F                   nan : DEPTH DATUM ELEV
~Curve Information -----------------------------------------
DEPT.F     : DEPTH (BOREHOLE) {F12.4}
C2  .IN    : Caliper 2 {F11.4}
CALI.IN    : Caliper {F11.4}
CBL .MV    : CBL {F11.4}
CGR .GAPI  : Gamma Ray Contribution from Thorium and Potassium {F11.4}
DCAL.IN    : Differential Caliper {F11.4}
DEVI.DEG   : Hole Deviation {F11.4}
DPHI.CFCF  : Density Porosity {F11.4}
DRHO.G/C3  : Bulk Density Correction {F11.4}
DTCO.US/F  : Delta-T Compressional {F11.4}
DTSM.US/F  : Delta-T Shear {F11.4}
GR  .GAPI  : Gamma Ray {F11.4}
GTEM.DEGF  : Generalized Borehole Temperature {F11.4}
PEF .      : Photoelectric Factor {F11.4}
PHIX.CFCF  : CrossPlot Porosity {F11.4}
POTA.%     : Average Potassium Yield {F11.4}
RB  .DEG   : Relative Bearing {F11.4}
RHOB.G/C3  : Bulk Density {F11.4}
SGR .GAPI  : Spectral GR {F11.4}
STIT.F     : Stuck Tool Indicator, Total {F11.4}
TENS.LBF   : Cable Tension {F11.4}
THOR.PPM   : Average Thorium Yield {F11.4}
TNPH.CFCF  : Thermal Neutron Porosity {F11.4}
URAN.PPM   : Average Uranium Yield {F11.4}
WTEP.DEGF  : Well Temperature {F11.4}
~Params ----------------------------------------------------
~Other -----------------------------------------------------
~ASCII -----------------------------------------------------
# ...
 11170.00000    7.12420    7.94290   18.03010   24.83350   -0.35260   90.58390    0.06950   -0.00180   97.94070  172.27520   32.24000  110.89250    2.78950    0.06370    0.62010  182.92070    2.59820   35.84280    0.00000   17.98630    4.07080    0.05780    1.49980  110.87600
 11170.50000    7.12420    7.94290   18.03010   24.83350   -0.35260   90.58390    0.06950   -0.00180   97.94070  172.27520   32.24000  110.89440    2.78950    0.06370    0.62010  182.92070    2.59820   35.84280    0.00000   17.49150    4.07080    0.05780    1.49980  110.87600
 11171.00000    7.12420    7.94290   18.03010   24.83350   -0.35260   90.58390    0.06950   -0.00180   97.94070  172.27520   32.24000  110.89640    2.78950    0.06370    0.62010  182.92070    2.59820   35.84280    0.00000   16.99090    4.07080    0.05780    1.49980  110.87600
 11171.50000    7.12420    7.94290   18.03010   24.83350   -0.35260   90.58390    0.06950   -0.00180   97.94070  172.27520   32.24000  110.89830    2.78950    0.06370    0.62010  182.92070    2.59820   35.84280    0.00000   16.48470    4.07080    0.05780    1.49980  110.87600
 11172.00000    7.12420    7.94290   18.03010   24.83350   -0.35260   90.58390    0.06950   -0.00180   97.94070  172.27520   32.24000  110.90020    2.78950    0.06370    0.62010  182.92070    2.59820   35.84280    0.00000   16.14050    4.07080    0.05780    1.49980  110.87600
 11172.50000    7.12420    7.94290   18.03010   24.83350   -0.35260   90.58390    0.06950   -0.00180   97.94070  172.27520   32.24000  110.90210    2.78950    0.06370    0.62010  182.92070    2.59820   35.84280    0.00000   15.97380    4.07080    0.05780    1.49980  110.87600
 11173.00000    7.12420    7.94290   18.03010   24.83350   -0.35260   90.58390    0.06950   -0.00180   97.94070  172.27520   32.24000  110.90400    2.78950    0.06370    0.62010  182.92070    2.59820   35.84280    0.00000   15.80720    4.07080    0.05780    1.49980  110.87600
 11173.50000    7.12420    7.94290   18.03010   24.83350   -0.35260   90.58390    0.06950   -0.00180   97.94070  172.27520   32.24000  110.90600    2.78950    0.06370    0.62010  182.92070    2.59820   35.84280    0.00000   14.46980    4.07080    0.05780    1.49980  110.87600
 11174.00000    7.12420    7.94290   18.03010   24.83350   -0.35260   90.58390    0.06950   -0.00180   97.94070  172.27520   32.24000  110.90790    2.78950    0.06370    0.62010  182.92070    2.59820   35.84280    0.00000   14.06880    4.07080    0.05780    1.49980  110.87600
 11174.50000    7.12420    7.94290   18.03010   24.83350   -0.35260   90.58390    0.06950   -0.00180   97.94070  172.27520   32.24000  110.90980    2.78950    0.06370    0.62010  182.92070    2.59820   35.84280    0.00000   13.90740    4.07080    0.05780    1.49980  110.87600
 11175.00000    7.12420    7.94290   18.03010   24.83350   -0.35260   90.58390    0.06950   -0.00180   97.94070  172.27520   32.24000  110.91170    2.78950    0.06370    0.62010  182.92070    2.59820   35.84280    0.00000   13.74600    4.07080    0.05780    1.49980  110.87600
 11175.50000    7.12420    7.94290   18.03010   24.83350   -0.35260   90.58390    0.06950   -0.00180   97.94070  172.27520   32.24000  110.91370    2.78950    0.06370    0.62010  182.92070    2.59820   35.84280    0.00000   12.48680    4.07080    0.05780    1.49980  110.87600
 11176.00000    7.12420    7.94290   18.03010   24.83350   -0.35260   90.58390    0.06950   -0.00180   97.94070  172.27520   32.24000  110.91560    2.78950    0.06370    0.62010  182.92070    2.59820   35.84280    0.00000   11.98000    4.07080    0.05780    1.49980  110.87600
 11176.50000    7.12420    7.94290   18.03010   24.83350   -0.35260   90.58390    0.06950   -0.00180   97.94070  172.27520   32.24000  110.91750    2.78950    0.06370    0.62010  182.92070    2.59820   35.84280    0.00000   11.46770    4.07080    0.05780    1.49980  110.87600
 11177.00000    7.12420    7.94290   18.03010   24.83350   -0.35260   90.58390    0.06950   -0.00180   97.94070  172.27520   32.24000  110.91940    2.78950    0.06370    0.62010  182.92070    2.59820   35.84280    0.00000   10.96440    4.07080    0.05780    1.49980  110.87600
 11177.50000    7.12420    7.94290   18.03010   24.83350   -0.35260   90.58390    0.06950   -0.00180   97.94070  172.27520   32.24000  110.92130    2.78950    0.06370    0.62010  182.92070    2.59820   35.84280    0.00000   10.47030    4.07080    0.05780    1.49980  110.87600
 11178.00000    7.12420    7.94290   18.03010   24.83350   -0.35260   90.58390    0.06950   -0.00180   97.94070  172.27520   32.24000  110.92320    2.78950    0.06370    0.62010  182.92070    2.59820   35.84280    0.00000    9.60070    4.07080    0.05780    1.49980  110.87600
 11178.50000    7.12420    7.94290   18.03010   24.83350   -0.35260   90.58390    0.06950   -0.00180   97.94070  172.27520   32.24000  110.92520    2.78950    0.06370    0.62010  182.92070    2.59820   35.84280    0.00000    9.47850    4.07080    0.05780    1.49980  110.87600
 11179.00000    7.12420    7.94290   18.03010   24.83350   -0.35260   90.58390    0.06950   -0.00180   97.94070  172.27520   32.24000  110.92710    2.78950    0.06370    0.62010  182.92070    2.59820   35.84280    0.00000    8.96150    4.07080    0.05780    1.49980  110.87600
 11179.50000    7.12420    7.94290   18.03010   24.83350   -0.35260   90.58390    0.06950   -0.00180   97.94070  172.27520   32.24000  110.92900    2.78950    0.06370    0.62010  182.92070    2.59820   35.84280    0.00000    8.46150    4.07080    0.05780    1.49980  110.87600
 11180.00000    7.12420    7.94290   18.03010   24.83350   -0.35260   90.58390    0.06950   -0.00180   97.94070  172.27520   32.24000  110.93090    2.78950    0.06370    0.62010  182.92070    2.59820   35.84280    0.00000    7.97270    4.07080    0.05780    1.49980  110.87600
 11180.50000    7.12420    7.94290   18.03010   24.83350   -0.35260   90.58390    0.06950   -0.00180   97.94070  172.27520   32.24000  110.93280    2.78950    0.06370    0.62010  182.92070    2.59820   35.84280    0.00000    7.49030    4.07080    0.05780    1.49980  110.87600
 11181.00000    7.12420    7.94290   18.03010   24.83350   -0.35260   90.58390    0.06950   -0.00180   97.94070  172.27520   32.24000  110.93480    2.78950    0.06370    0.62010  182.92070    2.59820   35.84280    0.00000    6.99030    4.07080    0.05780    1.49980  110.87600
 11181.50000    7.12420    7.94290   18.03010   24.83350   -0.35260   90.58390    0.06950   -0.00180   97.94070  172.27520   32.24000  110.93670    2.78950    0.06370    0.62010  182.92070    2.59820   35.84280    0.00000    6.47790    4.07080    0.05780    1.49980  110.87600
 11182.00000    7.12420    7.94290   18.03010   24.83350   -0.35260   90.58390    0.06950   -0.00180   97.94070  172.27520   32.24000  110.93860    2.78950    0.06370    0.62010  182.92070    2.59820   35.84280    0.00000    5.97150    4.07080    0.05780    1.49980  110.87600
 11182.50000    7.12420    7.94290   18.03010   24.83350   -0.35260   90.58390    0.06950   -0.00180   97.94070  172.27520   32.24000  110.94050    2.78950    0.06370    0.62010  182.92070    2.59820   35.84280    0.00000    5.47150    4.07080    0.05780    1.49980  110.87600
 11183.00000    7.12420    7.94290   18.03010   24.83350   -0.35260   90.58390    0.06950   -0.00180   97.94070  172.27520   32.24000  110.94240    2.78950    0.06370    0.62010  182.92070    2.59820   35.84280    0.00000    4.97470    4.07080    0.05780    1.49980  110.87600
 11183.50000    7.12420    7.94290   18.03010   24.83350   -0.35260   90.58390    0.06950   -0.00180   97.94070  172.27520   32.24000  110.94440    2.78950    0.06370    0.62010  182.92070    2.59820   35.84280    0.00000    4.47870    4.07080    0.05780    1.49980  110.87600
 11184.00000    7.12420    7.94290   18.03010   24.83350   -0.35260   90.58390    0.06950   -0.00180   97.94070  172.27520   32.24000  110.94630    2.78950    0.06370    0.62010  182.92070    2.59820   35.84280    0.00000    3.98150    4.07080    0.05780    1.49980  110.87600
