~Version ---------------------------------------------------
VERS.   2.0 : CWLS log ASCII Standard -VERSION 2.0
WRAP.    NO : One line per depth step
DLM . SPACE : Column Data Section Delimiter
~Well ------------------------------------------------------
STRT .F                6269.0 : START DEPTH
STOP .F               11187.0 : STOP DEPTH
STEP .F                   0.5 : STEP
NULL .               -9999.25 : NULL VALUE
COMP .                        : COMPANY
WELL .                        : WELL
FLD  .                        : FIELD
LOC  .                        : LOCATION
PROV .                        : PROVINCE
CNTY .                        : COUNTY
STAT .                        : STATE
CTRY .                        : COUNTRY
SRVC .                        : SERVICE COMPANY
DATE .                        : DATE
UWI  .                        : UNIQUE WELL ID
API  .                        : API NUMBER
SLAT .WGS84 2.444653947148602 : SURFACE LATITUDE
SLON .WGS84 7.424080268820987 : SURFACE LONGITUDE
DATUM.F                   nan : DEPTH DATUM ELEV
~Curve Information -----------------------------------------
DEPT.F     : DEPTH (BOREHOLE) {F12.4}
C2  .IN    : Caliper 2 {F11.4}
CALI.IN    : Caliper {F11.4}
CBL .MV    : CBL {F11.4}
CGR .GAPI  : Gamma Ray Contribution from Thorium and Potassium {F11.4}
DCAL.IN    : Differential Caliper {F11.4}
DEVI.DEG   : Hole Deviation {F11.4}
DPHI.CFCF  : Density Porosity {F11.4}
DRHO.G/C3  : Bulk Density Correction {F11.4}
DTCO.US/F  : Delta-T Compressional {F11.4}
DTSM.US/F  : Delta-T Shear {F11.4}
GR  .GAPI  : Gamma Ray {F11.4}
GTEM.DEGF  : Generalized Borehole Temperature {F11.4}
PEF .      : Photoelectric Factor {F11.4}
PHIX.CFCF  : CrossPlot Porosity {F11.4}
POTA.%     : Average Potassium Yield {F11.4}
RB  .DEG   : Relative Bearing {F11.4}
RHOB.G/C3  : Bulk Density {F11.4}
SGR .GAPI  : Spectral GR {F11.4}
STIT.F     : Stuck Tool Indicator, Total {F11.4}
TENS.LBF   : Cable Tension {F11.4}
THOR.PPM   : Average Thorium Yield {F11.4}
TNPH.CFCF  : Thermal Neutron Porosity {F11.4}
URAN.PPM   : Average Uranium Yield {F11.4}
WTEP.DEGF  : Well Temperature {F11.4}
~Params ----------------------------------------------------
~Other -----------------------------------------------------
~ASCII -----------------------------------------------------
# ...
 6921.50000    7.99000    8.05950    8.46140    4.44540    0.14970   90.59570   -0.08070    0.03610  100.46480  185.74250   23.91140   94.57840    3.28370    0.01730    0.09820  187.56840    2.84000   21.64510    0.00000   29.66680    0.80760    0.06680    2.34320  110.82500
 6922.00000    7.99000    8.05630   10.09850    4.85520    0.14810   91.55170   -0.09180    0.04310  100.35200  185.51820   24.44870   94.58030    3.32480    0.01490    0.10820  187.19720    2.85780   21.89940    0.00000   29.18130    0.87590    0.07210    2.32200  110.86400
 6922.50000    7.98180    8.06470   -3.25900    5.17520    0.14820   91.58430   -0.08840    0.03620  100.24840  185.50140   26.71320   94.58220    3.32320    0.01530    0.11730  187.14960    2.85230   22.03950    0.00000   28.69540    0.92200    0.06930    2.29750  110.79200
 6923.00000    7.98390    8.07730   15.79240    5.49250    0.15550   90.45880   -0.07760    0.01970  100.35750  185.45160   27.25050   94.58420    3.20740    0.01700    0.12620  185.36060    2.83500   22.16820    0.00000   28.22280    0.96770    0.06220    2.27180  110.86700
 6923.50000    7.99980    8.09220   14.57920    5.83220    0.17090   91.04110   -0.07610    0.01890  101.20960  185.73460   28.86250   94.58610    3.22410    0.01720    0.13500  185.21330    2.83250   22.32710    0.00000   27.06390    1.02170    0.06120    2.24710  110.86400
 6924.00000    8.00230    8.07940   11.69720    6.15190    0.16580   90.45110   -0.08420    0.02880  101.38030  185.65930   29.82200   94.58800    3.21670    0.01360    0.14400  185.87520    2.84560   22.46840    0.00000   25.74000    1.06790    0.05860    2.22280  110.77700
 6924.50000    7.99610    8.06890    7.33050    6.47070    0.15750   90.58700   -0.08800    0.03480  101.40070  186.07820   31.70270   94.58990    3.20490    0.01280    0.15290  184.84900    2.85170   22.60580    0.00000   25.74000    1.11380    0.06020    2.19810  110.81300
 6925.00000    7.98390    8.08360   13.60210    6.78890    0.15860   91.58980   -0.06760    0.02280  100.39260  185.33530   29.98320   94.59180    3.10040    0.01930    0.16190  182.38590    2.81880   22.74150    0.00000   25.74000    1.15970    0.05880    2.17330  110.82800
 6925.50000    7.97160    8.06580    4.37380    7.10580    0.14350   90.58510   -0.05120    0.01870  100.25480  185.45810   31.64900   94.59380    3.11710    0.02430    0.17080  185.27390    2.79250   22.87280    0.00000   25.74000    1.20540    0.05750    2.14800  110.84000
 6926.00000    7.98180    8.07520    9.48470    7.42910    0.15340   91.30150   -0.03230    0.00480  100.01130  186.68560   30.30560   94.59570    3.04220    0.03030    0.17990  184.34320    2.76200   23.02410    0.00000   25.33280    1.25210    0.05710    2.12450  110.83550
 6926.50000    8.00230    8.06060   -0.63100    7.74500    0.15640   90.57220   -0.02650   -0.00180  100.14370  186.68270   31.21910   94.59760    3.02490    0.03580    0.18880  183.00530    2.75260   23.15240    0.00000   24.85120    1.29760    0.06530    2.09900  110.81750
 6927.00000    7.99490    8.06890    7.01310    7.94050    0.15680   90.30340   -0.04160    0.00250  100.42470  186.03590   27.13540   94.59950    2.94510    0.03210    0.19210  185.46910    2.77700   23.24530    0.00000   24.36970    1.33990    0.06920    2.08500  110.82200
 6927.50000    7.99610    8.06580    8.90270    8.03760    0.15590   90.00000   -0.04070   -0.00170  101.03920  185.89420   26.38310   94.60140    2.98670    0.03030    0.19330  185.59360    2.77560   23.29050    0.00000   23.88810    1.36300    0.06390    2.07790  110.82200
 6928.00000    7.98260    8.06770    4.89510    8.29260    0.15000   92.07820   -0.05590    0.00780  101.50170  185.97130   27.84580   94.60340    3.06530    0.02850    0.20070  185.20490    2.80000   23.43030    0.00000   23.40660    1.39860    0.07320    2.06220  110.85800
 6928.50000    7.99490    8.07990   19.00190    8.59120    0.16230   90.60160   -0.04430   -0.00070  101.41340  186.79960   31.60720   94.60530    3.10410    0.03240    0.21290  184.06420    2.78120   23.71590    0.00000   22.92420    1.41840    0.07250    2.06050  110.82650
 6929.00000    8.01150    8.08530   13.63500    8.86550    0.17330   91.04390   -0.05740    0.00990  101.36690  185.81880   29.67280   94.60720    3.03790    0.02710    0.22520  184.47880    2.80250   23.94560    0.00000   22.43390    1.42950    0.07080    2.05440  110.84000
 6929.50000    8.01870    8.06940   13.24740    9.15250    0.16900   92.38270   -0.05100    0.01650   99.90720  187.59110   28.74740   94.60910    3.06950    0.02820    0.23710  182.98150    2.79210   24.19990    0.00000   21.94360    1.44760    0.06760    2.04990  110.80400
 6930.00000    8.13670    8.11960   10.13950    9.45140    0.25310   90.57870   -0.04890    0.02620  100.07000  187.79140   30.09070   94.61100    3.11800    0.02880    0.24930  185.79700    2.78880   24.48570    0.00000   21.45340    1.46750    0.06740    2.04810  110.84000
 6930.50000    8.16100    8.12160   14.71000    9.73450    0.26630   92.77260   -0.03240    0.02230  100.08280  188.12250   32.86690   94.61300    3.07880    0.03280    0.26100  184.96120    2.76220   24.73050    0.00000   20.97160    1.48500    0.06310    2.04290  110.93000
 6931.00000    8.00230    8.12680   10.33960   10.03110    0.18930   90.94940   -0.04100    0.03970  100.00970  188.65920   33.94160   94.61490    3.04540    0.02720    0.27310  184.87210    2.77600   25.00980    0.00000   20.49430    1.50460    0.05630    2.04060  110.84000
 6931.50000    8.05950    8.12560    5.90100   10.31520    0.21750   91.16660   -0.04750    0.05440   99.92470  188.39060   32.46390   94.61680    3.11680    0.02370    0.28490  185.25780    2.78640   25.25820    0.00000   20.02110    1.52230    0.05260    2.03570  110.89760
 6932.00000    8.03910    8.12720   11.87720   10.51490    0.20800   91.76630   -0.04430    0.05080   99.92340  188.23710   35.06100   94.61870    3.04510    0.03010    0.29580  181.47260    2.78130   25.49450    0.00000   19.55410    1.51880    0.06640    2.04070  110.84900
 6932.50000    8.06350    8.02800    5.57640   10.70860    0.17070   92.34560   -0.02670    0.03060   99.75590  188.10730   39.35970   94.62060    2.98980    0.04410    0.30650  183.22870    2.75290   25.72240    0.00000   19.07250    1.51440    0.08540    2.04540  110.82200
 6933.00000    8.02270    7.97230   14.62200   10.90510    0.12250   91.76690   -0.02430    0.01600  100.13860  188.64150   38.68800   94.62260    3.03320    0.05090    0.31730  184.12760    2.74920   25.95690    0.00000   18.59100    1.51040    0.09960    2.05050  110.84900
 6933.50000    7.97160    8.02580   10.61560   11.31500    0.12360   91.37050   -0.04070    0.01920  100.50310  188.25390   36.61550   94.62450    3.15650    0.03710    0.33650  185.23320    2.77550   26.43590    0.00000   18.10940    1.52220    0.08120    2.06000  110.85540
 6934.00000    7.96540    8.11770   22.21110   11.72120    0.16620   90.48820   -0.08050    0.04520  100.56750  187.15710   34.19750   94.62640    3.19560    0.01840    0.35560  186.55580    2.83950   26.90590    0.00000   17.62790    1.53340    0.07000    2.06870  110.77100
 6934.50000    7.96750    8.15790   28.74140   12.16020    0.18710   91.45950   -0.06410    0.02180  100.42330  187.23770   35.18260   94.62830    3.21400    0.02710    0.37780  186.43690    2.81330   27.44860    0.00000   17.14900    1.53610    0.07800    2.08280  110.80400
 6935.00000    7.96850    8.16030   12.45260   12.64130    0.18880   90.00000   -0.04240    0.00290  100.69110  187.88050   37.61340   94.63020    3.24150    0.03500    0.40130  185.94690    2.77830   28.08530    0.00000   16.67190    1.54410    0.07750    2.10400  110.84000
 6935.50000    7.96540    8.16500   17.72640   13.09240    0.18960   91.18570   -0.04210    0.01250  102.12070  186.28880   36.53870   94.63210    3.23980    0.03400    0.42390  182.96600    2.77790   28.65430    0.00000   16.18990    1.54820    0.07450    2.12000  110.84000
