~Version ---------------------------------------------------
VERS.   2.0 : CWLS log ASCII Standard -VERSION 2.0
WRAP.    NO : One line per depth step
DLM . SPACE : Column Data Section Delimiter
~Well ------------------------------------------------------
STRT .F                6269.0 : START DEPTH
STOP .F               11187.0 : STOP DEPTH
STEP .F                   0.5 : STEP
NULL .               -9999.25 : NULL VALUE
COMP .                        : COMPANY
WELL .                        : WELL
FLD  .                        : FIELD
LOC  .                        : LOCATION
PROV .                        : PROVINCE
CNTY .                        : COUNTY
STAT .                        : STATE
CTRY .                        : COUNTRY
SRVC .                        : SERVICE COMPANY
DATE .                        : DATE
UWI  .                        : UNIQUE WELL ID
API  .                        : API NUMBER
SLAT .WGS84 2.444653947148602 : SURFACE LATITUDE
SLON .WGS84 7.424080268820987 : SURFACE LONGITUDE
DATUM.F                   nan : DEPTH DATUM ELEV
~Curve Information -----------------------------------------
DEPT.F     : DEPTH (BOREHOLE) {F12.4}
C2  .IN    : Caliper 2 {F11.4}
CALI.IN    : Caliper {F11.4}
CBL .MV    : CBL {F11.4}
CGR .GAPI  : Gamma Ray Contribution from Thorium and Potassium {F11.4}
DCAL.IN    : Differential Caliper {F11.4}
DEVI.DEG   : Hole Deviation {F11.4}
DPHI.CFCF  : Density Porosity {F11.4}
DRHO.G/C3  : Bulk Density Correction {F11.4}
DTCO.US/F  : Delta-T Compressional {F11.4}
DTSM.US/F  : Delta-T Shear {F11.4}
GR  .GAPI  : Gamma Ray {F11.4}
GTEM.DEGF  : Generalized Borehole Temperature {F11.4}
PEF .      : Photoelectric Factor {F11.4}
PHIX.CFCF  : CrossPlot Porosity {F11.4}
POTA.%     : Average Potassium Yield {F11.4}
RB  .DEG   : Relative Bearing {F11.4}
RHOB.G/C3  : Bulk Density {F11.4}
SGR .GAPI  : Spectral GR {F11.4}
STIT.F     : Stuck Tool Indicator, Total {F11.4}
TENS.LBF   : Cable Tension {F11.4}
THOR.PPM   : Average Thorium Yield {F11.4}
TNPH.CFCF  : Thermal Neutron Porosity {F11.4}
URAN.PPM   : Average Uranium Yield {F11.4}
WTEP.DEGF  : Well Temperature {F11.4}
~Params ----------------------------------------------------
~Other -----------------------------------------------------
~ASCII -----------------------------------------------------
# ...
 8560.00000    7.98260    8.13190    8.70660    9.00770    0.18190   90.19830   -0.03830    0.01270   95.59710  176.81470   20.67260  100.87020    3.43180    0.02420    0.36270  192.59330    2.77170   16.44830    0.00000   48.36150    0.62710    0.04710    1.01360  111.54800
 8560.50000    7.98750    8.08090    7.94970    8.98080    0.15910   91.95700   -0.04490    0.01640   95.66240  176.73500   21.13510  100.87210    3.42250    0.01950    0.35510  191.36900    2.78240   16.40890    0.00000   46.81860    0.66550    0.04060    1.01190  111.61850
 8561.00000    7.98180    8.05950   32.49560    8.95160    0.14550   90.00000   -0.05000    0.01360   95.70980  176.91810   21.67240  100.87400    3.37140    0.01870    0.34740  190.14550    2.79050   16.36540    0.00000   46.33110    0.70380    0.04200    1.01000  111.56450
 8561.50000    7.98390    8.05630   18.19460    8.84740    0.14500   89.22200   -0.06470    0.01770   95.73650  176.80910   20.59770  100.87590    3.33620    0.01420    0.33830  191.15730    2.81420   16.24380    0.00000   45.69540    0.72680    0.04120    1.00760  111.60200
 8562.00000    7.98390    8.05630   25.68760    8.75710    0.14500   90.59690   -0.06480    0.01230   96.01490  177.28820   20.95590  100.87790    3.32940    0.01310    0.33100  190.10020    2.81430   16.10340    0.00000   44.51000    0.74330    0.03790    1.00080  111.56300
 8562.50000    7.97460    8.05160   16.10120    8.55700    0.13800   90.79160   -0.05500    0.00100   94.10950  176.53060   22.43360  100.87980    3.23150    0.01640    0.32160  190.65010    2.79850   15.96950    0.00000   44.51000    0.73750    0.03960    1.00980  111.55700
 8563.00000    7.98590    8.06770   15.21030    8.41100    0.15170   91.59490   -0.05160   -0.00150   92.84360  176.85380   23.50830  100.88170    3.27650    0.01930    0.31330  191.03620    2.79310   15.84310    0.00000   44.36420    0.74200    0.04460    1.01250  111.55400
 8563.50000    7.98470    8.06580    6.77130    8.38570    0.15020   89.70330   -0.05040   -0.00110   92.32240  176.98800   23.39310  100.88360    3.26360    0.02210    0.30360  191.80460    2.79110   15.75110    0.00000   43.86780    0.79400    0.05090    1.00340  111.56450
 8564.00000    7.99000    8.09270    8.09450    8.35210    0.16620   89.69770   -0.06560    0.01510   91.43960  175.84340   23.52750  100.88550    3.36300    0.01300    0.29350  189.41260    2.81560   15.64380    0.00000   43.31360    0.84520    0.03820    0.99340  111.55100
 8564.50000    7.98390    8.10510    5.41110    8.37070    0.16930   92.41590   -0.05080    0.00620   91.05450  175.78090   24.60210  100.88750    3.44010    0.01570    0.28470  190.12470    2.79180   15.79860    0.00000   42.35000    0.90560    0.03510    1.01190  111.54800
 8565.00000    7.99490    8.09880    4.30660    8.38530    0.17170   90.54840   -0.06380    0.02410   91.45100  175.17800   24.62770  100.88940    3.57930    0.01090    0.27830  190.70550    2.81270   15.93100    0.00000   42.35000    0.94990    0.03110    1.02800  111.59640
 8565.50000    7.99000    8.09410   -0.54500    8.38730    0.16690   90.00000   -0.08040    0.03870   92.32870  175.19390   23.41870  100.89130    3.61710    0.00810    0.27140  190.84030    2.83940   16.03920    0.00000   41.90800    0.99280    0.03570    1.04240  111.57800
 8566.00000    7.99000    8.10040    5.56760    8.40190    0.17000   90.53610   -0.11160    0.06920   92.30570  174.45200   19.73420  100.89320    3.65990   -0.00100    0.26500  190.72580    2.88970   16.17120    0.00000   41.41430    1.03690    0.03460    1.05840  111.56900
 8566.50000    7.99000    8.10670   24.17620    8.42440    0.17320   91.90860   -0.07910    0.04290   92.20830  172.97190   21.16700  100.89510    3.57270    0.00800    0.25890  189.29330    2.83730   16.31820    0.00000   40.92240    1.08200    0.03420    1.07540  111.62300
 8567.00000    7.98390    8.10040   13.56410    8.44750    0.16690   90.59880   -0.06780    0.03180   90.36270  175.45640   19.59980  100.89710    3.53190    0.01220    0.25320  189.01930    2.81920   16.45040    0.00000   40.58020    1.12430    0.03760    1.09030  111.56000
 8567.50000    7.98690    8.07800   18.11760    8.47000    0.15730   90.00000   -0.04440    0.00470   94.83210  173.60640   19.16480  100.89900    3.41630    0.01800    0.24700  189.06650    2.78150   16.59580    0.00000   40.33430    1.16930    0.03650    1.10700  111.57800
 8568.00000    7.99000    8.06580    2.85800    8.50160    0.15280   95.83430   -0.07900    0.02450   95.08510  175.54540   17.82150  100.90090    3.33930    0.01110    0.24120  186.47400    2.83720   16.75900    0.00000   39.44670    1.21560    0.04460    1.12490  111.67400
 8568.50000    7.99410    8.05950   17.20320    8.26980    0.15170   89.27060   -0.07900    0.01820   94.83590  176.04450   17.82150  100.90280    3.34440    0.00950    0.23150  187.90320    2.83720   16.92530    0.00000   38.95480    1.20150    0.03900    1.17920  111.62300
 8569.00000    7.99310    8.06320   60.32740    8.04990    0.15310   92.13770   -0.07510    0.01210   94.61340  176.13850   18.98570  100.90470    3.38820    0.01010    0.22220  189.27950    2.83090   17.11690    0.00000   38.46300    1.18920    0.03750    1.23520  111.63710
 8569.50000    8.00230    8.03740    9.51820    8.01500    0.14480   88.40380   -0.07380    0.00910   89.76460  150.91680   19.25440  100.90670    3.34310    0.01140    0.21780  188.41230    2.82880   17.18540    0.00000   37.97110    1.20490    0.04050    1.24930  111.65000
 8570.00000    7.99000    8.03320    4.93190    7.83620    0.13660   92.39180   -0.06580    0.00810   69.77310   99.36030   21.94110  100.90860    3.31460    0.01630    0.21310  189.31480    2.81590   17.19870    0.00000   37.47920    1.17700    0.04790    1.27550  111.67700
 8570.50000    8.00840    8.04880   10.11650    7.67160    0.15360   92.97100   -0.08560    0.02200   49.08520   94.58810   22.92620  100.91050    3.30290    0.01270    0.21100  189.56010    2.84790   17.22460    0.00000   36.98730    1.13740    0.05710    1.30140  111.62300
 8571.00000    8.02070    8.06100   -2.85780    7.51130    0.16580   91.84840   -0.06930    0.00580   48.60050   94.59070   21.85150  100.91240    3.21160    0.01210    0.20910  191.79340    2.82160   17.26020    0.00000   36.49540    1.09840    0.03880    1.32810  111.57200
 8571.50000    8.01280    8.07760   15.18040    7.35080    0.17010   88.00950   -0.06870    0.00860   49.32290   94.58600   24.89640  100.91430    3.27700    0.01160    0.20720  190.31850    2.82060   17.29580    0.00000   36.00350    1.05940    0.03660    1.35480  111.60050
 8572.00000    8.00840    8.08570    0.35740    7.30150    0.17200   92.96620   -0.05900    0.00260   49.83020   94.59850   27.67260  100.91630    3.31870    0.01420    0.20730  190.65010    2.80490   17.39810    0.00000   35.51160    1.04270    0.03670    1.37550  111.62900
 8572.50000    8.00230    8.11300    0.39100    7.17470    0.18250   89.10340   -0.08570    0.02380   47.32470   95.10950   28.47860  100.91820    3.48520    0.00730    0.20400  189.60970    2.84800   17.47720    0.00000   35.01980    1.02310    0.03830    1.40350  111.64100
 8573.00000    8.00230    8.11840    4.18650    7.13120    0.18510   89.60450   -0.11140    0.04600   95.44300  185.54780   24.35910  100.92010    3.49080    0.00040    0.20220  190.34020    2.88930   17.56540    0.00000   34.52290    1.02040    0.04110    1.42150  111.60200
 8573.50000    7.99410    8.10550   13.62030    7.07270    0.17460   92.74800   -0.12420    0.06350   48.69830   96.44760   21.53810  100.92200    3.61950   -0.00480    0.20030  190.26970    2.90990   17.65990    0.00000   34.02810    1.01340    0.03380    1.44230  111.62000
 8574.00000    7.99490    8.09410   19.34850    6.89020    0.16940   88.05410   -0.10960    0.05830   48.30580   97.07950   22.52320  100.92400    3.57830   -0.00090    0.19970  191.45680    2.88650   17.72480    0.00000   33.54070    0.95910    0.03220    1.47600  111.61850
