~Version ---------------------------------------------------
VERS.   2.0 : CWLS log ASCII Standard -VERSION 2.0
WRAP.    NO : One line per depth step
DLM . SPACE : Column Data Section Delimiter
~Well ------------------------------------------------------
STRT .F                6269.0 : START DEPTH
STOP .F               11187.0 : STOP DEPTH
STEP .F                   0.5 : STEP
NULL .               -9999.25 : NULL VALUE
COMP .                        : COMPANY
WELL .                        : WELL
FLD  .                        : FIELD
LOC  .                        : LOCATION
PROV .                        : PROVINCE
CNTY .                        : COUNTY
STAT .                        : STATE
CTRY .                        : COUNTRY
SRVC .                        : SERVICE COMPANY
DATE .                        : DATE
UWI  .                        : UNIQUE WELL ID
API  .                        : API NUMBER
SLAT .WGS84 2.444653947148602 : SURFACE LATITUDE
SLON .WGS84 7.424080268820987 : SURFACE LONGITUDE
DATUM.F                   nan : DEPTH DATUM ELEV
~Curve Information -----------------------------------------
DEPT.F     : DEPTH (BOREHOLE) {F12.4}
C2  .IN    : Caliper 2 {F11.4}
CALI.IN    : Caliper {F11.4}
CBL .MV    : CBL {F11.4}
CGR .GAPI  : Gamma Ray Contribution from Thorium and Potassium {F11.4}
DCAL.IN    : Differential Caliper {F11.4}
DEVI.DEG   : Hole Deviation {F11.4}
DPHI.CFCF  : Density Porosity {F11.4}
DRHO.G/C3  : Bulk Density Correction {F11.4}
DTCO.US/F  : Delta-T Compressional {F11.4}
DTSM.US/F  : Delta-T Shear {F11.4}
GR  .GAPI  : Gamma Ray {F11.4}
GTEM.DEGF  : Generalized Borehole Temperature {F11.4}
PEF .      : Photoelectric Factor {F11.4}
PHIX.CFCF  : CrossPlot Porosity {F11.4}
POTA.%     : Average Potassium Yield {F11.4}
RB  .DEG   : Relative Bearing {F11.4}
RHOB.G/C3  : Bulk Density {F11.4}
SGR .GAPI  : Spectral GR {F11.4}
STIT.F     : Stuck Tool Indicator, Total {F11.4}
TENS.LBF   : Cable Tension {F11.4}
THOR.PPM   : Average Thorium Yield {F11.4}
TNPH.CFCF  : Thermal Neutron Porosity {F11.4}
URAN.PPM   : Average Uranium Yield {F11.4}
WTEP.DEGF  : Well Temperature {F11.4}
~Params ----------------------------------------------------
~Other -----------------------------------------------------
~ASCII -----------------------------------------------------
# ...
 9531.50000    8.00230    8.17240   15.63340   11.90640    0.21190   90.05920   -0.08890    0.05400   50.88330   92.02860   38.59840  104.60070    3.25770    0.00660    0.53580  184.68010    2.85310   32.14310    0.00000    9.24300    0.48140    0.03910    2.75690  112.20440
 9532.00000    7.99770    8.20750   17.34440   12.02450    0.22690   87.35280   -0.09670    0.06530   50.72070   92.36170   38.75960  104.60260    3.28880    0.00450    0.53730  184.71480    2.86560   32.09850    0.00000    8.77020    0.50980    0.03950    2.73470  112.22600
 9532.50000    8.00230    8.19800    3.50490   12.17160    0.22460   90.58980   -0.09320    0.06380   49.73850   92.61330   40.01340  104.60460    3.26440    0.00750    0.53740  185.16770    2.86010   32.00520    0.00000    8.29670    0.55640    0.04730    2.70200  112.18550
 9533.00000    8.00230    8.11840   17.58000   12.30800    0.18510   89.25550   -0.08560    0.05390   50.26160   92.31420   39.51190  104.60650    3.20720    0.01300    0.53690  185.51800    2.84780   31.88450    0.00000    7.81430    0.60240    0.05810    2.66700  112.26650
 9533.50000    7.97770    8.10170   28.29770   12.47310    0.16450   88.91860   -0.09240    0.05570   48.91290   92.07940   39.88800  104.60840    3.33620    0.00940    0.53780  186.50310    2.85870   31.83880    0.00000    7.34560    0.64980    0.05340    2.63820  112.21700
 9534.00000    7.99410    8.09680   25.26610   12.65040    0.17030   89.05040   -0.09450    0.04740   49.71090   91.99360   40.78360  104.61030    3.36380    0.01130    0.53910  187.97900    2.86220   31.82260    0.00000   47.87860    0.69800    0.06320    2.61190  112.24400
 9534.50000    7.99410    8.07520    9.27260   12.79420    0.15960   90.60640   -0.09350    0.03570   49.20360   91.98180   38.41930  104.61220    3.32500    0.01230    0.53900  185.77090    2.86060   31.72170    0.00000   47.32650    0.74440    0.06530    2.57850  112.25300
 9535.00000    7.99250    8.06010    8.81260   12.95530    0.15120   87.49430   -0.07970    0.01610   49.27150   92.64450   35.66550  104.61420    3.34280    0.01710    0.53960  186.76620    2.83840   31.66370    0.00000   46.83740    0.79170    0.06490    2.54870  112.15400
 9535.50000    7.99920    8.08390   10.69870   13.14240    0.16650   91.37050   -0.07770    0.00850   50.79210   93.38840   34.59080  104.61610    3.31140    0.01680    0.53750  184.57390    2.83510   31.72660    0.00000   46.35290    0.86420    0.06170    2.53180  112.22600
 9536.00000    7.99610    8.10920   12.98740   13.33340    0.17750   89.83340   -0.09520    0.01950   50.12980   94.14170   34.05350  104.61800    3.34030    0.00890    0.53550  185.25480    2.86330   31.79820    0.00000   45.89030    0.93710    0.05500    2.51550  112.23630
 9536.50000    8.00540    8.09180    6.01100   13.70700    0.17340   89.70260   -0.08860    0.01250   52.76820   94.27000   32.88480  104.61990    3.34100    0.01110    0.53260  184.61540    2.85260   32.00160    0.00000   45.41500    1.07370    0.05490    2.49230  112.16300
 9537.00000    7.99740    8.10920   18.27370   14.01930    0.17810   89.69630   -0.08370    0.00850   52.56190   94.41460   32.02500  104.62180    3.36940    0.01230    0.52520  187.61470    2.84470   32.41490    0.00000   44.93980    1.21890    0.05340    2.50610  112.19000
 9537.50000    7.99890    8.15590    5.47310   14.55640    0.20200   89.70290   -0.07370    0.00500   50.27020   94.57260   34.30440  104.62380    3.40990    0.01450    0.52220  185.35580    2.82870   32.89890    0.00000   44.44870    1.40750    0.05000    2.49880  112.25750
 9538.00000    7.99920    8.16030   34.23170   15.03900    0.20430   89.85190   -0.08160    0.02010   53.88520  102.40820   37.01800  104.62570    3.43060    0.01080    0.51750  188.17200    2.84140   33.26330    0.00000   43.95490    1.59030    0.04600    2.48270  112.24400
 9538.50000    8.00230    8.15460   16.22330   15.56730    0.20310   88.81560   -0.07700    0.02010   57.82220   95.19830   38.41500  104.62760    3.30440    0.01400    0.51440  186.45470    2.83400   33.73190    0.00000   43.47710    1.77730    0.05170    2.47460  112.16300
 9539.00000    8.00230    8.12250    8.63880   16.16030    0.18720   90.29650   -0.08480    0.03420   51.43410   95.87720   38.28500  104.62950    3.29350    0.01250    0.51220  186.53660    2.84650   34.25500    0.00000   43.00640    1.97900    0.05550    2.46510  112.23500
 9539.50000    8.01460    8.10920   10.64320   16.68530    0.18680   88.29370   -0.10090    0.04750   51.64160   95.30000   37.79240  104.63140    3.31800    0.00760    0.50900  183.70050    2.87250   34.71420    0.00000   42.53590    2.16580    0.05740    2.45610  112.19000
 9540.00000    7.99610    8.10240   22.92990   17.34130    0.17410   87.74970   -0.11420    0.05950   50.89080   94.45780   42.62840  104.63340    3.35080    0.00480    0.51550  187.84520    2.89390   35.24090    0.00000   42.06150    2.33430    0.06550    2.43850  112.19720
 9540.50000    7.98690    8.06730   10.75920   18.24040    0.15200   91.19360   -0.11780    0.06100   66.30730  106.93970   46.38970  104.63530    3.36240    0.00450    0.53220  188.23560    2.89970   35.99880    0.00000   41.58170    2.51720    0.06990    2.41930  112.22150
 9541.00000    7.99610    8.03360    1.26810   19.05440    0.13990   90.87200   -0.10490    0.04750   52.62860   94.35340   49.03160  104.63720    3.42170    0.00940    0.54740  187.87320    2.87890   36.54320    0.00000   41.09930    2.68170    0.07010    2.38250  112.23050
 9541.50000    7.99350    8.03740    4.04250   19.67950    0.14040   88.28240   -0.09820    0.03340   47.51060   93.88690   46.07630  104.63910    3.39680    0.00830    0.56130  190.07430    2.86820   36.89400    0.00000   40.61000    2.79480    0.05660    2.34520  112.22600
 9542.00000    7.99410    8.09790    9.59510   19.91590    0.17080   88.00130   -0.10670    0.04020   50.68780   94.52460   45.53900  104.64100    3.39360    0.00340    0.57060  189.03500    2.88180   37.20770    0.00000   40.12220    2.81260    0.04820    2.35570  112.19000
 9542.50000    8.00230    8.11110    6.49130   20.18270    0.18150   89.85190   -0.10940    0.03730   50.74300   95.06200   43.52400  104.64300    3.32970    0.00420    0.58080  189.97370    2.88620   37.57760    0.00000   39.64240    2.83470    0.05560    2.36970  112.22150
 9543.00000    7.99610    8.13570   17.31590   20.58670    0.19060   89.85190   -0.10630    0.02750   48.97900   97.26680   46.83750  104.64490    3.26790    0.00470    0.59360  186.56240    2.88120   38.00820    0.00000   39.16260    2.88430    0.05330    2.37340  112.21150
 9543.50000    8.00230    8.16590    3.66800   20.98010    0.20870   90.00000   -0.08910    0.01530   50.39370   98.20140   45.35980  104.64680    3.23480    0.00870    0.60610  186.53660    2.85350   38.41940    0.00000   38.99930    2.93240    0.04700    2.37580  112.28600
 9544.00000    8.00470    8.18290  -15.36800   21.34450    0.21830   89.85210   -0.08930    0.02120   54.63250   99.14290   48.71820  104.64870    3.19500    0.00890    0.61770  186.51980    2.85380   38.77790    0.00000   38.84450    2.97650    0.04790    2.37500  112.21250
 9544.50000    8.02070    8.19050    5.07230   21.72850    0.23010   90.83200   -0.06820    0.01530   52.98030   98.94920   47.28530  104.65060    3.12620    0.01830    0.62990  186.43210    2.81980   39.17270    0.00000   38.68970    3.02330    0.05640    2.37650  112.19000
 9545.00000    8.01460    8.16970    8.92410   22.11920    0.21680   90.00000   -0.07550    0.02840   53.89000   98.29320   49.43460  104.65260    3.07590    0.01690    0.64230  185.83660    2.83160   39.58000    0.00000   37.24330    3.07100    0.05970    2.37870  112.24660
 9545.50000    7.99740    8.14000   12.66600   22.47710    0.19340   91.18830   -0.06710    0.02810   57.35460   97.65250   49.03160  104.65450    3.09490    0.01820    0.65380  185.35580    2.81800   39.92910    0.00000   36.76350    3.11420    0.05470    2.37750  112.20800
