~Version ---------------------------------------------------
VERS.   2.0 : CWLS log ASCII Standard -VERSION 2.0
WRAP.    NO : One line per depth step
DLM . SPACE : Column Data Section Delimiter
~Well ------------------------------------------------------
STRT .F                6269.0 : START DEPTH
STOP .F               11187.0 : STOP DEPTH
STEP .F                   0.5 : STEP
NULL .               -9999.25 : NULL VALUE
COMP .                        : COMPANY
WELL .                        : WELL
FLD  .                        : FIELD
LOC  .                        : LOCATION
PROV .                        : PROVINCE
CNTY .                        : COUNTY
STAT .                        : STATE
CTRY .                        : COUNTRY
SRVC .                        : SERVICE COMPANY
DATE .                        : DATE
UWI  .                        : UNIQUE WELL ID
API  .                        : API NUMBER
SLAT .WGS84 2.444653947148602 : SURFACE LATITUDE
SLON .WGS84 7.424080268820987 : SURFACE LONGITUDE
DATUM.F                   nan : DEPTH DATUM ELEV
~Curve Information -----------------------------------------
DEPT.F     : DEPTH (BOREHOLE) {F12.4}
C2  .IN    : Caliper 2 {F11.4}
CALI.IN    : Caliper {F11.4}
CBL .MV    : CBL {F11.4}
CGR .GAPI  : Gamma Ray Contribution from Thorium and Potassium {F11.4}
DCAL.IN    : Differential Caliper {F11.4}
DEVI.DEG   : Hole Deviation {F11.4}
DPHI.CFCF  : Density Porosity {F11.4}
DRHO.G/C3  : Bulk Density Correction {F11.4}
DTCO.US/F  : Delta-T Compressional {F11.4}
DTSM.US/F  : Delta-T Shear {F11.4}
GR  .GAPI  : Gamma Ray {F11.4}
GTEM.DEGF  : Generalized Borehole Temperature {F11.4}
PEF .      : Photoelectric Factor {F11.4}
PHIX.CFCF  : CrossPlot Porosity {F11.4}
POTA.%     : Average Potassium Yield {F11.4}
RB  .DEG   : Relative Bearing {F11.4}
RHOB.G/C3  : Bulk Density {F11.4}
SGR .GAPI  : Spectral GR {F11.4}
STIT.F     : Stuck Tool Indicator, Total {F11.4}
TENS.LBF   : Cable Tension {F11.4}
THOR.PPM   : Average Thorium Yield {F11.4}
TNPH.CFCF  : Thermal Neutron Porosity {F11.4}
URAN.PPM   : Average Uranium Yield {F11.4}
WTEP.DEGF  : Well Temperature {F11.4}
~Params ----------------------------------------------------
~Other -----------------------------------------------------
~ASCII -----------------------------------------------------
# ...
 10184.00000   10.16100    8.23350   13.26700   14.88500    1.27160   87.14600    0.03830    0.03390   51.93380  101.65360   40.46120  107.10630    3.04150    0.11760    0.57300  190.27800    2.64840   32.12800    0.00000   10.06920    1.19900    0.18820    2.34910  112.44200
 10184.50000   10.46710    8.23960    6.93920   14.88670    1.41180   94.47640    0.05550    0.02100   52.27750   95.88440   38.80440  107.10820    3.05270    0.13000    0.57770  190.77080    2.62070   32.17660    0.00000    9.59040    1.17070    0.19710    2.35540  112.46450
 10185.00000   10.27960    8.30610    4.05220   14.94430    1.36530   89.24630    0.04850    0.03010   52.45380   95.17920   42.43140  107.11010    3.11780    0.12350    0.58320  189.38800    2.63190   32.27910    0.00000    9.11160    1.15490    0.19030    2.36160  112.41950
 10185.50000   10.27390    8.33970    3.94350   14.99160    1.38140   90.19580    0.05080    0.02500   51.81340   94.59770   43.61350  107.11210    3.07730    0.12530    0.58840  188.94720    2.62830   32.35940    0.00000    8.61940    1.13820    0.19200    2.36600  112.41500
 10186.00000   10.54130    8.35850    5.26360   15.00280    1.51170   93.32680    0.03660    0.03450   53.33180   94.87090   42.18070  107.11400    2.99320    0.11700    0.59210  188.81520    2.65100   32.36180    0.00000    8.11360    1.11900    0.18860    2.36490  112.46900
 10186.50000   10.42150    8.34280    7.70670   15.08740    1.44940   89.20080    0.04180    0.03570   52.45580   95.24990   38.55370  107.11590    2.97780    0.11480    0.59870  190.44780    2.64270   32.52270    0.00000    7.79590    1.10530    0.17860    2.37520  112.43000
 10187.00000   10.77770    8.29810    1.10960   15.50010    1.58200   92.58430    0.05550    0.02960   53.83300   94.74870   37.88200  107.11780    2.94150    0.12270    0.61870  189.01220    2.62070   32.68590    0.00000    7.63950    1.11310    0.18190    2.34130  112.44200
 10187.50000   10.63390    8.24840    7.33040   15.94890    1.49050   93.25250    0.07500    0.01670   53.50480   97.17230   39.62830  107.11970    2.88900    0.12790    0.64010  191.01970    2.58920   32.92230    0.00000    7.48320    1.12340    0.17370    2.31230  112.43750
 10188.00000    9.92960    8.17910    6.99370   16.57620    1.13700   86.34190    0.06710    0.02670   53.35210   96.63250   40.30000  107.12170    2.86270    0.12610    0.65910  190.59150    2.60200   32.98950    0.00000    6.18520    1.20590    0.17770    2.23600  112.41950
 10188.50000   10.01630    8.13460   -0.75450   17.20390    1.15150   92.18060    0.05900    0.03250   52.59010   95.69010   42.71800  107.12360    2.87790    0.12680    0.67810  186.99870    2.61500   33.05720    0.00000    5.70500    1.28850    0.18700    2.15970  112.42850
 10189.00000    9.68070    8.13510    8.47760   17.83280    0.99930   92.60020    0.05960    0.02780   53.04840   94.93940   38.82230  107.12550    2.87340    0.12760    0.69710  189.43860    2.61410   33.12680    0.00000    5.33050    1.37120    0.18800    2.08350  112.40600
 10189.50000    9.73090    8.11930    3.29040   18.46450    1.01370   86.63310    0.05640    0.02620   50.46740   94.59590   39.09100  107.12740    2.90630    0.13900    0.71620  189.12500    2.61920   33.20110    0.00000   48.80610    1.45410    0.21460    2.00760  112.46000
 10190.00000    9.61890    8.11870   -2.63000   19.23340    0.96200   90.34140    0.05740    0.02220   51.07120   94.32750   35.85210  107.12930    2.97300    0.13750    0.73910  186.41560    2.61750   33.39840    0.00000   48.31950    1.55740    0.21050    1.92970  112.42910
 10190.50000   10.43170    8.10460   11.63600   19.89370    1.31980   84.76820    0.05710    0.02170   50.45940   94.85800   41.09110  107.13130    3.04540    0.13070    0.75930  187.99270    2.61800   33.51960    0.00000   47.82850    1.64270    0.19690    1.85630  112.43600
 10191.00000   10.58160    8.14510    6.08510   20.54090    1.40880   88.82100    0.06020    0.02150   52.05250   93.58850   39.88210  107.13320    3.11880    0.13330    0.77900  186.79590    2.61300   33.61620    0.00000   47.33510    1.72700    0.19930    1.78130  112.42400
 10191.50000   10.84200    8.16970    6.58660   21.15280    1.53650   95.22380    0.06640    0.01730   51.03420   93.30900   45.13600  107.13510    3.11390    0.14310    0.79740  185.65050    2.60300   33.65470    0.00000   46.84770    1.80830    0.21310    1.70320  112.45400
 10192.00000   10.67860    8.19990    0.16460   21.73200    1.48250   90.29930    0.06290    0.02110   51.26630   93.18000   43.12100  107.13700    3.16420    0.13140    0.81450  190.84030    2.60880   33.64420    0.00000   46.36180    1.88670    0.19280    1.62280  112.46450
 10192.50000   10.95670    8.25160   -5.03800   22.59030    1.63340   91.65410    0.06830    0.01460   51.49490   92.96410   42.71800  107.13900    3.13500    0.13360    0.83230  189.21500    2.60000   33.53660    0.00000   45.87920    2.04980    0.19210    1.49120  112.40600
 10193.00000   10.69370    8.28300   -2.80980   23.42050    1.53650   94.04570    0.05580    0.01960   51.89390   92.97630   39.05440  107.14090    3.10330    0.12190    0.84920  189.89060    2.62010   33.39590    0.00000   45.39090    2.20980    0.17990    1.35900  112.41500
 10193.50000   10.56550    8.32310    0.13400   24.08490    1.50250   87.64460    0.04770    0.01850   51.97660   93.11480   41.31120  107.14280    3.00880    0.11340    0.86270  190.06770    2.63310   33.54390    0.00000   44.88970    2.33720    0.16970    1.28860  112.43300
 10194.00000    9.76210    8.34110    2.56610   25.05150    1.14870   88.19130    0.03050    0.02500   51.27960   93.75150   40.90820  107.14470    3.05080    0.11000    0.88990  188.32200    2.66090   34.26310    0.00000   44.41010    2.47670    0.17970    1.25490  112.41500
 10194.50000    8.62060    8.32290   13.38410   25.99660    0.59540   90.58660    0.01790    0.03180   52.23360   94.07240   40.27310  107.14660    2.98100    0.09840    0.91640  190.61970    2.68110   34.95340    0.00000   43.91780    2.61410    0.16730    1.22020  112.48700
 10195.00000    9.07670    8.28030    0.59370   26.96110    0.79440   90.89560    0.01850    0.03510   52.02540   94.12520   41.10600  107.14860    3.01860    0.09740    0.94350  188.08790    2.68020   35.67000    0.00000   43.42580    2.75330    0.16440    1.18640  112.35200
 10195.50000    9.23260    8.24530    3.52930   27.90620    0.85000   88.83460    0.03080    0.02900   51.46570   94.12080   40.70300  107.15050    3.01940    0.11560    0.97000  189.36650    2.66040   36.36170    0.00000   42.94320    2.89060    0.19140    1.15190  112.46000
 10196.00000    8.21560    8.19300    3.01450   28.93060    0.32930   90.05970    0.04880    0.01280   47.60630   93.85740   42.18070  107.15240    3.05900    0.12140    0.99920  189.89390    2.63150   37.15580    0.00000   42.46050    3.03610    0.18580    1.12050  112.43480
 10196.50000    8.14300    8.13870   32.60410   29.93460    0.26580   89.84660    0.02780    0.02640   50.19410   94.77850   38.95670  107.15430    3.04850    0.11160    1.02770  187.84810    2.66520   37.92200    0.00000   41.96460    3.17960    0.18590    1.08810  112.45100
 10197.00000    8.14910    8.12060   -2.10460   30.94990    0.25980   94.53840    0.01920    0.02700   49.57720   94.72370   40.70300  107.15620    3.05950    0.10790    1.05660  184.15610    2.67900   38.70100    0.00000   41.48420    3.32440    0.18660    1.05600  112.40000
 10197.50000    8.13990    8.14240   14.24090   31.12660    0.26620   90.91070    0.00180    0.03310   51.52820   94.05820   39.29250  107.15810    3.01650    0.09200    1.06420  189.76180    2.70720   39.62430    0.00000   41.00620    3.33370    0.16960    1.15770  112.46900
 10198.00000    8.10020    8.16030    4.37670   31.27190    0.25520   82.89130    0.01710    0.01540   47.74630   92.75810   41.75530  107.16010    3.00050    0.10280    1.07070  183.90050    2.68240   40.51050    0.00000   40.15950    3.33970    0.17780    1.25860  112.51400
