~Version ---------------------------------------------------
VERS.   2.0 : CWLS log ASCII Standard -VERSION 2.0
WRAP.    NO : One line per depth step
DLM . SPACE : Column Data Section Delimiter
~Well ------------------------------------------------------
STRT .F                6269.0 : START DEPTH
STOP .F               11187.0 : STOP DEPTH
STEP .F                   0.5 : STEP
NULL .               -9999.25 : NULL VALUE
COMP .                        : COMPANY
WELL .                        : WELL
FLD  .                        : FIELD
LOC  .                        : LOCATION
PROV .                        : PROVINCE
CNTY .                        : COUNTY
STAT .                        : STATE
CTRY .                        : COUNTRY
SRVC .                        : SERVICE COMPANY
DATE .                        : DATE
UWI  .                        : UNIQUE WELL ID
API  .                        : API NUMBER
SLAT .WGS84 2.444653947148602 : SURFACE LATITUDE
SLON .WGS84 7.424080268820987 : SURFACE LONGITUDE
DATUM.F                   nan : DEPTH DATUM ELEV
~Curve Information -----------------------------------------
DEPT.F     : DEPTH (BOREHOLE) {F12.4}
C2  .IN    : Caliper 2 {F11.4}
CALI.IN    : Caliper {F11.4}
CBL .MV    : CBL {F11.4}
CGR .GAPI  : Gamma Ray Contribution from Thorium and Potassium {F11.4}
DCAL.IN    : Differential Caliper {F11.4}
DEVI.DEG   : Hole Deviation {F11.4}
DPHI.CFCF  : Density Porosity {F11.4}
DRHO.G/C3  : Bulk Density Correction {F11.4}
DTCO.US/F  : Delta-T Compressional {F11.4}
DTSM.US/F  : Delta-T Shear {F11.4}
GR  .GAPI  : Gamma Ray {F11.4}
GTEM.DEGF  : Generalized Borehole Temperature {F11.4}
PEF .      : Photoelectric Factor {F11.4}
PHIX.CFCF  : CrossPlot Porosity {F11.4}
POTA.%     : Average Potassium Yield {F11.4}
RB  .DEG   : Relative Bearing {F11.4}
RHOB.G/C3  : Bulk Density {F11.4}
SGR .GAPI  : Spectral GR {F11.4}
STIT.F     : Stuck Tool Indicator, Total {F11.4}
TENS.LBF   : Cable Tension {F11.4}
THOR.PPM   : Average Thorium Yield {F11.4}
TNPH.CFCF  : Thermal Neutron Porosity {F11.4}
URAN.PPM   : Average Uranium Yield {F11.4}
WTEP.DEGF  : Well Temperature {F11.4}
~Params ----------------------------------------------------
~Other -----------------------------------------------------
~ASCII -----------------------------------------------------
# ...
 10517.50000    7.97160    8.25780    6.14570   19.61660    0.23840   81.55150    0.00570    0.04100   64.43110  115.54200   45.27030  108.38690    2.92230    0.07710    0.76670  186.46980    2.70080   36.38010    0.00000   34.67460    1.50880    0.13160    2.28370  112.62200
 10518.00000    7.96540    8.26790    4.92680   19.89380    0.24030   86.43020    0.01200    0.03890   65.81030  116.62730   42.98670  108.38890    2.92830    0.08090    0.77640  189.87860    2.69070   36.57550    0.00000   34.43840    1.53720    0.13410    2.27260  112.64000
 10518.50000    7.96850    8.26620    9.99060   20.19160    0.24100   87.30650    0.01560    0.03890   61.59860  117.52170   44.86730  108.39080    2.95520    0.08230    0.78690  189.87940    2.68490   36.80930    0.00000   33.59040    1.56710    0.13370    2.26390  112.60850
 10519.00000    7.96850    8.26620    8.23140   20.45950    0.24100   88.20270    0.01930    0.03080   61.99710  118.00010   46.74800  108.39270    2.91670    0.07640    0.79050  189.50990    2.67890   36.89970    0.00000   33.10830    1.63020    0.11680    2.23970  112.65600
 10519.50000    7.96370    8.25280    0.16620   20.83150    0.23190   88.15030   -0.00190    0.04750   62.14000  115.95840   53.33030  108.39460    2.90810    0.07060    0.78740  189.56010    2.71310   37.20280    0.00000   32.62090    1.76780    0.12440    2.23030  112.65400
 10520.00000    7.96950    8.23270   10.57590   21.19540    0.22500   88.21640   -0.00940    0.05230   65.57910  107.08070   55.61400  108.39650    2.92450    0.05900    0.78390  189.56010    2.72510   37.49150    0.00000   32.12400    1.90470    0.10460    2.22010  112.65800
 10520.50000    7.96540    8.18100   11.33050   21.56520    0.19750   88.01830   -0.01900    0.05520   65.64710  106.62140   53.46460  108.39850    2.93960    0.05880    0.78070  189.56010    2.74060   37.79060    0.00000   31.63050    2.04210    0.11370    2.21040  112.68800
 10521.00000    7.95720    8.16760    4.33030   21.96920    0.18670   88.20850   -0.01730    0.05270   66.60020  105.61800   57.62900  108.40040    2.95810    0.05720    0.77870  190.41170    2.73790   38.14920    0.00000   31.14360    2.18300    0.10810    2.20420  112.64600
 10521.50000    7.98080    8.17390   -1.91340   22.06530    0.20180   84.47750   -0.03700    0.06700   62.20140  106.14720   57.22600  108.40230    2.99310    0.04790    0.76740  189.03950    2.76960   38.43260    0.00000   30.65660    2.28260    0.10530    2.22980  112.65800
 10522.00000    7.98180    8.17350   20.87810   22.17640    0.20210   88.21970   -0.02680    0.05460   62.66000  107.70620   60.57210  108.40420    2.99450    0.05040    0.75670  192.66830    2.75310   38.74270    0.00000   30.16970    2.38410    0.10090    2.25690  112.68200
 10522.50000    7.99000    8.14980   21.28700   21.94670    0.19450   91.05370   -0.03810    0.05040   61.42480  121.25020   54.79580  108.40610    3.08880    0.05460    0.73130  189.83360    2.77140   38.86890    0.00000   29.73040    2.46760    0.12370    2.30540  112.68050
 10523.00000    8.00230    8.11300    9.49260   21.69260    0.18250   87.88770   -0.03160    0.04050   61.45860  121.26330   51.30310  108.40810    3.11230    0.05770    0.70510  187.87390    2.76090   38.95320    0.00000   29.48210    2.54860    0.12440    2.35140  112.64000
 10523.50000    8.00640    8.11300   11.46130   21.42560    0.18450   85.32810   -0.04890    0.05630   61.40380  121.22190   42.85230  108.41000    3.23460    0.03470    0.67840  187.55430    2.78880   39.01450    0.00000   28.69880    2.62810    0.08300    2.39620  112.61600
 10524.00000    8.00230    8.13190   -2.50200   21.13370    0.19180   90.41610   -0.04810    0.06150   62.76260  119.71150   40.56860  108.41190    3.23600    0.02620    0.65110  190.24900    2.78740   39.04270    0.00000   28.21190    2.70370    0.05970    2.43980  112.68800
 10524.50000    7.97770    8.12060    9.03640   20.86080    0.17380   85.25670   -0.04220    0.04650   63.82460  111.87930   44.98940  108.41380    3.26790    0.05300    0.62420  191.58060    2.77790   39.08070    0.00000   27.69260    2.78250    0.12410    2.48210  112.67150
 10525.00000    7.97360    8.13660   -4.57120   20.44460    0.17970   88.30430   -0.07870    0.07990   60.86440  111.54340   51.03440  108.41570    3.19000    0.04050    0.59640  190.42280    2.83660   38.92700    0.00000   26.76000    2.82170    0.13360    2.51790  112.67600
 10525.50000    7.97160    8.11870   12.09080   19.99720    0.16980   88.33110   -0.09860    0.09970   60.68200  109.30060   49.95980  108.41770    3.13970    0.02610    0.56770  190.68490    2.86870   38.71160    0.00000   26.76000    2.85620    0.11760    2.54950  112.69850
 10526.00000    7.95930    8.11300   24.55080   19.18910    0.16080   86.22890   -0.09070    0.08540   60.03350  107.25800   50.10630  108.41960    3.02710    0.01950    0.53770  191.25070    2.85610   38.39460    0.00000   26.27410    2.78450    0.08620    2.61640  112.66700
 10526.50000    7.99610    8.10170    3.58590   18.52640    0.17370   83.23780   -0.06180    0.04810   59.03390  109.69390   58.56930  108.42150    3.03590    0.04930    0.51050  191.97610    2.80960   37.96170    0.00000   25.79180    2.74140    0.13700    2.64770  112.82000
 10527.00000    7.96850    8.10170    2.02120   17.86170    0.15980   88.77540   -0.07160    0.05130   51.42550  110.08870   63.53960  108.42340    3.03310    0.04480    0.48410  190.46920    2.82530   37.44500    0.00000   25.30950    2.69320    0.13660    2.66790  112.74800
 10527.50000    7.97360    8.09630    1.49090   17.34760    0.15970   88.28170   -0.08200    0.04640   61.28750  111.71810   63.94260  108.42530    3.07340    0.03990    0.46800  190.67060    2.84200   36.97670    0.00000   24.81510    2.62920    0.13580    2.67410  112.65080
 10528.00000    7.96850    8.10250    2.27610   16.83610    0.16020   87.02180   -0.09080    0.03920   59.71100  112.53860   56.82300  108.42730    3.17690    0.02960    0.44940  190.49150    2.85620   36.60280    0.00000   24.31860    2.58080    0.11790    2.69290  112.66700
 10528.50000    7.97460    8.10170    3.37150   16.35710    0.16290   85.49840   -0.09410    0.03190   58.34620  113.35900   57.36030  108.42920    3.21410    0.02720    0.43180  189.65580    2.86150   36.29810    0.00000   23.85070    2.53740    0.11500    2.71660  112.70000
 10529.00000    7.97770    8.09620    7.05570   15.89340    0.16180   87.03680   -0.10250    0.03800   63.80590  111.27200   57.09160  108.43110    3.20430    0.02600    0.41450  191.94980    2.87510   36.02820    0.00000   23.36550    2.49630    0.12230    2.74300  112.74800
 10529.50000    7.98390    8.08850  -15.40140   15.80760    0.16100   93.03090   -0.07360    0.01990   61.63920  110.43050   58.22390  108.43300    3.20450    0.04580    0.41570  185.46910    2.82860   36.12800    0.00000   22.86860    2.46160    0.14160    2.76830  112.82000
 10530.00000    8.06310    8.09410   20.49090   16.17300    0.20360   82.21810   -0.03920   -0.00290   60.76940  109.60310   57.55220  108.43490    3.16380    0.06240    0.44600  192.13680    2.77310   36.44600    0.00000   22.05350    2.39150    0.14440    2.76180  112.56800
 10530.50000    8.11240    8.10360   10.73620   16.51040    0.23300   87.12100   -0.00950   -0.02060   64.71670  110.39570   54.19390  108.43690    3.09390    0.07830    0.47540  191.28970    2.72520   36.70080    0.00000   21.70000    2.31720    0.15010    2.75060  112.67000
 10531.00000    8.01760    8.10550    0.10020   16.85780    0.18640   87.45250   -0.01510   -0.01630   67.15040  111.87000   51.71830  108.43880    3.09390    0.07150    0.50510  190.25120    2.73430   36.97820    0.00000   21.41220    2.24450    0.14020    2.74110  112.67150
 10531.50000    8.00230    8.13190    0.82920   17.36400    0.19180   87.12980   -0.01570   -0.01290   55.15350  113.29030   51.31530  108.44070    3.16130    0.06260    0.53920  190.18310    2.73520   37.34900    0.00000   20.93210    2.19500    0.11930    2.72260  112.66700
