~Version ---------------------------------------------------
VERS.   2.0 : CWLS log ASCII Standard -VERSION 2.0
WRAP.    NO : One line per depth step
DLM . SPACE : Column Data Section Delimiter
~Well ------------------------------------------------------
STRT .F                6269.0 : START DEPTH
STOP .F               11187.0 : STOP DEPTH
STEP .F                   0.5 : STEP
NULL .               -9999.25 : NULL VALUE
COMP .                        : COMPANY
WELL .                        : WELL
FLD  .                        : FIELD
LOC  .                        : LOCATION
PROV .                        : PROVINCE
CNTY .                        : COUNTY
STAT .                        : STATE
CTRY .                        : COUNTRY
SRVC .                        : SERVICE COMPANY
DATE .                        : DATE
UWI  .                        : UNIQUE WELL ID
API  .                        : API NUMBER
SLAT .WGS84 2.444653947148602 : SURFACE LATITUDE
SLON .WGS84 7.424080268820987 : SURFACE LONGITUDE
DATUM.F                   nan : DEPTH DATUM ELEV
~Curve Information -----------------------------------------
DEPT.F     : DEPTH (BOREHOLE) {F12.4}
C2  .IN    : Caliper 2 {F11.4}
CALI.IN    : Caliper {F11.4}
CBL .MV    : CBL {F11.4}
CGR .GAPI  : Gamma Ray Contribution from Thorium and Potassium {F11.4}
DCAL.IN    : Differential Caliper {F11.4}
DEVI.DEG   : Hole Deviation {F11.4}
DPHI.CFCF  : Density Porosity {F11.4}
DRHO.G/C3  : Bulk Density Correction {F11.4}
DTCO.US/F  : Delta-T Compressional {F11.4}
DTSM.US/F  : Delta-T Shear {F11.4}
GR  .GAPI  : Gamma Ray {F11.4}
GTEM.DEGF  : Generalized Borehole Temperature {F11.4}
PEF .      : Photoelectric Factor {F11.4}
PHIX.CFCF  : CrossPlot Porosity {F11.4}
POTA.%     : Average Potassium Yield {F11.4}
RB  .DEG   : Relative Bearing {F11.4}
RHOB.G/C3  : Bulk Density {F11.4}
SGR .GAPI  : Spectral GR {F11.4}
STIT.F     : Stuck Tool Indicator, Total {F11.4}
TENS.LBF   : Cable Tension {F11.4}
THOR.PPM   : Average Thorium Yield {F11.4}
TNPH.CFCF  : Thermal Neutron Porosity {F11.4}
URAN.PPM   : Average Uranium Yield {F11.4}
WTEP.DEGF  : Well Temperature {F11.4}
~Params ----------------------------------------------------
~Other -----------------------------------------------------
~ASCII -----------------------------------------------------
# ...
 6602.50000    8.14300    8.40710    2.88830    6.91720    0.39900   73.01370   -0.04850    0.02380   55.30400   98.05010   28.36360   93.35340    3.10330    0.01950    0.21120  173.75810    2.78820   24.11120    0.00000   50.70820    0.89680    0.04290    2.34240  110.42600
 6603.00000    8.12770    8.39160   17.07020    7.32210    0.38360   74.03320   -0.04410    0.02900   50.87120   93.84280   29.55340   93.35540    3.09210    0.02010    0.23430  173.65980    2.78100   24.33870    0.00000   50.22610    0.88270    0.04140    2.31820  110.51600
 6603.50000    8.06770    8.37270    6.27310    7.74250    0.34380   75.29760   -0.07580    0.06310   50.05720   94.49940   31.29970   93.35730    3.11850    0.00890    0.25790  175.62230    2.83200   24.62660    0.00000   49.94700    0.87100    0.03420    2.30020  110.51600
 6604.00000    8.35170    8.30660    8.56840    8.12320    0.45410   71.33730   -0.07990    0.07890   53.16350  100.22030   29.67300   93.35920    3.11950    0.01230    0.27860  168.69010    2.83870   24.87480    0.00000   49.70590    0.86470    0.04950    2.28210  110.48000
 6604.50000    8.45670    8.23580    8.22060    8.49560    0.47050   74.27780   -0.06790    0.10010   54.55690   96.06920   29.09730   93.36110    3.08220    0.01840    0.29520  174.29800    2.81930   24.86100   20.00000 3586.04300    0.88050    0.05620    2.22950  110.45690
 6605.00000    8.45740    8.21040   13.39230    8.90720    0.45800   74.00540   -0.00820    0.05320   50.11430   94.97060   26.41060   93.36300    3.01260    0.05080    0.31320  176.41440    2.72320   24.96380   16.00000   48.28850    0.90050    0.08460    2.18740  110.48000
 6605.50000    8.45620    8.03740   10.20900    9.20010    0.36920   73.74600    0.01660    0.02290   54.13560   95.14510   27.36570   93.36500    3.00190    0.08050    0.32660  174.81900    2.68320   24.91960   12.00000   47.81450    0.91070    0.12850    2.14150  110.47100
 6606.00000    8.29310    8.03740    5.74160    9.59100    0.28930   74.76920   -0.04220    0.05230   50.31530   97.89260   28.47870   93.36690    3.04570    0.05720    0.34300  175.28520    2.77800   24.87040    8.00000   47.34050    0.93380    0.13480    2.08150  110.53400
 6606.50000    7.97770    8.04690   11.31610   10.13050    0.13720   70.90460   -0.09300    0.06960   50.57880   97.98760   29.82200   93.36880    3.05410    0.01410    0.36480  172.46490    2.85970   24.92670    4.00000   47.01560    0.97120    0.07120    2.01570  110.48000
 6607.00000    7.97770    8.10040   36.29570   10.70310    0.16380   75.18620   -0.07480    0.01870   51.38810   97.51660   28.21000   93.37070    3.07920    0.01700    0.38450  174.40840    2.83040   24.98180    0.00000   46.77460    1.03200    0.05920    1.94520  110.43200
 6607.50000    8.01450    8.14450   15.96330   11.16200    0.20430   73.98070   -0.06490   -0.00150   49.72250   94.87670   31.07580   93.37260    3.15090    0.02080    0.40150  178.55090    2.81450   24.87380    0.00000   45.89700    1.07260    0.06040    1.86800  110.47230
 6608.00000    8.06360    8.17920    3.33520   11.74720    0.24620   73.75800   -0.06860    0.00340   57.86900   95.92750   37.52380   93.37460    3.19550    0.02040    0.42880  177.21700    2.82040   24.91170    0.00000   45.41490    1.09060    0.06310    1.79340  110.47400
 6608.50000    8.13690    8.15640    9.92080   12.32940    0.27160   74.54540   -0.06880    0.00600   55.95600   96.32400   45.31520   93.37650    3.16180    0.02960    0.45590  179.40780    2.82080   24.94530    0.00000   44.93270    1.10830    0.09070    1.71870  110.46200
 6609.00000    8.17340    8.23110    6.88690   12.64020    0.32720   79.27950   -0.05050   -0.00030   55.78940   95.13870   45.40470   93.37840    3.21330    0.04270    0.46200  176.18590    2.79130   24.80210    0.00000   44.45060    1.17000    0.10620    1.65690  110.56100
 6609.50000    8.23120    8.29720   -2.80770   12.94540    0.38910   76.39680   -0.04800    0.00130   60.25470   96.56630   43.07630   93.38030    3.32360    0.03450    0.46780  178.19130    2.78730   24.65320    0.00000   43.44350    1.23090    0.08150    1.59500  110.54300
 6610.00000    8.39480    8.35850    8.45870   13.12070    0.50160   75.16340   -0.06700    0.02440   60.54810   96.76350   40.65830   93.38220    3.40870    0.02460    0.47330  175.81450    2.81780   24.38100    0.00000   42.48000    1.25270    0.07380    1.53400  110.48100
 6610.50000    8.62220    8.44030    5.26850   13.19550    0.65580   75.64880   -0.06840    0.02570   54.79160   96.02110   39.31490   93.38420    3.35040    0.02090    0.47520  175.10770    2.82010   23.92810    0.00000   42.48000    1.26490    0.06440    1.46210  110.55200
 6611.00000    8.14910    8.43400   15.51080   13.38570    0.41530   76.45060   -0.06240    0.02770   62.22800   95.99890   35.84020   93.38610    3.29960    0.02910    0.48120  174.11400    2.81040   23.68970    0.00000   42.48000    1.28810    0.08180    1.40370  110.53400
 6611.50000    8.01860    8.21280   11.46740   13.58260    0.24010   75.17490   -0.04650    0.01130   53.39780   95.76210   32.61620   93.38800    3.31370    0.03810    0.48750  171.30090    2.78480   23.46270    0.00000   42.04370    1.31200    0.08960    1.34600  110.49800
 6612.00000    7.96300    8.10830    5.18700   13.81080    0.16030   73.55010   -0.06010    0.02230   54.43920   95.28620   31.81020   93.38990    3.25140    0.03240    0.49490  174.35170    2.80670   23.28810    0.00000   41.56570    1.33890    0.08880    1.29110  110.33600
 6612.50000    7.97530    8.09410    3.62120   14.03320    0.15950   79.42260   -0.06420    0.02050   52.47260   98.58560   29.82200   93.39180    3.18920    0.02910    0.50210  174.15390    2.81340   23.10090    0.00000   41.19690    1.36520    0.08400    1.23530  110.47400
 6613.00000    7.98590    8.11300    6.75790   14.31780    0.17420   75.20880   -0.07490    0.03230   51.66660  100.12250   26.59800   93.39380    3.21950    0.02530    0.51650  176.46770    2.83060   23.58980    0.00000   40.95380    1.36680    0.08490    1.26320  110.51300
 6613.50000    7.95720    8.13510    8.15990   14.56060    0.17060   75.08570   -0.05130    0.01070   52.27250  100.42550   25.16520   93.39570    3.17770    0.03110    0.52940  176.63350    2.79260   24.01020    0.00000   40.68260    1.36440    0.07580    1.28730  110.45840
 6614.00000    7.95310    8.09880   -0.23770   14.97110    0.15060   76.41350   -0.06680    0.02830   54.69530   99.59880   25.70250   93.39760    3.12260    0.02430    0.54780  176.58640    2.81750   25.17200    0.00000   38.38000    1.38170    0.07270    1.38970  110.53400
 6614.50000    7.95310    8.09410   11.39520   15.37740    0.14830   75.67810   -0.05810    0.02670   55.07770   94.72700   27.61300   93.39950    3.13640    0.03220    0.56600  179.39050    2.80350   26.33010    0.00000   38.38000    1.39850    0.08600    1.49210  110.37200
 6615.00000    7.96340    8.19910    8.41700   15.77770    0.20540   75.28000   -0.08900    0.05920   53.86210   93.83860   30.12060   93.40140    3.16160    0.01970    0.58790  176.68660    2.85330   27.72090    0.00000   38.38000    1.39120    0.08470    1.62700  110.51600
 6615.50000    7.98080    8.33730    0.71980   16.19640    0.28210   74.59250   -0.05790    0.03510   51.71870   93.53730   28.64290   93.40340    3.12550    0.03160    0.61040  180.30080    2.80330   29.14900    0.00000   38.28070    1.38520    0.08400    1.76460  110.49350
 6616.00000    7.98390    8.41990    7.47220   16.57190    0.32400   74.78380   -0.06190    0.03810   51.65830   95.25680   27.18020   93.40530    3.15010    0.03060    0.63220  180.74210    2.80970   30.61360    0.00000   38.03760    1.37030    0.08550    1.91290  110.51150
 6616.50000    8.03300    8.45290   15.89030   16.76560    0.36520   74.90170   -0.04090    0.02550   51.83620   95.26740   21.80680   93.40720    3.14510    0.03860    0.64700  178.56190    2.77590   31.73340    0.00000   37.79450    1.34080    0.08520    2.03910  110.49800
