~Version ---------------------------------------------------
VERS.   2.0 : CWLS log ASCII Standard -VERSION 2.0
WRAP.    NO : One line per depth step
DLM . SPACE : Column Data Section Delimiter
~Well ------------------------------------------------------
STRT .F                6269.0 : START DEPTH
STOP .F               11187.0 : STOP DEPTH
STEP .F                   0.5 : STEP
NULL .               -9999.25 : NULL VALUE
COMP .                        : COMPANY
WELL .                        : WELL
FLD  .                        : FIELD
LOC  .                        : LOCATION
PROV .                        : PROVINCE
CNTY .                        : COUNTY
STAT .                        : STATE
CTRY .                        : COUNTRY
SRVC .                        : SERVICE COMPANY
DATE .                        : DATE
UWI  .                        : UNIQUE WELL ID
API  .                        : API NUMBER
SLAT .WGS84 2.444653947148602 : SURFACE LATITUDE
SLON .WGS84 7.424080268820987 : SURFACE LONGITUDE
DATUM.F                   nan : DEPTH DATUM ELEV
~Curve Information -----------------------------------------
DEPT.F     : DEPTH (BOREHOLE) {F12.4}
C2  .IN    : Caliper 2 {F11.4}
CALI.IN    : Caliper {F11.4}
CBL .MV    : CBL {F11.4}
CGR .GAPI  : Gamma Ray Contribution from Thorium and Potassium {F11.4}
DCAL.IN    : Differential Caliper {F11.4}
DEVI.DEG   : Hole Deviation {F11.4}
DPHI.CFCF  : Density Porosity {F11.4}
DRHO.G/C3  : Bulk Density Correction {F11.4}
DTCO.US/F  : Delta-T Compressional {F11.4}
DTSM.US/F  : Delta-T Shear {F11.4}
GR  .GAPI  : Gamma Ray {F11.4}
GTEM.DEGF  : Generalized Borehole Temperature {F11.4}
PEF .      : Photoelectric Factor {F11.4}
PHIX.CFCF  : CrossPlot Porosity {F11.4}
POTA.%     : Average Potassium Yield {F11.4}
RB  .DEG   : Relative Bearing {F11.4}
RHOB.G/C3  : Bulk Density {F11.4}
SGR .GAPI  : Spectral GR {F11.4}
STIT.F     : Stuck Tool Indicator, Total {F11.4}
TENS.LBF   : Cable Tension {F11.4}
THOR.PPM   : Average Thorium Yield {F11.4}
TNPH.CFCF  : Thermal Neutron Porosity {F11.4}
URAN.PPM   : Average Uranium Yield {F11.4}
WTEP.DEGF  : Well Temperature {F11.4}
~Params ----------------------------------------------------
~Other -----------------------------------------------------
~ASCII -----------------------------------------------------
# ...
 9212.50000    7.96540    8.10920    6.65110   16.10330    0.16200   88.38300    0.01990    0.02410   61.30490  112.01540   34.38930  103.37580    2.93210    0.09120    0.55930  189.40630    2.67790   30.54150    0.00000   31.97530    1.67090    0.14910    1.96700  112.17200
 9213.00000    7.97030    8.12810    1.02640   16.13220    0.17390   88.80050    0.03230    0.01070   63.01010  112.41780   33.31470  103.37770    2.92540    0.11150    0.56130  189.03500    2.65800   30.51760    0.00000   31.49580    1.66740    0.18110    1.95980  112.16600
 9213.50000    7.97770    8.10830   -5.52720   16.13790    0.16770   88.81650    0.03150    0.01150   62.10360  111.84220   35.73270  103.37960    2.94190    0.10970    0.56260  187.41870    2.65940   30.44940    0.00000   31.01430    1.66140    0.17810    1.94970  112.20800
 9214.00000    7.97460    8.10590    2.01830   16.17330    0.16500   92.37960    0.04130    0.00150   59.01630  112.34160   35.55350  103.38150    2.94480    0.11490    0.56490  189.26660    2.64360   30.43690    0.00000   30.52970    1.65850    0.17940    1.94320  112.25300
 9214.50000    7.97770    8.13510    5.06710   16.16130    0.18100   87.32870    0.05350   -0.00450   61.80960  112.29570   36.35950  103.38350    2.98490    0.12820    0.56550  188.04610    2.62380   30.33490    0.00000   30.04110    1.65070    0.19540    1.93090  112.20350
 9215.00000    7.96540    8.16500    3.13250   16.14790    0.18960   87.94980    0.05710   -0.00560   61.33150  112.25730   34.10270  103.38540    2.97690    0.11520    0.56610  189.09700    2.61810   30.23040    0.00000   29.55950    1.64270    0.16440    1.91850  112.19510
 9215.50000    7.98390    8.20280    2.64700   16.12050    0.21760   87.16040    0.05390   -0.00280   60.23980  111.75040   33.20720  103.38730    2.96230    0.11340    0.56620  189.31480    2.62330   30.09960    0.00000   29.07800    1.63340    0.16370    1.90440  112.19000
 9216.00000    7.98080    8.23720    2.42510   16.07050    0.23300   88.82130    0.05080   -0.00130   60.78070  111.74680   31.05790  103.38920    2.94560    0.11170    0.56560  189.92260    2.62820   29.92690    0.00000   28.60110    1.62170    0.16320    1.88770  112.17200
 9216.50000    7.98180    8.29310  -11.53150   16.02240    0.26100   92.41590    0.05780   -0.00410   58.63510  111.82200   32.37430  103.39110    2.91920    0.12040    0.56490  190.12470    2.61700   29.75810    0.00000   28.12410    1.61030    0.17470    1.87120  112.17800
 9217.00000    7.97770    8.29920    6.35120   15.96490    0.26190   86.73530    0.05510   -0.00390   60.12400  112.37380   31.94450  103.39310    2.85000    0.11900    0.56400  189.85310    2.62140   29.57210    0.00000   27.64580    1.59790    0.17430    1.85370  112.25300
 9217.50000    7.97770    8.29060   14.63640   15.80540    0.25760   87.02560    0.04920    0.00010   56.43670  113.87520   34.54160  103.39500    2.83590    0.11170    0.56190  189.16870    2.63080   29.58860    0.00000   27.16730    1.55980    0.16470    1.87770  112.19000
 9218.00000    7.98390    8.27830   -6.46880   15.69490    0.25480   88.90490    0.03930    0.00840   59.23300  114.19800   33.33260  103.39690    2.83860    0.11140    0.55250  190.41170    2.64670   29.57800    0.00000   26.68880    1.58260    0.17390    1.89130  112.19900
 9218.50000    7.97770    8.26190   17.68020   15.36120    0.24360   88.21200    0.03740    0.01090   60.77240  114.27330   32.68780  103.39880    2.89430    0.10270    0.53970  188.67820    2.64970   29.69170    0.00000   26.20560    1.55590    0.15700    1.95230  112.17200
 9219.00000    7.99000    8.20330   -3.57700   15.04160    0.22090   87.61020    0.03370    0.01480   60.72900  114.24740   31.52350  103.40070    2.90080    0.11040    0.52730  189.60970    2.65580   29.83170    0.00000   25.71930    1.53060    0.17730    2.01490  112.24400
 9219.50000    7.98530    8.18860    1.54710   14.74600    0.21130   90.59070    0.02430    0.02370   58.97850  112.23910   32.59820  103.40260    2.94230    0.09470    0.51580  189.19530    2.67090   30.02010    0.00000   25.23530    1.50770    0.15260    2.08080  112.21250
 9220.00000    7.97770    8.18860    2.90600   14.44980    0.20750   87.94200    0.01040    0.03280   61.75570  113.93590   35.13130  103.40460    2.95610    0.09220    0.50420  186.63250    2.69330   30.21000    0.00000   24.75370    1.48470    0.16110    2.14700  112.21700
 9220.50000    7.98390    8.18650    2.15730   14.15830    0.20950   89.91460    0.00450    0.03540   57.91320  112.35010   33.34020  103.40650    2.96500    0.08830    0.49280  188.99930    2.70270   30.41250    0.00000   24.27070    1.46230    0.15840    2.21430  112.19000
 9221.00000    7.99410    8.16030    4.76870   13.86320    0.20180   87.94560    0.00400    0.03530   59.61980  111.67670   33.34020  103.40840    2.95110    0.10300    0.48130  191.82820    2.70350   30.61010    0.00000   23.78430    1.43960    0.19150    2.28150  112.19000
 9221.50000    7.99610    8.16590    2.16680   13.58160    0.20560   89.11130    0.02290    0.02010   59.06370  111.86890   32.77730  103.41030    3.01740    0.11030    0.47020  192.23960    2.67310   30.84150    0.00000   18.93880    1.41820    0.18810    2.35140  112.15400
 9222.00000    8.01040    8.25990   15.96950   13.26500    0.25920   87.40390    0.02330    0.01750   61.26070  111.50150   33.40420  103.41230    3.07130    0.11350    0.45800  189.23230    2.67250   30.99610    0.00000    1.09460    1.39330    0.19450    2.41560  112.18400
 9222.50000    7.98390    8.23010   -4.98780   12.90880    0.23110   88.35600    0.01590    0.02080   61.05200  112.03600   32.32950  103.41420    3.09400    0.09930    0.45060  188.55290    2.68450   31.19880    0.00000   11.11150    1.32570    0.17140    2.49170  112.21250
 9223.00000    7.99610    8.24710    1.09690   12.61620    0.24570   87.51500    0.00540    0.02780   61.42830  112.03260   35.10580  103.41610    3.12820    0.10520    0.44730  189.59310    2.70130   31.27430    0.00000   21.12840    1.25290    0.19490    2.54180  112.19300
 9223.50000    7.99410    8.29560    3.58510   12.50490    0.26850   90.44690    0.01350    0.02160   61.24950  111.94940   37.16550  103.41800    3.11850    0.09660    0.44920  190.63800    2.68830   31.33370    0.00000   21.38830    1.20550    0.16770    2.56510  112.16300
 9224.00000    8.00230    8.39270   -2.86400   12.37580    0.32020   89.39600    0.02570    0.01680   57.98610  112.11250   37.97150  103.41990    3.05360    0.10380    0.44970  189.71060    2.66870   31.46220    0.00000   20.90200    1.16190    0.17120    2.60020  112.21700
 9224.50000    8.04110    8.40190    1.34430   12.27440    0.34460   86.31790    0.03010    0.01960   60.11990  111.06690   34.12070  103.42190    3.03450    0.10690    0.45110  191.35250    2.66160   31.65990    0.00000   20.66990    1.12090    0.17360    2.64090  112.15400
 9225.00000    8.05950    8.40010   12.44350   12.08040    0.35300   85.71400    0.02560    0.02930   62.79050  112.41170   36.44910  103.42380    3.01180    0.10350    0.44970  190.87430    2.66870   31.85890    0.00000   20.50520    1.06760    0.17050    2.69450  112.18550
 9225.50000    8.04520    8.39860   18.20050   11.99100    0.34500   91.66480    0.02820    0.02840   61.15990  113.79990   36.31480  103.42570    2.97980    0.09870    0.45150  190.89000    2.66450   32.07620    0.00000   20.34050    1.02790    0.15730    2.73620  112.16120
 9226.00000    8.05130    8.38120   -2.72620   11.88710    0.33960   88.41700    0.00840    0.03840   66.89610  113.49130   39.07310  103.42760    3.00550    0.09100    0.45280  190.65010    2.69640   32.25370    0.00000   18.96470    0.98700    0.16060    2.77460  112.22600
 9226.50000    8.05750    8.14270   12.00350   11.80250    0.22500   92.67660   -0.00490    0.03750   67.30770  110.04480   39.78950  103.42950    3.05020    0.08400    0.45480  189.26660    2.71790   32.48340    0.00000   18.48310    0.94770    0.15860    2.81740  112.28000
