~Version ---------------------------------------------------
VERS.   2.0 : CWLS log ASCII Standard -VERSION 2.0
WRAP.    NO : One line per depth step
DLM . SPACE : Column Data Section Delimiter
~Well ------------------------------------------------------
STRT .F                6269.0 : START DEPTH
STOP .F               11187.0 : STOP DEPTH
STEP .F                   0.5 : STEP
NULL .               -9999.25 : NULL VALUE
COMP .                        : COMPANY
WELL .                        : WELL
FLD  .                        : FIELD
LOC  .                        : LOCATION
PROV .                        : PROVINCE
CNTY .                        : COUNTY
STAT .                        : STATE
CTRY .                        : COUNTRY
SRVC .                        : SERVICE COMPANY
DATE .                        : DATE
UWI  .                        : UNIQUE WELL ID
API  .                        : API NUMBER
SLAT .WGS84 2.444653947148602 : SURFACE LATITUDE
SLON .WGS84 7.424080268820987 : SURFACE LONGITUDE
DATUM.F                   nan : DEPTH DATUM ELEV
~Curve Information -----------------------------------------
DEPT.F     : DEPTH (BOREHOLE) {F12.4}
C2  .IN    : Caliper 2 {F11.4}
CALI.IN    : Caliper {F11.4}
CBL .MV    : CBL {F11.4}
CGR .GAPI  : Gamma Ray Contribution from Thorium and Potassium {F11.4}
DCAL.IN    : Differential Caliper {F11.4}
DEVI.DEG   : Hole Deviation {F11.4}
DPHI.CFCF  : Density Porosity {F11.4}
DRHO.G/C3  : Bulk Density Correction {F11.4}
DTCO.US/F  : Delta-T Compressional {F11.4}
DTSM.US/F  : Delta-T Shear {F11.4}
GR  .GAPI  : Gamma Ray {F11.4}
GTEM.DEGF  : Generalized Borehole Temperature {F11.4}
PEF .      : Photoelectric Factor {F11.4}
PHIX.CFCF  : CrossPlot Porosity {F11.4}
POTA.%     : Average Potassium Yield {F11.4}
RB  .DEG   : Relative Bearing {F11.4}
RHOB.G/C3  : Bulk Density {F11.4}
SGR .GAPI  : Spectral GR {F11.4}
STIT.F     : Stuck Tool Indicator, Total {F11.4}
TENS.LBF   : Cable Tension {F11.4}
THOR.PPM   : Average Thorium Yield {F11.4}
TNPH.CFCF  : Thermal Neutron Porosity {F11.4}
URAN.PPM   : Average Uranium Yield {F11.4}
WTEP.DEGF  : Well Temperature {F11.4}
~Params ----------------------------------------------------
~Other -----------------------------------------------------
~ASCII -----------------------------------------------------
# ...
 7574.00000    7.96950    8.47440    5.76120   35.52730    0.34310   88.95530    0.04850    0.03250   56.42030   99.66460   76.61480   97.08400    2.84400    0.10300    1.31210  190.86110    2.63190   62.32610    0.00000   14.03300    3.20420    0.14680    3.65090  111.05900
 7574.50000    7.97770    8.52360    4.39920   35.38350    0.37120   89.25210    0.04690    0.04250   56.06790   99.83350   77.59990   97.08590    2.92610    0.09620    1.30260  190.98720    2.63450   62.63720    0.00000   13.55780    3.21710    0.13400    3.71280  111.00650
 7575.00000    7.96750    8.52830    4.50400   35.37800    0.36810   89.00170    0.04750    0.04860   58.29360  101.22720   79.88350   97.08780    2.95760    0.09860    1.29430  190.64420    2.63360   62.62260    0.00000   13.07080    3.26620    0.13840    3.71160  111.07400
 7575.50000    7.97360    8.54010    5.76690   35.23740    0.37700   89.55150    0.05660    0.04550   57.19700  101.69170   80.70750   97.08970    3.00940    0.12120    1.28420  191.13400    2.61880   62.56470    0.00000   12.57870    3.28390    0.17770    3.72290  111.02000
 7576.00000    7.99000    8.55770    4.31230   35.03380    0.39400   87.83260    0.05990    0.04070   57.13550  101.59950   81.51350   97.09170    2.99740    0.11180    1.27930  191.30990    2.61360   62.52880    0.00000   12.09220    3.24980    0.15460    3.74570  111.05000
 7576.50000    7.96540    8.55390   -3.07190   34.83560    0.37940   88.65740    0.04560    0.04790   57.01930  101.75860   80.81490   97.09360    2.97070    0.10710    1.27450  191.71960    2.63660   62.50310    0.00000   11.60950    3.21610    0.15830    3.76920  111.00200
 7577.00000    7.95930    8.58640    7.59010   34.60560    0.39190   89.00440    0.05300    0.03540   57.79470  101.76330   78.55810   97.09550    2.95650    0.09310    1.26860  191.42710    2.62460   62.42070    0.00000   51.88670    3.17950    0.12210    3.78930  110.97800
 7577.50000    7.96540    8.59960    6.79080   34.37470    0.40140   88.66560    0.05600    0.02750   57.68940  101.63240   74.52810   97.09740    2.95960    0.10780    1.26260  191.94980    2.61990   62.33650    0.00000   51.40030    3.14280    0.14980    3.80930  110.98850
 7578.00000    7.96880    8.61550    8.42210   34.14800    0.41080   89.10530    0.06400    0.01620   57.37690  101.36690   75.85350   97.09930    2.93110    0.11170    1.25680  191.10520    2.60690   62.26030    0.00000   50.91390    3.10650    0.15050    3.82980  111.04250
 7578.50000    7.97160    8.61790    4.27200   33.93230    0.41340   88.21430    0.08000   -0.00370   56.10440  101.15540   76.82070   97.10120    3.01890    0.12940    1.25140  191.38780    2.58120   62.20430    0.00000   50.41630    3.07120    0.17200    3.85160  110.99600
 7579.00000    7.97770    8.60850    2.73300   33.75580    0.41210   89.39550    0.06590   -0.00030   56.49700  101.38740   74.53710   97.10320    3.06560    0.11330    1.24750  191.10240    2.60390   62.22090    0.00000   49.68390    3.03940    0.15190    3.87790  111.02000
 7579.50000    7.97930    8.64260    5.64230   33.60330    0.42930   87.43070    0.05340    0.00920   56.72950  101.47450   70.68620   97.10510    3.08180    0.11140    1.24450  192.35720    2.62400   62.28320    0.00000   49.05000    3.00970    0.15990    3.90710  111.03800
 7580.00000    7.96850    8.67060    7.15030   33.37660    0.43710   89.20410    0.03490    0.02180   56.41030  101.53260   71.06230   97.10700    3.06330    0.08180    1.23870  190.60740    2.65380   62.20890    0.00000   49.00500    2.97330    0.11440    3.92790  111.07400
 7580.50000    7.96540    8.68390    3.30560   33.16130    0.44190   90.00000    0.04640    0.01160   57.00750  101.84110   74.82360   97.10890    3.03450    0.11020    1.23330  192.01150    2.63530   62.15620    0.00000   48.52450    2.93790    0.16420    3.95000  111.00200
 7581.00000    7.97130    8.69530    9.51750   33.04000    0.45040   88.65330    0.03260    0.02940   55.96830  101.36880   76.86050   97.11080    2.99560    0.11090    1.22810  190.84030    2.65760   62.02900    0.00000   48.04400    2.93140    0.17960    3.94920  110.99300
 7581.50000    7.97280    8.70740    3.57420   33.06060    0.45700   89.88060    0.02170    0.03800   56.42200  101.38680   78.56210   97.11280    2.92420    0.09530    1.23280  189.71750    2.67510   61.91460    0.00000   47.57240    2.90920    0.15650    3.93080  111.02000
 7582.00000    7.97460    8.70340    2.27450   33.33400    0.45600   89.40490    0.01930    0.03870   58.47560  101.35580   84.06970   97.11470    2.92740    0.09210    1.24260  190.04930    2.67890   62.08240    0.00000   47.10430    2.93540    0.15190    3.91650  111.03800
 7582.50000    7.97160    8.71350    6.62070   33.57640    0.45930   91.48870    0.02510    0.03560   56.59520  101.66150   83.10750   97.11660    2.89550    0.08590    1.25130  190.78430    2.66950   62.19190    0.00000   46.63260    2.95890    0.13220    3.89830  110.97950
 7583.00000    7.98390    8.72100    8.35010   33.82370    0.46930   87.65060    0.04230    0.02660   56.55430  101.81320   83.28660   97.11850    2.89880    0.10720    1.26020  190.04200    2.64190   62.30980    0.00000   46.15190    2.98280    0.16200    3.88070  111.00200
 7583.50000    7.97770    8.73330   11.09020   34.00520    0.47200   87.63060    0.04900    0.02400   56.84320  102.10830   80.73430   97.12050    2.81730    0.09360    1.26900  188.92640    2.63120   62.35470    0.00000   45.67120    2.98620    0.12660    3.86210  110.95700
 7584.00000    7.97530    8.72310    4.15560   34.22260    0.46580   89.31890    0.05420    0.02380   59.79250  101.67450   84.76430   97.12240    2.85670    0.10370    1.27510  189.84030    2.62270   62.37860    0.00000   45.17760    3.01760    0.14290    3.83570  111.03290
 7584.50000    7.97770    8.71680    8.79940   34.29630    0.46410   89.85100    0.03820    0.03600   55.18480  101.38740   79.92830   97.12430    2.80750    0.10200    1.27920  188.82550    2.64850   62.47840    0.00000   44.70570    3.01570    0.15470    3.83930  111.00650
 7585.00000    7.98390    8.69050   -9.19020   34.67140    0.45470   88.81160    0.02540    0.04810   55.73850  101.34440   86.24200   97.12620    2.86220    0.07810    1.29180  187.89900    2.66910   62.60130    0.00000   44.23780    3.05750    0.11500    3.80500  111.02900
 7585.50000    7.97770    8.65150    5.71510   35.11920    0.43280   87.63250    0.03300    0.04130   55.39710  100.75310   85.16730   97.12810    2.90550    0.08940    1.31010  187.12500    2.65680   62.83600    0.00000   43.76790    3.08690    0.13230    3.77590  111.05600
 7586.00000    7.97360    8.65090   10.38070   35.56440    0.43030   90.29590    0.04190    0.02870   55.61620  101.44920   87.15550   97.13010    2.92260    0.09260    1.32830  187.41870    2.64250   63.06530    0.00000   43.29580    3.11610    0.13100    3.74650  111.00200
 7586.50000    7.96850    8.65280    6.47160   35.49600    0.42860   88.22970    0.03690    0.02980   54.49630  101.46800   78.55810   97.13200    2.92270    0.09040    1.31570  187.79620    2.65060   63.15610    0.00000   42.86710    3.17230    0.13080    3.76820  110.98700
 7587.00000    7.97160    8.65090   -6.67260   35.39990    0.42930   89.23150    0.01660    0.04320   54.96340  100.56330   76.94610   97.13390    2.91730    0.07390    1.30200  183.64170    2.68320   63.19760    0.00000   42.70350    3.22610    0.11390    3.78690  111.03870
 7587.50000    7.97770    8.64150    3.00440   35.32800    0.42800   89.11570    0.00180    0.05490   54.94280  100.51120   79.52530   97.13580    2.91340    0.06560    1.28920  183.53960    2.70710   63.28250    0.00000   42.53990    3.28200    0.10930    3.80830  111.05600
 7588.00000    7.97770    8.65400    9.28520   35.25160    0.43400   89.40440    0.00490    0.04990   55.70990  100.23180   76.83870   97.13770    2.87840    0.07170    1.27620  183.57630    2.70210   63.35930    0.00000   42.37640    3.33760    0.12000    3.82920  111.03800
