~Version ---------------------------------------------------
VERS.   2.0 : CWLS log ASCII Standard -VERSION 2.0
WRAP.    NO : One line per depth step
DLM . SPACE : Column Data Section Delimiter
~Well ------------------------------------------------------
STRT .F                6269.0 : START DEPTH
STOP .F               11187.0 : STOP DEPTH
STEP .F                   0.5 : STEP
NULL .               -9999.25 : NULL VALUE
COMP .                        : COMPANY
WELL .                        : WELL
FLD  .                        : FIELD
LOC  .                        : LOCATION
PROV .                        : PROVINCE
CNTY .                        : COUNTY
STAT .                        : STATE
CTRY .                        : COUNTRY
SRVC .                        : SERVICE COMPANY
DATE .                        : DATE
UWI  .                        : UNIQUE WELL ID
API  .                        : API NUMBER
SLAT .WGS84 2.444653947148602 : SURFACE LATITUDE
SLON .WGS84 7.424080268820987 : SURFACE LONGITUDE
DATUM.F                   nan : DEPTH DATUM ELEV
~Curve Information -----------------------------------------
DEPT.F     : DEPTH (BOREHOLE) {F12.4}
C2  .IN    : Caliper 2 {F11.4}
CALI.IN    : Caliper {F11.4}
CBL .MV    : CBL {F11.4}
CGR .GAPI  : Gamma Ray Contribution from Thorium and Potassium {F11.4}
DCAL.IN    : Differential Caliper {F11.4}
DEVI.DEG   : Hole Deviation {F11.4}
DPHI.CFCF  : Density Porosity {F11.4}
DRHO.G/C3  : Bulk Density Correction {F11.4}
DTCO.US/F  : Delta-T Compressional {F11.4}
DTSM.US/F  : Delta-T Shear {F11.4}
GR  .GAPI  : Gamma Ray {F11.4}
GTEM.DEGF  : Generalized Borehole Temperature {F11.4}
PEF .      : Photoelectric Factor {F11.4}
PHIX.CFCF  : CrossPlot Porosity {F11.4}
POTA.%     : Average Potassium Yield {F11.4}
RB  .DEG   : Relative Bearing {F11.4}
RHOB.G/C3  : Bulk Density {F11.4}
SGR .GAPI  : Spectral GR {F11.4}
STIT.F     : Stuck Tool Indicator, Total {F11.4}
TENS.LBF   : Cable Tension {F11.4}
THOR.PPM   : Average Thorium Yield {F11.4}
TNPH.CFCF  : Thermal Neutron Porosity {F11.4}
URAN.PPM   : Average Uranium Yield {F11.4}
WTEP.DEGF  : Well Temperature {F11.4}
~Params ----------------------------------------------------
~Other -----------------------------------------------------
~ASCII -----------------------------------------------------
# ...
 7907.50000    8.01760    8.10590   -1.97750    5.44230    0.18670   93.00220   -0.11790    0.02800   50.72700   89.86550   18.62750   98.36460    3.70870   -0.00590    0.11510  195.20240    2.89980   13.48410    0.00000   20.61270    1.02020    0.01370    1.09550  111.30800
 7908.00000    8.03500    8.10100   23.46290    5.13670    0.19290   90.08660   -0.09710    0.01820   58.61210   90.07470   16.34380   98.36650    3.68720   -0.00180    0.10720  195.77890    2.86630   13.32170    0.00000   19.36000    0.97210    0.01280    1.11510  111.23860
 7908.50000    7.98390    8.11300    8.07450    4.84380    0.17320   92.13260   -0.10530    0.03110   57.82690   90.02250   14.91100   98.36840    3.67080   -0.00320    0.09950  196.21750    2.87950   13.19260    0.00000   19.36000    0.92640    0.01380    1.13740  111.29450
 7909.00000    7.98180    8.10610   -4.90190    4.55690    0.16870   89.84980   -0.10370    0.03290   54.23410   90.14180   15.09010   98.37040    3.64310   -0.00240    0.09190  196.91500    2.87690   13.08290    0.00000   19.19970    0.88190    0.01650    1.16150  111.21800
 7909.50000    7.99310    8.10360   24.89090    4.25390    0.17310   90.59690   -0.12020    0.04240   55.32330   90.12190   16.83640   98.37230    3.52550   -0.00610    0.08400  197.58550    2.90350   12.92870    0.00000   18.72450    0.83430    0.01620    1.18180  111.33500
 7910.00000    7.98180    8.10830   44.95590    3.95280    0.16980   92.11920   -0.11620    0.04070   51.28650   89.90020   18.98570   98.37420    3.50570   -0.00510    0.07610  196.90230    2.89710   12.78030    0.00000   18.20830    0.78700    0.01670    1.20260  111.17300
 7910.50000    7.99000    8.11680   -4.27760    3.66660    0.17820   90.89530   -0.12380    0.04310   49.46070   89.97460   19.16480   98.37610    3.44320   -0.00680    0.06850  199.47310    2.90940   12.68390    0.00000   16.78750    0.74280    0.01680    1.22840  111.20000
 7911.00000    7.99000    8.14390    3.85190    3.49960    0.19160   90.00000   -0.12010    0.03230   53.02660   89.69560   18.09020   98.37810    3.66910   -0.00610    0.06600  196.56880    2.90330   12.47110    0.00000   16.67000    0.70560    0.01570    1.22220  111.24500
 7911.50000    7.98590    8.16100    4.65310    3.37760    0.19800   91.19630   -0.13780    0.04160   52.37210   89.86880   17.28420   98.38000    3.78020   -0.01020    0.05950  197.89440    2.93190   12.39220    0.00000   16.67000    0.70700    0.01530    1.22810  111.26170
 7912.00000    7.99000    8.15790   14.50930    3.24380    0.19850   90.44870   -0.15100    0.05150   50.93630   89.86800   15.62740   98.38190    4.05650   -0.01330    0.05270  197.15770    2.95310   12.26940    0.00000   16.33110    0.70580    0.01460    1.22960  111.23600
 7912.50000    8.00230    8.15550    3.43230    3.13290    0.20350   92.76900   -0.13780    0.03780   53.61540   90.00670   14.73180   98.38380    4.10440   -0.01020    0.05040  196.86990    2.93180   12.09140    0.00000   15.85160    0.68510    0.01450    1.22040  111.20600
 7913.00000    7.98590    8.14610    3.04950    3.03710    0.19060   89.54930   -0.12450    0.02530   52.36750   90.17830   12.67210   98.38570    4.10330   -0.00680    0.04830  197.86490    2.91040   11.97010    0.00000   15.37670    0.66770    0.01840    1.21700  111.27200
 7913.50000    7.99000    8.15320   -9.43150    2.94390    0.19620   90.99420   -0.12610    0.02750   57.80280   90.09020   15.76170   98.38760    3.85860   -0.00740    0.04620  197.36590    2.91310   11.85920    0.00000   14.90250    0.65080    0.01600    1.21460  111.27200
 7914.00000    7.98300    8.16500   10.59930    2.84770    0.19850   92.86600   -0.13700    0.03870   59.26330   90.01280   18.53800   98.38960    3.73730   -0.01010    0.04410  195.90390    2.93060   11.73680    0.00000   14.42000    0.63320    0.01360    1.21100  111.27650
 7914.50000    7.99000    8.16100   17.73380    2.75230    0.20000   90.00000   -0.13040    0.03840   56.40860   89.07860   20.01560   98.39150    3.60990   -0.00860    0.04200  197.47480    2.91990   11.61710    0.00000   13.93460    0.61590    0.01380    1.20770  111.25400
 7915.00000    7.97770    8.15210   16.04620    2.65790    0.18940   92.67090   -0.11090    0.02220   52.15810   88.73650   17.11400   98.39340    3.59260   -0.00400    0.03990  199.37410    2.88860   11.50160    0.00000   13.45960    0.59870    0.01610    1.20480  111.24500
 7915.50000    7.97770    8.15080   19.98090    2.56400    0.18880   90.59580   -0.11180    0.01720   49.57180   88.56600   15.09900   98.39530    3.61820   -0.00430    0.03780  196.92750    2.89000   11.38840    0.00000   12.98410    0.58170    0.01600    1.20220  111.25400
 7916.00000    7.99310    8.11720   17.71770    2.73740    0.17990   91.20760   -0.15060    0.04850   51.04530   88.49780   16.57670   98.39720    3.52030   -0.01320    0.04320  197.79840    2.95240   11.31820    0.00000   12.49540    0.60370    0.01710    1.16900  111.19400
 7916.50000    7.99410    8.10830   17.57070    2.89110    0.17600   91.36480   -0.14210    0.03900   52.18560   88.50140   18.13500   98.39920    3.58710   -0.01120    0.04270  196.61210    2.93880   11.35310    0.00000   12.04160    0.65540    0.01470    1.15280  111.25400
 7917.00000    7.98530    8.14140   27.75400    2.90480    0.18790   90.83840   -0.12730    0.02300   53.66060   88.20370   18.57630   98.40110    3.49380   -0.00780    0.03650  196.76810    2.91500   11.41020    0.00000   11.59430    0.69850    0.01480    1.15870  111.24320
 7917.50000    7.97770    8.14610   12.73840    2.91860    0.18650   91.44750   -0.10450    0.00820   51.26100   88.15610   15.75530   98.40300    3.50400   -0.00250    0.03020  196.64150    2.87820   11.46760    0.00000   52.34360    0.74150    0.01710    1.16470  111.25760
 7918.00000    7.99000    8.14410    5.43370    2.82640    0.19170   91.23710   -0.12180    0.03020   50.53930   88.27020   13.74030   98.40490    3.46770   -0.00630    0.02620  195.49930    2.90620   11.48930    0.00000   51.76500    0.73700    0.01750    1.18020  111.19550
 7918.50000    7.97770    8.14370   12.02700    2.73670    0.18530   90.59990   -0.10520    0.01700   47.09110   80.84100   12.89600   98.40680    3.52080   -0.00310    0.02220  197.67610    2.87930   11.52070    0.00000   51.26720    0.73300    0.01460    1.19670  111.26000
 7919.00000    7.97770    8.15080    4.40650    2.64750    0.18880   91.83690   -0.10750    0.01970   55.08890   90.35920   13.56760   98.40880    3.43320   -0.00390    0.01820  195.81920    2.88300   11.55480    0.00000   50.79370    0.72930    0.01250    1.21350  111.23600
 7919.50000    7.98390    8.14610   12.81640    2.55620    0.18960   93.19760   -0.12500    0.02750   53.57280   90.23730   14.88410   98.41070    3.52170   -0.00730    0.01420  193.57040    2.91120   11.57970    0.00000   50.31250    0.72490    0.01440    1.22930  111.14600
 7920.00000    7.98750    8.14610   20.78240    2.46420    0.19140   90.58630   -0.13070    0.02560   46.60040   90.01940   15.95880   98.41260    3.62530   -0.00850    0.01020  200.73450    2.92050   11.60170    0.00000   49.83130    0.72040    0.01620    1.24480  111.26480
 7920.50000    7.98690    8.15620    2.65350    2.37330    0.19610   91.50820   -0.14180    0.03280   54.57880   89.37920   16.49610   98.41450    3.62360   -0.01110    0.00620  191.26060    2.93830   11.62810    0.00000   49.51510    0.71620    0.01280    1.26080  111.24320
 7921.00000    7.98070    8.17600    6.24820    2.27870    0.20280   90.00000   -0.13060    0.02690   55.41310   89.43990   16.50940   98.41640    3.68960   -0.00860    0.00220  194.09560    2.92030   11.63540    0.00000   49.27450    0.71080    0.01330    1.27470  111.22520
 7921.50000    7.98180    8.18150   15.71720    2.04060    0.20600   91.44860   -0.12630    0.02530   55.49490   90.18420   16.50940   98.41840    3.75550   -0.00760   -0.00730  195.29140    2.91340   11.67630    0.00000   48.37780    0.69360    0.01450    1.31270  111.16400
