~Version ---------------------------------------------------
VERS.   2.0 : CWLS log ASCII Standard -VERSION 2.0
WRAP.    NO : One line per depth step
DLM . SPACE : Column Data Section Delimiter
~Well ------------------------------------------------------
STRT .F                6269.0 : START DEPTH
STOP .F               11187.0 : STOP DEPTH
STEP .F                   0.5 : STEP
NULL .               -9999.25 : NULL VALUE
COMP .                        : COMPANY
WELL .                        : WELL
FLD  .                        : FIELD
LOC  .                        : LOCATION
PROV .                        : PROVINCE
CNTY .                        : COUNTY
STAT .                        : STATE
CTRY .                        : COUNTRY
SRVC .                        : SERVICE COMPANY
DATE .                        : DATE
UWI  .                        : UNIQUE WELL ID
API  .                        : API NUMBER
SLAT .WGS84 2.444653947148602 : SURFACE LATITUDE
SLON .WGS84 7.424080268820987 : SURFACE LONGITUDE
DATUM.F                   nan : DEPTH DATUM ELEV
~Curve Information -----------------------------------------
DEPT.F     : DEPTH (BOREHOLE) {F12.4}
C2  .IN    : Caliper 2 {F11.4}
CALI.IN    : Caliper {F11.4}
CBL .MV    : CBL {F11.4}
CGR .GAPI  : Gamma Ray Contribution from Thorium and Potassium {F11.4}
DCAL.IN    : Differential Caliper {F11.4}
DEVI.DEG   : Hole Deviation {F11.4}
DPHI.CFCF  : Density Porosity {F11.4}
DRHO.G/C3  : Bulk Density Correction {F11.4}
DTCO.US/F  : Delta-T Compressional {F11.4}
DTSM.US/F  : Delta-T Shear {F11.4}
GR  .GAPI  : Gamma Ray {F11.4}
GTEM.DEGF  : Generalized Borehole Temperature {F11.4}
PEF .      : Photoelectric Factor {F11.4}
PHIX.CFCF  : CrossPlot Porosity {F11.4}
POTA.%     : Average Potassium Yield {F11.4}
RB  .DEG   : Relative Bearing {F11.4}
RHOB.G/C3  : Bulk Density {F11.4}
SGR .GAPI  : Spectral GR {F11.4}
STIT.F     : Stuck Tool Indicator, Total {F11.4}
TENS.LBF   : Cable Tension {F11.4}
THOR.PPM   : Average Thorium Yield {F11.4}
TNPH.CFCF  : Thermal Neutron Porosity {F11.4}
URAN.PPM   : Average Uranium Yield {F11.4}
WTEP.DEGF  : Well Temperature {F11.4}
~Params ----------------------------------------------------
~Other -----------------------------------------------------
~ASCII -----------------------------------------------------
# ...
 10836.50000    7.94700    8.09790    1.71370    9.70770    0.14710   91.33830   -0.00510    0.02730   55.07770  109.33970   30.93250  109.61190    3.18900    0.06870    0.34890  188.50870    2.71830   21.56500    0.00000   34.22450    0.93490    0.12320    1.61530  112.76600
 10837.00000    7.95310    8.06150    8.27300    9.57140    0.13210   90.00000   -0.02250    0.04000   54.08350  109.83610   31.81520  109.61380    3.26440    0.06180    0.34700  185.29010    2.74620   21.78220    0.00000   33.74290    0.90340    0.12450    1.66350  112.74800
 10837.50000    7.94080    8.05160   18.20730    9.54050    0.12100   91.88080   -0.03020    0.04410   54.26120  110.47160   30.91970  109.61570    3.36430    0.06210    0.34690  186.59990    2.75860   21.98660    0.00000   33.25910    0.89420    0.13370    1.69560  112.84880
 10838.00000    7.94540    8.05160    0.16140    9.38190    0.12330   91.64100   -0.02020    0.03700   54.76020  109.60840   30.70470  109.61770    3.44850    0.07060    0.33800  188.23560    2.74250   22.16490    0.00000   32.76990    0.89820    0.14350    1.74150  112.76150
 10838.50000    7.94490    8.05160    3.76000    9.23170    0.12310   91.50790   -0.01280    0.03550   55.16020  109.45020   32.66980  109.61960    3.49520    0.06870    0.32950  190.85490    2.73070   22.36410    0.00000   32.36160    0.90310    0.13100    1.78910  112.75880
 10839.00000    7.94700    8.11840    7.42580    9.06940    0.15720   92.49820    0.00140    0.02590   55.43630  109.89980   32.40120  109.62150    3.39800    0.08340    0.32190  188.85800    2.70770   22.47850    0.00000   32.20410    0.89840    0.15050    1.82680  112.75250
 10839.50000    7.94820    8.17490    6.97250    8.91520    0.18570   90.87680   -0.00710    0.03520   55.46700  110.66690   30.89670  109.62340    3.29280    0.06500    0.31460  188.29660    2.72140   22.61390    0.00000   32.04650    0.89460    0.11650    1.86620  112.78040
 10840.00000    7.94330    8.09760    8.11520    8.75540    0.14500   91.03570    0.00010    0.02820   56.49250  110.86840   29.66080  109.62530    3.19790    0.07580    0.30700  188.46490    2.70990   22.73580    0.00000   30.84550    0.89020    0.13440    1.90460  112.78400
 10840.50000    7.94430    8.13360   11.59810    8.58930    0.16340   90.98780   -0.00590    0.03620   56.96100  111.43810   29.49960  109.62730    3.09270    0.07510    0.29930  188.22790    2.71950   22.84170    0.00000   30.35050    0.88510    0.13890    1.94160  112.82000
 10841.00000    7.94700    8.14350   12.20280    8.41920    0.16970   92.27590   -0.00000    0.03270   56.62860  111.26930   30.60110  109.62920    2.99740    0.08000    0.29140  188.74620    2.71000   22.93650    0.00000   29.16500    0.87970    0.14430    1.97770  112.76900
 10841.50000    7.93770    8.14980   10.20820    8.34810    0.16800   93.96670   -0.03090    0.06170   57.43060  111.16990   30.97730  109.63110    3.09290    0.05950    0.28500  193.02440    2.75980   23.02910    0.00000   28.92000    0.89680    0.12790    2.00000  112.79600
 10842.00000    7.93460    8.13820    2.09870    8.22320    0.16080   91.77830   -0.05300    0.08130   56.18510  110.59330   36.13570  109.63300    3.14050    0.04740    0.28180  189.68170    2.79540   22.99640    0.00000   28.91690    0.87670    0.12170    2.01260  112.84250
 10842.50000    7.93830    8.14610    4.00970    8.35750    0.16650   88.95560   -0.06090    0.08780   56.61090  114.16680   35.46400  109.63490    3.18520    0.04200    0.28930  188.23560    2.80800   23.06900    0.00000   28.42210    0.87280    0.11630    2.00420  112.77050
 10843.00000    7.94080    8.19520    2.59430    8.36830    0.19200   91.98320   -0.04670    0.06830   56.41830  114.16460   35.89380  109.63680    3.20100    0.04530    0.29320  188.42940    2.78510   23.19690    0.00000   27.93220    0.85250    0.10910    2.02010  112.81200
 10843.50000    7.95310    8.06260    7.52100    8.39540    0.13270   95.59470   -0.04690    0.06730   56.58650  114.17440   34.38930  109.63880    3.28970    0.04730    0.29790  191.59960    2.78550   23.35240    0.00000   27.45620    0.83210    0.11460    2.03760  112.83800
 10844.00000    7.94820    8.05320    2.34900    8.43440    0.12550   79.89410   -0.04650    0.06590   56.17770  114.56520   40.83730  109.64070    3.36870    0.04790    0.30280  190.87800    2.78480   23.56070    0.00000   26.97260    0.81410    0.11560    2.06070  112.81400
 10844.50000    7.95310    8.10920  -19.99400    8.46880    0.15580   93.19730   -0.02820    0.05040   57.21700  114.25160   40.25110  109.64260    3.38590    0.05270    0.30760  185.80160    2.75540   23.75710    0.00000   26.48900    0.79550    0.10820    2.08280  112.76600
 10845.00000    7.95060    8.12480    1.24710    8.44560    0.16230   89.18710   -0.00930    0.03830   57.01870  113.55160   38.85410  109.64450    3.41100    0.06530    0.31030  177.90900    2.72500   23.79160    0.00000   26.00540    0.77160    0.11920    2.09060  112.77320
 10845.50000    7.94700    8.08940   14.97320    8.39570    0.14290   94.68970   -0.00730    0.04380   57.35980  112.68030   33.48070  109.64650    3.41390    0.06780    0.31240  184.26350    2.72180   23.92910    0.00000   25.52960    0.74280    0.12310    2.11610  112.78400
 10846.00000    7.95060    8.13710    5.98300    8.33430    0.16830   86.12320    0.00570    0.03230   57.57770  112.32170   35.14160  109.64840    3.31490    0.08170    0.31410  188.97870    2.70090   24.03470    0.00000   25.04830    0.71300    0.14230    2.13890  112.77320
 10846.50000    7.97770    8.16630    5.97250    8.24790    0.19640   85.46300    0.01330    0.02270   57.27160  110.59450   35.89380  109.65030    3.16400    0.08660    0.31170  191.36750    2.68850   24.07660    0.00000   24.55480    0.70040    0.14550    2.15640  112.77950
 10847.00000    7.95310    8.18860    1.15450    8.24100    0.19500   86.17990    0.00920    0.02800   56.68390  109.48060   35.35650  109.65220    3.11930    0.08180    0.31150  189.97340    2.69530   24.09050    0.00000   24.07650    0.69910    0.13890    2.15920  112.69760
 10847.50000    7.96050    8.20060    3.67420    8.04910    0.20470   86.43020    0.01800    0.01890   56.46170  109.10260   35.08780  109.65410    3.02150    0.08920    0.30650  189.87860    2.68100   24.09410    0.00000   23.63290    0.66900    0.14670    2.18590  112.79750
 10848.00000    7.95620    8.21260    0.91370    7.76830    0.20840   92.18750    0.02750    0.01230   56.71070  110.05790   34.65800  109.65610    2.95920    0.08370    0.30090  188.54280    2.66570   24.15560    0.00000   23.38550    0.61440    0.12530    2.23250  112.78400
 10848.50000    7.96230    8.19490   19.66200    7.69710    0.20280   91.18790    0.04140    0.00490   56.38660  110.61870   37.34470  109.65800    2.97160    0.09560    0.30060  188.46610    2.64340   24.06220    0.00000   22.61430    0.59370    0.13780    2.22950  112.81280
 10849.00000    7.95310    8.18860    9.30370    7.67450    0.19500   88.79210    0.03340    0.01910   58.13620  110.76790   35.75710  109.65990    2.96070    0.08680    0.30210  195.28160    2.65620   24.12000    0.00000   22.14150    0.57680    0.12650    2.24040  112.77500
 10849.50000    7.97770    8.17440    1.88050    7.67840    0.20050   83.04010    0.03520    0.01570   56.57850  112.54560   34.57490  109.66180    2.91460    0.09270    0.30340  187.01190    2.65330   24.31710    0.00000   21.35070    0.57040    0.13740    2.26670  112.73000
 10850.00000    7.96880    8.18390   -1.62030    7.66630    0.20060   98.58240    0.02300    0.03160   58.35660  113.69530   35.38090  109.66370    3.08300    0.08260    0.30400  191.18880    2.67300   24.46430    0.00000   21.04000    0.56260    0.12720    2.28840  112.78400
 10850.50000    7.99490    8.17920   -1.28600    7.69370    0.21150   91.22280    0.00740    0.04160   59.24040  113.32210   35.08780  109.66570    3.15570    0.07780    0.30590  187.86110    2.69810   24.58550    0.00000   20.67600    0.55970    0.13170    2.30120  112.78820
