~Version ---------------------------------------------------
VERS.   2.0 : CWLS log ASCII Standard -VERSION 2.0
WRAP.    NO : One line per depth step
DLM . SPACE : Column Data Section Delimiter
~Well ------------------------------------------------------
STRT .F                6269.0 : START DEPTH
STOP .F               11187.0 : STOP DEPTH
STEP .F                   0.5 : STEP
NULL .               -9999.25 : NULL VALUE
COMP .                        : COMPANY
WELL .                        : WELL
FLD  .                        : FIELD
LOC  .                        : LOCATION
PROV .                        : PROVINCE
CNTY .                        : COUNTY
STAT .                        : STATE
CTRY .                        : COUNTRY
SRVC .                        : SERVICE COMPANY
DATE .                        : DATE
UWI  .                        : UNIQUE WELL ID
API  .                        : API NUMBER
SLAT .WGS84 2.444653947148602 : SURFACE LATITUDE
SLON .WGS84 7.424080268820987 : SURFACE LONGITUDE
DATUM.F                   nan : DEPTH DATUM ELEV
~Curve Information -----------------------------------------
DEPT.F     : DEPTH (BOREHOLE) {F12.4}
C2  .IN    : Caliper 2 {F11.4}
CALI.IN    : Caliper {F11.4}
CBL .MV    : CBL {F11.4}
CGR .GAPI  : Gamma Ray Contribution from Thorium and Potassium {F11.4}
DCAL.IN    : Differential Caliper {F11.4}
DEVI.DEG   : Hole Deviation {F11.4}
DPHI.CFCF  : Density Porosity {F11.4}
DRHO.G/C3  : Bulk Density Correction {F11.4}
DTCO.US/F  : Delta-T Compressional {F11.4}
DTSM.US/F  : Delta-T Shear {F11.4}
GR  .GAPI  : Gamma Ray {F11.4}
GTEM.DEGF  : Generalized Borehole Temperature {F11.4}
PEF .      : Photoelectric Factor {F11.4}
PHIX.CFCF  : CrossPlot Porosity {F11.4}
POTA.%     : Average Potassium Yield {F11.4}
RB  .DEG   : Relative Bearing {F11.4}
RHOB.G/C3  : Bulk Density {F11.4}
SGR .GAPI  : Spectral GR {F11.4}
STIT.F     : Stuck Tool Indicator, Total {F11.4}
TENS.LBF   : Cable Tension {F11.4}
THOR.PPM   : Average Thorium Yield {F11.4}
TNPH.CFCF  : Thermal Neutron Porosity {F11.4}
URAN.PPM   : Average Uranium Yield {F11.4}
WTEP.DEGF  : Well Temperature {F11.4}
~Params ----------------------------------------------------
~Other -----------------------------------------------------
~ASCII -----------------------------------------------------
# ...
 8226.50000    7.96950    8.07020    7.12440    6.19340    0.14470   88.31870   -0.03400    0.02040   61.42860  100.56650   20.68730   99.58960    3.07950    0.05380    0.22520  191.12150    2.76470   13.16140    0.00000   41.62530    0.58020    0.11690    0.94930  111.38000
 8227.00000    7.99000    8.06010   10.40380    6.57430    0.15000   88.31800   -0.06200    0.04120   59.98520   99.88180   19.45140   99.59150    3.09690    0.03860    0.23280  191.15470    2.80970   13.23720    0.00000   41.14200    0.65460    0.10820    0.90770  111.36200
 8227.50000    7.97770    8.04690    4.87270    6.74670    0.13720   89.69970   -0.04580    0.02850   53.63260  100.37990   19.63050   99.59340    3.15910    0.05210    0.23310  191.48660    2.78370   13.36250    0.00000   40.65720    0.70730    0.12570    0.90130  111.34400
 8228.00000    7.98080    8.04820    8.66070    6.91150    0.13940   92.08800   -0.04210    0.02360   54.03470  100.22450   19.80960   99.59530    3.19680    0.04870    0.23320  191.71960    2.77780   13.47270    0.00000   40.16510    0.75910    0.11280    0.89380  111.41600
 8228.50000    7.98020    8.07810    7.15020    7.07830    0.15400   88.43380   -0.01720    0.00910   56.92330  100.09660   18.62750   99.59720    3.21770    0.06500    0.23340  195.46120    2.73770   13.58710    0.00000   39.67280    0.81110    0.12680    0.88670  111.32000
 8229.00000    7.98260    8.08570   -2.57880    7.10720    0.15900   87.29460   -0.02730    0.02190   54.63690  100.13450   19.12010   99.59920    3.21070    0.05940    0.22760  192.43090    2.75390   13.60080    0.00000   82.07500    0.85610    0.12370    0.88460  111.44300
 8229.50000    7.98390    8.09140    4.49510    7.12360    0.16250   89.15390   -0.02240    0.01490   55.60510  100.39920   18.25010   99.60110    3.15590    0.05690    0.22140  192.92210    2.74600   13.59040    0.00000  126.56530    0.89970    0.11260    0.88100  111.44120
 8230.00000    7.98390    8.10170    5.93690    6.91470    0.16760   88.01680   -0.01680    0.01020   57.85650  100.02590   19.50390   99.60300    3.12240    0.05760    0.20940  192.90540    2.73700   13.45470    0.00000   38.21320    0.90710    0.10850    0.89100  111.40400
 8230.50000    7.99310    8.13510  -11.41550    6.70590    0.18880   87.32060   -0.02610    0.03010   57.21700   99.98250   18.96650   99.60490    3.07520    0.04730    0.19740  192.15720    2.75210   13.31880    0.00000   37.71640    0.91450    0.09270    0.90090  111.39800
 8231.00000    7.98260    8.16130   13.23450    6.49840    0.19650   87.81930   -0.02220    0.03750   51.46410  100.75670   22.07540   99.60680    2.98280    0.04920    0.18550  193.41090    2.74570   13.18540    0.00000   37.38660    0.92210    0.09350    0.91100  111.39800
 8231.50000    7.98690    8.14240   -5.04500    6.28410    0.18930   88.21200   -0.02250    0.04590   52.20180  100.73710   21.09030   99.60880    2.96780    0.04690    0.17340  192.01150    2.74630   13.03740    0.00000   37.22110    0.92860    0.08830    0.92000  111.47000
 8232.00000    7.97770    8.12810   10.91280    6.07420    0.17760   92.39150   -0.02830    0.05820   54.36330  100.74000   20.55300   99.61070    3.12100    0.04520    0.16200  192.05300    2.75560   12.94160    0.00000   37.05550    0.93180    0.08940    0.93560  111.42800
 8232.50000    7.97160    8.10550    7.92220    6.10410    0.16320   87.27570   -0.02730    0.05310   55.66900  100.74500   16.20060   99.61260    3.19880    0.05590    0.16820  191.05930    2.75400   12.98990    0.00000   35.76220    0.90320    0.11510    0.93810  111.38000
 8233.00000    7.98180    8.10830   11.54280    5.98700    0.16980   88.93660   -0.02140    0.02960   55.11280  100.45040   14.58860   99.61450    3.20660    0.05570    0.17110  189.46230    2.74450   13.12810    0.00000   35.28330    0.84830    0.10850    0.97280  111.38450
 8233.50000    7.98300    8.07310    4.67850    5.87850    0.15290   87.32930   -0.03670    0.02300   55.94400  100.50320   13.91690   99.61640    3.24840    0.05420    0.17420  185.65150    2.76920   13.28580    0.00000   34.80440    0.79450    0.12100    1.00910  111.48800
 8234.00000    8.04210    8.06440   -7.37100    5.76300    0.17830   87.40430   -0.04040    0.00900   55.12250  100.59210   14.23930   99.61840    3.23150    0.04720    0.17720  190.44780    2.77510   13.42850    0.00000   34.59350    0.73970    0.10700    1.04430  111.47600
 8234.50000    8.09620    8.06730    7.19960    5.52860    0.20680   91.79710   -0.04640   -0.00080   55.25390   97.96690   14.40050   99.62030    3.15410    0.05010    0.17670  190.54600    2.78460   13.54830    0.00000   34.43200    0.66820    0.12130    1.09250  111.40700
 8235.00000    8.10640    8.06100   14.42960    5.41910    0.20870   88.81160   -0.02950   -0.01640   56.61240   97.98740   14.93780   99.62220    3.07160    0.05600    0.17990  191.72950    2.75750   13.69280    0.00000   34.27040    0.61370    0.11770    1.12710  111.39440
 8235.50000    8.10030    8.07900    1.66490    5.31580    0.21460   88.80780   -0.02660   -0.01660   54.95840   98.35400   15.20650   99.62410    3.13170    0.05330    0.18330  190.49150    2.75290   13.85380    0.00000   32.84730    0.55980    0.10800    1.16320  111.38900
 8236.00000    8.05130    8.09880    2.18580    5.21020    0.20010   87.42520   -0.01720   -0.01540   53.83210   98.21070   14.23930   99.62600    3.13020    0.06510    0.18670  191.77640    2.73760   14.01010    0.00000   32.36410    0.50550    0.12700    1.19880  111.43400
 8236.50000    8.00230    8.09730    6.79740    5.09260    0.17460   89.40070   -0.01530   -0.01050   53.51330   98.12350   14.50800   99.62800    3.12710    0.05920    0.18960  188.72340    2.73470   14.13430    0.00000   31.87970    0.45000    0.11100    1.23180  111.37550
 8237.00000    8.01460    8.10780    1.64930    4.97630    0.18600   85.06090   -0.00880   -0.00460   52.38020   96.65320   16.38860   99.62990    3.12460    0.06460    0.19260  190.58160    2.72420   14.26160    0.00000   31.39200    0.39480    0.11720    1.26490  111.41600
 8237.50000    7.98910    8.13610    5.05390    4.87210    0.18730   88.54540    0.00250   -0.00260   52.88080   96.22270   17.46330   99.63180    3.11500    0.06730    0.19440  191.42410    2.70600   14.38360    0.00000   30.90430    0.35030    0.11240    1.29580  111.32600
 8238.00000    7.96540    8.14030    0.34000    5.13170    0.17740   89.11990    0.01750    0.00250   52.79020   96.39490   16.65730   99.63370    3.11950    0.07490    0.20670  190.52350    2.68190   14.46730    0.00000   30.41650    0.35710    0.11540    1.27180  111.41000
 8238.50000    7.98180    8.14450   12.23080    5.27810    0.18780   90.48980    0.03640    0.00380   53.39130   96.29130   15.16040   99.63560    3.08340    0.08600    0.21500  191.21390    2.65140   14.45620    0.00000   29.92420    0.35240    0.12190    1.25030  111.39440
 8239.00000    7.98390    8.13570    5.75120    5.43140    0.18440   86.61160    0.05830    0.00450   52.82580   96.23990   17.57840   99.63760    3.04090    0.09540    0.22360  190.84030    2.61610   14.46470    0.00000   29.43190    0.34820    0.12220    1.23060  111.39200
 8239.50000    7.98830    8.12250   14.72790    5.70540    0.18010   90.00000    0.07220    0.00560   50.47860   89.25640   20.26510   99.63950    3.02300    0.10360    0.23420  190.84030    2.59370   14.51950    0.00000   28.94740    0.36960    0.12680    1.20080  111.47000
 8240.00000    7.99000    8.11680    4.75670    5.85010    0.17820   90.80640    0.06820    0.01710   56.34810   95.26040   19.61260   99.64140    3.07570    0.12430    0.24250  191.98210    2.60020   14.52910    0.00000   28.46430    0.36450    0.17280    1.18240  111.39200
 8240.50000    7.99610    8.09200    2.50840    6.00220    0.16890   88.32490    0.04620    0.03180   51.23260   96.56760   19.34400   99.64330    3.01300    0.10380    0.25110  191.81250    2.63560   14.55680    0.00000   27.97820    0.35990    0.15070    1.16540  111.40100
