~Version ---------------------------------------------------
VERS.   2.0 : CWLS log ASCII Standard -VERSION 2.0
WRAP.    NO : One line per depth step
DLM . SPACE : Column Data Section Delimiter
~Well ------------------------------------------------------
STRT .F                   65.0 : START DEPTH
STOP .F                12274.0 : STOP DEPTH
STEP .F                    0.5 : STEP
NULL .                -9999.25 : NULL VALUE
COMP .                         : COMPANY
WELL .                         : WELL
FLD  .                         : FIELD
LOC  .                         : LOCATION
PROV .                         : PROVINCE
CNTY .                         : COUNTY
STAT .                         : STATE
CTRY .                         : COUNTRY
SRVC .                         : SERVICE COMPANY
DATE .                         : DATE
UWI  .                         : UNIQUE WELL ID
API  .                         : API NUMBER
SLAT .WGS84 2.4587995371436975 : SURFACE LATITUDE
SLON .WGS84  8.058609648570993 : SURFACE LONGITUDE
DATUM.F                    nan : DEPTH DATUM ELEV
~Curve Information -----------------------------------------
DEPT   .F     : 1 MEASURED DEPTH
AF60   .OHMM  : ARRAY INDUCTION FOUR FOOT RESISTIVITY A60
SGRDD  .GAPI  : SPECTROSCOPY GAMMA RAY FROM DENSITY LOG
TNPH_LS.DEC   : THERMAL NEUTRON POROSITY [LIMESTONE]
PEFZ   .B/E   : HRDD STANDARD RESOLUTION FORMATION PHOTOELECTRIC FACTOR
DTCO   .US/F  : DELTA-T COMPRESSIONAL
DTSM   .US/F  : DELTA-T SHEAR
~Params ----------------------------------------------------
~Other -----------------------------------------------------
~ASCII -----------------------------------------------------
# ...
 11228.50000   28.35880   94.80230    0.12880    3.78940   67.89670  114.24520
 11229.00000   25.35550   91.01050    0.13100    3.89080   68.19400  114.44870
 11229.50000   22.70640   86.88110    0.12310    4.00490   68.18930  114.28360
 11230.00000   20.49950   88.50400    0.11740    3.96800   68.37870  114.36370
 11230.50000   18.52630   92.93030    0.11980    3.90900   68.35550  113.79980
 11231.00000   17.14230   92.49130    0.11650    3.81500   68.39190  113.23580
 11231.50000   16.52180   88.05180    0.11910    3.73130   68.98000  112.72120
 11232.00000   15.71460   84.37790    0.11970    3.69830   68.71710  112.55200
 11232.50000   15.05670   86.05820    0.11930    3.73490   68.89660  112.40820
 11233.00000   14.31650   90.25830    0.12070    3.83200   68.55410  112.23130
 11233.50000   13.67240   91.91640    0.12320    3.96430   67.64340  111.70550
 11234.00000   13.61270   85.64910    0.12810    3.92200   67.85220  111.25950
 11234.50000   13.80640   76.70140    0.11210    3.80840   68.16170  111.40610
 11235.00000   14.59460   71.25930    0.10350    3.67910   68.46990  111.46160
 11235.50000   15.44960   68.49320    0.09820    3.80930   68.95210  111.47310
 11236.00000   15.69620   67.28690    0.09270    4.26840   69.46280  111.58970
 11236.50000   14.94790   67.22450    0.09500    4.74980   69.68210  111.84610
 11237.00000   14.23560   75.82640    0.10170    4.94380   69.79440  112.10260
 11237.50000   13.32560   90.23270    0.11060    4.67550   69.54470  112.05210
 11238.00000   12.44500   99.93910    0.12020    4.13310   68.47500  111.35850
 11238.50000   12.82680   98.38970    0.12760    3.74300   68.03200  110.31780
 11239.00000   14.35190   88.74130    0.12040    3.54860   66.45560  109.08240
 11239.50000   17.04840   81.59610    0.10430    3.52030   65.94540  107.53920
 11240.00000   20.62950   71.96370    0.08750    3.55930   63.85820  105.79760
 11240.50000   24.31670   61.59170    0.07700    3.59220   62.52630  104.27290
 11241.00000   26.44800   50.33850    0.06360    3.59480   61.56870  102.81840
 11241.50000   26.58040   43.98560    0.05570    3.58100   60.94220  101.39670
 11242.00000   26.71370   40.30920    0.05130    3.57650   60.33640  100.65090
 11242.50000   26.84720   40.01850    0.05050    3.58540   60.24050  100.35960
 11243.00000   25.83180   39.47460    0.05110    3.59420   60.22880  100.38710
 11243.50000   23.60150   38.44320    0.05220    3.69510   60.54820  100.56900
 11244.00000   21.26520   37.37040    0.05320    3.80600   61.35360  101.00450
 11244.50000   19.49320   37.16240    0.05410    3.88490   61.53210  101.49710
 11245.00000   17.85010   38.01770    0.05520    3.94680   61.78990  101.88850
 11245.50000   16.49110   37.58040    0.05580    3.95430   61.93740  102.12870
 11246.00000   15.77940   37.78800    0.05980    3.87330   62.18890  102.35440
 11246.50000   15.77260   39.63250    0.06450    3.71880   62.13270  102.54120
 11247.00000   16.13070   40.50960    0.06960    3.51520   61.95660  102.48210
 11247.50000   17.04380   39.44740    0.07020    3.51760   61.66960  102.14410
 11248.00000   18.17690   37.21890    0.06540    3.62260   61.18930  101.50060
 11248.50000   19.39560   36.57540    0.06020    3.72170   60.36690  100.84950
 11249.00000   20.72330   37.37570    0.05770    3.77350   59.47040  100.33760
 11249.50000   22.67880   39.64330    0.05670    3.74820   58.64480   99.84170
 11250.00000   26.08020   41.11080    0.05180    3.75410   57.67750   99.31450
 11250.50000   31.56590   40.66990    0.04590    3.92430   57.20300   98.68620
 11251.00000   39.63910   38.01100    0.03940    4.16260   56.16620   97.97490
 11251.50000   49.82830   35.77300    0.03580    4.37210   55.20700   97.21720
 11252.00000   62.59530   33.87300    0.03040    4.47910   54.41440   96.33520
 11252.50000   78.69970   32.00560    0.02610    4.63420   53.84120   95.31210
 11253.00000  103.77880   29.87760    0.02210    4.87110   53.23550   94.72900
 11253.50000  131.59590   28.71390    0.01880    5.12430   52.46500   94.27980
 11254.00000  155.89560   28.25930    0.01450    5.34220   52.18900   94.00480
 11254.50000  166.42470   27.94680    0.01300    5.52460   52.07250   93.63990
 11255.00000  164.61750   25.27730    0.01410    5.52760   52.05840   93.33210
 11255.50000  162.92120   21.79010    0.01520    5.32820   52.11030   93.48750
 11256.00000  161.37580   19.27660    0.01520    5.11260   52.12640   93.56020
 11256.50000  160.80210   18.97020    0.01440    5.04040   52.16190   93.99610
 11257.00000  161.56780   20.05120    0.01520    5.21020   52.15050   94.43190
 11257.50000  160.92150   21.41630    0.01580    5.41530   52.13820   95.24750
 11258.00000  159.28790   21.69450    0.01590    5.48120   52.13750   95.59680
 11258.50000  156.15210   22.02780    0.01610    5.46760   52.36940   96.11030
 11259.00000  152.66090   22.28010    0.01620    5.44840   52.63300   95.94730
 11259.50000  149.36950   23.46480    0.01810    5.49320   52.78360   95.94360
 11260.00000  146.23970   23.47610    0.01810    5.65120   52.94750   96.17540
 11260.50000  141.68860   21.97110    0.01810    5.78600   53.03460   96.33790
 11261.00000  137.57190   21.97980    0.01800    5.75860   53.03630   96.36040
 11261.50000  134.80290   21.17680    0.01850    5.70370   53.02140   96.51890
 11262.00000  132.08820   20.29320    0.01900    5.54610   52.97890   96.49550
 11262.50000  135.18140   19.62160    0.01950    5.44480   52.95940   96.38400
 11263.00000  144.67710   19.52000    0.02000    5.51740   52.91230   96.27250
 11263.50000  157.27290   21.15100    0.02080    5.64770   52.84390   96.14070
 11264.00000  172.48390   22.20750    0.02160    5.76490   52.72440   96.13290
 11264.50000  190.75560   22.69850    0.02200    5.81750   52.59050   96.10900
 11265.00000  211.45410   22.82150    0.02210    5.81360   52.55960   95.79030
 11265.50000  231.85070   22.63010    0.02140    5.74540   52.63810   96.00280
 11266.00000  253.03000   22.05150    0.02000    5.63910   53.03770   96.24260
 11266.50000  272.01160   21.47280    0.01870    5.57110   53.45950   96.31350
 11267.00000  285.53550   21.09480    0.01570    5.57790   53.97100   96.17420
 11267.50000  284.46500   21.56350    0.01480    5.60310   54.51380   96.45810
 11268.00000  266.29490   22.25600    0.01480    5.52240   55.11020   96.56510
 11268.50000  246.98440   25.66380    0.01530    5.44050   55.38860   96.76960
 11269.00000  230.80740   35.65760    0.02370    5.08970   55.49190   96.97420
 11269.50000  225.94380   45.89920    0.03770    4.65280   55.49360   97.13140
 11270.00000  239.79120   48.86540    0.05410    4.29510   55.25760   97.16970
 11270.50000  266.25990   46.63930    0.05670    4.05440   54.98220   97.06610
 11271.00000  327.28720   41.90110    0.05160    4.15130   54.60490   96.79080
 11271.50000  414.39220   38.37230    0.04120    4.51990   54.33890   96.56090
 11272.00000  561.39130   30.61910    0.03190    4.84960   53.92440   96.42490
 11272.50000  717.67240   25.25810    0.02180    5.13760   53.81850   96.22850
 11273.00000  926.86090   21.95360    0.01610    5.27630   53.80210   95.92830
 11273.50000 1098.15880   21.59810    0.01530    5.23620   54.08580   95.56370
 11274.00000 1176.22680   28.09460    0.01660    5.15230   53.95530   95.54700
 11274.50000 1067.29110   35.82480    0.02260    5.01940   53.96300   95.68140
 11275.00000  957.43620   38.60230    0.02640    4.98730   54.06390   95.81580
 11275.50000  904.50480   35.48500    0.02470    5.08620   54.25870   95.94840
 11276.00000  884.03560   33.25520    0.01980    5.21130   54.35280   95.93460
 11276.50000  868.43710   34.58480    0.01770    5.33050   54.00470   95.95650
 11277.00000  890.46800   36.48600    0.02050    5.35350   54.16740   96.17680
 11277.50000  995.08170   38.04620    0.02370    5.30800   54.31580   96.52770
 11278.00000 1059.40640   47.78940    0.02670    5.25640   54.48460   96.54830
 11278.50000 1131.75320   53.51080    0.02960    5.20930   54.56220   96.38450
 11279.00000 1162.97300   54.00010    0.03030    5.12670   54.37250   96.54240
