~Version ---------------------------------------------------
VERS.   2.0 : CWLS log ASCII Standard -VERSION 2.0
WRAP.    NO : One line per depth step
DLM . SPACE : Column Data Section Delimiter
~Well ------------------------------------------------------
STRT .F                   65.0 : START DEPTH
STOP .F                12274.0 : STOP DEPTH
STEP .F                    0.5 : STEP
NULL .                -9999.25 : NULL VALUE
COMP .                         : COMPANY
WELL .                         : WELL
FLD  .                         : FIELD
LOC  .                         : LOCATION
PROV .                         : PROVINCE
CNTY .                         : COUNTY
STAT .                         : STATE
CTRY .                         : COUNTRY
SRVC .                         : SERVICE COMPANY
DATE .                         : DATE
UWI  .                         : UNIQUE WELL ID
API  .                         : API NUMBER
SLAT .WGS84 2.4587995371436975 : SURFACE LATITUDE
SLON .WGS84  8.058609648570993 : SURFACE LONGITUDE
DATUM.F                    nan : DEPTH DATUM ELEV
~Curve Information -----------------------------------------
DEPT   .F     : 1 MEASURED DEPTH
AF60   .OHMM  : ARRAY INDUCTION FOUR FOOT RESISTIVITY A60
SGRDD  .GAPI  : SPECTROSCOPY GAMMA RAY FROM DENSITY LOG
TNPH_LS.DEC   : THERMAL NEUTRON POROSITY [LIMESTONE]
PEFZ   .B/E   : HRDD STANDARD RESOLUTION FORMATION PHOTOELECTRIC FACTOR
DTCO   .US/F  : DELTA-T COMPRESSIONAL
DTSM   .US/F  : DELTA-T SHEAR
~Params ----------------------------------------------------
~Other -----------------------------------------------------
~ASCII -----------------------------------------------------
# ...
 11636.50000   57.13070   61.34320    0.06780    4.46280   63.39530  107.45260
 11637.00000   53.55630   69.06210    0.09110    4.46010   64.29140  107.77750
 11637.50000   51.39890   66.61670    0.09680    4.48830   65.26410  108.20140
 11638.00000   49.67390   63.07810    0.08490    4.57520   66.01770  108.74510
 11638.50000   47.54270   57.44250    0.08060    4.67960   66.49100  109.29790
 11639.00000   44.75700   56.90480    0.06720    4.58060   66.38910  109.85080
 11639.50000   41.31520   62.30070    0.06760    4.26270   66.44750  109.91640
 11640.00000   40.70050   74.51110    0.08570    3.85160   66.11760  109.55920
 11640.50000   41.05450   80.75050    0.11060    3.62530   65.61780  108.60710
 11641.00000   42.94530   79.12240    0.11600    3.56330   64.71840  108.14850
 11641.50000   47.82590   76.89160    0.09800    3.64630   64.52990  108.00010
 11642.00000   55.03700   75.23590    0.09070    3.78490   63.94140  107.48130
 11642.50000   63.33860   69.95790    0.08350    3.98880   63.04640  106.50230
 11643.00000   72.78190   59.90200    0.07290    4.16410   62.51820  106.25310
 11643.50000   76.20370   48.86940    0.05830    4.33080   62.02440  106.04570
 11644.00000   75.37920   52.04350    0.05110    4.34180   61.82160  105.83320
 11644.50000   71.78580   58.96770    0.06100    4.31730   62.29650  105.62060
 11645.00000   67.20970   63.77530    0.08010    4.33890   63.16960  106.12600
 11645.50000   64.51390   59.60360    0.08770    4.42940   63.71330  106.81760
 11646.00000   60.82780   48.67480    0.08110    4.47870   64.47280  107.49430
 11646.50000   54.54050   44.46040    0.06490    4.38300   65.27690  108.21480
 11647.00000   48.64800   51.09820    0.06220    4.13300   66.42400  109.00030
 11647.50000   43.00360   64.84160    0.07470    3.88710   66.87550  109.74470
 11648.00000   38.17720   76.00750    0.08660    3.77080   67.65800  110.53880
 11648.50000   34.58450   83.50040    0.09600    3.70080   68.33950  111.60930
 11649.00000   31.67680   86.12800    0.09760    3.63440   69.32850  111.84680
 11649.50000   30.20440   91.73210    0.10920    3.55720   69.34310  112.08440
 11650.00000   30.71160   94.59950    0.12360    3.53470   68.40880  111.98030
 11650.50000   33.14300   91.53270    0.12680    3.63010   67.55730  111.37190
 11651.00000   38.12260   88.33910    0.11480    3.78330   67.20970  110.44270
 11651.50000   49.57850   86.38730    0.11170    3.94200   64.46880  109.46730
 11652.00000   64.91760   83.24150    0.10410    4.08450   63.16680  108.28820
 11652.50000   85.10690   69.51200    0.09070    4.28940   62.17870  106.48170
 11653.00000  118.16210   51.70320    0.06150    4.56310   60.63150  105.58500
 11653.50000  153.79770   40.32830    0.04480    4.74280   60.24830  104.90130
 11654.00000  191.75970   41.80640    0.04170    4.79950   59.87440  104.21770
 11654.50000  205.41860   45.43000    0.04630    4.72390   59.68160  104.15660
 11655.00000  201.56210   45.46900    0.05300    4.65180   61.28470  104.67770
 11655.50000  182.39960   43.37530    0.05360    4.66270   62.86710  104.87410
 11656.00000  134.82860   41.86210    0.05710    4.69990   63.52540  106.09360
 11656.50000  101.01320   42.38420    0.06050    4.68100   64.29450  108.01790
 11657.00000   78.89610   46.93990    0.06520    4.60020   65.73020  108.78770
 11657.50000   64.29680   55.50890    0.07540    4.37640   66.22210  109.54460
 11658.00000   58.41230   70.27590    0.09610    4.10580   66.61080  110.46260
 11658.50000   55.41100   77.40770    0.11520    3.85270   67.47720  111.38070
 11659.00000   58.72640   74.67130    0.10750    3.83970   67.72480  111.75770
 11659.50000   66.22740   69.46180    0.08960    3.95470   67.42290  111.91670
 11660.00000   74.73120   65.93480    0.08410    4.04830   66.49240  111.62320
 11660.50000   85.03970   65.01880    0.08930    4.08710   65.59300  110.56840
 11661.00000   97.29080   65.55450    0.09880    4.02580   63.90270  109.83230
 11661.50000  110.71830   68.48580    0.09720    4.02890   63.90250  109.72400
 11662.00000  116.03510   64.02700    0.09140    4.08880   64.37230  109.71270
 11662.50000  108.83090   55.13410    0.07890    4.30620   65.23490  109.78250
 11663.00000   89.15390   42.30460    0.06590    4.45330   65.94370  110.33150
 11663.50000   75.37320   41.86880    0.05450    4.46020   66.66350  110.89580
 11664.00000   63.67120   54.20610    0.06170    4.23020   67.36520  111.46000
 11664.50000   57.40920   68.75610    0.08010    3.88990   68.06320  112.58690
 11665.00000   59.47890   85.64940    0.11550    3.72300   68.79410  113.43780
 11665.50000   62.78900   91.66960    0.14200    3.62870   68.95720  113.22330
 11666.00000   69.98130   89.45770    0.13760    3.62600   68.51820  112.96910
 11666.50000   78.89460   84.66680    0.12980    3.71540   67.97090  113.19240
 11667.00000   87.88620   77.45180    0.11760    3.78380   67.33720  112.64830
 11667.50000   98.17360   67.35060    0.10920    3.94000   66.76050  112.20160
 11668.00000  109.28230   56.43340    0.08940    4.18900   66.28850  112.04920
 11668.50000  110.04640   50.35830    0.07110    4.36590   65.60990  111.58780
 11669.00000  103.02010   58.47030    0.06640    4.32580   65.35740  110.90340
 11669.50000   91.31240   73.46050    0.07590    4.27730   64.89360  110.48930
 11670.00000   78.85310   78.78610    0.08690    4.15400   64.76030  110.35890
 11670.50000   67.86590   73.09320    0.08630    4.08910   64.96380  110.27650
 11671.00000   63.41680   60.74800    0.07900    4.01220   65.24370  110.67280
 11671.50000   62.59210   59.56830    0.07630    3.88990   65.71010  110.96390
 11672.00000   65.91600   57.05220    0.08580    3.82710   66.26790  111.25500
 11672.50000   73.28350   53.42210    0.08740    3.92390   67.54450  111.58750
 11673.00000   82.22450   51.32830    0.08020    4.10190   67.95340  112.15430
 11673.50000   92.41000   56.14350    0.08360    4.21550   68.52580  112.46550
 11674.00000   97.42640   69.52010    0.10190    4.06310   69.16240  112.60100
 11674.50000   98.09540   75.13060    0.12350    3.86590   69.26930  112.68640
 11675.00000   96.10810   70.14040    0.12380    3.78700   69.04220  112.54230
 11675.50000   94.33010   65.57200    0.11300    3.73030   68.54120  112.21500
 11676.00000   94.66100   67.32260    0.10950    3.65220   67.33400  111.41860
 11676.50000  100.00260   68.56320    0.10960    3.58520   64.88330  110.15450
 11677.00000  107.45900   63.99670    0.10270    3.68980   64.99640  109.00940
 11677.50000  113.42010   53.52310    0.08020    3.85170   65.52540  108.07800
 11678.00000  114.01160   43.25290    0.05790    4.26160   65.63350  107.49550
 11678.50000  105.94540   39.97610    0.03960    4.61290   65.25020  107.18600
 11679.00000   89.61140   46.91630    0.03820    4.67740   64.32040  106.75070
 11679.50000   78.55780   60.94690    0.05210    4.44190   65.15910  107.15460
 11680.00000   70.21580   76.15430    0.08260    4.08940   64.64850  108.11570
 11680.50000   69.50090   78.58400    0.11180    3.94750   67.19060  108.99210
 11681.00000   70.49680   68.32420    0.10310    4.07300   69.02200  109.96730
 11681.50000   72.60040   55.11230    0.08470    4.37610   68.90660  110.53920
 11682.00000   74.18910   48.01980    0.06710    4.54140   67.55090  111.15280
 11682.50000   74.08750   59.17340    0.06880    4.42060   68.04740  111.67920
 11683.00000   74.04720   74.87740    0.09420    4.13030   67.92640  111.42160
 11683.50000   73.33610   86.14320    0.12560    3.86180   67.09400  110.95750
 11684.00000   72.59370   80.50280    0.12920    3.85110   67.64860  110.89340
 11684.50000   69.51540   69.89180    0.10550    3.94450   68.13850  110.88430
 11685.00000   65.04240   61.61330    0.08380    4.03740   68.47840  110.84590
 11685.50000   60.55860   61.90670    0.07870    4.06280   66.41390  110.37140
 11686.00000   56.85180   62.54810    0.08770    4.11110   66.57110  109.98040
 11686.50000   53.39070   60.51220    0.09190    4.11880   64.39370  108.52030
 11687.00000   52.46670   62.70000    0.09120    4.06440   63.96710  108.42600
