~Version ---------------------------------------------------
VERS.   2.0 : CWLS log ASCII Standard -VERSION 2.0
WRAP.    NO : One line per depth step
DLM . SPACE : Column Data Section Delimiter
~Well ------------------------------------------------------
STRT .F                   65.0 : START DEPTH
STOP .F                12274.0 : STOP DEPTH
STEP .F                    0.5 : STEP
NULL .                -9999.25 : NULL VALUE
COMP .                         : COMPANY
WELL .                         : WELL
FLD  .                         : FIELD
LOC  .                         : LOCATION
PROV .                         : PROVINCE
CNTY .                         : COUNTY
STAT .                         : STATE
CTRY .                         : COUNTRY
SRVC .                         : SERVICE COMPANY
DATE .                         : DATE
UWI  .                         : UNIQUE WELL ID
API  .                         : API NUMBER
SLAT .WGS84 2.4587995371436975 : SURFACE LATITUDE
SLON .WGS84  8.058609648570993 : SURFACE LONGITUDE
DATUM.F                    nan : DEPTH DATUM ELEV
~Curve Information -----------------------------------------
DEPT   .F     : 1 MEASURED DEPTH
AF60   .OHMM  : ARRAY INDUCTION FOUR FOOT RESISTIVITY A60
SGRDD  .GAPI  : SPECTROSCOPY GAMMA RAY FROM DENSITY LOG
TNPH_LS.DEC   : THERMAL NEUTRON POROSITY [LIMESTONE]
PEFZ   .B/E   : HRDD STANDARD RESOLUTION FORMATION PHOTOELECTRIC FACTOR
DTCO   .US/F  : DELTA-T COMPRESSIONAL
DTSM   .US/F  : DELTA-T SHEAR
~Params ----------------------------------------------------
~Other -----------------------------------------------------
~ASCII -----------------------------------------------------
# ...
 10616.50000   36.97210   65.84550    0.12170    3.91730   67.49360  109.25210
 10617.00000   36.15340   59.11930    0.10330    4.00060   68.09480  109.28270
 10617.50000   35.33650   59.46550    0.09560    4.08620   69.51300  109.21640
 10618.00000   32.26080   62.15380    0.10130    4.14810   68.84390  109.15000
 10618.50000   29.38810   64.09610    0.11370    4.01470   68.10460  108.99830
 10619.00000   27.12610   64.13210    0.13890    3.63960   66.08600  108.59210
 10619.50000   26.19720   64.58220    0.15470    3.35750   65.33500  107.94430
 10620.00000   26.44170   71.69750    0.15530    3.30140   61.97020  106.60190
 10620.50000   27.45040   80.76320    0.15120    3.43450   59.01090  104.51360
 10621.00000   34.47000   89.10640    0.13670    3.62200   56.71480  101.29410
 10621.50000   54.91530   85.41750    0.11870    3.89210   54.78850   98.94290
 10622.00000   87.46780   64.71240    0.07000    4.31790   53.52370   97.09310
 10622.50000  139.23340   43.33200    0.03990    4.78660   52.85020   96.15390
 10623.00000  221.57330   26.71290    0.02060    5.23330   51.63750   95.16330
 10623.50000  352.72500   23.11220    0.01370    5.59270   51.32660   94.28670
 10624.00000  551.75070   21.60850    0.01410    5.79240   51.25570   94.01610
 10624.50000  812.31230   22.13530    0.01520    5.81530   50.99820   93.78720
 10625.00000  933.12840   24.59590    0.01520    5.62800   51.03490   93.64130
 10625.50000  968.59540   27.48880    0.01490    5.31470   51.14880   93.70550
 10626.00000  858.73350   30.28320    0.01320    5.15120   51.18330   93.76970
 10626.50000  751.14920   29.52130    0.01310    5.07340   51.18520   93.80910
 10627.00000  649.24830   26.04660    0.01300    5.22180   51.17200   93.70560
 10627.50000  586.42990   24.08580    0.01290    5.47910   51.07370   93.65860
 10628.00000  508.46060   25.60150    0.01320    5.60990   51.48460   93.77130
 10628.50000  439.63490   26.46500    0.01480    5.68940   52.06790   94.03330
 10629.00000  377.26980   25.12400    0.01620    5.69860   52.97190   94.62740
 10629.50000  311.05190   23.47240    0.01600    5.70160   53.57830   94.83220
 10630.00000  239.79580   23.04000    0.01610    5.61050   54.08310   95.18040
 10630.50000  201.84890   24.36260    0.01800    5.51000   54.64160   95.41370
 10631.00000  172.74140   27.78220    0.02050    5.25800   55.45480   95.52600
 10631.50000  155.23740   35.85970    0.02520    4.91090   56.15050   95.57540
 10632.00000  152.36990   45.49720    0.03510    4.59360   56.23340   95.62510
 10632.50000  156.74660   49.98230    0.04360    4.43660   56.23340   95.63650
 10633.00000  164.80280   47.59720    0.04850    4.34560   56.23340   95.49240
 10633.50000  178.08740   41.93850    0.04840    4.37230   56.23330   95.38430
 10634.00000  200.90980   39.68370    0.04530    4.40800   55.82350   95.10320
 10634.50000  223.36110   36.68470    0.03930    4.42000   55.29950   94.72470
 10635.00000  256.28820   32.93930    0.03240    4.51060   54.72990   94.34000
 10635.50000  299.79560   29.20690    0.02510    4.64940   54.18210   94.27110
 10636.00000  339.38140   30.69030    0.02190    4.74450   53.66090   94.05420
 10636.50000  379.58220   34.61630    0.02310    4.66510   53.56720   93.72480
 10637.00000  413.51730   35.53460    0.02400    4.54620   53.76140   93.47450
 10637.50000  447.45240   33.50130    0.02350    4.43390   53.94840   93.21620
 10638.00000  468.32410   32.89330    0.01970    4.41030   54.11670   92.95190
 10638.50000  489.00050   33.19870    0.01840    4.44050   54.11690   92.68760
 10639.00000  501.65170   34.85390    0.01890    4.50790   54.10980   93.09390
 10639.50000  514.30500   33.62360    0.01940    4.58180   54.10400   93.20480
 10640.00000  525.02190   32.47030    0.01990    4.63540   54.16330   92.77640
 10640.50000  545.69490   30.08730    0.02000    4.63190   54.49520   92.75850
 10641.00000  589.61320   27.31140    0.01910    4.56290   54.70330   93.07070
 10641.50000  621.23490   25.60140    0.01720    4.52740   54.65980   93.11560
 10642.00000  647.65490   25.08710    0.01610    4.47210   54.94660   93.10450
 10642.50000  674.63170   26.60630    0.01680    4.41680   54.68270   92.88510
 10643.00000  674.70210   27.87010    0.01760    4.36240   54.44090   93.05710
 10643.50000  664.82370   27.60810    0.01920    4.40010   54.27810   93.19030
 10644.00000  652.85280   26.00340    0.01900    4.47650   53.98560   93.31360
 10644.50000  634.34320   26.49550    0.01870    4.58510   54.33510   93.43390
 10645.00000  579.26010   28.18920    0.01850    4.66270   55.30120   93.51100
 10645.50000  501.24010   30.42420    0.01820    4.68930   55.41400   93.78100
 10646.00000  435.02410   30.08150    0.01790    4.68300   55.97970   93.84770
 10646.50000  354.43940   29.65280    0.01840    4.59540   55.95080   94.36270
 10647.00000  254.95240   29.30030    0.01970    4.46320   56.46680   95.05720
 10647.50000  183.16400   28.46960    0.02060    4.35040   57.45200   95.39830
 10648.00000  131.80970   29.66310    0.02240    4.28830   58.11230   95.82310
 10648.50000   97.69480   35.25230    0.02670    4.20630   58.76900   96.13440
 10649.00000   75.49480   45.35690    0.03550    4.02040   59.74480   96.95340
 10649.50000   62.61360   52.94510    0.04520    3.85680   60.38160   97.72460
 10650.00000   53.68560   52.01810    0.04820    3.83290   61.10570   98.49570
 10650.50000   46.46520   50.35870    0.04730    3.81330   61.11840   99.12240
 10651.00000   44.19600   50.96280    0.05110    3.67980   61.25710   99.42590
 10651.50000   44.85840   56.88160    0.06070    3.49100   61.25980   99.62170
 10652.00000   48.56810   63.09870    0.07090    3.31430   61.04950   99.86080
 10652.50000   55.17030   70.80380    0.07790    3.29730   61.68030  100.82470
 10653.00000   59.34810   68.58030    0.08040    3.40200   61.15160  100.71030
 10653.50000   60.65910   64.10850    0.06920    3.52980   61.30770  100.97850
 10654.00000   57.12470   61.39100    0.06050    3.56340   61.47730  101.26310
 10654.50000   49.52990   61.43910    0.05760    3.57480   61.65240  101.67100
 10655.00000   40.61250   58.02980    0.05690    3.64470   62.13020  102.02940
 10655.50000   32.33430   53.24340    0.05440    3.82100   63.23240  102.38780
 10656.00000   26.04350   56.82430    0.05160    4.00320   64.17100  103.79320
 10656.50000   22.25210   63.31220    0.05540    3.93580   65.01710  104.86670
 10657.00000   19.86080   68.66640    0.06800    3.72650   65.58550  105.48710
 10657.50000   18.62130   69.13170    0.08380    3.47780   65.97120  106.17030
 10658.00000   18.47680   71.67510    0.09280    3.30990   66.28760  106.40750
 10658.50000   18.48800   75.80880    0.09770    3.17180   66.54850  106.96140
 10659.00000   18.51910   83.79790    0.10020    3.08530   66.38020  107.07910
 10659.50000   19.27650   87.74300    0.10560    3.08420   66.11220  106.85030
 10660.00000   20.28620   85.82580    0.10570    3.12070   65.99630  106.50660
 10660.50000   21.35000   79.47680    0.10190    3.13140   65.75330  106.16300
 10661.00000   22.69010   72.65430    0.09860    3.11280   65.36960  105.47850
 10661.50000   25.24200   68.90830    0.09610    3.09540   64.76250  104.58600
 10662.00000   28.57070   66.73320    0.09290    3.13170   63.88890  103.91260
 10662.50000   32.33780   65.89580    0.09420    3.17910   63.01040  103.20460
 10663.00000   37.20290   68.53480    0.09560    3.19340   62.43340  102.44480
 10663.50000   42.94370   71.97450    0.09410    3.16790   62.18830  102.12250
 10664.00000   49.58670   71.91370    0.08700    3.14250   61.68470  101.45420
 10664.50000   55.83570   63.64780    0.07800    3.16040   61.18110  100.58880
 10665.00000   57.66240   53.78230    0.06260    3.23790   60.76360   99.88050
 10665.50000   59.19510   48.04430    0.05930    3.29150   60.04710   99.18050
 10666.00000   60.22200   46.88370    0.05780    3.30370   59.49720   98.48060
 10666.50000   62.16020   47.48400    0.05820    3.30580   59.65360   97.89170
 10667.00000   64.60620   48.39040    0.05650    3.34480   60.03760   97.90510
