~Version ---------------------------------------------------
VERS.   2.0 : CWLS log ASCII Standard -VERSION 2.0
WRAP.    NO : One line per depth step
DLM . SPACE : Column Data Section Delimiter
~Well ------------------------------------------------------
STRT .F                   65.0 : START DEPTH
STOP .F                12274.0 : STOP DEPTH
STEP .F                    0.5 : STEP
NULL .                -9999.25 : NULL VALUE
COMP .                         : COMPANY
WELL .                         : WELL
FLD  .                         : FIELD
LOC  .                         : LOCATION
PROV .                         : PROVINCE
CNTY .                         : COUNTY
STAT .                         : STATE
CTRY .                         : COUNTRY
SRVC .                         : SERVICE COMPANY
DATE .                         : DATE
UWI  .                         : UNIQUE WELL ID
API  .                         : API NUMBER
SLAT .WGS84 2.4587995371436975 : SURFACE LATITUDE
SLON .WGS84  8.058609648570993 : SURFACE LONGITUDE
DATUM.F                    nan : DEPTH DATUM ELEV
~Curve Information -----------------------------------------
DEPT   .F     : 1 MEASURED DEPTH
AF60   .OHMM  : ARRAY INDUCTION FOUR FOOT RESISTIVITY A60
SGRDD  .GAPI  : SPECTROSCOPY GAMMA RAY FROM DENSITY LOG
TNPH_LS.DEC   : THERMAL NEUTRON POROSITY [LIMESTONE]
PEFZ   .B/E   : HRDD STANDARD RESOLUTION FORMATION PHOTOELECTRIC FACTOR
DTCO   .US/F  : DELTA-T COMPRESSIONAL
DTSM   .US/F  : DELTA-T SHEAR
~Params ----------------------------------------------------
~Other -----------------------------------------------------
~ASCII -----------------------------------------------------
# ...
 10004.50000  608.16730   35.09300    0.01880    3.19990   53.97490   88.42340
 10005.00000  561.55500   33.34580    0.02440    3.10490   53.98850   88.33630
 10005.50000  580.94640   27.59980    0.02500    3.32590   54.11330   88.44020
 10006.00000  612.45150   21.36290    0.01860    3.73510   53.12340   88.36990
 10006.50000  667.27020   18.43080    0.01020    4.10260   52.15800   88.19810
 10007.00000  769.80150   15.38710    0.00250    4.32750   51.77760   88.43520
 10007.50000  984.03820   14.63780   -0.00080    4.40290   51.87140   88.68200
 10008.00000 1168.81670   14.81220   -0.00010    4.57370   51.78610   88.51990
 10008.50000 1356.73840   16.58670    0.00140    4.76730   52.12920   88.30670
 10009.00000 1411.31160   17.98280    0.00290    4.77760   52.63050   88.34970
 10009.50000 1237.28480   19.09200    0.00440    4.60320   53.45620   88.99060
 10010.00000  926.18900   20.42140    0.00710    4.26640   54.15140   89.72220
 10010.50000  681.10610   21.80300    0.01020    3.87540   55.29260   90.41590
 10011.00000  511.30940   24.26000    0.01780    3.58040   56.40830   90.75010
 10011.50000  356.87390   23.94050    0.02430    3.40790   56.83300   91.20660
 10012.00000  269.55760   25.78970    0.02900    3.39840   57.07190   92.00010
 10012.50000  225.73720   29.63680    0.03230    3.51970   56.98250   92.91590
 10013.00000  208.61900   41.97260    0.03790    3.73740   56.43540   93.83980
 10013.50000  213.76930   50.80880    0.05110    3.96580   56.03290   94.81720
 10014.00000  241.37460   53.62600    0.05550    4.21060   55.76990   95.48110
 10014.50000  275.97610   43.14180    0.05310    4.43990   55.74060   95.79870
 10015.00000  315.32390   31.06970    0.03350    4.74300   55.57150   96.11620
 10015.50000  341.04630   23.32550    0.02540    4.91810   55.31350   96.43380
 10016.00000  321.29720   20.08960    0.01770    4.91440   54.91510   96.69520
 10016.50000  285.40820   21.81950    0.01790    4.70510   55.18820   96.83980
 10017.00000  253.39210   26.89920    0.02000    4.44680   55.09340   96.77400
 10017.50000  232.28170   34.21010    0.02860    4.29290   55.32510   96.80920
 10018.00000  240.73770   42.20570    0.04030    4.33870   55.40080   96.39090
 10018.50000  253.46770   47.77420    0.04800    4.40330   55.66360   96.44870
 10019.00000  288.49150   47.68880    0.04880    4.40220   55.58000   96.37900
 10019.50000  326.52920   41.13490    0.04650    4.39940   55.44920   96.20820
 10020.00000  365.34190   32.47850    0.03890    4.39660   55.46520   96.09910
 10020.50000  362.12890   26.38050    0.03070    4.46250   55.46530   96.09840
 10021.00000  346.42630   26.32870    0.02700    4.56180   55.74390   96.09780
 10021.50000  328.75560   31.51570    0.03030    4.76860   56.35250   96.09720
 10022.00000  305.75410   35.92260    0.03610    4.89460   57.09530   96.21110
 10022.50000  279.11870   36.98760    0.04000    4.92140   57.85000   96.70060
 10023.00000  250.26370   34.86860    0.04160    4.85340   59.59020   97.11180
 10023.50000  227.10920   34.57860    0.04080    4.75050   59.66410   97.27470
 10024.00000  199.60360   35.53330    0.04000    4.62050   59.29900   97.41010
 10024.50000  182.82150   36.13480    0.03940    4.43050   58.73150   97.49600
 10025.00000  177.06540   41.14350    0.04190    4.27860   57.65690   97.04720
 10025.50000  186.46460   47.56140    0.04670    4.16090   56.66200   95.96680
 10026.00000  222.69690   53.02130    0.05660    4.16760   55.89280   95.21530
 10026.50000  289.72060   50.85390    0.06120    4.19670   55.80110   94.48270
 10027.00000  398.06470   41.07480    0.05360    4.24580   55.37620   93.75120
 10027.50000  552.51720   31.35780    0.04080    4.33620   55.01670   93.06920
 10028.00000  793.76090   25.01830    0.02910    4.47500   54.57210   92.43830
 10028.50000 1011.13500   21.38290    0.02600    4.59710   54.34200   92.11440
 10029.00000 1303.38430   21.44320    0.02870    4.61560   54.33530   92.17150
 10029.50000 1605.55900   22.40370    0.03220    4.66490   54.82710   92.51400
 10030.00000 1749.24070   22.50970    0.03550    4.68470   55.29850   92.78060
 10030.50000 1745.09720   22.18760    0.03690    4.62060   55.62980   93.08730
 10031.00000 1635.60020   21.43370    0.03730    4.38080   57.07000   93.54490
 10031.50000 1530.10170   21.91740    0.03800    4.20770   57.07070   94.01020
 10032.00000 1503.27330   21.88730    0.03860    4.19720   56.09070   94.24390
 10032.50000 1496.49430   22.02670    0.03970    4.26660   55.97930   94.47760
 10033.00000 1489.76780   21.10110    0.04170    4.52130   56.05410   94.57690
 10033.50000 1521.74060   20.46090    0.04200    4.61360   56.13230   94.49740
 10034.00000 1604.24960   18.45350    0.04060    4.53220   55.84660   94.28710
 10034.50000 1690.74510   18.24000    0.03740    4.42070   55.07420   93.92590
 10035.00000 1739.23440   18.81940    0.03330    4.48750   54.13480   93.57140
 10035.50000 1687.29200   19.87210    0.02910    4.51830   53.56680   93.28710
 10036.00000 1515.51710   20.92470    0.02410    4.53680   53.23720   93.12820
 10036.50000 1311.49130   21.16840    0.02030    4.33980   53.06970   92.73370
 10037.00000 1103.34420   23.18090    0.01670    4.18080   53.37620   92.63680
 10037.50000  813.90640   23.49350    0.01450    4.17150   53.87710   93.19790
 10038.00000  604.92440   24.21380    0.01480    4.21550   54.89030   93.98050
 10038.50000  459.38180   23.11330    0.01570    4.30430   55.96000   94.74680
 10039.00000  350.50310   25.52720    0.01930    4.46820   58.35580   95.12560
 10039.50000  271.98220   30.88270    0.02590    4.63910   59.39430   95.84610
 10040.00000  227.31120   39.92370    0.04040    4.69150   59.83400   96.76430
 10040.50000  198.09310   45.44110    0.05610    4.53410   60.13800   97.44530
 10041.00000  178.55320   49.98530    0.07900    4.38670   60.35780   98.05600
 10041.50000  175.81410   53.81040    0.08690    4.26020   60.43240   98.04110
 10042.00000  194.61050   59.36940    0.09410    4.15080   59.80810   97.27620
 10042.50000  241.75550   60.56180    0.09870    4.06310   57.36160   96.57360
 10043.00000  322.98100   51.52410    0.08970    4.07210   56.97430   96.07590
 10043.50000  489.18370   39.32180    0.06970    4.12890   56.29740   95.33100
 10044.00000  720.44640   28.02350    0.04650    4.18580   55.54120   94.42170
 10044.50000 1026.24430   23.53160    0.03580    4.27290   54.74170   92.38400
 10045.00000 1420.04550   22.81950    0.02980    4.42440   53.89400   91.61390
 10045.50000 1709.76770   23.78620    0.02780    4.53290   53.65660   91.50070
 10046.00000 1931.04910   24.75670    0.02480    4.45870   53.74780   90.95000
 10046.50000 1990.90080   25.51350    0.02470    4.31270   53.78570   90.62590
 10047.00000 1990.59800   24.69540    0.02510    4.18650   53.93990   90.53320
 10047.50000 1990.29540   23.59920    0.02490    4.19510   54.16290   90.31160
 10048.00000 1989.99270   23.14940    0.02390    4.20360   54.37580   89.95900
 10048.50000 1989.69340   23.08560    0.02210    4.26050   54.21090   89.60650
 10049.00000 1989.39200   24.60690    0.02040    4.26010   53.95200   89.46960
 10049.50000 1989.08840   25.46390    0.01880    4.23270   53.99370   89.55070
 10050.00000 1989.98730   24.35760    0.01770    4.19660   54.17300   89.56620
 10050.50000 1990.08670   22.88350    0.01730    4.16490   53.95380   89.45800
 10051.00000 1950.23520   21.76130    0.01850    4.16150   53.65610   89.33600
 10051.50000 1867.50060   22.19660    0.01860    4.19000   53.99520   89.47780
 10052.00000 1864.84610   23.15640    0.01870    4.24430   53.15390   89.66280
 10052.50000 1862.21480   23.80790    0.01910    4.36200   52.98020   89.96380
 10053.00000 1855.59280   23.23980    0.01940    4.54800   52.87200   90.07300
 10053.50000 1788.18150   23.31710    0.01960    4.74470   52.98060   90.23580
 10054.00000 1640.95520   21.80280    0.01940    4.80230   52.74990   90.49840
 10054.50000 1501.79760   21.76180    0.01870    4.75880   52.59680   90.76100
 10055.00000 1343.35930   21.41310    0.01780    4.62290   53.31420   90.93100
