~Version ---------------------------------------------------
VERS.   2.0 : CWLS log ASCII Standard -VERSION 2.0
WRAP.    NO : One line per depth step
DLM . SPACE : Column Data Section Delimiter
~Well ------------------------------------------------------
STRT .F                   65.0 : START DEPTH
STOP .F                12274.0 : STOP DEPTH
STEP .F                    0.5 : STEP
NULL .                -9999.25 : NULL VALUE
COMP .                         : COMPANY
WELL .                         : WELL
FLD  .                         : FIELD
LOC  .                         : LOCATION
PROV .                         : PROVINCE
CNTY .                         : COUNTY
STAT .                         : STATE
CTRY .                         : COUNTRY
SRVC .                         : SERVICE COMPANY
DATE .                         : DATE
UWI  .                         : UNIQUE WELL ID
API  .                         : API NUMBER
SLAT .WGS84 2.4587995371436975 : SURFACE LATITUDE
SLON .WGS84  8.058609648570993 : SURFACE LONGITUDE
DATUM.F                    nan : DEPTH DATUM ELEV
~Curve Information -----------------------------------------
DEPT   .F     : 1 MEASURED DEPTH
AF60   .OHMM  : ARRAY INDUCTION FOUR FOOT RESISTIVITY A60
SGRDD  .GAPI  : SPECTROSCOPY GAMMA RAY FROM DENSITY LOG
TNPH_LS.DEC   : THERMAL NEUTRON POROSITY [LIMESTONE]
PEFZ   .B/E   : HRDD STANDARD RESOLUTION FORMATION PHOTOELECTRIC FACTOR
DTCO   .US/F  : DELTA-T COMPRESSIONAL
DTSM   .US/F  : DELTA-T SHEAR
~Params ----------------------------------------------------
~Other -----------------------------------------------------
~ASCII -----------------------------------------------------
# ...
 9592.50000  109.82850   29.93680    0.04670    3.51450   60.75040   94.55500
 9593.00000  108.96150   30.34800    0.05400    3.15380   61.28280   94.76950
 9593.50000  110.69100   30.62900    0.05920    2.90250   62.01610   95.07530
 9594.00000  112.52200   31.60950    0.06370    2.70920   61.71010   95.38100
 9594.50000  113.16700   32.66530    0.06370    2.57500   61.22730   95.46630
 9595.00000  113.97430   33.90230    0.05910    2.43410   60.30570   95.96520
 9595.50000  119.29930   37.40900    0.06030    2.38460   58.98200   96.20130
 9596.00000  131.45940   44.73060    0.07210    2.45410   58.46900   96.08160
 9596.50000  158.86850   52.03280    0.09110    2.52890   57.64230   95.93070
 9597.00000  205.80710   54.75180    0.10090    2.68400   57.05850   95.49350
 9597.50000  290.78650   48.89600    0.08680    2.97900   56.60870   94.98010
 9598.00000  413.73190   34.74840    0.06420    3.42530   55.33600   94.24280
 9598.50000  573.78760   23.84070    0.04170    3.81970   54.08380   93.42760
 9599.00000  778.99520   19.20880    0.02630    4.16770   53.99210   92.52220
 9599.50000 1021.75100   20.19280    0.02160    4.32560   54.30350   91.61690
 9600.00000 1190.04320   21.74050    0.02120    4.38070   55.05340   91.04760
 9600.50000 1163.51390   21.96220    0.02120    4.40260   54.88720   90.36370
 9601.00000 1105.37520   19.87580    0.01850    4.43220   54.69050   89.30550
 9601.50000 1011.25380   17.33040    0.01520    4.40560   53.68140   89.10800
 9602.00000  828.08120   16.34800    0.01150    4.37900   54.30660   88.84190
 9602.50000  705.75240   16.58840    0.00960    4.14870   54.33080   88.22610
 9603.00000  601.65320   19.28280    0.01030    3.75850   53.53210   87.84900
 9603.50000  505.33000   19.22020    0.01210    3.54000   53.50800   87.64680
 9604.00000  455.53310   17.81790    0.01300    3.51400   54.75380   87.52490
 9604.50000  409.24920   16.67820    0.01200    3.49900   55.23320   87.39680
 9605.00000  386.33870   18.28890    0.01230    3.34420   55.67950   87.30060
 9605.50000  364.83990   19.73490    0.01650    2.95500   56.19730   87.39550
 9606.00000  350.23340   19.89300    0.02260    2.65440   56.48590   87.53560
 9606.50000  347.22100   19.82580    0.02830    2.57810   57.12800   87.99330
 9607.00000  351.01890   20.26180    0.03000    2.55040   56.03510   88.02730
 9607.50000  369.81870   21.73760    0.03100    2.53350   57.40470   88.16370
 9608.00000  400.94540   22.41180    0.03280    2.57560   56.94260   88.23500
 9608.50000  426.23430   21.06500    0.03370    2.63750   57.23130   88.30750
 9609.00000  421.31470   18.95580    0.03210    2.69120   57.03530   88.29860
 9609.50000  399.61160   17.03450    0.02660    2.77010   55.76980   88.87580
 9610.00000  359.88600   17.46730    0.02120    2.82550   56.43700   88.97640
 9610.50000  334.67290   18.81610    0.01760    2.86040   56.57680   89.07700
 9611.00000  336.94850   24.01210    0.01880    2.76700   56.38300   89.48660
 9611.50000  370.64530   28.19610    0.02280    2.73920   54.77960   91.01670
 9612.00000  433.78380   30.39200    0.02650    2.82530   56.23300   91.71030
 9612.50000  523.02370   28.69370    0.02890    2.99720   55.48950   91.90160
 9613.00000  647.03230   27.07130    0.02630    3.41540   56.02020   92.23970
 9613.50000  807.92630   25.46530    0.02190    3.81320   56.20960   93.88940
 9614.00000  982.99770   23.97140    0.01860    4.01080   56.11680   94.16870
 9614.50000 1184.67270   22.80140    0.01850    4.11540   55.78680   94.07520
 9615.00000 1347.73740   22.90880    0.02080    4.09690   55.67940   94.11790
 9615.50000 1514.45410   23.87180    0.02350    4.13570   55.55900   94.36880
 9616.00000 1713.19700   25.04670    0.02560    4.18960   55.04340   94.23510
 9616.50000 1688.24080   25.00140    0.02580    4.25120   54.64050   93.37070
 9617.00000 1499.38560   24.04340    0.02500    4.32640   53.72840   93.16070
 9617.50000 1107.63730   21.87460    0.02290    4.43360   54.16410   92.99880
 9618.00000  747.91870   18.17140    0.01870    4.49640   54.48060   92.64100
 9618.50000  563.90220   15.58680    0.01440    4.47690   54.96640   92.62980
 9619.00000  400.44210   13.37970    0.01080    4.43740   55.24620   91.94370
 9619.50000  285.51920   14.99180    0.00960    4.25530   56.01010   91.17920
 9620.00000  241.27870   16.72060    0.01170    4.11640   57.33360   91.64960
 9620.50000  204.97380   18.60850    0.01410    3.96650   58.13200   91.77930
 9621.00000  175.61920   22.35370    0.02200    3.60890   59.09280   91.97180
 9621.50000  160.01080   28.05840    0.03340    3.18770   59.55560   92.48410
 9622.00000  150.76210   34.78800    0.04320    2.86350   60.16760   93.29080
 9622.50000  150.18080   39.62040    0.04830    2.67000   60.47750   93.96060
 9623.00000  149.64830   40.72210    0.05230    2.68030   60.54050   94.73410
 9623.50000  153.54250   41.68140    0.05650    2.75010   60.45100   95.51940
 9624.00000  169.07600   41.93770    0.06610    2.73400   60.06940   95.71860
 9624.50000  190.06290   43.05070    0.06900    2.71780   59.59020   96.20000
 9625.00000  219.01320   47.60520    0.07130    2.73650   59.77080   96.81040
 9625.50000  246.05850   48.67240    0.06700    2.95280   59.47560   97.12210
 9626.00000  275.88580   44.30190    0.05760    3.28160   59.34280   97.43390
 9626.50000  280.40460   37.63820    0.04780    3.52050   59.37640   97.65920
 9627.00000  272.12140   33.18730    0.04170    3.63300   59.49630   97.50910
 9627.50000  257.91680   34.30960    0.04290    3.68840   59.55480   97.52960
 9628.00000  240.27890   35.97250    0.04740    3.73930   59.84800   97.76170
 9628.50000  230.23530   37.56200    0.05250    3.78180   60.11100   97.81440
 9629.00000  220.59760   37.75020    0.05660    3.79440   60.13340   97.64160
 9629.50000  211.37700   35.63640    0.05730    3.80650   60.18510   97.36690
 9630.00000  202.70400   33.50160    0.05050    3.88210   60.24650   97.07750
 9630.50000  199.02110   34.58040    0.04330    3.95140   60.13380   96.35030
 9631.00000  198.76620   39.33330    0.04310    3.87020   59.94950   96.04710
 9631.50000  195.84890   43.12600    0.05000    3.67340   60.32480   95.69140
 9632.00000  191.91320   42.80110    0.06050    3.45030   59.88040   95.33570
 9632.50000  186.94370   40.89950    0.06420    3.28180   60.34010   95.13520
 9633.00000  180.97500   37.19790    0.06160    3.23600   61.33540   95.33410
 9633.50000  174.92410   35.11820    0.05670    3.21390   61.50020   95.81340
 9634.00000  169.06900   35.49480    0.05240    3.20330   61.36320   96.21640
 9634.50000  164.24160   37.63440    0.05090    3.16170   61.41060   96.32690
 9635.00000  166.33260   40.00440    0.05500    3.04650   61.52380   96.85740
 9635.50000  175.76420   45.04890    0.06340    2.99080   60.34850   97.19750
 9636.00000  199.49730   52.63240    0.07450    3.03350   59.87510   97.36740
 9636.50000  241.41890   60.47960    0.08390    3.13730   59.48330   97.78670
 9637.00000  305.31570   57.00690    0.08490    3.30080   59.17720   97.76040
 9637.50000  389.14270   46.50250    0.07960    3.65850   58.21210   97.70930
 9638.00000  464.87430   34.95680    0.06000    3.91270   57.57220   97.65820
 9638.50000  515.78490   32.39700    0.04720    4.08030   57.84790   97.65150
 9639.00000  529.71980   32.66610    0.04980    4.24780   58.44750   97.77870
 9639.50000  490.88060   31.34030    0.04950    4.36040   58.57330   98.59430
 9640.00000  433.29820   26.35920    0.04560    4.48770   58.16900   98.58330
 9640.50000  397.99980   24.79910    0.04090    4.58740   58.13820   98.82420
 9641.00000  373.87520   29.73490    0.03840    4.54380   58.16980   98.69230
 9641.50000  374.16870   38.36490    0.03980    4.40750   58.13540   98.77690
 9642.00000  408.14820   48.30430    0.05250    4.25500   58.05930   98.85040
 9642.50000  445.64080   49.91250    0.06790    4.23670   57.76570   98.13560
 9643.00000  475.02640   42.36410    0.06940    4.30430   57.61680   97.41800
 9643.50000  471.37220   34.44030    0.05900    4.43810   57.12440   96.72530
