~Version ---------------------------------------------------
VERS.   2.0 : CWLS log ASCII Standard -VERSION 2.0
WRAP.    NO : One line per depth step
DLM . SPACE : Column Data Section Delimiter
~Well ------------------------------------------------------
STRT .F                   65.0 : START DEPTH
STOP .F                12274.0 : STOP DEPTH
STEP .F                    0.5 : STEP
NULL .                -9999.25 : NULL VALUE
COMP .                         : COMPANY
WELL .                         : WELL
FLD  .                         : FIELD
LOC  .                         : LOCATION
PROV .                         : PROVINCE
CNTY .                         : COUNTY
STAT .                         : STATE
CTRY .                         : COUNTRY
SRVC .                         : SERVICE COMPANY
DATE .                         : DATE
UWI  .                         : UNIQUE WELL ID
API  .                         : API NUMBER
SLAT .WGS84 2.4587995371436975 : SURFACE LATITUDE
SLON .WGS84  8.058609648570993 : SURFACE LONGITUDE
DATUM.F                    nan : DEPTH DATUM ELEV
~Curve Information -----------------------------------------
DEPT   .F     : 1 MEASURED DEPTH
AF60   .OHMM  : ARRAY INDUCTION FOUR FOOT RESISTIVITY A60
SGRDD  .GAPI  : SPECTROSCOPY GAMMA RAY FROM DENSITY LOG
TNPH_LS.DEC   : THERMAL NEUTRON POROSITY [LIMESTONE]
PEFZ   .B/E   : HRDD STANDARD RESOLUTION FORMATION PHOTOELECTRIC FACTOR
DTCO   .US/F  : DELTA-T COMPRESSIONAL
DTSM   .US/F  : DELTA-T SHEAR
~Params ----------------------------------------------------
~Other -----------------------------------------------------
~ASCII -----------------------------------------------------
# ...
 10820.50000   36.36900  101.26630    0.14070    4.31890   65.39190  108.60350
 10821.00000   36.74810   90.55450    0.12920    3.96460   65.03680  108.51670
 10821.50000   35.58260   75.98620    0.11560    3.63260   64.66350  108.27190
 10822.00000   34.80520   65.78900    0.10530    3.56480   64.20320  107.63970
 10822.50000   34.17960   67.08380    0.09720    3.53650   63.99750  107.28900
 10823.00000   33.63850   67.00800    0.09270    3.59360   64.81160  107.26550
 10823.50000   32.49090   68.55200    0.09450    3.57600   65.19620  107.60880
 10824.00000   31.55070   67.82600    0.09940    3.51250   65.63200  107.97820
 10824.50000   30.57450   69.16380    0.10370    3.45720   66.12550  108.38610
 10825.00000   29.57700   69.63260    0.10310    3.46430   66.49520  108.79400
 10825.50000   28.64720   75.20270    0.10300    3.54600   66.90100  109.19860
 10826.00000   28.57460   87.19320    0.12000    3.72650   67.44240  109.53600
 10826.50000   28.98750   99.98920    0.14060    3.94820   67.47100  110.00180
 10827.00000   29.65760  102.16470    0.15150    4.11710   67.46470  110.36210
 10827.50000   30.17140   92.28690    0.14550    4.07240   67.61720  110.85500
 10828.00000   30.26810   79.48320    0.12900    3.84340   68.60910  112.11120
 10828.50000   29.82640   71.91330    0.11810    3.62420   68.46660  113.35280
 10829.00000   28.64560   70.60180    0.11240    3.47960   69.13990  115.20360
 10829.50000   27.11120   77.30760    0.11940    3.55780   70.18200  117.00000
 10830.00000   25.37610   90.68380    0.13380    3.77370   71.15120  118.80370
 10830.50000   23.57820   91.21200    0.15630    4.09270   71.39790  119.57340
 10831.00000   22.57230   87.49310    0.15580    4.29970   71.03710  119.69730
 10831.50000   22.66230   89.72650    0.14960    4.40010   70.58320  118.89490
 10832.00000   23.84030  108.75420    0.15430    4.42810   70.46320  117.94670
 10832.50000   25.60420  116.45480    0.17320    4.45150   69.81680  115.67850
 10833.00000   28.37870  108.08350    0.16760    4.37980   67.52720  113.52790
 10833.50000   30.95370   89.00130    0.14650    4.11840   67.07410  111.56570
 10834.00000   33.77840   74.96530    0.12900    3.81870   66.21950  109.69370
 10834.50000   36.84960   67.56520    0.11620    3.61170   64.36540  107.77200
 10835.00000   42.14580   63.05870    0.10700    3.55210   62.65080  104.30440
 10835.50000   49.14290   62.81920    0.10030    3.62430   60.45130  102.85420
 10836.00000   64.09370   62.89090    0.09670    3.69650   59.13090  101.37490
 10836.50000   87.37820   62.48070    0.09040    3.79490   57.92270  100.37990
 10837.00000  126.11370   52.02880    0.07460    4.04910   56.91520   99.47050
 10837.50000  182.17310   37.64340    0.05290    4.43690   56.26840   97.67880
 10838.00000  263.20130   28.05660    0.03290    4.78620   55.81130   96.71150
 10838.50000  380.04510   25.42200    0.02200    4.98850   55.75560   96.11050
 10839.00000  527.16750   26.72580    0.02200    4.94760   55.77500   95.78230
 10839.50000  601.69320   27.87370    0.02400    4.79380   55.91620   95.74710
 10840.00000  605.54300   27.91390    0.02510    4.75850   56.16850   95.89950
 10840.50000  572.96010   29.23620    0.02630    4.75320   56.91080   96.05800
 10841.00000  532.48000   34.36150    0.02960    4.65970   57.02400   96.22710
 10841.50000  506.09690   37.87920    0.03540    4.47720   57.08630   96.38590
 10842.00000  498.01510   41.39230    0.04260    4.28990   57.22530   96.40610
 10842.50000  500.69480   39.15270    0.04720    4.18700   57.38160   96.48490
 10843.00000  503.08580   35.17940    0.04340    4.24510   57.33620   96.81000
 10843.50000  505.49490   31.01250    0.03380    4.34100   57.26190   96.96500
 10844.00000  510.58540   29.29290    0.02890    4.44080   57.38410   97.15830
 10844.50000  525.32750   30.24310    0.02980    4.47660   57.12860   97.37510
 10845.00000  538.29280   34.80090    0.03250    4.39510   57.01640   97.62390
 10845.50000  546.22090   38.72070    0.03670    4.26010   57.18050   97.45940
 10846.00000  538.41840   40.72600    0.04230    4.15530   57.41690   97.81800
 10846.50000  526.80120   40.23190    0.04640    4.06800   57.75080   98.35770
 10847.00000  515.37590   37.70740    0.04530    4.12440   58.24900   98.65370
 10847.50000  511.73110   37.12120    0.04480    4.28090   58.38410   98.63450
 10848.00000  514.61570   37.23440    0.04220    4.36650   58.72780   98.63390
 10848.50000  527.34410   38.72350    0.04270    4.34960   58.69150   98.69790
 10849.00000  539.53830   40.90620    0.04480    4.18920   58.57460   98.84170
 10849.50000  565.92790   44.09620    0.04730    4.03450   58.07050   98.51270
 10850.00000  584.81630   45.47620    0.05590    3.99820   57.42260   98.05220
 10850.50000  592.21230   44.38990    0.06320    4.08050   57.07440   97.37650
 10851.00000  591.46330   37.42350    0.05990    4.45560   56.93300   97.27060
 10851.50000  581.24690   30.96510    0.04990    4.88940   56.69470   97.14120
 10852.00000  567.66640   26.85270    0.03820    5.04460   56.13720   96.80820
 10852.50000  565.03480   25.11830    0.02930    5.06610   55.62240   96.47530
 10853.00000  565.38980   26.74310    0.02320    4.90000   55.54220   96.09780
 10853.50000  569.35800   30.54320    0.02340    4.67810   55.39420   95.75300
 10854.00000  559.29330   36.07120    0.02820    4.49200   55.33120   95.19030
 10854.50000  548.35830   36.91390    0.03190    4.38650   55.48570   95.03560
 10855.00000  506.04460   32.55140    0.02840    4.36350   55.67270   95.15160
 10855.50000  456.25520   28.62090    0.02230    4.46000   55.43410   95.70760
 10856.00000  413.60060   30.03000    0.01850    4.57790   57.60210   96.54530
 10856.50000  332.39250   34.10710    0.02040    4.67960   57.85130   97.34450
 10857.00000  258.73870   34.19860    0.02300    4.70060   59.57240   98.68420
 10857.50000  204.45330   30.82870    0.02180    4.74090   60.95230  100.11480
 10858.00000  147.67480   28.39390    0.02200    4.66520   61.88110  102.36450
 10858.50000  106.49280   34.58210    0.02400    4.46120   63.40920  103.94180
 10859.00000   76.76370   54.07900    0.04240    4.15650   64.08370  105.60390
 10859.50000   57.66930   75.01880    0.06360    3.83860   64.87110  107.00920
 10860.00000   49.04980   87.19110    0.10230    3.80290   65.82930  108.58670
 10860.50000   43.01970   80.40800    0.11360    3.85150   67.08710  109.31510
 10861.00000   38.85900   70.17060    0.09570    3.93270   67.78130  110.04350
 10861.50000   37.36070   70.98530    0.08770    3.87040   68.07840  110.83150
 10862.00000   35.99790   74.84660    0.09250    3.76960   68.47230  111.67600
 10862.50000   34.68270   75.15750    0.10370    3.68380   69.50000  112.59740
 10863.00000   33.41650   73.72880    0.10530    3.68960   69.67960  113.13400
 10863.50000   32.18220   78.84820    0.10690    3.71870   69.60180  113.05660
 10864.00000   31.04240   91.39260    0.12050    3.74780   69.23910  112.95660
 10864.50000   30.55130  102.12440    0.13640    3.80480   67.88300  112.79000
 10865.00000   30.09900  110.23060    0.13780    3.82650   67.16240  112.05040
 10865.50000   30.69290  112.31240    0.13490    3.73330   66.48330  111.11150
 10866.00000   31.67150  105.49990    0.12020    3.69220   66.62550  110.12900
 10866.50000   32.67280   90.25920    0.10450    3.80950   66.03840  109.15350
 10867.00000   33.70420   70.69350    0.08380    4.11090   65.47050  108.42190
 10867.50000   33.17790   57.87050    0.06850    4.41040   65.28900  107.66670
 10868.00000   31.20760   57.93080    0.06630    4.44630   65.20500  107.38450
 10868.50000   29.62450   64.78400    0.07000    4.31120   64.75440  107.05070
 10869.00000   28.29160   72.92220    0.09050    4.00420   64.83910  106.45020
 10869.50000   28.44860   77.14130    0.10300    3.81900   65.80310  106.30770
 10870.00000   29.29860   78.79190    0.10470    3.74680   65.78880  106.18220
 10870.50000   30.95900   75.65680    0.10020    3.69000   65.48250  105.59850
 10871.00000   33.66270   72.16540    0.08910    3.63320   63.91460  104.89010
