~Version ---------------------------------------------------
VERS.   2.0 : CWLS log ASCII Standard -VERSION 2.0
WRAP.    NO : One line per depth step
DLM . SPACE : Column Data Section Delimiter
~Well ------------------------------------------------------
STRT .F                   65.0 : START DEPTH
STOP .F                12274.0 : STOP DEPTH
STEP .F                    0.5 : STEP
NULL .                -9999.25 : NULL VALUE
COMP .                         : COMPANY
WELL .                         : WELL
FLD  .                         : FIELD
LOC  .                         : LOCATION
PROV .                         : PROVINCE
CNTY .                         : COUNTY
STAT .                         : STATE
CTRY .                         : COUNTRY
SRVC .                         : SERVICE COMPANY
DATE .                         : DATE
UWI  .                         : UNIQUE WELL ID
API  .                         : API NUMBER
SLAT .WGS84 2.4587995371436975 : SURFACE LATITUDE
SLON .WGS84  8.058609648570993 : SURFACE LONGITUDE
DATUM.F                    nan : DEPTH DATUM ELEV
~Curve Information -----------------------------------------
DEPT   .F     : 1 MEASURED DEPTH
AF60   .OHMM  : ARRAY INDUCTION FOUR FOOT RESISTIVITY A60
SGRDD  .GAPI  : SPECTROSCOPY GAMMA RAY FROM DENSITY LOG
TNPH_LS.DEC   : THERMAL NEUTRON POROSITY [LIMESTONE]
PEFZ   .B/E   : HRDD STANDARD RESOLUTION FORMATION PHOTOELECTRIC FACTOR
DTCO   .US/F  : DELTA-T COMPRESSIONAL
DTSM   .US/F  : DELTA-T SHEAR
~Params ----------------------------------------------------
~Other -----------------------------------------------------
~ASCII -----------------------------------------------------
# ...
 10412.50000  154.33100   87.63880    0.09890    3.59860   64.09770  105.05290
 10413.00000  149.05560   95.52200    0.10430    3.59240   64.56360  105.42640
 10413.50000  147.99490   98.60890    0.10730    3.58110   64.66700  106.26160
 10414.00000  132.24520   98.63770    0.10940    3.49670   64.72560  106.72810
 10414.50000  111.78250   96.89540    0.10660    3.40800   64.74100  107.18390
 10415.00000   91.08800   98.57960    0.10410    3.41340   64.74770  107.24020
 10415.50000   74.27150  103.11600    0.10200    3.51240   64.43930  107.29880
 10416.00000   59.17960   99.06830    0.09990    3.63300   64.22840  107.37250
 10416.50000   46.60240   97.00200    0.09790    3.70840   64.41400  107.43540
 10417.00000   36.60340   96.19750    0.09610    3.66570   64.24860  107.33640
 10417.50000   28.74810  101.63370    0.09550    3.60770   63.99850  107.03890
 10418.00000   22.58570  100.55740    0.10040    3.61030   63.82350  106.94720
 10418.50000   17.73140   91.97740    0.10880    3.64440   63.68860  106.38760
 10419.00000   13.92890   79.55620    0.09570    3.61930   63.43200  105.51160
 10419.50000   10.93210   73.33930    0.09040    3.56810   62.65880  105.16530
 10420.00000    9.18330   75.61530    0.08480    3.47750   62.22290  104.50660
 10420.50000    8.90140   72.10700    0.08830    3.46710   61.92080  103.95030
 10421.00000    8.93870   69.36220    0.08600    3.45110   62.03490  103.52560
 10421.50000    9.08720   65.53040    0.08380    3.43520   61.71370  103.11020
 10422.00000    9.15980   65.47420    0.08090    3.41260   61.56300  102.69470
 10422.50000    9.03040   63.97540    0.07990    3.38610   61.55260  102.77610
 10423.00000    8.50850   61.39780    0.06900    3.38360   61.97270  102.80390
 10423.50000    7.88790   61.28900    0.06380    3.37230   62.19110  102.81530
 10424.00000    7.31800   62.68590    0.06450    3.27120   62.51200  103.77120
 10424.50000    7.00820   61.58000    0.07370    3.15410   62.61540  104.41600
 10425.00000    6.84330   60.83210    0.08140    3.12370   63.12350  104.60640
 10425.50000    7.08590   63.10160    0.08730    3.37700   63.55260  105.04740
 10426.00000    7.65250   66.85170    0.09160    3.99810   63.78890  105.42580
 10426.50000    8.96060   67.73950    0.09170    4.65000   63.95110  106.02680
 10427.00000   11.06670   69.27650    0.08970    4.86330   64.09520  106.54600
 10427.50000   13.73290   70.86460    0.08920    4.48650   64.24640  107.06510
 10428.00000   17.58130   73.93000    0.08740    3.97500   64.14920  106.72900
 10428.50000   22.14630   78.72240    0.08640    3.66580   64.02840  106.13380
 10429.00000   26.00410   98.32320    0.09330    3.56880   64.05480  105.70110
 10429.50000   28.95020  114.83070    0.10520    3.48530   63.85180  105.14470
 10430.00000   30.87420  116.57700    0.10860    3.38920   63.43040  104.20200
 10430.50000   33.63550  103.08700    0.09950    3.30170   62.49320  103.66440
 10431.00000   36.74350   86.72550    0.08460    3.25400   61.89560  103.14540
 10431.50000   41.83060   81.40430    0.08540    3.28010   61.33550  102.37760
 10432.00000   51.69040   86.95550    0.08860    3.53290   60.82050  101.56530
 10432.50000   64.68310   96.14750    0.09420    3.94200   60.39690  100.69850
 10433.00000   80.38650   99.67320    0.09470    4.42180   59.77180  100.09260
 10433.50000   92.34190   91.50670    0.08390    4.79530   59.60370   99.94810
 10434.00000   89.57040   72.86480    0.06560    4.79080   59.46190   99.66220
 10434.50000   79.50760   65.31810    0.05290    4.62810   59.27650   99.38610
 10435.00000   67.08980   69.35590    0.05330    4.40300   59.10450   98.86020
 10435.50000   58.30020   72.49150    0.05740    4.25420   59.25760   98.85550
 10436.00000   50.04410   72.55140    0.05850    4.19840   59.87030   99.00130
 10436.50000   42.92080   73.51960    0.05880    4.18200   60.09280   99.20480
 10437.00000   36.69740   77.50520    0.06210    4.14660   60.23500   99.66380
 10437.50000   31.50970   75.40220    0.06740    4.11120   60.62650  100.09890
 10438.00000   27.70260   68.26430    0.06440    4.02100   61.12050  100.54200
 10438.50000   25.51920   62.13790    0.06240    3.90740   61.51620  100.98500
 10439.00000   24.98520   62.07570    0.06390    3.79700   61.75870  101.40510
 10439.50000   25.72790   65.16020    0.06990    3.76090   61.99530  101.88620
 10440.00000   27.52360   70.87770    0.07340    3.79450   62.25320  102.48920
 10440.50000   29.83380   81.61820    0.07610    3.83390   62.62330  103.01200
 10441.00000   32.94490   92.82180    0.07960    3.75830   63.26110  103.48220
 10441.50000   36.65990   93.57150    0.08860    3.60460   63.22340  103.93750
 10442.00000   41.82430   87.58230    0.08520    3.44670   63.48650  104.32340
 10442.50000   47.29370   82.39200    0.08150    3.35520   63.70780  104.40250
 10443.00000   53.54650   89.75520    0.08070    3.35950   63.26190  104.19270
 10443.50000   60.99040  101.44650    0.09130    3.43630   62.93600  103.73620
 10444.00000   70.87560  105.98900    0.10270    3.52370   62.49640  103.27970
 10444.50000   82.05120  108.92920    0.11090    3.67470   61.98220  102.82910
 10445.00000   92.21110  107.06360    0.11030    3.92740   61.39740  102.55190
 10445.50000  100.98220  105.93950    0.09880    4.13130   61.01480  102.09110
 10446.00000  102.53140   97.48010    0.08580    4.09770   60.62720  101.42450
 10446.50000  102.15170   88.92440    0.07750    3.92770   60.24460  101.03020
 10447.00000  104.07800   82.28620    0.07300    3.75180   60.08500  101.26100
 10447.50000  104.24860   81.65390    0.07680    3.74270   60.67080  101.60550
 10448.00000  103.64560   80.35570    0.07970    3.83760   61.64450  102.19770
 10448.50000  104.93410   79.29610    0.07680    3.97260   62.00670  102.82920
 10449.00000  110.41460   82.86820    0.07390    4.02900   61.84080  103.23830
 10449.50000  118.21100   87.89700    0.08220    4.08540   61.64620  103.53280
 10450.00000  128.13590   91.41090    0.08820    4.10310   61.33220  103.60430
 10450.50000  139.31270   93.81140    0.09250    4.11060   60.95740  103.50520
 10451.00000  165.79820  103.18350    0.10310    4.11990   60.45180  102.37500
 10451.50000  188.33630  101.20850    0.11080    4.23610   59.98920  102.13880
 10452.00000  214.89990   83.03280    0.10170    4.56100   59.64000  101.64000
 10452.50000  238.65450   61.27250    0.07450    4.84750   59.56980  101.53840
 10453.00000  245.66630   49.34380    0.05220    5.08620   59.67250  101.03930
 10453.50000  229.74750   51.94840    0.04560    5.06430   59.48980  100.97750
 10454.00000  211.85040   60.82360    0.04970    4.87500   60.42760  100.98900
 10454.50000  203.99410   73.01870    0.05920    4.59190   60.51230  101.11900
 10455.00000  198.95340   84.57380    0.07470    4.27290   60.56010  101.24910
 10455.50000  192.58620   92.73420    0.08880    4.04340   60.66050  101.57980
 10456.00000  186.22200   92.77460    0.09340    3.90700   60.15170  102.30020
 10456.50000  183.36410   89.47710    0.09210    3.89620   59.94230  101.96510
 10457.00000  184.84830   84.07910    0.08100    3.89680   60.27070  101.58530
 10457.50000  193.69060   80.08020    0.07930    3.94580   60.50690  101.64490
 10458.00000  216.10950   76.31250    0.07740    4.05000   60.68190  101.64860
 10458.50000  241.78720   72.84510    0.07410    4.22360   60.53570  101.65230
 10459.00000  265.29210   67.05920    0.06210    4.36360   60.47500  101.42050
 10459.50000  281.43480   65.91810    0.05430    4.36380   60.30440  101.14860
 10460.00000  292.77910   71.28570    0.05220    4.24620   59.94830  100.97320
 10460.50000  301.15350   82.04800    0.06630    4.03460   59.88820  100.89530
 10461.00000  311.48510   88.59710    0.08650    3.92050   59.76560  100.81740
 10461.50000  326.61540   84.37290    0.08920    3.96670   59.51090  100.87120
 10462.00000  344.32440   68.97090    0.07480    4.20360   59.49430  100.65990
 10462.50000  361.77160   56.23780    0.06100    4.46780   59.42910  100.39670
 10463.00000  361.64890   52.97520    0.04680    4.63050   59.51520  100.54120
