~Version ---------------------------------------------------
VERS.   2.0 : CWLS log ASCII Standard -VERSION 2.0
WRAP.    NO : One line per depth step
DLM . SPACE : Column Data Section Delimiter
~Well ------------------------------------------------------
STRT .F                   65.0 : START DEPTH
STOP .F                12274.0 : STOP DEPTH
STEP .F                    0.5 : STEP
NULL .                -9999.25 : NULL VALUE
COMP .                         : COMPANY
WELL .                         : WELL
FLD  .                         : FIELD
LOC  .                         : LOCATION
PROV .                         : PROVINCE
CNTY .                         : COUNTY
STAT .                         : STATE
CTRY .                         : COUNTRY
SRVC .                         : SERVICE COMPANY
DATE .                         : DATE
UWI  .                         : UNIQUE WELL ID
API  .                         : API NUMBER
SLAT .WGS84 2.4587995371436975 : SURFACE LATITUDE
SLON .WGS84  8.058609648570993 : SURFACE LONGITUDE
DATUM.F                    nan : DEPTH DATUM ELEV
~Curve Information -----------------------------------------
DEPT   .F     : 1 MEASURED DEPTH
AF60   .OHMM  : ARRAY INDUCTION FOUR FOOT RESISTIVITY A60
SGRDD  .GAPI  : SPECTROSCOPY GAMMA RAY FROM DENSITY LOG
TNPH_LS.DEC   : THERMAL NEUTRON POROSITY [LIMESTONE]
PEFZ   .B/E   : HRDD STANDARD RESOLUTION FORMATION PHOTOELECTRIC FACTOR
DTCO   .US/F  : DELTA-T COMPRESSIONAL
DTSM   .US/F  : DELTA-T SHEAR
~Params ----------------------------------------------------
~Other -----------------------------------------------------
~ASCII -----------------------------------------------------
# ...
 12248.50000   94.91410   42.15280    0.09850    4.42920   69.75650  115.19110
 12249.00000   80.91780   42.74930    0.07990    4.56240   69.62990  115.03720
 12249.50000   70.60460   42.77840    0.07540    4.52270   69.73680  115.02260
 12250.00000   61.54800   42.30330    0.08670    4.38600   69.76640  115.01450
 12250.50000   57.90490   41.88430    0.10780    4.26420   69.76290  115.08550
 12251.00000   59.44700   42.58570    0.10990    4.25480   69.77580  115.20000
 12251.50000   65.26300   42.04250    0.09940    4.26040   -9999.25   -9999.25
 12252.00000   73.66810   40.85430    0.09270    4.27040   -9999.25   -9999.25
 12252.50000   81.83880   40.30090    0.09020    4.27750   -9999.25   -9999.25
 12253.00000   83.71200   41.60700    0.09470    4.28510   -9999.25   -9999.25
 12253.50000   80.98710   45.24840    0.11240    4.32630   -9999.25   -9999.25
 12254.00000   85.79350   48.00860    0.13760    4.57950   -9999.25   -9999.25
 12254.50000  105.36770   47.16690    0.12310    4.87780   -9999.25   -9999.25
 12255.00000  129.50430   45.32000    0.09550    5.18380   -9999.25   -9999.25
 12255.50000  159.18900   45.37120    0.07110    5.39690   -9999.25   -9999.25
 12256.00000  209.22010   46.06900    0.06280    5.44700   -9999.25   -9999.25
 12256.50000  267.26100   44.86070    0.06220    5.30140   -9999.25   -9999.25
 12257.00000  301.96320   44.09770    0.07680    4.97410   -9999.25   -9999.25
 12257.50000  295.66920   43.62780    0.11120    4.59060   -9999.25   -9999.25
 12258.00000  232.58820   44.78650    0.13400    4.43410   -9999.25   -9999.25
 12258.50000  181.38160   44.27930    0.13240    4.32130   -9999.25   -9999.25
 12259.00000  150.21390   45.02170    0.12770    4.23440   -9999.25   -9999.25
 12259.50000  126.67510   44.96050    0.13150    4.13700   -9999.25   -9999.25
 12260.00000  108.10510   44.93020    0.12890    4.08180   -9999.25   -9999.25
 12260.50000   92.56440   43.93400    0.12810    4.02830   -9999.25   -9999.25
 12261.00000   78.74350   43.39390    0.12820    4.05580   -9999.25   -9999.25
 12261.50000   66.85030   43.32950    0.12980    4.05580   -9999.25   -9999.25
 12262.00000   54.29610   43.82350    0.12850    3.97730   -9999.25   -9999.25
 12262.50000   46.38050   44.78140    0.12960    3.86110   -9999.25   -9999.25
 12263.00000   40.49150   44.82950    0.12800    3.77740   -9999.25   -9999.25
 12263.50000   36.55950   45.52380    0.12610    3.63950   -9999.25   -9999.25
 12264.00000   34.93470   45.36430    0.12670    3.49580   -9999.25   -9999.25
 12264.50000   34.73920   45.27840    0.12460    3.35410   -9999.25   -9999.25
 12265.00000   35.45470   44.32630    0.12370    3.31900   -9999.25   -9999.25
 12265.50000   36.23420   44.01730    0.12380    3.33010   -9999.25   -9999.25
 12266.00000   36.02250   43.95240    0.12400    3.37430   -9999.25   -9999.25
 12266.50000   35.74720   -9999.25    0.12560    3.54900   -9999.25   -9999.25
 12267.00000   35.09430   -9999.25    0.12900    3.88170   -9999.25   -9999.25
 12267.50000   32.37590   -9999.25    0.12920    4.32840   -9999.25   -9999.25
 12268.00000   30.83690   -9999.25    0.12830    4.56670   -9999.25   -9999.25
 12268.50000   29.64560   -9999.25    0.12750    4.70760   -9999.25   -9999.25
 12269.00000   28.83950   -9999.25    0.12470    4.78690   -9999.25   -9999.25
 12269.50000   29.22710   -9999.25    0.12330    4.83130   -9999.25   -9999.25
 12270.00000   31.04550   -9999.25    0.12240    4.79630   -9999.25   -9999.25
 12270.50000   32.75170   -9999.25    0.12350    4.74100   -9999.25   -9999.25
 12271.00000   34.51500   -9999.25    0.12540    4.92780   -9999.25   -9999.25
 12271.50000   36.30560   -9999.25    0.12730    5.20730   -9999.25   -9999.25
 12272.00000   37.54110   -9999.25    0.12720    5.53010   -9999.25   -9999.25
 12272.50000   38.55840   -9999.25    0.12450    5.74380   -9999.25   -9999.25
 12273.00000   39.13830   -9999.25    0.12310    5.78710   -9999.25   -9999.25
 12273.50000   39.53980   -9999.25    0.12270    5.80670   -9999.25   -9999.25
 12274.00000   39.72690   -9999.25    0.12320    5.83300   -9999.25   -9999.25
