~Version ---------------------------------------------------
VERS.   2.0 : CWLS log ASCII Standard -VERSION 2.0
WRAP.    NO : One line per depth step
DLM . SPACE : Column Data Section Delimiter
~Well ------------------------------------------------------
STRT .F                   65.0 : START DEPTH
STOP .F                12274.0 : STOP DEPTH
STEP .F                    0.5 : STEP
NULL .                -9999.25 : NULL VALUE
COMP .                         : COMPANY
WELL .                         : WELL
FLD  .                         : FIELD
LOC  .                         : LOCATION
PROV .                         : PROVINCE
CNTY .                         : COUNTY
STAT .                         : STATE
CTRY .                         : COUNTRY
SRVC .                         : SERVICE COMPANY
DATE .                         : DATE
UWI  .                         : UNIQUE WELL ID
API  .                         : API NUMBER
SLAT .WGS84 2.4587995371436975 : SURFACE LATITUDE
SLON .WGS84  8.058609648570993 : SURFACE LONGITUDE
DATUM.F                    nan : DEPTH DATUM ELEV
~Curve Information -----------------------------------------
DEPT   .F     : 1 MEASURED DEPTH
AF60   .OHMM  : ARRAY INDUCTION FOUR FOOT RESISTIVITY A60
SGRDD  .GAPI  : SPECTROSCOPY GAMMA RAY FROM DENSITY LOG
TNPH_LS.DEC   : THERMAL NEUTRON POROSITY [LIMESTONE]
PEFZ   .B/E   : HRDD STANDARD RESOLUTION FORMATION PHOTOELECTRIC FACTOR
DTCO   .US/F  : DELTA-T COMPRESSIONAL
DTSM   .US/F  : DELTA-T SHEAR
~Params ----------------------------------------------------
~Other -----------------------------------------------------
~ASCII -----------------------------------------------------
# ...
 9180.50000   -9999.25  108.12450    0.05810   -9999.25   -9999.25   -9999.25
 9181.00000   -9999.25  108.35790    0.05780   -9999.25   -9999.25   -9999.25
 9181.50000   -9999.25  110.64050    0.05770   -9999.25   -9999.25   -9999.25
 9182.00000   -9999.25  110.43780    0.05770   -9999.25   -9999.25   -9999.25
 9182.50000   -9999.25  111.16490    0.05680   -9999.25   -9999.25   -9999.25
 9183.00000   -9999.25  109.45950    0.06340   -9999.25   -9999.25   -9999.25
 9183.50000   -9999.25  113.08240    0.06400   -9999.25   -9999.25   -9999.25
 9184.00000   -9999.25  113.53930    0.06220   -9999.25   -9999.25   -9999.25
 9184.50000   -9999.25  113.63990    0.05990   -9999.25   -9999.25   -9999.25
 9185.00000   -9999.25  112.07120    0.06400   -9999.25   -9999.25   -9999.25
 9185.50000   -9999.25  111.51570    0.06610   -9999.25   -9999.25   -9999.25
 9186.00000   -9999.25  110.76970    0.06180   -9999.25   -9999.25   -9999.25
 9186.50000   -9999.25  110.54350    0.05420   -9999.25   -9999.25   -9999.25
 9187.00000   -9999.25  110.72970    0.05290   -9999.25   -9999.25   -9999.25
 9187.50000   -9999.25  111.20730    0.05380   -9999.25   -9999.25   -9999.25
 9188.00000   -9999.25  111.60980    0.06490   -9999.25   -9999.25   -9999.25
 9188.50000   -9999.25  111.74630    0.07820   -9999.25   -9999.25   -9999.25
 9189.00000   -9999.25  111.56550    0.08690   -9999.25   -9999.25   -9999.25
 9189.50000   -9999.25  111.74820    0.08480   -9999.25   -9999.25   -9999.25
 9190.00000   -9999.25  110.57280    0.07250   -9999.25   -9999.25   -9999.25
 9190.50000   -9999.25  109.34480    0.05880   -9999.25   -9999.25   -9999.25
 9191.00000   -9999.25  108.81160    0.05400   -9999.25   -9999.25   -9999.25
 9191.50000   -9999.25  107.09600    0.06280   -9999.25   -9999.25   -9999.25
 9192.00000   -9999.25  105.78050    0.07010   -9999.25   -9999.25   -9999.25
 9192.50000   -9999.25  106.04790    0.07890   -9999.25   -9999.25   -9999.25
 9193.00000   -9999.25  108.40320    0.09430   -9999.25   -9999.25   -9999.25
 9193.50000   -9999.25  110.78950    0.14850   -9999.25   -9999.25   -9999.25
 9194.00000   -9999.25  111.49620    0.21410   -9999.25   -9999.25   -9999.25
 9194.50000   -9999.25  111.71400    0.20810   -9999.25   -9999.25   -9999.25
 9195.00000   -9999.25  111.46480    0.18000   -9999.25   -9999.25   -9999.25
 9195.50000   -9999.25  110.29790    0.17330   -9999.25   -9999.25   -9999.25
 9196.00000   -9999.25  109.70270    0.15270   -9999.25   -9999.25   -9999.25
 9196.50000   -9999.25  108.33350    0.15450   -9999.25   -9999.25   -9999.25
 9197.00000   -9999.25  108.84270    0.15030   -9999.25   -9999.25   -9999.25
 9197.50000   -9999.25  109.06530    0.15980   -9999.25   -9999.25   -9999.25
 9198.00000   -9999.25  111.28530    0.15790   -9999.25   -9999.25   -9999.25
 9198.50000   -9999.25  106.14450    0.16590   -9999.25   -9999.25   -9999.25
 9199.00000   -9999.25  101.52900    0.16040   -9999.25   -9999.25   -9999.25
 9199.50000   -9999.25   99.30750    0.16830   -9999.25   -9999.25   -9999.25
 9200.00000   -9999.25   92.28180    0.17310   -9999.25   -9999.25   -9999.25
 9200.50000   -9999.25   80.86470    0.17510   -9999.25   -9999.25   -9999.25
 9201.00000   -9999.25   59.91060    0.16200   -9999.25   -9999.25   -9999.25
 9201.50000   -9999.25   46.94670    0.15660   -9999.25   -9999.25   -9999.25
 9202.00000   -9999.25   39.52270    0.15310   -9999.25   -9999.25   -9999.25
 9202.50000   -9999.25   33.07450    0.15200   -9999.25   -9999.25   -9999.25
 9203.00000   -9999.25   30.27110    0.14350   -9999.25   -9999.25   -9999.25
 9203.50000   -9999.25   30.86470    0.14280   -9999.25   -9999.25   -9999.25
 9204.00000   -9999.25   33.08710    0.14290   -9999.25   -9999.25   -9999.25
 9204.50000   -9999.25   35.11720    0.14300   -9999.25   -9999.25   -9999.25
 9205.00000   -9999.25   37.60040    0.14140   -9999.25   -9999.25   -9999.25
 9205.50000   -9999.25   42.83130    0.13530   -9999.25   -9999.25   -9999.25
 9206.00000   -9999.25   47.27060    0.14040   -9999.25   -9999.25   -9999.25
 9206.50000   -9999.25   55.20770    0.14610   -9999.25   -9999.25   -9999.25
 9207.00000   -9999.25   65.01420    0.15590   -9999.25   -9999.25   -9999.25
 9207.50000   -9999.25   69.59220    0.15500   -9999.25   -9999.25   -9999.25
 9208.00000   -9999.25   65.69110    0.14940   -9999.25   -9999.25   -9999.25
 9208.50000   -9999.25   60.13200    0.15030   -9999.25   -9999.25   -9999.25
 9209.00000   -9999.25   59.98860    0.14710   -9999.25   -9999.25   -9999.25
 9209.50000   -9999.25   63.89910    0.15820   -9999.25   -9999.25   -9999.25
 9210.00000   -9999.25   70.44690    0.15860   -9999.25   -9999.25   -9999.25
 9210.50000   -9999.25   76.55880    0.16660   -9999.25   -9999.25   -9999.25
 9211.00000   -9999.25   78.95940    0.15350   -9999.25   -9999.25   -9999.25
 9211.50000   -9999.25   76.16020    0.16160   -9999.25   -9999.25   -9999.25
 9212.00000   -9999.25   72.06850    0.16340   -9999.25   -9999.25   -9999.25
 9212.50000   -9999.25   71.66520    0.16980   -9999.25   -9999.25   -9999.25
 9213.00000   -9999.25   71.65540    0.17600   -9999.25   -9999.25   -9999.25
 9213.50000   -9999.25   75.20930    0.19290   -9999.25   -9999.25   -9999.25
 9214.00000   -9999.25   82.19170    0.21210   -9999.25   -9999.25   -9999.25
 9214.50000   -9999.25   86.15680    0.20010   -9999.25   -9999.25   -9999.25
 9215.00000  606.18400   80.71090    0.17400    6.50580   66.54650  101.71080
 9215.50000  209.85700   69.56330    0.18440    6.28250   66.33420  103.20850
 9216.00000   76.87570   63.50600    0.16830    6.24540   66.16320  105.58130
 9216.50000   36.80330   69.97620    0.17330    6.24200   66.21450  106.22960
 9217.00000   35.30620   84.30250    0.19100    6.24350   67.15310  106.30130
 9217.50000   25.73950   94.82720    0.20800    6.24440   66.98060  106.39960
 9218.00000   23.52370  100.67430    0.19880    6.25820   66.68900  106.54930
 9218.50000   33.73310  105.41230    0.18090    6.26450   66.04470  107.18860
 9219.00000   38.82860  108.98580    0.17940    6.25930   65.63780  107.17950
 9219.50000   43.42390  115.42620    0.18040    6.25640   65.47990  106.53010
 9220.00000   47.37950  126.86520    0.19550    6.27750   64.42290  105.16780
 9220.50000   57.84400  132.90480    0.19820    6.29870   65.05550  105.36780
 9221.00000   76.36350  118.87230    0.18350    6.32850   66.47480  106.58340
 9221.50000  100.53220   96.47150    0.15480    6.34140   67.08310  107.52180
 9222.00000  147.16760   83.15660    0.14050    6.33640   68.12840  109.10610
 9222.50000  196.49270   89.70350    0.14320    6.32050   68.71410  110.18970
 9223.00000  234.81620  103.85400    0.16750    6.29140   69.62610  111.47570
 9223.50000  286.11140  107.39750    0.17880    6.23480   70.11230  115.31670
 9224.00000  166.22880  106.61570    0.18290    6.17740   70.54830  115.86060
 9224.50000  136.60960  109.71180    0.19350    6.12510   70.67660  116.40450
 9225.00000  127.44740  121.32100    0.19080    6.08190   70.60280  116.30810
 9225.50000  128.98830  130.67960    0.20330    6.02220   70.30970  115.63920
 9226.00000  129.98070  137.34840    0.20890    5.96260   69.70600  114.30920
 9226.50000  132.60290  140.86630    0.22690    5.87760   68.80090  113.43480
 9227.00000  147.84650  138.36400    0.22740    5.73710   68.28320  114.30030
 9227.50000  170.03120  137.14400    0.21480    5.63680   67.51530  114.62910
 9228.00000  190.58930  136.82220    0.19670    5.61640   67.18500  114.06640
 9228.50000  207.10230  135.18670    0.19410    5.70130   66.53720  113.51420
 9229.00000  210.00720  118.51980    0.19530    5.80110   66.33240  112.96210
 9229.50000  212.22210   96.69930    0.18860    5.83870   66.30800  113.22330
 9230.00000  208.17360   76.83690    0.17130    5.80950   66.12880  113.45180
 9230.50000  201.61430   72.52980    0.15700    5.76680   66.10470  113.37580
 9231.00000  191.20070   82.19960    0.15100    5.72790   66.88840  112.63180
 9231.50000  182.99380   95.67430    0.15860    5.64470   67.03440  111.44170
