~Version ---------------------------------------------------
VERS.   2.0 : CWLS log ASCII Standard -VERSION 2.0
WRAP.    NO : One line per depth step
DLM . SPACE : Column Data Section Delimiter
~Well ------------------------------------------------------
STRT .F                   65.0 : START DEPTH
STOP .F                12274.0 : STOP DEPTH
STEP .F                    0.5 : STEP
NULL .                -9999.25 : NULL VALUE
COMP .                         : COMPANY
WELL .                         : WELL
FLD  .                         : FIELD
LOC  .                         : LOCATION
PROV .                         : PROVINCE
CNTY .                         : COUNTY
STAT .                         : STATE
CTRY .                         : COUNTRY
SRVC .                         : SERVICE COMPANY
DATE .                         : DATE
UWI  .                         : UNIQUE WELL ID
API  .                         : API NUMBER
SLAT .WGS84 2.4587995371436975 : SURFACE LATITUDE
SLON .WGS84  8.058609648570993 : SURFACE LONGITUDE
DATUM.F                    nan : DEPTH DATUM ELEV
~Curve Information -----------------------------------------
DEPT   .F     : 1 MEASURED DEPTH
AF60   .OHMM  : ARRAY INDUCTION FOUR FOOT RESISTIVITY A60
SGRDD  .GAPI  : SPECTROSCOPY GAMMA RAY FROM DENSITY LOG
TNPH_LS.DEC   : THERMAL NEUTRON POROSITY [LIMESTONE]
PEFZ   .B/E   : HRDD STANDARD RESOLUTION FORMATION PHOTOELECTRIC FACTOR
DTCO   .US/F  : DELTA-T COMPRESSIONAL
DTSM   .US/F  : DELTA-T SHEAR
~Params ----------------------------------------------------
~Other -----------------------------------------------------
~ASCII -----------------------------------------------------
# ...
 9798.50000  662.17120   17.49600    0.00430    3.87300   51.71030   89.14720
 9799.00000  618.31150   17.57260    0.00390    4.13920   52.00910   89.37840
 9799.50000  583.87550   19.02530    0.00360    4.39490   52.19170   89.60970
 9800.00000  565.84060   19.42010    0.00400    4.57110   52.37300   89.64790
 9800.50000  569.73880   20.94650    0.00480    4.62690   52.58080   89.48360
 9801.00000  616.01470   22.20500    0.00790    4.53760   52.95920   90.37140
 9801.50000  660.56930   24.53300    0.00950    4.29360   53.15290   90.35350
 9802.00000  747.63180   26.85720    0.01120    4.18960   53.05050   90.54920
 9802.50000  842.84340   27.25870    0.01170    4.24640   52.97470   90.75650
 9803.00000  931.24710   26.61470    0.01070    4.41480   53.00140   91.26000
 9803.50000  990.76570   25.84510    0.01100    4.52740   52.97270   91.69790
 9804.00000 1008.26150   27.79870    0.01170    4.59000   52.91360   91.91430
 9804.50000  934.39650   32.73150    0.01220    4.66820   52.62420   92.20400
 9805.00000  855.31920   36.52700    0.01270    4.82650   53.02140   92.49370
 9805.50000  808.40730   36.12720    0.01310    4.92020   53.36710   92.74000
 9806.00000  810.64260   33.26570    0.01250    4.89000   53.18120   92.88040
 9806.50000  841.50410   31.61640    0.01370    4.82370   53.00600   93.12500
 9807.00000  902.42070   32.14300    0.01360    4.77350   52.88660   93.22810
 9807.50000 1035.46920   33.22750    0.01460    4.72320   52.65550   93.17930
 9808.00000 1218.61350   31.42830    0.01460    4.74320   52.59290   93.16270
 9808.50000 1427.00070   29.60310    0.01390    4.83350   52.34260   93.14980
 9809.00000 1603.67820   27.33440    0.01290    4.89760   51.91720   93.11560
 9809.50000 1684.17420   26.33690    0.01240    4.88490   51.83730   92.99130
 9810.00000 1686.44750   25.05670    0.01170    4.90200   51.59850   92.91630
 9810.50000 1589.74620   25.31590    0.01110    4.92780   51.37310   92.85080
 9811.00000 1479.47010   27.74650    0.01090    4.86990   51.35070   92.78530
 9811.50000 1428.28210   26.86260    0.01060    4.75290   51.45340   92.60670
 9812.00000 1445.04810   24.58300    0.01070    4.73610   51.74260   92.04610
 9812.50000 1462.07280   22.13930    0.01130    4.73560   51.91970   91.86880
 9813.00000 1532.48400   22.27150    0.01100    4.84170   53.23120   91.97200
 9813.50000 1628.34330   22.42770    0.01060    4.87500   53.15830   91.99650
 9814.00000 1693.86010   21.84790    0.01020    4.77790   53.25950   91.98180
 9814.50000 1687.53100   22.26370    0.01050    4.59400   52.56960   91.73020
 9815.00000 1614.21220   22.09300    0.01070    4.43900   53.46520   90.72830
 9815.50000 1487.16850   23.12280    0.01160    4.41040   53.53990   90.34890
 9816.00000 1334.23020   23.21910    0.01300    4.37340   53.92440   89.99200
 9816.50000 1216.94950   23.15480    0.01340    4.30590   54.04000   89.51860
 9817.00000 1108.66370   22.40510    0.01310    4.23780   54.04660   89.05500
 9817.50000 1016.66660   20.86800    0.01110    4.11450   53.31850   88.75400
 9818.00000  917.57980   20.60720    0.00880    4.08500   53.68350   88.67980
 9818.50000  821.99520   21.46750    0.00840    4.06590   53.11070   88.57940
 9819.00000  723.05510   23.80880    0.00820    4.03380   52.30580   88.62150
 9819.50000  679.53110   25.67840    0.00850    3.94580   53.23900   88.56650
 9820.00000  656.69320   25.83340    0.00870    3.89670   52.96180   88.41460
 9820.50000  658.16250   24.93030    0.00930    3.87690   53.36980   88.41920
 9821.00000  679.79340   25.31000    0.00870    3.97650   53.43980   88.37310
 9821.50000  715.96260   25.94300    0.00810    4.12810   53.24460   88.50960
 9822.00000  755.83750   26.22150    0.00850    4.31620   53.34300   88.48100
 9822.50000  791.21620   25.61120    0.01060    4.39100   53.42500   88.45240
 9823.00000  828.30080   28.80280    0.01160    4.37570   53.06450   88.42390
 9823.50000  865.69860   29.76520    0.01360    4.35100   52.83800   88.44310
 9824.00000  886.28990   30.25000    0.01460    4.26440   52.83540   88.70470
 9824.50000  902.74230   29.87220    0.01560    4.14790   52.66200   88.81170
 9825.00000  915.78730   30.71000    0.01630    4.00050   52.41120   88.79490
 9825.50000  918.49660   29.36760    0.01620    4.10310   52.50870   88.64160
 9826.00000  896.33250   25.69460    0.01380    4.27100   52.66420   88.62110
 9826.50000  862.31720   23.61490    0.01070    4.38760   52.78880   88.48400
 9827.00000  824.53840   26.17470    0.00830    4.31660   52.86110   88.59910
 9827.50000  779.64600   29.69220    0.00860    4.09960   52.71880   88.45450
 9828.00000  737.24910   29.83810    0.01000    3.99650   52.81110   88.48310
 9828.50000  701.38750   28.38450    0.01110    3.99870   53.40130   88.56610
 9829.00000  668.25890   31.64120    0.01110    3.98100   53.73360   88.64910
 9829.50000  634.81350   38.79800    0.01290    3.93820   53.80340   88.48030
 9830.00000  581.43040   42.98060    0.01500    3.88600   54.25140   88.56120
 9830.50000  525.92280   38.38150    0.01520    3.86450   54.69510   88.66970
 9831.00000  470.87320   31.08500    0.01210    3.96040   54.33540   88.77820
 9831.50000  430.64820   26.04590    0.01110    3.97540   54.75100   88.87710
 9832.00000  429.61130   29.89610    0.01550    3.90590   54.70210   88.87710
 9832.50000  442.39440   34.34980    0.02200    3.74540   54.62580   88.82660
 9833.00000  457.69340   38.45850    0.02710    3.47270   55.36240   88.75550
 9833.50000  456.10570   36.70110    0.03110    3.21680   55.25480   89.05240
 9834.00000  459.85460   36.17980    0.02810    3.07470   54.81150   89.21970
 9834.50000  459.08960   33.71690    0.02410    3.13290   54.39420   89.50240
 9835.00000  448.64290   32.02750    0.01840    3.31970   54.13060   89.78510
 9835.50000  481.62710   31.90680    0.01690    3.43210   54.04450   90.21810
 9836.00000  519.01390   34.99960    0.02010    3.47710   53.96270   90.12360
 9836.50000  561.38050   38.89760    0.02370    3.57400   53.87510   90.19800
 9837.00000  628.01820   38.99910    0.02610    3.71310   53.74360   90.69560
 9837.50000  718.28100   37.11580    0.02400    3.85000   53.49340   90.48800
 9838.00000  810.84340   32.85220    0.02190    3.98320   53.25210   90.71810
 9838.50000  892.69310   29.63640    0.02020    4.05680   53.22780   90.96630
 9839.00000 1033.53600   29.97160    0.01970    4.03530   53.36090   91.54590
 9839.50000 1112.67570   30.83830    0.01940    4.01590   53.14350   91.28890
 9840.00000 1281.85420   30.93450    0.01910    4.04910   53.07070   91.61340
 9840.50000 1506.65420   30.44770    0.01850    4.15410   52.70560   91.93790
 9841.00000 1745.18150   28.05980    0.01740    4.31890   52.80510   92.21450
 9841.50000 1869.45060   31.68760    0.01710    4.46980   53.11940   92.31380
 9842.00000 1951.82900   33.83370    0.01770    4.56650   53.14920   92.61570
 9842.50000 1984.52700   37.64040    0.01780    4.61810   53.13540   92.70660
 9843.00000   -9999.25   36.56510    0.01690    4.68020   52.70820   92.45640
 9843.50000   -9999.25   35.88060    0.01590    4.76960   52.33840   92.37930
 9844.00000   -9999.25   35.28950    0.01420    4.85060   52.20100   92.25390
 9844.50000   -9999.25   31.79860    0.01330    4.89240   51.89650   92.01370
 9845.00000   -9999.25   27.95890    0.01120    4.84070   51.93420   91.28520
 9845.50000   -9999.25   23.20530    0.00940    4.79820   51.74530   90.63800
 9846.00000   -9999.25   22.08590    0.00440    4.76230   51.30780   90.54350
 9846.50000   -9999.25   22.58930    0.00190    4.74800   51.41690   90.44900
 9847.00000   -9999.25   21.89010    0.00040    4.80320   51.38570   89.60820
 9847.50000   -9999.25   24.32940   -0.00050    4.82060   51.10170   89.24350
 9848.00000   -9999.25   24.84120   -0.00020    4.75090   50.61500   88.84300
 9848.50000   -9999.25   26.30390    0.00100    4.62910   50.59070   88.39840
 9849.00000   -9999.25   24.49330    0.00230    4.49960   51.12680   88.12300
 9849.50000   -9999.25   23.95670    0.00350    4.47490   50.31770   87.94260
