~Version ---------------------------------------------------
VERS.   2.0 : CWLS log ASCII Standard -VERSION 2.0
WRAP.    NO : One line per depth step
DLM . SPACE : Column Data Section Delimiter
~Well ------------------------------------------------------
STRT .F                   65.0 : START DEPTH
STOP .F                12274.0 : STOP DEPTH
STEP .F                    0.5 : STEP
NULL .                -9999.25 : NULL VALUE
COMP .                         : COMPANY
WELL .                         : WELL
FLD  .                         : FIELD
LOC  .                         : LOCATION
PROV .                         : PROVINCE
CNTY .                         : COUNTY
STAT .                         : STATE
CTRY .                         : COUNTRY
SRVC .                         : SERVICE COMPANY
DATE .                         : DATE
UWI  .                         : UNIQUE WELL ID
API  .                         : API NUMBER
SLAT .WGS84 2.4587995371436975 : SURFACE LATITUDE
SLON .WGS84  8.058609648570993 : SURFACE LONGITUDE
DATUM.F                    nan : DEPTH DATUM ELEV
~Curve Information -----------------------------------------
DEPT   .F     : 1 MEASURED DEPTH
AF60   .OHMM  : ARRAY INDUCTION FOUR FOOT RESISTIVITY A60
SGRDD  .GAPI  : SPECTROSCOPY GAMMA RAY FROM DENSITY LOG
TNPH_LS.DEC   : THERMAL NEUTRON POROSITY [LIMESTONE]
PEFZ   .B/E   : HRDD STANDARD RESOLUTION FORMATION PHOTOELECTRIC FACTOR
DTCO   .US/F  : DELTA-T COMPRESSIONAL
DTSM   .US/F  : DELTA-T SHEAR
~Params ----------------------------------------------------
~Other -----------------------------------------------------
~ASCII -----------------------------------------------------
# ...
 11024.50000   82.97760   54.68690    0.06950    3.84470   56.33510   95.66990
 11025.00000  113.29600   45.92480    0.06870    3.85460   55.60590   94.94840
 11025.50000  154.60280   36.55210    0.05600    3.91550   55.00140   94.32240
 11026.00000  210.97730   27.78580    0.03600    4.09310   54.94800   93.53720
 11026.50000  288.22720   28.09230    0.02220    4.33480   54.68870   93.51760
 11027.00000  327.15610   33.92630    0.02160    4.49540   54.57880   93.57300
 11027.50000  334.25240   38.88360    0.02190    4.58610   54.52970   93.65210
 11028.00000  331.03440   40.55940    0.02320    4.60300   55.96300   93.73110
 11028.50000  328.89390   39.64310    0.02420    4.58460   55.97510   93.85740
 11029.00000  336.57800   37.28520    0.02440    4.57300   56.04190   94.06470
 11029.50000  345.21220   37.08070    0.02370    4.59130   55.77640   94.29040
 11030.00000  354.30440   38.62520    0.02310    4.65660   55.43910   94.09090
 11030.50000  380.76690   38.42920    0.02250    4.72620   54.06690   93.84620
 11031.00000  407.02380   34.44780    0.02050    4.79860   53.67140   93.67190
 11031.50000  431.84890   31.34590    0.01740    4.87080   53.48820   93.44350
 11032.00000  470.73080   29.78340    0.01530    4.85730   54.02330   93.27490
 11032.50000  512.25980   30.82450    0.01430    4.83930   53.71550   93.23550
 11033.00000  569.73750   29.91330    0.01340    4.86070   53.47230   93.15700
 11033.50000  645.52940   30.77330    0.01240    4.92850   53.30220   93.04240
 11034.00000  718.13080   27.41240    0.01140    4.99890   53.32580   92.92790
 11034.50000  747.77500   23.93130    0.01040    4.99870   53.33780   92.81300
 11035.00000  732.11760   22.27360    0.00780    4.99360   52.64150   92.80220
 11035.50000  672.93800   23.34450    0.00790    4.95370   53.60540   93.10680
 11036.00000  609.62810   25.19210    0.01000    4.86970   53.26680   93.30410
 11036.50000  542.42770   25.53130    0.01210    4.81670   53.54020   93.26350
 11037.00000  441.30000   27.91990    0.01360    4.76800   53.61520   93.27870
 11037.50000  392.91520   29.27520    0.01540    4.84740   54.04170   93.50370
 11038.00000  351.50950   31.47340    0.01590    4.90700   54.46790   93.23500
 11038.50000  315.90370   33.16720    0.01690    4.86660   55.61450   93.71940
 11039.00000  286.70950   35.14190    0.01790    4.72060   55.94030   94.12520
 11039.50000  267.82950   36.02600    0.01930    4.56080   55.96190   94.29060
 11040.00000  252.77130   37.26720    0.02080    4.45750   55.41930   94.45600
 11040.50000  243.05640   36.69550    0.02290    4.42060   55.27980   94.46180
 11041.00000  236.44710   36.89010    0.02400    4.41240   55.32130   94.54010
 11041.50000  229.99780   36.50400    0.02290    4.40430   55.39270   94.54750
 11042.00000  227.49040   38.00400    0.02130    4.39890   55.47080   94.55290
 11042.50000  228.18440   37.48820    0.02030    4.40640   55.39760   94.62560
 11043.00000  230.24770   35.88550    0.02030    4.42110   55.35480   94.71010
 11043.50000  234.99180   35.58660    0.02140    4.39710   55.34390   94.73840
 11044.00000  239.81580   37.80540    0.02360    4.40080   55.31370   94.73230
 11044.50000  241.56540   39.13090    0.02430    4.47880   55.34190   94.75500
 11045.00000  233.42210   38.39440    0.02500    4.58130   55.45150   94.80630
 11045.50000  219.79130   36.85140    0.02570    4.66820   55.61330   94.93320
 11046.00000  195.24990   37.21410    0.02430    4.67160   55.77970   95.06020
 11046.50000  174.24970   38.59180    0.02350    4.63050   55.53640   95.17020
 11047.00000  164.27020   40.67790    0.02440    4.54610   55.23500   95.20280
 11047.50000  156.73160   41.71490    0.02710    4.45400   55.03620   95.05230
 11048.00000  159.05130   42.29510    0.02930    4.38030   54.93870   94.88230
 11048.50000  163.69390   42.46110    0.03140    4.34920   54.88440   94.74440
 11049.00000  175.44110   42.94160    0.03350    4.33860   54.95690   94.59170
 11049.50000  187.64880   37.57390    0.03410    4.35720   55.08680   94.68570
 11050.00000  178.59470   31.73280    0.03080    4.36290   55.19450   94.87160
 11050.50000  162.04200   26.84100    0.02530    4.36860   55.32170   94.95830
 11051.00000  144.07560   30.47460    0.02600    4.37400   55.64700   95.06560
 11051.50000  128.54380   33.64990    0.03250    4.38280   55.89810   95.38410
 11052.00000  116.85430   37.38750    0.03730    4.37230   56.24590   95.73450
 11052.50000  111.84320   39.66690    0.03940    4.29660   56.67420   96.08230
 11053.00000  107.99770   43.48580    0.03900    4.19680   56.75600   96.45200
 11053.50000  104.28410   45.08730    0.03890    4.15120   56.68390   96.61500
 11054.00000  105.32540   45.63450    0.03960    4.18390   56.76580   96.90890
 11054.50000  109.25280   46.32070    0.04120    4.24690   56.70510   97.14520
 11055.00000  115.37160   44.50970    0.04240    4.37380   56.52670   96.95550
 11055.50000  122.24280   42.68110    0.04250    4.54510   56.37020   96.59230
 11056.00000  128.81410   39.45860    0.03700    4.84960   56.08180   96.94840
 11056.50000  132.33470   37.52790    0.03070    5.07840   56.44870   97.13590
 11057.00000  131.46210   36.46830    0.02640    4.98680   56.50100   96.92990
 11057.50000  129.09060   37.60050    0.02870    4.66470   56.20040   96.84910
 11058.00000  126.62160   38.92600    0.03110    4.36060   56.17240   96.76840
 11058.50000  124.19030   38.94370    0.03320    4.32740   56.19050   96.67680
 11059.00000  121.67950   36.61560    0.03590    4.33850   56.24020   96.54730
 11059.50000  118.81330   36.88450    0.03480    4.40690   56.40420   96.53570
 11060.00000  114.60930   38.66140    0.03590    4.42800   56.64750   96.75320
 11060.50000  109.27460   40.65330    0.03750    4.42860   56.70690   96.91420
 11061.00000  104.97340   39.33050    0.03760    4.43550   56.82350   97.12470
 11061.50000  101.45350   38.41390    0.03640    4.46880   57.69890   97.01030
 11062.00000   99.16880   41.07040    0.03710    4.44650   57.85110   96.80400
 11062.50000  102.93880   44.80340    0.03890    4.37370   56.70550   96.80280
 11063.00000  110.43930   49.21490    0.04000    4.30350   56.59860   96.85690
 11063.50000  118.80120   44.42750    0.03990    4.24180   56.45000   96.81240
 11064.00000  127.98240   39.74380    0.03490    4.26030   56.29020   96.76790
 11064.50000  140.44880   35.78940    0.03120    4.27690   56.27870   96.72340
 11065.00000  147.65540   38.42910    0.03120    4.29380   56.16720   96.58000
 11065.50000  152.74880   39.41310    0.03180    4.32380   56.16160   96.49410
 11066.00000  156.78340   40.00510    0.03250    4.35560   56.16960   96.54980
 11066.50000  160.49300   41.17370    0.03210    4.38590   56.16030   96.53350
 11067.00000  164.28210   44.10150    0.03540    4.37560   55.93270   96.37370
 11067.50000  175.65110   43.67020    0.03650    4.38650   55.60960   96.46950
 11068.00000  194.09430   39.91500    0.03640    4.47420   55.47250   96.39510
 11068.50000  213.72190   37.10480    0.03410    4.56630   55.29620   95.90800
 11069.00000  241.17070   36.36160    0.02940    4.70560   55.35670   95.80890
 11069.50000  268.41660   36.77000    0.02750    4.81060   56.66640   95.81650
 11070.00000  288.71980   35.17500    0.02670    4.82820   56.77290   95.82270
 11070.50000  297.79540   33.75260    0.02490    4.79450   56.87940   95.82900
 11071.00000  299.04050   31.67730    0.02340    4.75370   56.86690   95.77940
 11071.50000  309.79540   32.07340    0.02270    4.70730   55.72600   95.78850
 11072.00000  318.80490   33.65140    0.02460    4.67590   56.92620   95.94900
 11072.50000  327.77090   34.81690    0.02680    4.69110   55.38280   95.93690
 11073.00000  350.24050   35.16560    0.02690    4.73760   56.15930   95.90700
 11073.50000  366.38480   33.41860    0.02720    4.78830   54.64580   95.65930
 11074.00000  381.52240   32.08300    0.02760    4.79790   55.62630   95.54380
 11074.50000  397.47070   30.77080    0.02810    4.67520   55.88190   95.47000
 11075.00000  414.48980   29.66940    0.02700    4.60340   54.24100   95.50320
