~Version ---------------------------------------------------
VERS.   2.0 : CWLS log ASCII Standard -VERSION 2.0
WRAP.    NO : One line per depth step
DLM . SPACE : Column Data Section Delimiter
~Well ------------------------------------------------------
STRT .F                   65.0 : START DEPTH
STOP .F                12274.0 : STOP DEPTH
STEP .F                    0.5 : STEP
NULL .                -9999.25 : NULL VALUE
COMP .                         : COMPANY
WELL .                         : WELL
FLD  .                         : FIELD
LOC  .                         : LOCATION
PROV .                         : PROVINCE
CNTY .                         : COUNTY
STAT .                         : STATE
CTRY .                         : COUNTRY
SRVC .                         : SERVICE COMPANY
DATE .                         : DATE
UWI  .                         : UNIQUE WELL ID
API  .                         : API NUMBER
SLAT .WGS84 2.4587995371436975 : SURFACE LATITUDE
SLON .WGS84  8.058609648570993 : SURFACE LONGITUDE
DATUM.F                    nan : DEPTH DATUM ELEV
~Curve Information -----------------------------------------
DEPT   .F     : 1 MEASURED DEPTH
AF60   .OHMM  : ARRAY INDUCTION FOUR FOOT RESISTIVITY A60
SGRDD  .GAPI  : SPECTROSCOPY GAMMA RAY FROM DENSITY LOG
TNPH_LS.DEC   : THERMAL NEUTRON POROSITY [LIMESTONE]
PEFZ   .B/E   : HRDD STANDARD RESOLUTION FORMATION PHOTOELECTRIC FACTOR
DTCO   .US/F  : DELTA-T COMPRESSIONAL
DTSM   .US/F  : DELTA-T SHEAR
~Params ----------------------------------------------------
~Other -----------------------------------------------------
~ASCII -----------------------------------------------------
# ...
 11432.50000  106.75520   17.04460    0.01680    5.17010   53.37900   98.19730
 11433.00000  104.30500   19.33160    0.01660    5.24070   53.47550   97.28560
 11433.50000   89.22560   22.38830    0.01620    5.28490   53.93090   97.27340
 11434.00000   73.15050   24.55500    0.01740    5.31100   55.10160   98.74830
 11434.50000   61.64680   25.62710    0.01830    5.18770   58.20710  100.22310
 11435.00000   41.31140   29.66810    0.02440    4.96570   59.55350  101.72050
 11435.50000   28.49230   35.19990    0.03480    4.71780   60.51080  103.33640
 11436.00000   20.85480   43.32000    0.04410    4.48560   63.25440  106.58640
 11436.50000   15.71230   54.38410    0.05420    4.27890   66.56840  109.84250
 11437.00000   13.27920   73.22820    0.07560    3.95040   68.68620  111.63860
 11437.50000   12.35290   85.77480    0.09750    3.57110   70.42900  113.43480
 11438.00000   11.42190   94.17580    0.11950    3.41160   71.39730  115.13340
 11438.50000   10.58990   95.38230    0.13260    3.34630   72.34810  116.74970
 11439.00000   10.75340   95.73670    0.13300    3.34040   73.28080  117.38320
 11439.50000   12.71610   95.98820    0.13040    3.35750   72.71220  117.41370
 11440.00000   15.17400   97.97160    0.13760    3.36210   71.59720  117.02300
 11440.50000   18.09700  100.58340    0.14240    3.41380   70.07480  115.87000
 11441.00000   21.92830  101.88970    0.14800    3.46550   67.84320  112.14630
 11441.50000   27.52330   95.80750    0.14780    3.59470   64.50970  110.38480
 11442.00000   36.16570   83.11600    0.13430    3.76620   62.40880  108.39410
 11442.50000   49.59840   64.62460    0.10150    4.09230   59.66830  106.42700
 11443.00000   71.86750   46.35480    0.07050    4.44870   58.45290  104.58430
 11443.50000  107.20500   35.62770    0.05070    4.77840   57.43190  100.14380
 11444.00000  189.00020   30.65610    0.03110    4.82050   56.07260   98.40120
 11444.50000  279.51810   26.85030    0.01950    4.73040   55.43340   96.71830
 11445.00000  400.91680   26.30250    0.01590    4.54970   55.27780   95.71180
 11445.50000  772.24890   25.56230    0.01710    4.44790   55.22810   95.08810
 11446.00000 1076.76440   27.01430    0.01840    4.45040   55.15190   94.41730
 11446.50000  922.63250   28.50780    0.02120    4.47230   55.56620   94.31710
 11447.00000  567.03000   31.07110    0.02330    4.41880   55.90700   94.97330
 11447.50000  430.99990   33.65910    0.02470    4.36520   56.62470   95.68680
 11448.00000  242.01230   34.08650    0.02490    4.27040   57.73630   96.62810
 11448.50000  142.95910   34.42350    0.02080    4.18830   58.86470   98.69720
 11449.00000   86.82810   35.07340    0.01870    4.13640   61.99820  100.50670
 11449.50000   53.85890   38.17540    0.02270    4.08290   63.73180  102.88470
 11450.00000   39.72060   47.14990    0.03670    3.94890   65.16620  104.85670
 11450.50000   30.96640   58.08170    0.05420    3.70160   66.75130  106.84660
 11451.00000   25.02640   73.71170    0.07900    3.48710   67.59560  108.55000
 11451.50000   21.78690   84.16470    0.09970    3.32430   68.89130  110.51680
 11452.00000   20.17020   95.05660    0.11260    3.30490   69.43170  111.73040
 11452.50000   19.65130   99.73640    0.12080    3.29770   69.72450  112.55890
 11453.00000   19.76870   96.60820    0.12270    3.23730   69.93630  113.24810
 11453.50000   20.63820   86.76980    0.10880    3.15840   69.95310  113.38350
 11454.00000   21.47810   78.88160    0.10830    3.10870   69.86240  113.27670
 11454.50000   22.36270   79.03890    0.11270    3.12660   69.63530  113.15480
 11455.00000   23.33700   80.47470    0.12270    3.21440   69.18050  113.03280
 11455.50000   24.38810   80.83280    0.12500    3.23710   69.01860  112.85250
 11456.00000   25.80390   83.77000    0.12990    3.23550   69.19690  112.46180
 11456.50000   27.81360   87.69960    0.13760    3.23390   69.42550  112.20240
 11457.00000   29.79680   90.59760    0.13370    3.21590   69.66050  112.45570
 11457.50000   30.25320   86.71400    0.12430    3.25940   70.07700  112.75690
 11458.00000   28.87250   77.92100    0.11250    3.29250   70.52440  113.26190
 11458.50000   26.78020   71.68200    0.10320    3.26250   71.77990  114.04580
 11459.00000   24.73160   72.57680    0.11260    3.20390   72.42220  114.86630
 11459.50000   23.19400   80.23460    0.12120    3.13010   72.90440  115.51890
 11460.00000   22.14340   91.96740    0.13280    3.09370   72.70420  116.07040
 11460.50000   21.83610   99.10030    0.14710    3.10640   72.52030  116.62190
 11461.00000   22.36570  104.04460    0.16590    3.20960   71.83840  116.78520
 11461.50000   23.39740  104.68640    0.16960    3.30840   71.13070  116.37770
 11462.00000   25.28080  103.01730    0.15790    3.40480   70.76020  115.79220
 11462.50000   28.77360   94.15310    0.14550    3.49120   70.00480  114.65910
 11463.00000   33.97690   85.28890    0.11810    3.70490   69.77660  114.03970
 11463.50000   37.74680   72.85870    0.09340    3.97240   69.09590  113.40190
 11464.00000   36.33710   64.85890    0.08440    4.15080   68.87390  112.81930
 11464.50000   33.00270   76.36290    0.09030    4.01760   69.21780  112.23670
 11465.00000   31.43670   88.34880    0.10460    3.81290   69.83770  112.45010
 11465.50000   31.96080   94.42400    0.11440    3.57570   70.14920  112.72920
 11466.00000   34.27080   88.33450    0.11200    3.61950   70.05330  113.00830
 11466.50000   36.78580   78.70610    0.10710    3.84160   69.59950  112.80380
 11467.00000   38.54260   74.87840    0.09930    4.02110   68.73970  112.28120
 11467.50000   40.18890   82.21720    0.10240    3.99610   67.30120  111.69280
 11468.00000   41.90110   91.46720    0.11800    3.80470   66.57920  110.90150
 11468.50000   49.49660   93.75400    0.12520    3.66940   65.87130  109.92340
 11469.00000   60.07390   82.03390    0.11110    3.70620   65.23970  109.33320
 11469.50000   72.88840   71.35540    0.08810    3.88980   64.54830  107.72130
 11470.00000   88.39750   62.23260    0.07240    4.14290   63.09580  107.34230
 11470.50000  107.18620   61.43800    0.06480    4.36470   62.88310  107.30650
 11471.00000  129.93310   62.08060    0.06940    4.48790   62.68500  107.26900
 11471.50000  157.49760   60.86980    0.07340    4.51270   62.82910  106.63580
 11472.00000  185.22090   59.15180    0.07530    4.49860   63.07320  106.75290
 11472.50000  209.03670   57.14370    0.07520    4.53180   63.29300  107.49710
 11473.00000  219.13940   58.74000    0.07270    4.59340   63.31500  107.80660
 11473.50000  198.72390   58.63900    0.07520    4.55740   63.57910  107.97130
 11474.00000  171.94260   60.14840    0.07790    4.48940   64.45770  109.43710
 11474.50000  130.92990   60.53810    0.08370    4.42340   65.80160  110.24010
 11475.00000   96.44610   61.01700    0.08330    4.37060   66.76710  110.92530
 11475.50000   70.62170   62.18690    0.08310    4.28650   67.52840  111.68850
 11476.00000   51.16210   66.07140    0.08410    4.17630   68.31600  112.45180
 11476.50000   39.98210   70.38440    0.09040    3.96510   68.54710  112.99800
 11477.00000   33.86270   80.25920    0.10400    3.68340   69.22860  112.90940
 11477.50000   32.01980   90.42410    0.11830    3.46980   69.37510  112.83640
 11478.00000   32.22210  100.71510    0.13020    3.44850   69.46880  112.80750
 11478.50000   33.07480   96.50160    0.13360    3.59230   69.31440  112.72440
 11479.00000   34.00320   85.43910    0.11820    3.81240   68.14970  112.16570
 11479.50000   34.68690   74.32050    0.10380    4.00330   67.36270  111.37580
 11480.00000   35.76710   76.31450    0.10080    4.05170   67.06530  110.78340
 11480.50000   38.17860   80.19380    0.11010    3.89810   66.80170  110.04250
 11481.00000   43.79470   80.30040    0.11660    3.67510   66.19580  109.25990
 11481.50000   49.09550   72.81460    0.10200    3.60330   66.29460  108.48000
 11482.00000   54.14540   62.79150    0.08150    3.72240   66.14990  107.87230
 11482.50000   59.69490   59.49460    0.07410    3.82370   66.14430  107.58580
 11483.00000   65.85870   64.25080    0.08120    3.75630   65.93270  107.37000
