~Version ---------------------------------------------------
VERS.   2.0 : CWLS log ASCII Standard -VERSION 2.0
WRAP.    NO : One line per depth step
DLM . SPACE : Column Data Section Delimiter
~Well ------------------------------------------------------
STRT .F                   65.0 : START DEPTH
STOP .F                12274.0 : STOP DEPTH
STEP .F                    0.5 : STEP
NULL .                -9999.25 : NULL VALUE
COMP .                         : COMPANY
WELL .                         : WELL
FLD  .                         : FIELD
LOC  .                         : LOCATION
PROV .                         : PROVINCE
CNTY .                         : COUNTY
STAT .                         : STATE
CTRY .                         : COUNTRY
SRVC .                         : SERVICE COMPANY
DATE .                         : DATE
UWI  .                         : UNIQUE WELL ID
API  .                         : API NUMBER
SLAT .WGS84 2.4587995371436975 : SURFACE LATITUDE
SLON .WGS84  8.058609648570993 : SURFACE LONGITUDE
DATUM.F                    nan : DEPTH DATUM ELEV
~Curve Information -----------------------------------------
DEPT   .F     : 1 MEASURED DEPTH
AF60   .OHMM  : ARRAY INDUCTION FOUR FOOT RESISTIVITY A60
SGRDD  .GAPI  : SPECTROSCOPY GAMMA RAY FROM DENSITY LOG
TNPH_LS.DEC   : THERMAL NEUTRON POROSITY [LIMESTONE]
PEFZ   .B/E   : HRDD STANDARD RESOLUTION FORMATION PHOTOELECTRIC FACTOR
DTCO   .US/F  : DELTA-T COMPRESSIONAL
DTSM   .US/F  : DELTA-T SHEAR
~Params ----------------------------------------------------
~Other -----------------------------------------------------
~ASCII -----------------------------------------------------
# ...
 12044.50000    7.21550   94.93140    0.12180    3.73560   72.54500  122.04150
 12045.00000    6.72390   97.74220    0.14120    3.77600   72.18740  123.28950
 12045.50000    6.38630  100.55300    0.15990    3.71410   74.24860  124.62760
 12046.00000    6.17980  102.91900    0.16620    3.70150   77.09140  128.28230
 12046.50000    6.02910  109.74620    0.16080    3.72860   77.48780  128.90560
 12047.00000    6.04320  111.17570    0.16700    3.66400   77.62780  129.19260
 12047.50000    6.11480  108.56220    0.17110    3.48820   77.72200  128.95800
 12048.00000    6.21080  103.31830    0.17400    3.38710   74.57930  127.82480
 12048.50000    6.38890   99.75160    0.16480    3.43630   74.74580  125.89480
 12049.00000    6.91010   89.72200    0.13960    3.54250   73.93810  124.99120
 12049.50000    7.43490   76.85980    0.11130    3.70880   73.75290  124.51240
 12050.00000    7.90790   65.57550    0.08640    3.91460   73.69010  123.84690
 12050.50000    8.26720   66.83400    0.07850    4.09170   72.89980  123.17770
 12051.00000    8.97710   76.99420    0.10250    4.10960   72.24920  122.05430
 12051.50000    9.74870   92.19310    0.14000    4.06800   71.86610  120.41030
 12052.00000   10.59090   99.10650    0.16840    4.03360   71.63430  120.56340
 12052.50000   12.12540   95.48370    0.16680    4.04470   71.12420  119.75110
 12053.00000   14.85080   80.11450    0.14570    4.19210   70.63440  118.73250
 12053.50000   18.24320   65.40530    0.11000    4.41680   69.90390  117.61040
 12054.00000   22.41070   56.07210    0.08660    4.62750   68.08220  116.14990
 12054.50000   28.03360   56.62510    0.07580    4.71420   67.86760  114.67650
 12055.00000   32.21280   59.38930    0.08460    4.71450   68.51860  113.40250
 12055.50000   32.54760   60.50240    0.09310    4.64650   68.10290  112.92920
 12056.00000   29.55430   56.63990    0.09100    4.56310   68.43840  113.17330
 12056.50000   26.00320   59.42790    0.08210    4.38840   68.59180  114.13680
 12057.00000   22.95510   72.00490    0.08350    4.23580   68.65610  115.10020
 12057.50000   20.84840   84.14650    0.10070    4.07770   69.83230  116.37830
 12058.00000   19.58180   89.12600    0.11130    3.95090   70.82960  118.29310
 12058.50000   19.31330   88.16780    0.11340    3.90390   72.25340  118.52340
 12059.00000   19.91110   89.53180    0.11500    3.90470   70.73270  119.00840
 12059.50000   20.25310   95.25680    0.12810    3.99810   67.99680  119.59590
 12060.00000   21.21070   95.38660    0.14630    4.26170   67.59540  120.22260
 12060.50000   24.06350   84.50910    0.14060    4.58300   66.05180  121.11830
 12061.00000   27.29970   71.22800    0.12370    4.88620   65.97830  120.53310
 12061.50000   30.97200   64.26000    0.10850    4.97700   66.01040  119.18170
 12062.00000   33.83760   65.16050    0.09940    4.87930   64.38690  118.04030
 12062.50000   33.77390   65.16410    0.08990    4.72220   65.20660  117.48780
 12063.00000   32.82540   59.30880    0.07490    4.63970   66.26720  116.09910
 12063.50000   32.05440   54.25050    0.06160    4.56630   64.94400  115.34020
 12064.00000   31.29930   51.67120    0.06290    4.65380   64.41620  114.87730
 12064.50000   30.73140   53.80290    0.06740    4.72730   65.27820  112.95930
 12065.00000   30.92810   66.20430    0.07120    4.76200   64.38150  112.19460
 12065.50000   29.62830   67.19160    0.08250    4.71760   66.83190  111.70290
 12066.00000   27.78950   64.92670    0.08020    4.68570   67.87250  111.68770
 12066.50000   25.46090   61.94060    0.07010    4.65000   67.21680  112.91470
 12067.00000   22.84540   71.88760    0.06990    4.62190   69.91140  114.64020
 12067.50000   20.36490   87.21910    0.08680    4.57610   68.22460  114.88530
 12068.00000   19.65320   95.36630    0.12320    4.58660   68.05190  114.90810
 12068.50000   20.43050   90.63260    0.11320    4.61080   66.43550  114.64960
 12069.00000   23.61610   77.31760    0.07990    4.67300   64.34220  113.36100
 12069.50000   27.22830   62.11200    0.06100    4.79680   65.53450  112.62150
 12070.00000   32.86740   53.68660    0.05660    4.87580   67.79760  112.13260
 12070.50000   34.43420   61.69480    0.06480    4.77170   66.76730  111.64370
 12071.00000   34.57270   75.11460    0.08520    4.60980   66.13640  110.75740
 12071.50000   33.87420   79.53690    0.10590    4.49800   66.31930  110.48880
 12072.00000   32.09440   66.16010    0.09170    4.54200   67.26010  111.12280
 12072.50000   30.26970   52.13050    0.07190    4.64270   65.76550  112.19950
 12073.00000   28.29840   46.50400    0.06500    4.69570   66.68060  114.12230
 12073.50000   26.24040   53.67940    0.07270    4.55470   72.29440  114.16120
 12074.00000   24.31060   72.62690    0.09550    4.30320   71.94400  115.00660
 12074.50000   23.57730   90.83110    0.11120    4.12360   69.84810  115.95950
 12075.00000   24.42300  102.88730    0.13200    4.12350   67.69940  117.01970
 12075.50000   23.95470  107.04710    0.13440    4.37250   65.77850  118.75450
 12076.00000   23.00410  101.73530    0.12630    4.88820   65.00410  118.46750
 12076.50000   22.56590   88.90300    0.10250    5.42970   65.33680  119.55530
 12077.00000   22.45610   71.58600    0.07230    5.78430   65.76310  120.89430
 12077.50000   22.88910   68.06250    0.05330    5.82600   66.94780  120.76630
 12078.00000   23.32960   78.73320    0.05170    5.53300   71.12340  120.39770
 12078.50000   23.68590   91.26220    0.06380    5.12150   71.23940  120.02380
 12079.00000   23.83780  101.06540    0.08930    4.98840   70.75310  119.64990
 12079.50000   24.00060  106.47210    0.11830    4.98000   68.73380  119.27600
 12080.00000   23.83320  108.40230    0.13720    4.92490   67.82590  118.71630
 12080.50000   23.31130  103.12360    0.15230    4.79290   66.72270  117.76180
 12081.00000   24.40380   89.06650    0.15520    4.65370   66.30520  117.33740
 12081.50000   27.27510   75.78540    0.13720    4.66360   65.60840  117.29110
 12082.00000   31.44850   62.51230    0.09660    4.71750   65.04510  116.64510
 12082.50000   37.15090   54.91570    0.09240    4.72510   64.30960  116.03290
 12083.00000   45.14690   53.00640    0.09520    4.68810   67.08730  114.14440
 12083.50000   53.57040   49.91220    0.10010    4.74480   66.02620  113.25150
 12084.00000   60.63290   47.48880    0.09660    4.84900   64.02680  112.35870
 12084.50000   61.62870   45.24060    0.09600    4.92690   64.91530  111.49750
 12085.00000   51.59120   43.11160    0.09370    4.94640   65.86850  111.76880
 12085.50000   42.70700   42.24980    0.09140    4.93640   69.48570  112.74060
 12086.00000   36.34320   45.93040    0.08850    4.89480   70.04250  113.85520
 12086.50000   30.17310   51.86300    0.08880    4.75510   71.32580  114.96990
 12087.00000   25.97370   62.18170    0.09580    4.45780   70.22120  116.46450
 12087.50000   22.47370   74.12220    0.11240    4.10570   73.15660  118.19240
 12088.00000   19.99390   90.30890    0.14120    3.86120   73.63460  119.96080
 12088.50000   17.95690  106.49570    0.16940    3.88870   73.83190  121.47410
 12089.00000   16.34430  104.61580    0.15820    4.13310   74.03440  121.64300
 12089.50000   15.40570  100.94330    0.13970    4.35680   75.31800  122.96450
 12090.00000   14.49480   98.67260    0.13100    4.37880   75.67230  123.61810
 12090.50000   13.72720   92.64710    0.12530    4.38680   75.93130  124.29140
 12091.00000   13.26380   90.20720    0.12480    4.27820   76.24280  124.92160
 12091.50000   12.97150  103.82830    0.13850    4.13200   77.00910  125.27070
 12092.00000   12.84780  117.44950    0.15870    4.05400   77.09190  125.72380
 12092.50000   12.71650  122.65740    0.17530    4.00380   76.59810  126.18610
 12093.00000   12.41170  111.67020    0.16790    3.94120   77.00470  126.34000
 12093.50000   12.26040  102.00210    0.15370    3.85340   77.14190  126.40390
 12094.00000   12.33620   96.59890    0.14750    3.77550   77.59710  126.59130
 12094.50000   12.40150   99.83830    0.14870    3.75560   77.31800  126.71640
 12095.00000   12.83250  106.25740    0.15220    3.74050   77.20050  126.78630
