~Version ---------------------------------------------------
VERS.   2.0 : CWLS log ASCII Standard -VERSION 2.0
WRAP.    NO : One line per depth step
DLM . SPACE : Column Data Section Delimiter
~Well ------------------------------------------------------
STRT .F                   65.0 : START DEPTH
STOP .F                12274.0 : STOP DEPTH
STEP .F                    0.5 : STEP
NULL .                -9999.25 : NULL VALUE
COMP .                         : COMPANY
WELL .                         : WELL
FLD  .                         : FIELD
LOC  .                         : LOCATION
PROV .                         : PROVINCE
CNTY .                         : COUNTY
STAT .                         : STATE
CTRY .                         : COUNTRY
SRVC .                         : SERVICE COMPANY
DATE .                         : DATE
UWI  .                         : UNIQUE WELL ID
API  .                         : API NUMBER
SLAT .WGS84 2.4587995371436975 : SURFACE LATITUDE
SLON .WGS84  8.058609648570993 : SURFACE LONGITUDE
DATUM.F                    nan : DEPTH DATUM ELEV
~Curve Information -----------------------------------------
DEPT   .F     : 1 MEASURED DEPTH
AF60   .OHMM  : ARRAY INDUCTION FOUR FOOT RESISTIVITY A60
SGRDD  .GAPI  : SPECTROSCOPY GAMMA RAY FROM DENSITY LOG
TNPH_LS.DEC   : THERMAL NEUTRON POROSITY [LIMESTONE]
PEFZ   .B/E   : HRDD STANDARD RESOLUTION FORMATION PHOTOELECTRIC FACTOR
DTCO   .US/F  : DELTA-T COMPRESSIONAL
DTSM   .US/F  : DELTA-T SHEAR
~Params ----------------------------------------------------
~Other -----------------------------------------------------
~ASCII -----------------------------------------------------
# ...
 10208.50000   -9999.25   18.59960    0.01150    5.17760   51.33470   92.55350
 10209.00000   -9999.25   18.03950    0.01260    5.15710   51.55360   92.58260
 10209.50000   -9999.25   18.71880    0.01200    5.09910   51.49830   92.65510
 10210.00000   -9999.25   19.87240    0.00990    5.04510   51.44870   92.62590
 10210.50000   -9999.25   20.07740    0.00790    4.99120   51.37710   92.59670
 10211.00000   -9999.25   19.94570    0.00650    4.95660   51.35690   92.63260
 10211.50000   -9999.25   18.84460    0.00500    4.98760   51.35160   92.84950
 10212.00000   -9999.25   19.82350    0.00540    4.98380   51.30400   92.87170
 10212.50000   -9999.25   19.51460    0.00630    4.98000   51.19830   92.74550
 10213.00000   -9999.25   18.09230    0.00700    4.97620   51.14820   92.55980
 10213.50000   -9999.25   16.15710    0.00690    5.03280   51.09380   92.68750
 10214.00000   -9999.25   15.80950    0.00620    5.10580   50.93410   92.59970
 10214.50000   -9999.25   17.24110    0.00540    5.12230   50.47580   92.50820
 10215.00000   -9999.25   17.72100    0.00470    5.10430   50.52870   92.47920
 10215.50000   -9999.25   17.95190    0.00400    5.11750   50.54970   92.23000
 10216.00000   -9999.25   17.98050    0.00360    5.13080   50.54200   92.32430
 10216.50000   -9999.25   18.63390    0.00340    5.19560   50.51670   92.41850
 10217.00000   -9999.25   17.87200    0.00330    5.22300   50.42140   92.51280
 10217.50000   -9999.25   17.17230    0.00340    5.23040   50.61260   92.47530
 10218.00000   -9999.25   17.09510    0.00350    5.14500   50.58030   92.34560
 10218.50000   -9999.25   17.79280    0.00360    5.10240   50.54920   92.51150
 10219.00000   -9999.25   17.91830    0.00370    5.11720   50.63930   92.37920
 10219.50000   -9999.25   18.21830    0.00380    5.17360   50.73310   92.52250
 10220.00000   -9999.25   18.87270    0.00380    5.22460   50.78390   92.57010
 10220.50000   -9999.25   19.08660    0.00390    5.22630   50.83990   92.53160
 10221.00000   -9999.25   19.00080    0.00380    5.19850   50.88160   92.46040
 10221.50000   -9999.25   17.82750    0.00340    5.17070   50.92490   92.34660
 10222.00000   -9999.25   18.18980    0.00430    5.14470   51.03630   92.42360
 10222.50000   -9999.25   17.86410    0.00520    5.13830   51.18320   92.55040
 10223.00000   -9999.25   17.36730    0.00570    5.16930   51.53090   92.67720
 10223.50000   -9999.25   16.37840    0.00570    5.21240   51.71050   92.66660
 10224.00000   -9999.25   16.32620    0.00580    5.25410   51.84790   92.56910
 10224.50000   -9999.25   16.97200    0.00660    5.22310   51.90450   93.10560
 10225.00000   -9999.25   19.38660    0.00900    5.16170   52.05640   93.38390
 10225.50000   -9999.25   21.95130    0.01180    5.13730   52.14600   93.52580
 10226.00000   -9999.25   25.92920    0.01460    5.12330   52.15410   93.38060
 10226.50000   -9999.25   26.59520    0.01560    5.15230   52.12380   93.32690
 10227.00000   -9999.25   25.20990    0.01710    5.18120   52.04130   93.16560
 10227.50000   -9999.25   23.65690    0.01650    5.25270   51.89710   93.14890
 10228.00000   -9999.25   21.41180    0.01550    5.32060   51.81850   93.15490
 10228.50000   -9999.25   20.96830    0.01400    5.35890   51.68690   93.22720
 10229.00000   -9999.25   19.75490    0.01240    5.30000   51.82050   93.29940
 10229.50000   -9999.25   19.75620    0.01170    5.20290   51.99720   93.45220
 10230.00000   -9999.25   19.75750    0.01140    5.12090   51.77580   93.53420
 10230.50000   -9999.25   20.30260    0.01230    5.08310   51.85690   93.55830
 10231.00000   -9999.25   21.38750    0.01280    5.13140   52.04730   93.58300
 10231.50000   -9999.25   21.79920    0.01270    5.14170   52.05490   93.85270
 10232.00000   -9999.25   21.33200    0.01270    5.13630   52.26900   93.95390
 10232.50000   -9999.25   20.29490    0.01270    5.13090   52.49090   94.08250
 10233.00000   -9999.25   20.09920    0.01300    5.13640   52.47200   94.22020
 10233.50000   -9999.25   19.87030    0.01360    5.11220   51.98760   93.78200
 10234.00000   -9999.25   20.59510    0.01400    5.03620   52.68650   93.82170
 10234.50000   -9999.25   20.19540    0.01420    4.98910   52.82610   94.02430
 10235.00000   -9999.25   20.31270    0.01390    5.01740   51.91660   94.22680
 10235.50000   -9999.25   20.13540    0.01360    5.12540   51.70370   94.37350
 10236.00000   -9999.25   19.65110    0.01320    5.21920   52.94290   94.34870
 10236.50000 1939.82320   19.27110    0.01230    5.25770   53.29990   94.26580
 10237.00000 1872.82700   18.82860    0.01100    5.28200   53.45310   94.17500
 10237.50000 1695.58870   18.53530    0.01060    5.30640   53.52570   94.59270
 10238.00000 1376.63020   17.75350    0.01020    5.34060   53.71960   95.23750
 10238.50000  884.82420   15.64820    0.00970    5.39610   55.73240   95.81160
 10239.00000  610.91390   15.89110    0.00760    5.40780   54.16660   95.96620
 10239.50000  437.77320   16.22190    0.00630    5.41090   56.83660   96.54270
 10240.00000  294.23380   19.34190    0.01140    5.29430   57.61050   97.30860
 10240.50000  246.30370   30.34670    0.01460    5.05790   57.99780   98.11910
 10241.00000  219.89880   52.56370    0.03390    4.65940   58.59590   98.98380
 10241.50000  212.00710   74.19240    0.05850    4.27850   59.39370   99.70500
 10242.00000  214.62990   87.13220    0.07990    4.16050   60.90040  100.13920
 10242.50000  211.22030   80.78260    0.07140    4.42060   60.55970  100.57660
 10243.00000  204.00090   72.23980    0.05630    4.77480   61.42970  100.95770
 10243.50000  190.70100   60.70670    0.04670    4.94980   61.97430  101.10340
 10244.00000  170.09100   62.79770    0.04710    4.83840   63.06370  102.26630
 10244.50000  154.69270   68.35830    0.05580    4.43480   63.34650  103.15720
 10245.00000  143.72090   76.46940    0.07280    4.07080   63.79370  103.73620
 10245.50000  134.11510   82.08800    0.08860    3.76430   64.22750  104.25670
 10246.00000  117.87920   88.49960    0.09690    3.79990   64.45620  104.77710
 10246.50000  102.90940   94.86920    0.10200    3.94820   64.81030  104.96000
 10247.00000   81.08670  101.16670    0.10390    4.13420   64.65730  104.87910
 10247.50000   60.98690  100.93070    0.10310    4.16110   64.29940  104.66980
 10248.00000   44.51410   96.72390    0.09310    4.17560   64.24290  104.13030
 10248.50000   31.98060   92.20130    0.08120    4.18040   63.77950  103.89660
 10249.00000   24.77410   89.44570    0.07390    4.18510   63.33160  103.78790
 10249.50000   20.30860   85.96880    0.07150    4.06990   63.03490  103.61450
 10250.00000   17.44940   78.58040    0.07050    3.75050   62.74400  103.65510
 10250.50000   15.04810   71.33930    0.06820    3.46320   62.51630  103.93410
 10251.00000   13.10010   68.26300    0.06380    3.37410   62.80850  104.20630
 10251.50000   11.60270   75.57550    0.06700    3.37680   63.14280  104.44140
 10252.00000   10.45110   80.25720    0.07410    3.38000   63.47710  104.67640
 10252.50000    9.47270   84.50030    0.08560    3.38320   63.43940  104.94560
 10253.00000    8.88100   82.53640    0.09320    3.45070   63.09950  104.97250
 10253.50000    8.52680   79.26530    0.09550    3.74380   62.99450  104.98430
 10254.00000    8.19380   75.82570    0.09510    4.09120   64.19760  104.99390
 10254.50000    7.91360   74.45210    0.09100    4.23150   64.37690  104.97680
 10255.00000    7.50500   73.17150    0.08400    4.19100   64.20510  104.80700
 10255.50000    7.28180   71.46410    0.08200    3.92200   62.60360  105.02920
 10256.00000    7.02840   65.90420    0.07690    3.71680   64.08570  105.22850
 10256.50000    6.78520   63.31740    0.07320    3.64050   64.07600  105.53570
 10257.00000    6.70790   63.60740    0.07490    3.55860   63.82370  105.59720
 10257.50000    6.68070   66.29340    0.07830    3.47090   63.47440  105.60120
 10258.00000    6.68090   68.63570    0.08110    3.43700   63.81580  105.60520
 10258.50000    6.84130   70.94340    0.08410    3.40310   63.48640  105.49120
 10259.00000    7.09940   71.04190    0.08390    3.36920   63.58120  105.36580
