~Version ---------------------------------------------------
VERS.   2.0 : CWLS log ASCII Standard -VERSION 2.0
WRAP.    NO : One line per depth step
DLM . SPACE : Column Data Section Delimiter
~Well ------------------------------------------------------
STRT .F                   65.0 : START DEPTH
STOP .F                12274.0 : STOP DEPTH
STEP .F                    0.5 : STEP
NULL .                -9999.25 : NULL VALUE
COMP .                         : COMPANY
WELL .                         : WELL
FLD  .                         : FIELD
LOC  .                         : LOCATION
PROV .                         : PROVINCE
CNTY .                         : COUNTY
STAT .                         : STATE
CTRY .                         : COUNTRY
SRVC .                         : SERVICE COMPANY
DATE .                         : DATE
UWI  .                         : UNIQUE WELL ID
API  .                         : API NUMBER
SLAT .WGS84 2.4587995371436975 : SURFACE LATITUDE
SLON .WGS84  8.058609648570993 : SURFACE LONGITUDE
DATUM.F                    nan : DEPTH DATUM ELEV
~Curve Information -----------------------------------------
DEPT   .F     : 1 MEASURED DEPTH
AF60   .OHMM  : ARRAY INDUCTION FOUR FOOT RESISTIVITY A60
SGRDD  .GAPI  : SPECTROSCOPY GAMMA RAY FROM DENSITY LOG
TNPH_LS.DEC   : THERMAL NEUTRON POROSITY [LIMESTONE]
PEFZ   .B/E   : HRDD STANDARD RESOLUTION FORMATION PHOTOELECTRIC FACTOR
DTCO   .US/F  : DELTA-T COMPRESSIONAL
DTSM   .US/F  : DELTA-T SHEAR
~Params ----------------------------------------------------
~Other -----------------------------------------------------
~ASCII -----------------------------------------------------
# ...
 9386.50000   44.62810   38.86540    0.04750    3.48610   62.21430  102.01790
 9387.00000   35.81530   53.09240    0.05200    3.52580   62.50130  101.86430
 9387.50000   31.60700   69.28450    0.06920    3.50610   62.76010  101.99160
 9388.00000   30.68120   82.56550    0.09090    3.41100   62.76710  101.64720
 9388.50000   32.73030   87.24200    0.10790    3.30870   62.43990  101.19570
 9389.00000   40.90120   86.67200    0.11540    3.27980   60.94570   99.38200
 9389.50000   54.93670   83.31920    0.11680    3.25770   60.11870   97.80640
 9390.00000   85.63810   65.21960    0.10890    3.30160   58.82900   96.28040
 9390.50000  139.28660   46.86090    0.08060    3.42330   57.29580   95.35610
 9391.00000  189.65960   31.95660    0.04790    3.66000   56.79850   94.42830
 9391.50000  215.13550   25.33140    0.03180    3.83260   56.82510   92.78880
 9392.00000  205.68820   23.38240    0.02780    3.86660   58.05880   92.86630
 9392.50000  139.94490   21.90040    0.02650    3.82090   58.86860   93.25100
 9393.00000   92.57310   24.85470    0.02290    3.77680   61.75490   95.44800
 9393.50000   62.59660   28.75330    0.02310    3.71490   63.21400   97.35600
 9394.00000   46.18010   35.29090    0.02990    3.65310   64.69960   99.27330
 9394.50000   38.22260   46.29500    0.04250    3.55390   66.28090  103.26280
 9395.00000   35.12170   64.24970    0.07140    3.32680   68.64510  105.47020
 9395.50000   35.66930   83.58220    0.09830    3.09800   68.92370  108.91540
 9396.00000   37.75740   96.52840    0.12510    2.93070   69.79780  109.58840
 9396.50000   39.36500   98.19800    0.13930    2.84790   69.77950  110.99810
 9397.00000   37.24710   96.58690    0.14990    2.82270   69.55150  111.93750
 9397.50000   33.34960   96.37580    0.15440    2.79750   69.11100  112.12300
 9398.00000   29.18160   94.75130    0.13700    2.80990   68.90780  112.08030
 9398.50000   26.23460   93.80070    0.12050    2.84310   68.72830  111.59410
 9399.00000   23.97190   90.59600    0.11640    2.93030   68.36150  111.31910
 9399.50000   23.35360   89.31610    0.11500    3.01860   68.11150  110.83960
 9400.00000   22.76920   88.52040    0.11410    3.05730   67.69140  110.21190
 9400.50000   24.09540   87.47530    0.11020    3.05850   67.34300  109.55610
 9401.00000   26.22810   86.60940    0.11220    3.02480   66.57940  108.59590
 9401.50000   28.54640   86.75980    0.11630    3.01410   64.97450  106.87270
 9402.00000   33.97100   89.79180    0.12330    3.00580   63.91280  105.30340
 9402.50000   41.50230   92.25710    0.13130    2.99760   61.78490  103.64030
 9403.00000   55.12280   89.25660    0.12900    2.98930   60.50330  101.64020
 9403.50000   72.81350   85.92770    0.11340    2.98620   59.22720  100.59000
 9404.00000  100.33250   74.62880    0.09510    3.03350   58.50660   99.55310
 9404.50000  130.89730   62.13090    0.07440    3.16020   58.30430   98.53660
 9405.00000  148.19960   43.30120    0.05320    3.32500   58.33180   97.85770
 9405.50000  140.95330   31.21090    0.03550    3.46020   59.71410   98.23510
 9406.00000  130.37560   30.15440    0.03170    3.56500   59.85540   99.04180
 9406.50000  122.70390   39.12690    0.03310    3.57540   61.74970  100.24850
 9407.00000  116.02550   44.64940    0.04350    3.54120   64.38830  102.94220
 9407.50000  114.41940   54.57960    0.05400    3.50700   65.61800  104.89080
 9408.00000  114.66840   68.67770    0.06290    3.47530   66.32510  106.79800
 9408.50000  115.75230   93.11260    0.07690    3.43420   68.22040  108.69450
 9409.00000  117.49390  112.18880    0.10970    3.33740   69.85700  110.68510
 9409.50000  118.85550  115.22080    0.14170    3.24940   70.50360  112.31070
 9410.00000  119.89210  113.98580    0.13990    3.15870   71.10140  112.89580
 9410.50000  120.92080  113.07480    0.13280    3.04330   71.48930  113.38070
 9411.00000  124.01890  120.71660    0.12880    2.95610   71.82400  113.87930
 9411.50000  127.88980  127.30670    0.13060    2.93580   72.25090  114.37800
 9412.00000  131.55340  129.03210    0.14320    3.01750   72.38020  114.64460
 9412.50000  135.07350  124.11240    0.15280    3.09920   72.66900  114.56450
 9413.00000  137.71340  115.93010    0.15040    3.16870   72.27000  114.61860
 9413.50000  140.77470  111.64930    0.14600    3.18160   71.77360  113.86890
 9414.00000  146.17150  109.09720    0.14640    3.13910   70.64560  113.18840
 9414.50000  153.97240  120.65380    0.14790    3.12260   69.72040  112.43590
 9415.00000  167.42390  131.11050    0.15550    3.14890   68.08660  110.87440
 9415.50000  182.53580  133.02610    0.16450    3.13540   67.20620  109.79010
 9416.00000  197.20900  128.96600    0.15750    3.09750   66.77570  108.74430
 9416.50000  204.08230  128.32250    0.13880    3.07190   66.89460  107.71720
 9417.00000  202.49360  128.85710    0.11970    3.18350   67.11290  107.08700
 9417.50000  169.13680  118.66280    0.10360    3.37070   67.58230  106.94100
 9418.00000  131.43180  102.85960    0.09790    3.50080   68.42000  107.21700
 9418.50000  106.82670   87.13790    0.09360    3.51440   69.25560  107.74600
 9419.00000   90.24310   76.72090    0.09620    3.39060   69.74460  108.52500
 9419.50000   76.99050   86.84320    0.10650    3.18040   70.60640  109.26890
 9420.00000   71.18130   97.80320    0.12580    3.07400   71.21770  110.26620
 9420.50000   67.26560  105.54110    0.14710    3.02630   71.66460  111.47770
 9421.00000   63.54220  109.49520    0.16080    2.99050   73.11910  112.53150
 9421.50000   59.14320  109.08570    0.16220    2.95480   73.70340  113.31430
 9422.00000   50.27380   98.83440    0.15040    2.97870   74.03890  114.12700
 9422.50000   42.94310   87.51450    0.13740    3.05700   73.70340  114.56140
 9423.00000   36.83350   85.16360    0.13610    3.12770   73.70920  114.88920
 9423.50000   33.16630   88.42780    0.14330    3.09340   73.82430  115.20810
 9424.00000   33.64730   92.64630    0.16470    3.01220   74.50930  115.30190
 9424.50000   35.35560   96.30670    0.17390    2.90530   74.70210  115.82820
 9425.00000   41.39390   97.17650    0.16530    2.84490   74.60090  115.97950
 9425.50000   50.02130   96.01460    0.16350    2.78020   75.09990  115.94080
 9426.00000   58.57560   94.64900    0.16150    2.76050   74.62430  115.96650
 9426.50000   72.23090   93.67050    0.15620    2.74080   74.28430  115.99220
 9427.00000   79.72530   93.41990    0.16380    2.72340   74.21610  115.92550
 9427.50000   84.72910   93.26900    0.17340    2.71080   74.35310  115.32780
 9428.00000   88.07220   95.07830    0.17460    2.71960   74.24890  115.28380
 9428.50000   91.90060   97.58400    0.17340    2.74490   73.68840  115.29570
 9429.00000   95.90840   99.81960    0.17780    2.74970   72.86690  114.56870
 9429.50000  102.39100   97.51460    0.16680    2.73720   72.21020  113.89180
 9430.00000  116.14680   93.31100    0.14770    2.72520   71.70130  113.42520
 9430.50000  130.87830   89.37120    0.13410    2.72220   70.97160  112.06950
 9431.00000  154.67780   88.46150    0.13640    2.74580   70.33050  111.12380
 9431.50000  179.85920   85.79460    0.14050    2.78560   69.83670  110.22410
 9432.00000  196.11520   80.85090    0.12590    2.86010   68.92140  109.38830
 9432.50000  208.11060   77.58240    0.10950    2.93460   68.59840  108.65190
 9433.00000  207.24340   80.07680    0.09590    3.07190   68.22110  107.97440
 9433.50000  199.97970   81.93010    0.09440    3.17120   66.88930  107.50080
 9434.00000  195.46450   81.18170    0.10610    3.21330   65.85230  106.48570
 9434.50000  197.05290   77.73030    0.10580    3.24180   64.55630  105.25670
 9435.00000  198.65550   71.48890    0.10220    3.31870   60.09060  103.60510
 9435.50000  224.89690   71.06460    0.09020    3.51850   58.45120  102.29910
 9436.00000  271.24730   70.77150    0.08170    3.74910   57.46090  100.99310
 9436.50000  346.46680   61.01960    0.07670    3.95070   56.84250   99.10820
 9437.00000  466.29870   40.94360    0.06150    4.15880   55.41480   97.30270
 9437.50000  627.16550   27.69980    0.04100    4.37760   54.70060   96.08870
