~Version ---------------------------------------------------
VERS.   2.0 : CWLS log ASCII Standard -VERSION 2.0
WRAP.    NO : One line per depth step
DLM . SPACE : Column Data Section Delimiter
~Well ------------------------------------------------------
STRT .F                   65.0 : START DEPTH
STOP .F                12274.0 : STOP DEPTH
STEP .F                    0.5 : STEP
NULL .                -9999.25 : NULL VALUE
COMP .                         : COMPANY
WELL .                         : WELL
FLD  .                         : FIELD
LOC  .                         : LOCATION
PROV .                         : PROVINCE
CNTY .                         : COUNTY
STAT .                         : STATE
CTRY .                         : COUNTRY
SRVC .                         : SERVICE COMPANY
DATE .                         : DATE
UWI  .                         : UNIQUE WELL ID
API  .                         : API NUMBER
SLAT .WGS84 2.4587995371436975 : SURFACE LATITUDE
SLON .WGS84  8.058609648570993 : SURFACE LONGITUDE
DATUM.F                    nan : DEPTH DATUM ELEV
~Curve Information -----------------------------------------
DEPT   .F     : 1 MEASURED DEPTH
AF60   .OHMM  : ARRAY INDUCTION FOUR FOOT RESISTIVITY A60
SGRDD  .GAPI  : SPECTROSCOPY GAMMA RAY FROM DENSITY LOG
TNPH_LS.DEC   : THERMAL NEUTRON POROSITY [LIMESTONE]
PEFZ   .B/E   : HRDD STANDARD RESOLUTION FORMATION PHOTOELECTRIC FACTOR
DTCO   .US/F  : DELTA-T COMPRESSIONAL
DTSM   .US/F  : DELTA-T SHEAR
~Params ----------------------------------------------------
~Other -----------------------------------------------------
~ASCII -----------------------------------------------------
# ...
 11840.50000   11.70090   73.39260    0.10210    3.40920   69.02010  114.70740
 11841.00000   11.23000   72.94710    0.10090    3.33620   69.01600  114.78720
 11841.50000   11.35730   71.92210    0.10380    3.38510   68.65780  114.54450
 11842.00000   11.82590   71.04440    0.10210    3.49250   68.44390  114.29180
 11842.50000   12.46500   69.37140    0.10300    3.64700   67.70040  114.04300
 11843.00000   12.72360   66.00660    0.09910    3.81080   67.00390  113.38650
 11843.50000   12.67430   61.42410    0.09480    3.95380   65.93370  113.05580
 11844.00000   12.48620   61.77140    0.08820    3.97350   65.22060  112.28540
 11844.50000   12.28980   62.88160    0.08620    3.96220   64.50720  111.42070
 11845.00000   12.10740   66.91310    0.08680    3.87460   64.06950  110.55600
 11845.50000   12.11860   64.67710    0.08620    3.80100   63.09510  110.15150
 11846.00000   12.38100   63.96130    0.07790    3.82480   61.97980  109.17590
 11846.50000   12.84160   62.98710    0.07560    3.85140   61.66520  107.89470
 11847.00000   13.44200   62.20570    0.07680    3.97700   61.53020  107.04830
 11847.50000   13.97690   57.17860    0.07120    4.04920   60.71130  105.91780
 11848.00000   14.69770   53.32650    0.06350    3.98430   59.83150  105.30720
 11848.50000   15.48500   52.72540    0.06370    3.88120   59.93010  104.92090
 11849.00000   16.31550   51.52600    0.06390    3.92510   60.48230  105.65350
 11849.50000   16.82400   43.78560    0.04780    4.24420   61.40140  106.52490
 11850.00000   15.16720   35.77530    0.03680    4.53970   62.45520  107.53900
 11850.50000   13.13460   35.03620    0.03690    4.58990   63.76700  108.61760
 11851.00000   11.26430   49.00280    0.06040    4.31110   64.22990  109.85970
 11851.50000    9.90540   68.56550    0.09490    3.88180   65.71480  111.83320
 11852.00000    9.11240   84.67110    0.11330    3.50680   66.58990  112.87210
 11852.50000    8.77630   88.88890    0.11390    3.35730   67.45760  113.99040
 11853.00000    8.76760   83.01310    0.10420    3.34280   68.00730  115.21580
 11853.50000    8.90820   74.98120    0.09430    3.33120   68.02950  116.44730
 11854.00000    9.05110   73.69070    0.09050    3.28260   67.05360  116.73490
 11854.50000   10.04960   78.03940    0.09060    3.26410   65.99230  115.92660
 11855.00000   11.33900   82.21740    0.10130    3.32180   65.12330  114.52700
 11855.50000   13.59230   81.42930    0.10830    3.48690   63.64410  112.99890
 11856.00000   16.76360   74.24620    0.09960    3.75480   62.64190  112.29580
 11856.50000   20.36480   66.18790    0.08580    4.00330   61.61820  111.48840
 11857.00000   23.26190   59.21760    0.07080    4.28090   60.12500  109.34480
 11857.50000   25.79180   54.15950    0.06780    4.58500   59.68170  107.47430
 11858.00000   26.74240   50.19530    0.06510    5.05180   59.39450  106.29770
 11858.50000   27.33990   43.82200    0.06110    5.82880   59.51480  105.32400
 11859.00000   27.02150   38.82850    0.04840    6.37960   60.18460  104.89200
 11859.50000   24.28400   38.53810    0.03840    6.48450   60.80670  104.66920
 11860.00000   19.49850   43.50560    0.03550    5.88000   61.46350  105.37970
 11860.50000   15.83350   50.09220    0.03600    5.05580   62.14310  106.34920
 11861.00000   12.98760   56.32340    0.04660    4.31860   63.37620  107.06030
 11861.50000   10.64850   59.66880    0.06440    3.79910   63.91420  108.06920
 11862.00000    8.73480   58.91560    0.08220    3.63040   64.89470  109.10360
 11862.50000    7.92610   58.40870    0.08220    3.61950   65.96290  111.51650
 11863.00000    7.40400   60.36680    0.08300    3.62940   67.12430  112.42770
 11863.50000    7.09190   64.28160    0.08520    3.61490   67.72040  113.14320
 11864.00000    6.93620   67.04110    0.09500    3.60850   68.07040  113.43260
 11864.50000    6.90550   66.46380    0.10590    3.67120   68.77210  115.11820
 11865.00000    6.87240   65.58420    0.11460    3.79340   69.23170  115.74120
 11865.50000    6.82580   63.33760    0.11430    3.83090   69.45970  115.90040
 11866.00000    6.78120   63.38140    0.10840    3.69600   68.98870  116.05950
 11866.50000    6.79720   63.51470    0.10710    3.56110   66.68150  116.08210
 11867.00000    7.10160   65.40260    0.10590    3.44330   65.55380  115.46180
 11867.50000    7.54530   65.94340    0.10410    3.41910   64.63250  114.39620
 11868.00000    8.41970   62.24060    0.10070    3.50400   63.53740  111.89030
 11868.50000    9.36450   52.66240    0.09500    3.78010   63.12150  110.88230
 11869.00000   10.41150   40.49730    0.07090    4.12910   63.16580  110.07190
 11869.50000   11.49070   37.05670    0.05380    4.25420   62.59630  109.56200
 11870.00000   11.01410   44.83380    0.05150    4.13160   62.52100  109.03560
 11870.50000   10.35850   54.21440    0.06010    3.86120   63.11610  108.50910
 11871.00000   10.22030   58.81610    0.07540    3.60440   63.72860  109.01160
 11871.50000   10.38120   59.54900    0.07690    3.66230   64.33710  111.08450
 11872.00000   10.69860   57.28760    0.07750    3.91510   66.26980  111.72390
 11872.50000   10.95040   60.87850    0.08060    4.17370   67.10910  112.73480
 11873.00000   10.98780   69.49330    0.09020    4.17390   67.91230  113.43290
 11873.50000   11.22690   79.98150    0.11470    3.97620   69.09470  115.23990
 11874.00000   11.51200   80.63370    0.13790    3.79950   69.99440  115.96070
 11874.50000   11.91650   72.68060    0.14260    3.83490   70.94580  116.68150
 11875.00000   12.18520   66.71860    0.12640    3.90660   71.55670  117.24100
 11875.50000   11.90380   68.97750    0.11410    3.87720   72.17100  118.03800
 11876.00000   10.93820   77.47450    0.11990    3.67360   72.37230  118.35760
 11876.50000    9.95500   81.17460    0.12970    3.48020   72.39310  118.27310
 11877.00000    9.19400   81.19850    0.12730    3.39080   72.29640  118.03830
 11877.50000    8.95290   78.76600    0.11840    3.33470   71.68010  117.95560
 11878.00000    8.80860   75.98620    0.11550    3.32800   69.98490  117.94080
 11878.50000    8.92900   72.96230    0.11380    3.36580   69.88900  117.38120
 11879.00000    9.41110   71.30930    0.11170    3.52180   68.00330  116.51820
 11879.50000    9.91920   69.70390    0.10690    3.79360   68.43420  116.07800
 11880.00000   10.77360   62.71030    0.09530    4.05210   68.40150  115.63770
 11880.50000   10.84510   57.99760    0.07910    4.19090   68.25930  114.68560
 11881.00000   10.77470   56.28030    0.07740    4.12720   68.17650  114.18820
 11881.50000   10.44050   62.22800    0.08230    3.92520   68.24090  113.54700
 11882.00000   10.34660   64.58180    0.09660    3.74980   68.35380  113.30780
 11882.50000   10.27140   67.06360    0.10250    3.67050   68.06630  113.28100
 11883.00000   10.19670   66.22770    0.10690    3.62120   69.78640  113.95910
 11883.50000   10.17450   64.96430    0.10170    3.74170   70.26040  114.10910
 11884.00000   10.42220   63.86890    0.09510    3.80900   70.10950  113.77650
 11884.50000   10.56840   65.89670    0.08680    3.77320   69.79660  113.43060
 11885.00000   10.31460   68.29060    0.08810    3.63130   69.50290  113.22980
 11885.50000    9.85650   68.16560    0.08260    3.50060   69.21140  113.02900
 11886.00000    9.16510   66.24780    0.08270    3.48510   68.86310  112.90220
 11886.50000    8.38010   63.68250    0.08310    3.54910   68.31820  112.91900
 11887.00000    7.70830   61.73000    0.08530    3.62620   68.45770  112.93580
 11887.50000    7.15170   60.68450    0.08680    3.64870   68.55050  113.27970
 11888.00000    6.77580   63.14900    0.09280    3.54290   67.99430  113.39780
 11888.50000    6.67640   63.86490    0.09820    3.45630   67.06980  113.48050
 11889.00000    6.81930   65.32850    0.09500    3.48780   66.30510  113.30430
 11889.50000    7.27640   67.77650    0.09260    3.54710   65.73490  112.69810
 11890.00000    8.56440   72.78440    0.09170    3.59150   65.32410  111.70850
 11890.50000   10.09960   70.35930    0.09110    3.67130   65.33860  111.52910
 11891.00000   11.89910   61.01400    0.07620    3.89580   65.57260  111.75890
