~Version ---------------------------------------------------
VERS.   2.0 : CWLS log ASCII Standard -VERSION 2.0
WRAP.    NO : One line per depth step
DLM . SPACE : Column Data Section Delimiter
~Well ------------------------------------------------------
STRT .F                4996.0 : START DEPTH
STOP .F                9504.0 : STOP DEPTH
STEP .F                   0.5 : STEP
NULL .               -9999.25 : NULL VALUE
COMP .                        : COMPANY
WELL .                        : WELL
FLD  .                        : FIELD
LOC  .                        : LOCATION
PROV .                        : PROVINCE
CNTY .                        : COUNTY
STAT .                        : STATE
CTRY .                        : COUNTRY
SRVC .                        : SERVICE COMPANY
DATE .                        : DATE
UWI  .                        : UNIQUE WELL ID
API  .                        : API NUMBER
SLAT .WGS84 2.471292227407197 : SURFACE LATITUDE
SLON .WGS84 5.033315333499999 : SURFACE LONGITUDE
DATUM.F                2578.0 : DEPTH DATUM ELEV
~Curve Information -----------------------------------------
DEPT.F     : 
GR  .GAPI  : GAMMA RAY
DTCO.US/F  : DELTA-T COMPRESSIONAL
DTSM.US/F  : DELTA-T SHEAR
GRS .GAPI  : GAMMA RAY FROM SONIC LOG
~Params ----------------------------------------------------
~Other -----------------------------------------------------
~ASCII -----------------------------------------------------
# ...
 8714.00000   79.52020   62.15070  108.11440   83.97770
 8714.50000   74.92300   59.73960  106.99200   85.68480
 8715.00000   64.23170   55.35700  101.31370   80.03200
 8715.50000   56.27400   52.41980   94.73490   69.49540
 8716.00000   53.52160   50.42820   91.76600   62.03840
 8716.50000   52.70680   48.49640   88.37440   55.08810
 8717.00000   52.43990   45.78700   84.30040   54.84690
 8717.50000   52.51050   43.63010   81.51030   55.07960
 8718.00000   53.84280   42.60450   79.77200   54.73310
 8718.50000   59.58510   42.75050   79.38560   55.03390
 8719.00000   67.75180   43.89970   84.82910   57.13720
 8719.50000   70.13680   47.58930   91.27620   63.47540
 8720.00000   60.69930   51.35250   99.74770   70.71500
 8720.50000   52.68870   54.55150  103.38310   75.88810
 8721.00000   44.31110   56.41180  102.36980   69.87730
 8721.50000   41.63480   58.03080  100.31650   59.31890
 8722.00000   42.79980   55.32530   98.21290   49.15990
 8722.50000   46.26530   52.14210   93.58590   44.68450
 8723.00000   51.16040   50.03910   90.43920   45.90510
 8723.50000   58.53940   49.13420   88.27290   51.04310
 8724.00000   63.86140   48.88270   86.08720   57.90010
 8724.50000   67.82870   48.95010   84.94180   64.53170
 8725.00000   69.60490   49.87390   86.68320   68.69530
 8725.50000   70.98960   51.02700   88.62570   71.33500
 8726.00000   72.16940   53.21720   92.27010   72.40470
 8726.50000   71.03360   55.61060   96.38830   73.28100
 8727.00000   66.87480   57.16640   97.35090   73.26190
 8727.50000   60.10710   58.41770   96.12270   70.21640
 8728.00000   55.36020   60.53260   96.32510   64.02920
 8728.50000   56.09280   61.97790   99.67200   57.87590
 8729.00000   58.30260   62.53240  100.43770   55.59990
 8729.50000   58.07740   62.77830   98.84570   57.68300
 8730.00000   55.11150   62.64180   97.00830   60.90880
 8730.50000   50.51220   61.49170   94.21110   61.18930
 8731.00000   44.75890   60.23270   91.99300   56.61190
 8731.50000   40.06660   60.36420   93.57960   51.07930
 8732.00000   40.45690   61.84950   95.50260   46.03360
 8732.50000   42.77120   63.63490   96.76360   42.23760
 8733.00000   45.83520   64.99240   98.12940   42.69590
 8733.50000   48.40450   65.59280   99.92140   46.66740
 8734.00000   50.21820   66.38880  101.67420   51.30980
 8734.50000   52.55220   68.07260  103.35600   56.27270
 8735.00000   56.53770   68.09070  103.71260   58.78650
 8735.50000   61.67300   66.87530  101.41100   61.05700
 8736.00000   66.47820   64.71060   98.38000   63.45410
 8736.50000   68.97760   61.09430   95.51410   66.07540
 8737.00000   66.37180   57.10350   95.58280   67.13560
 8737.50000   63.35780   51.60030   96.59350   67.13740
 8738.00000   64.68940   49.48400   97.21240   65.83360
 8738.50000   68.13530   48.05230   97.80730   64.78980
 8739.00000   72.15130   47.47300   99.54870   66.41840
 8739.50000   74.12320   47.58630  102.17510   69.90600
 8740.00000   74.66690   49.55940  104.62440   74.26420
 8740.50000   74.13680   51.32920  105.88270   78.02580
 8741.00000   72.76970   51.56980  102.71540   79.91870
 8741.50000   74.12530   52.85240  102.64440   78.04110
 8742.00000   77.99890   55.73490  104.78040   75.06230
 8742.50000   86.09440   56.11390  103.47010   74.11780
 8743.00000   98.33170   56.36520  104.11700   78.39900
 8743.50000  110.48980   58.14430  106.75790   88.72100
 8744.00000  115.65480   60.10110  109.77200   99.04930
 8744.50000  101.15560   62.00300  108.55780  109.63860
 8745.00000   81.06610   61.94060  106.89600  104.62270
 8745.50000   60.46140   60.83380  105.92300   88.18840
 8746.00000   52.00590   59.98500  105.66230   69.80270
 8746.50000   48.49700   58.81450  105.27620   54.63680
 8747.00000   44.76930   57.06820  103.64880   53.49920
 8747.50000   38.86840   54.85430  101.12920   52.83420
 8748.00000   34.82060   53.17940   98.63630   48.53890
 8748.50000   31.75890   51.93400   96.16190   42.75870
 8749.00000   31.19590   51.03620   94.07500   37.11170
 8749.50000   31.42700   50.21690   92.77230   33.75130
 8750.00000   32.54370   50.46930   92.68120   33.66160
 8750.50000   33.57650   50.98450   95.24100   33.83950
 8751.00000   33.64840   51.80650   95.98860   34.94040
 8751.50000   33.44930   51.89720   95.58680   35.75630
 8752.00000   33.15820   51.69390   94.96950   35.44560
 8752.50000   33.27010   51.10640   94.39670   33.68400
 8753.00000   33.67600   50.35330   92.28390   32.53830
 8753.50000   33.34810   49.22010   90.12650   32.35780
 8754.00000   32.40510   46.82700   88.03080   32.93740
 8754.50000   31.08410   45.88710   86.48170   33.58150
 8755.00000   30.11470   46.15600   86.07550   33.43440
 8755.50000   29.85430   47.38560   86.52140   32.94860
 8756.00000   33.25160   49.45410   85.53200   33.67370
 8756.50000   38.31300   52.29640   89.03860   37.00240
 8757.00000   43.81520   55.02490   92.46340   44.20830
 8757.50000   46.02890   54.26560   93.10030   50.86370
 8758.00000   44.72600   51.17040   89.43440   50.93380
 8758.50000   44.50250   48.99220   87.02870   47.13110
 8759.00000   45.75810   47.62720   86.78900   45.32150
 8759.50000   43.84580   47.99540   86.31070   44.13130
 8760.00000   39.52900   48.45880   85.47130   42.94120
 8760.50000   36.19340   47.15730   83.64220   41.97690
 8761.00000   35.31300   47.35700   81.41880   40.44390
 8761.50000   36.25200   49.32450   79.58230   39.16700
 8762.00000   37.77120   50.74920   78.54730   37.32900
 8762.50000   39.25310   52.11390   80.64290   35.48860
 8763.00000   42.06980   52.56830   84.22160   33.59130
 8763.50000   46.10360   52.92450   86.34360   33.84530
 8764.00000   51.31280   54.12210   88.68040   38.10540
 8764.50000   55.90460   56.12180   92.02020   44.09310
 8765.00000   59.99730   57.83290   94.22500   52.71560
 8765.50000   64.41190   58.90610   95.50130   60.24860
 8766.00000   68.13860   59.80110   95.85640   67.01690
 8766.50000   69.99180   60.62470   95.98040   69.31380
 8767.00000   64.44700   61.15570   95.68100   67.44480
 8767.50000   56.03020   61.41430   95.11710   61.73690
 8768.00000   48.46030   61.42950   94.18800   54.39370
 8768.50000   43.58510   60.98490   92.86080   47.38280
 8769.00000   41.44090   61.04190   92.06530   44.74910
 8769.50000   40.12160   62.26590   92.70830   43.37200
 8770.00000   39.47720   60.71930   93.35130   42.89940
 8770.50000   42.12410   58.16160   92.55210   42.77850
 8771.00000   47.55630   53.97380   91.02350   43.08150
 8771.50000   54.32040   52.76530   92.62630   46.42350
 8772.00000   59.77130   52.13520   95.77530   49.96720
 8772.50000   62.94510   54.88430   98.74730   54.39890
 8773.00000   59.62090   58.83510  101.54380   57.97540
 8773.50000   52.14150   60.52490  102.31420   60.38090
 8774.00000   44.96430   60.37500   99.08370   60.49640
 8774.50000   35.63110   59.61270   95.60090   55.89650
 8775.00000   31.39600   57.89470   92.80220   49.34700
 8775.50000   29.58360   55.08340   90.05470   40.16890
 8776.00000   31.54660   55.92280   89.74560   34.39570
 8776.50000   36.25040   57.89280   92.28940   33.57810
 8777.00000   45.79180   60.15270   94.77070   38.30130
 8777.50000   54.41750   59.66800   95.16800   48.55740
 8778.00000   59.19410   54.36370   93.10120   60.21450
 8778.50000   57.29110   51.42420   90.03440   62.91580
 8779.00000   52.27420   51.04710   88.99970   56.52470
 8779.50000   51.00990   53.35370   89.78550   50.14650
 8780.00000   52.41960   54.13820   93.60010   48.94730
 8780.50000   57.15740   54.00030   94.31750   56.70520
 8781.00000   61.07530   53.50750   94.20570   65.25520
 8781.50000   64.20730   52.88610   94.51350   70.10250
 8782.00000   66.85870   52.19220   97.31520   70.06660
 8782.50000   67.35050   52.28690  100.29630   69.28810
 8783.00000   66.91280   54.27920  103.27730   69.69550
 8783.50000   66.57550   56.60670  103.75520   70.12310
 8784.00000   66.78390   57.18310  101.72820   70.05820
 8784.50000   66.02780   57.69330   99.63130   69.70650
 8785.00000   61.06190   57.37160   97.37660   68.50420
