~Version ---------------------------------------------------
VERS.   2.0 : CWLS log ASCII Standard -VERSION 2.0
WRAP.    NO : One line per depth step
DLM . SPACE : Column Data Section Delimiter
~Well ------------------------------------------------------
STRT .F                4996.0 : START DEPTH
STOP .F                9504.0 : STOP DEPTH
STEP .F                   0.5 : STEP
NULL .               -9999.25 : NULL VALUE
COMP .                        : COMPANY
WELL .                        : WELL
FLD  .                        : FIELD
LOC  .                        : LOCATION
PROV .                        : PROVINCE
CNTY .                        : COUNTY
STAT .                        : STATE
CTRY .                        : COUNTRY
SRVC .                        : SERVICE COMPANY
DATE .                        : DATE
UWI  .                        : UNIQUE WELL ID
API  .                        : API NUMBER
SLAT .WGS84 2.471292227407197 : SURFACE LATITUDE
SLON .WGS84 5.033315333499999 : SURFACE LONGITUDE
DATUM.F                2578.0 : DEPTH DATUM ELEV
~Curve Information -----------------------------------------
DEPT.F     : 
GR  .GAPI  : GAMMA RAY
DTCO.US/F  : DELTA-T COMPRESSIONAL
DTSM.US/F  : DELTA-T SHEAR
GRS .GAPI  : GAMMA RAY FROM SONIC LOG
~Params ----------------------------------------------------
~Other -----------------------------------------------------
~ASCII -----------------------------------------------------
# ...
 7999.00000   56.05890   40.80460   95.57380   99.73020
 7999.50000   55.38600   39.63440   90.51000   73.60380
 8000.00000   60.73320   40.84680   91.17460   54.09220
 8000.50000   65.96060   43.71760  100.05000   53.23320
 8001.00000   68.40660   46.71420  101.24170   57.03750
 8001.50000   67.26770   50.44680   98.78100   64.12620
 8002.00000   64.38120   52.51900   96.06490   71.70630
 8002.50000   62.30010   52.55020   93.83550   78.24790
 8003.00000   62.45690   51.18040   91.46550   78.57190
 8003.50000   63.92240   51.79050   89.64220   74.62680
 8004.00000   66.31530   54.42340   91.44920   70.12290
 8004.50000   70.16930   55.18170   93.99350   67.40150
 8005.00000   74.55770   54.28920   94.72570   68.10810
 8005.50000   77.44290   53.78180   98.59580   71.11620
 8006.00000   75.66700   51.84380   99.02450   74.17800
 8006.50000   72.89930   49.29180   97.45450   78.25550
 8007.00000   70.20420   47.20610   97.59800   80.50390
 8007.50000   71.06210   46.07000   97.98940   81.02360
 8008.00000   75.04380   46.56370   99.13460   80.16160
 8008.50000   77.26500   48.10080  103.43820   78.31050
 8009.00000   77.34000   52.36470  109.18220   76.50230
 8009.50000   74.85260   54.51710  111.50080   74.82070
 8010.00000   68.43790   53.39170  110.39570   75.09540
 8010.50000   62.79410   51.78530  107.80800   75.44260
 8011.00000   53.64290   53.33730  107.38320   74.80940
 8011.50000   46.57970   53.88530  102.95860   70.30630
 8012.00000   41.96550   53.61410   98.64680   61.76450
 8012.50000   41.09520   53.28820   95.91500   52.20740
 8013.00000   44.13960   51.89520   94.51960   43.61940
 8013.50000   48.58120   50.39920   94.21820   39.99170
 8014.00000   54.06260   51.80270   94.96660   41.24870
 8014.50000   59.34050   54.09420   95.76870   45.46560
 8015.00000   60.03250   57.35300   97.93880   49.27180
 8015.50000   57.87650   59.39270  101.73330   52.93490
 8016.00000   54.26310   57.59080  102.33980   57.65370
 8016.50000   51.17270   54.13750  101.71900   62.89410
 8017.00000   50.72730   51.80820  100.57120   65.66300
 8017.50000   52.35130   50.09330   98.14460   63.84600
 8018.00000   55.88400   49.88610   95.57500   56.55570
 8018.50000   59.68900   51.19480   97.29850   49.53480
 8019.00000   58.53830   54.06880  101.32290   46.06200
 8019.50000   54.73000   57.23270  103.31700   48.49290
 8020.00000   48.79150   60.89790  103.39370   54.41240
 8020.50000   42.60660   62.09510  101.11390   61.20200
 8021.00000   38.48900   61.37470   97.97910   61.24780
 8021.50000   36.49620   60.87840   96.28050   55.36200
 8022.00000   35.60470   60.27940   95.08370   48.55260
 8022.50000   34.55720   59.70600   94.62480   44.16330
 8023.00000   31.91670   59.60840   94.93880   40.33430
 8023.50000   31.08450   60.07040   95.78150   37.24800
 8024.00000   30.54850   61.19730   96.58510   35.26550
 8024.50000   29.95630   61.75240   97.07640   34.76560
 8025.00000   28.41790   62.17610   97.12450   34.36110
 8025.50000   22.97900   62.76630   95.41940   33.49200
 8026.00000   18.48940   63.26880   92.90590   33.23600
 8026.50000   14.60620   62.76680   90.15600   33.21890
 8027.00000   14.33590   61.09740   87.60490   33.70570
 8027.50000   16.55110   58.87620   85.44390   32.60180
 8028.00000   22.39500   58.68710   84.38850   28.55120
 8028.50000   32.94380   59.98840   86.99680   21.93790
 8029.00000   41.91990   62.71330   89.47840   16.13540
 8029.50000   47.54070   62.77410   90.60900   12.82670
 8030.00000   45.42450   61.97200   89.24290   13.60300
 8030.50000   43.22170   61.27000   87.41200   19.00510
 8031.00000   40.20800   61.11500   86.98950   28.81850
 8031.50000   38.67580   61.11030   87.12120   38.43570
 8032.00000   38.62690   60.75080   84.21800   43.13870
 8032.50000   39.60740   55.93830   80.23360   41.20720
 8033.00000   40.23450   51.05510   74.72120   38.85830
 8033.50000   38.61740   47.61190   71.63120   38.48120
 8034.00000   34.29460   46.99440   74.33800   36.97370
 8034.50000   32.71490   46.75940   80.03910   34.63970
 8035.00000   39.82260   46.75940   84.62470   30.75050
 8035.50000   53.27490   46.75940   86.45660   32.66100
 8036.00000   68.91990   46.74890   88.46710   46.42100
 8036.50000   74.45030   46.74080   93.34060   60.10610
 8037.00000   76.59280   46.82180   93.22660   69.74650
 8037.50000   76.87610   47.30970   87.57200   76.32870
 8038.00000   76.68170   56.09200   78.44960   77.71110
 8038.50000   77.19080   69.42360   74.67840   77.98330
 8039.00000   80.78640   80.62810   88.34960   77.97340
 8039.50000   87.70820   87.56650  105.60280   78.66140
 8040.00000   91.56890   75.06250  102.92770   83.13160
 8040.50000   92.95810   61.98970   95.18540   88.20080
 8041.00000   89.91300   66.30780  106.04120   90.96650
 8041.50000   87.72070   80.30800  134.25160   88.41600
 8042.00000   98.03950   84.96700  151.12520   85.50220
 8042.50000  108.78590   85.46190  156.40540   88.56780
 8043.00000  125.11010   84.59090  153.36420   96.15550
 8043.50000  133.44890   84.68310  148.47920  111.25530
 8044.00000  132.57460   87.56830  143.22450  124.01190
 8044.50000  118.13570   90.88980  135.49670  133.51570
 8045.00000   95.86340   86.26400  126.16140  129.63230
 8045.50000   80.23700   76.57560  114.73460  118.46150
 8046.00000   66.08800   70.81460  110.19150  105.21590
 8046.50000   53.89580   67.66280  109.07360   84.29000
 8047.00000   48.64570   62.81750  103.71760   68.79240
 8047.50000   48.52340   57.88800   95.30700   56.01280
 8048.00000   49.35260   55.80900   91.39100   50.05220
 8048.50000   50.96970   55.45640   87.82470   46.77980
 8049.00000   58.43960   55.26750   84.32320   48.62560
 8049.50000   80.98250   54.91170   80.81550   52.46780
 8050.00000  113.60500   53.95220   77.30160   67.61950
 8050.50000  154.08230   52.50340   74.83560   88.98970
 8051.00000  181.76960   51.79550   78.18910  139.29230
 8051.50000  203.82580   54.99420   84.38680  166.24860
 8052.00000  220.87760   58.99020   92.99690  200.02150
 8052.50000  227.25280   62.91850  102.46180  229.37020
 8053.00000  216.48410   62.04120   98.07730  240.16550
 8053.50000  195.05500   58.11680   90.62810  233.66930
 8054.00000  173.62070   59.18450   92.44960  213.40290
 8054.50000  154.96960   64.85790  101.68750  185.50890
 8055.00000  119.81920   70.41950  110.38970  148.22440
 8055.50000   85.48700   69.10030  109.35610  126.86600
 8056.00000   59.84590   64.95620  104.48920  101.46170
 8056.50000   44.73530   62.30140   99.84090   66.59310
 8057.00000   39.75020   60.03000   96.28700   48.07920
 8057.50000   38.22220   56.21700   92.93890   42.14330
 8058.00000   36.48370   52.89190   90.26160   41.84320
 8058.50000   35.47970   52.19660   91.46310   41.44030
 8059.00000   37.38390   54.04490   94.58950   39.43690
 8059.50000   40.61510   55.87890   94.94680   37.04020
 8060.00000   42.28290   56.06710   93.26400   37.86340
 8060.50000   41.93850   56.09570   93.84570   41.15910
 8061.00000   39.59700   55.48510   94.31700   43.32330
 8061.50000   37.56310   53.96240   92.54030   43.50740
 8062.00000   37.98450   52.31000   90.50300   42.09560
 8062.50000   40.08020   52.20260   90.46980   40.83730
 8063.00000   44.66810   52.13310   91.17060   41.30860
 8063.50000   50.05870   50.97560   90.77440   42.25230
 8064.00000   54.01510   49.13600   89.98420   43.66050
 8064.50000   57.25200   47.30400   88.01610   46.02020
 8065.00000   59.23020   45.37090   88.75100   50.90940
 8065.50000   63.87990   47.35690   95.52900   56.58210
 8066.00000   69.01550   51.41680  103.29150   60.49590
 8066.50000   73.19430   55.40910  111.53260   64.29300
 8067.00000   73.05860   56.17290  114.06140   69.77880
 8067.50000   66.90110   58.57090  113.94400   74.35130
 8068.00000   57.95670   65.89330  113.43670   75.50370
 8068.50000   51.19310   68.65540  109.38450   67.37030
 8069.00000   52.13560   66.19350  104.55570   58.28830
 8069.50000   54.34210   58.33290   99.90020   54.77890
 8070.00000   50.33440   55.68400   95.34640   53.54470
