~Version ---------------------------------------------------
VERS.   2.0 : CWLS log ASCII Standard -VERSION 2.0
WRAP.    NO : One line per depth step
DLM . SPACE : Column Data Section Delimiter
~Well ------------------------------------------------------
STRT .F                4996.0 : START DEPTH
STOP .F                9504.0 : STOP DEPTH
STEP .F                   0.5 : STEP
NULL .               -9999.25 : NULL VALUE
COMP .                        : COMPANY
WELL .                        : WELL
FLD  .                        : FIELD
LOC  .                        : LOCATION
PROV .                        : PROVINCE
CNTY .                        : COUNTY
STAT .                        : STATE
CTRY .                        : COUNTRY
SRVC .                        : SERVICE COMPANY
DATE .                        : DATE
UWI  .                        : UNIQUE WELL ID
API  .                        : API NUMBER
SLAT .WGS84 2.471292227407197 : SURFACE LATITUDE
SLON .WGS84 5.033315333499999 : SURFACE LONGITUDE
DATUM.F                2578.0 : DEPTH DATUM ELEV
~Curve Information -----------------------------------------
DEPT.F     : 
GR  .GAPI  : GAMMA RAY
DTCO.US/F  : DELTA-T COMPRESSIONAL
DTSM.US/F  : DELTA-T SHEAR
GRS .GAPI  : GAMMA RAY FROM SONIC LOG
~Params ----------------------------------------------------
~Other -----------------------------------------------------
~ASCII -----------------------------------------------------
# ...
 8142.00000   82.71440   64.67710  123.71530   71.25160
 8142.50000   89.11000   65.16270  120.49210   76.79100
 8143.00000   89.39430   65.93940  117.00450   87.07830
 8143.50000   81.99630   64.93250  110.08780   92.36630
 8144.00000   72.36040   63.67510  105.99570   85.10460
 8144.50000   65.62290   63.01090  102.78230   77.32030
 8145.00000   61.35300   62.92790  106.27990   69.63070
 8145.50000   58.94890   59.87940  105.23630   65.74560
 8146.00000   56.77200   51.56820  100.14120   62.92040
 8146.50000   53.78290   45.62380   90.55700   60.09510
 8147.00000   49.64120   44.67800   89.91810   56.90550
 8147.50000   46.21050   44.73300   90.91150   52.55180
 8148.00000   43.12760   44.74830   91.52280   47.01810
 8148.50000   40.02740   45.27360   90.95470   42.93650
 8149.00000   37.54880   47.51670   90.69590   39.01400
 8149.50000   35.53300   48.50580   90.65670   36.65780
 8150.00000   35.04770   47.30260   89.55510   35.39700
 8150.50000   34.88330   45.94170   87.02100   34.71510
 8151.00000   35.28630   46.79680   87.59270   34.88640
 8151.50000   35.59080   49.02870   89.25710   35.20410
 8152.00000   35.80520   50.41340   90.14500   35.28930
 8152.50000   35.37500   49.68690   89.06890   35.20570
 8153.00000   34.43750   47.18970   88.19030   34.53710
 8153.50000   32.78810   47.12950   87.38070   34.01010
 8154.00000   30.71180   48.51240   86.75420   33.61150
 8154.50000   29.42740   49.18450   86.13580   32.62880
 8155.00000   30.79710   47.58210   86.41160   31.35540
 8155.50000   34.39030   46.56220   86.86760   31.22290
 8156.00000   38.38090   47.60590   89.53860   33.87020
 8156.50000   40.77420   49.19870   92.06830   37.26190
 8157.00000   41.26970   49.39230   90.48670   39.25910
 8157.50000   40.99400   48.83290   88.51860   41.27190
 8158.00000   42.86210   48.85170   88.06440   42.60990
 8158.50000   45.92970   49.58860   92.99070   46.03890
 8159.00000   51.25310   50.13200   95.42370   50.63070
 8159.50000   52.05810   50.34750   96.74800   52.89000
 8160.00000   43.11130   48.90800   94.88080   46.85220
 8160.50000   34.07000   47.24710   90.31590   40.06620
 8161.00000   25.95520   45.95740   82.96840   30.05680
 8161.50000   21.04530   42.87040   77.77850   23.03100
 8162.00000   18.38100   42.81290   79.53240   19.48500
 8162.50000   15.77000   46.89190   88.65950   16.93460
 8163.00000   14.78220   49.50550  101.44270   16.06740
 8163.50000   14.03750   50.48740  109.66960   16.72900
 8164.00000   15.03080   50.89380  112.83660   17.78900
 8164.50000   17.53410   50.83630  112.86410   18.92590
 8165.00000   18.99000   50.65560  111.85530   19.38620
 8165.50000   20.97980   50.43940  110.70600   19.64020
 8166.00000   24.33620   50.33010  111.06280   20.54490
 8166.50000   32.91900   53.42620  118.88400   22.32890
 8167.00000   43.07240   59.46710  132.68550   27.91860
 8167.50000   54.01270   67.68600  148.33020   37.35850
 8168.00000   60.75340   70.61420  154.88610   48.98540
 8168.50000   67.49400   70.75960  150.90370   58.07150
 8169.00000   69.24240   68.91310  141.24210   65.42040
 8169.50000   67.31440   68.57820  121.66640   69.24490
 8170.00000   68.57540   69.32560  111.38740   70.78270
 8170.50000   72.01470   67.60970  101.83160   72.80130
 8171.00000   76.94710   63.75090   97.31240   77.58940
 8171.50000   76.18360   62.24740   97.49060   81.59280
 8172.00000   62.82940   62.05070   99.16340   78.23800
 8172.50000   51.01290   61.61150   99.35280   66.98220
 8173.00000   38.71910   58.77770   95.33680   53.09180
 8173.50000   38.04130   53.93520   90.32640   40.98270
 8174.00000   46.60450   52.64990   89.43380   38.48850
 8174.50000   59.83630   55.44200   94.03490   43.76230
 8175.00000   64.93270   57.60250  100.22480   51.97570
 8175.50000   64.05730   59.40900  106.58410   59.60120
 8176.00000   62.37700   60.37190  111.29070   61.70890
 8176.50000   60.13480   61.25430  110.61000   63.37390
 8177.00000   55.68540   61.69720  105.07980   63.95700
 8177.50000   50.64470   61.75230  100.03490   62.58260
 8178.00000   46.83990   61.61510   97.39810   56.73680
 8178.50000   44.74630   61.48850   97.40800   50.41620
 8179.00000   44.59470   62.14870   97.24470   47.33560
 8179.50000   48.86700   64.87230   99.30630   50.15340
 8180.00000   61.03500   72.40500  110.63890   59.78140
 8180.50000   80.51550   77.49090  124.06790   71.71970
 8181.00000   93.65750   74.05070  123.03690   86.09910
 8181.50000   96.25880   66.63460  115.90030   92.47050
 8182.00000   76.90960   60.60100  110.10650   76.83900
 8182.50000   62.78720   56.36060  106.37780   61.30660
 8183.00000   49.66550   52.73880  104.22760   46.76070
 8183.50000   48.84120   50.03040  104.47270   45.06530
 8184.00000   54.47970   48.78860  105.30390   52.94080
 8184.50000   57.92020   48.23700  104.15410   58.16990
 8185.00000   52.39500   47.53920   96.90980   56.00380
 8185.50000   43.44210   46.68300   91.31720   46.81430
 8186.00000   40.21180   47.07780   89.98920   37.63130
 8186.50000   50.86530   49.88760  100.16830   41.26080
 8187.00000   70.18570   56.33960  109.80450   58.34870
 8187.50000   82.30660   61.03510  118.14540   81.00980
 8188.00000   84.66850   59.73920  116.15130   94.34550
 8188.50000   71.83070   56.69800  111.04430   91.25070
 8189.00000   62.46990   51.52930  103.76660   79.63540
 8189.50000   57.44740   46.36060   95.37440   68.39130
 8190.00000   56.02450   42.77090   89.40100   62.51070
 8190.50000   63.59140   43.40030   92.61990   60.36640
 8191.00000   71.17860   48.31420   98.29730   65.28020
 8191.50000   78.72960   52.98050  103.98800   74.65950
 8192.00000   79.78570   60.30720  108.51070   85.31340
 8192.50000   80.06900   64.65610  111.83230   89.45370
 8193.00000   81.22250   66.61860  113.52080   86.48440
 8193.50000   86.21620   67.16130  114.67030   85.68530
 8194.00000   87.41490   66.52330  114.34710   87.51170
 8194.50000   83.90830   65.40590  111.41110   88.54750
 8195.00000   77.81850   62.38130  107.12990   87.18500
 8195.50000   74.24460   60.60180  104.02320   82.85000
 8196.00000   74.50330   59.01250  102.71220   79.19460
 8196.50000   74.60590   57.02120   99.84730   75.89360
 8197.00000   69.91930   56.55350   99.38910   75.46200
 8197.50000   64.26410   56.77500   98.59880   74.55710
 8198.00000   61.30840   56.03300   97.80040   70.30140
 8198.50000   62.62820   56.47210   97.15000   63.24410
 8199.00000   67.93230   59.25000   97.99130   59.61690
 8199.50000   76.14370   60.85180  100.46870   57.18040
 8200.00000   81.45660   61.37610  102.94610   61.69600
 8200.50000   84.38590   61.98240  104.31810   66.99170
 8201.00000   84.09330   62.68080  105.30420   73.53820
 8201.50000   82.89030   62.66170  107.04320   76.85100
 8202.00000   79.68460   62.05280  105.52410   77.58750
 8202.50000   76.80840   61.16210  102.98230   75.83860
 8203.00000   71.69650   60.16140  103.42690   73.85980
 8203.50000   66.57000   59.64270  103.36940   70.35680
 8204.00000   63.25890   58.99750  102.50330   65.69020
 8204.50000   60.79530   57.53300   98.54670   61.45670
 8205.00000   62.51990   58.39510   98.85200   61.32420
 8205.50000   65.38450   62.09930  103.84670   63.59210
 8206.00000   64.56600   62.75310  110.25170   66.00200
 8206.50000   60.85680   61.36210  108.19570   67.14760
 8207.00000   57.76470   59.54910  104.46460   63.59220
 8207.50000   59.24390   59.51650  102.41980   60.12390
 8208.00000   62.23510   61.84690  106.02870   58.17640
 8208.50000   64.67140   59.34230  101.05540   60.27940
 8209.00000   66.61390   52.13510   90.46410   62.33370
 8209.50000   70.76950   47.18120   87.11050   63.90180
 8210.00000   77.76340   51.47750  102.21550   68.06760
 8210.50000   86.09300   58.47020  116.16790   73.94370
 8211.00000   88.02670   63.66710  123.64840   82.12720
 8211.50000   84.27950   67.24970  126.86800   86.74880
 8212.00000   78.66730   70.00310  129.62420   84.49630
 8212.50000   75.02520   70.98920  129.39840   81.42140
 8213.00000   77.83110   68.43980  124.87840   80.19170
