~Version ---------------------------------------------------
VERS.   2.0 : CWLS log ASCII Standard -VERSION 2.0
WRAP.    NO : One line per depth step
DLM . SPACE : Column Data Section Delimiter
~Well ------------------------------------------------------
STRT .F                4996.0 : START DEPTH
STOP .F                9504.0 : STOP DEPTH
STEP .F                   0.5 : STEP
NULL .               -9999.25 : NULL VALUE
COMP .                        : COMPANY
WELL .                        : WELL
FLD  .                        : FIELD
LOC  .                        : LOCATION
PROV .                        : PROVINCE
CNTY .                        : COUNTY
STAT .                        : STATE
CTRY .                        : COUNTRY
SRVC .                        : SERVICE COMPANY
DATE .                        : DATE
UWI  .                        : UNIQUE WELL ID
API  .                        : API NUMBER
SLAT .WGS84 2.471292227407197 : SURFACE LATITUDE
SLON .WGS84 5.033315333499999 : SURFACE LONGITUDE
DATUM.F                2578.0 : DEPTH DATUM ELEV
~Curve Information -----------------------------------------
DEPT.F     : 
GR  .GAPI  : GAMMA RAY
DTCO.US/F  : DELTA-T COMPRESSIONAL
DTSM.US/F  : DELTA-T SHEAR
GRS .GAPI  : GAMMA RAY FROM SONIC LOG
~Params ----------------------------------------------------
~Other -----------------------------------------------------
~ASCII -----------------------------------------------------
# ...
 6712.00000   19.04610   -9999.25   -9999.25   -9999.25
 6712.50000   20.39670   -9999.25   -9999.25   -9999.25
 6713.00000   23.10550   -9999.25   -9999.25   -9999.25
 6713.50000   24.71910   -9999.25   -9999.25   -9999.25
 6714.00000   25.60780   -9999.25   -9999.25   -9999.25
 6714.50000   26.36920   -9999.25   -9999.25   -9999.25
 6715.00000   28.03090   -9999.25   -9999.25   -9999.25
 6715.50000   30.21890   -9999.25   -9999.25   -9999.25
 6716.00000   31.03160   -9999.25   -9999.25   -9999.25
 6716.50000   31.54280   -9999.25   -9999.25   -9999.25
 6717.00000   30.95530   -9999.25   -9999.25   -9999.25
 6717.50000   30.08110   -9999.25   -9999.25   -9999.25
 6718.00000   30.35910   -9999.25   -9999.25   -9999.25
 6718.50000   30.91460   -9999.25   -9999.25   -9999.25
 6719.00000   31.84880   -9999.25   -9999.25   -9999.25
 6719.50000   31.58870   -9999.25   -9999.25   -9999.25
 6720.00000   28.59730   -9999.25   -9999.25   -9999.25
 6720.50000   26.54540   -9999.25   -9999.25   -9999.25
 6721.00000   27.06050   -9999.25   -9999.25   -9999.25
 6721.50000   30.03480   -9999.25   -9999.25   -9999.25
 6722.00000   31.22770   -9999.25   -9999.25   -9999.25
 6722.50000   31.57050   -9999.25   -9999.25   -9999.25
 6723.00000   31.24790   -9999.25   -9999.25   -9999.25
 6723.50000   30.92530   -9999.25   -9999.25   -9999.25
 6724.00000   29.53850   -9999.25   -9999.25   -9999.25
 6724.50000   27.37170   -9999.25   -9999.25   -9999.25
 6725.00000   27.35010   -9999.25   -9999.25   -9999.25
 6725.50000   28.99560   -9999.25   -9999.25   -9999.25
 6726.00000   30.98170   -9999.25   -9999.25   -9999.25
 6726.50000   32.43090   -9999.25   -9999.25   -9999.25
 6727.00000   31.46610   -9999.25   -9999.25   -9999.25
 6727.50000   29.57960   -9999.25   -9999.25   -9999.25
 6728.00000   27.09500   -9999.25   -9999.25   -9999.25
 6728.50000   26.00490   -9999.25   -9999.25   -9999.25
 6729.00000   27.04360   -9999.25   -9999.25   -9999.25
 6729.50000   28.69330   -9999.25   -9999.25   -9999.25
 6730.00000   28.69330   -9999.25   -9999.25   -9999.25
 6730.50000   28.69330   -9999.25   -9999.25   -9999.25
 6731.00000   29.33330   -9999.25   -9999.25   -9999.25
 6731.50000   31.50580   -9999.25   -9999.25   -9999.25
 6732.00000   32.50990   -9999.25   -9999.25   -9999.25
 6732.50000   28.83420   -9999.25   -9999.25   -9999.25
 6733.00000   23.88200   -9999.25   -9999.25   -9999.25
 6733.50000   22.54850   -9999.25   -9999.25   -9999.25
 6734.00000   25.42420   -9999.25   -9999.25   -9999.25
 6734.50000   30.37780   -9999.25   -9999.25   -9999.25
 6735.00000   32.33920   -9999.25   -9999.25   -9999.25
 6735.50000   30.73010   -9999.25   -9999.25   -9999.25
 6736.00000   28.70820   -9999.25   -9999.25   -9999.25
 6736.50000   26.82790   -9999.25   -9999.25   -9999.25
 6737.00000   26.93200   -9999.25   -9999.25   -9999.25
 6737.50000   28.86610   -9999.25   -9999.25   -9999.25
 6738.00000   30.55380   -9999.25   -9999.25   -9999.25
 6738.50000   31.61540   -9999.25   -9999.25   -9999.25
 6739.00000   31.42670   -9999.25   -9999.25   -9999.25
 6739.50000   31.14510   -9999.25   -9999.25   -9999.25
 6740.00000   30.74590   -9999.25   -9999.25   -9999.25
 6740.50000   29.67690   -9999.25   -9999.25   -9999.25
 6741.00000   27.32070   -9999.25   -9999.25   -9999.25
 6741.50000   24.42520   -9999.25   -9999.25   -9999.25
 6742.00000   20.35760   -9999.25   -9999.25   -9999.25
 6742.50000   19.05350   -9999.25   -9999.25   -9999.25
 6743.00000   19.48990   -9999.25   -9999.25   -9999.25
 6743.50000   21.70080   -9999.25   -9999.25   -9999.25
 6744.00000   24.93890   -9999.25   -9999.25   -9999.25
 6744.50000   26.97030   -9999.25   -9999.25   -9999.25
 6745.00000   26.77100   -9999.25   -9999.25   -9999.25
 6745.50000   26.07850   -9999.25   -9999.25   -9999.25
 6746.00000   25.56850   -9999.25   -9999.25   -9999.25
 6746.50000   25.36280   -9999.25   -9999.25   -9999.25
 6747.00000   27.01660   -9999.25   -9999.25   -9999.25
 6747.50000   30.75160   -9999.25   -9999.25   -9999.25
 6748.00000   32.93490   -9999.25   -9999.25   -9999.25
 6748.50000   32.68900   -9999.25   -9999.25   -9999.25
 6749.00000   30.85870   -9999.25   -9999.25   -9999.25
 6749.50000   29.64750   -9999.25   -9999.25   -9999.25
 6750.00000   30.20490   -9999.25   -9999.25   -9999.25
 6750.50000   31.96560   -9999.25   -9999.25   -9999.25
 6751.00000   34.58220   -9999.25   -9999.25   -9999.25
 6751.50000   35.15050   -9999.25   -9999.25   -9999.25
 6752.00000   32.46520   -9999.25   -9999.25   -9999.25
 6752.50000   29.27440   -9999.25   -9999.25   -9999.25
 6753.00000   29.71690   -9999.25   -9999.25   -9999.25
 6753.50000   30.48540   -9999.25   -9999.25   -9999.25
 6754.00000   29.90740   -9999.25   -9999.25   -9999.25
 6754.50000   28.08910   -9999.25   -9999.25   -9999.25
 6755.00000   29.44580   -9999.25   -9999.25   -9999.25
 6755.50000   32.16950   -9999.25   -9999.25   -9999.25
 6756.00000   34.56880   55.67440  110.59160   51.15700
 6756.50000   33.33380   55.17170  107.11020   50.29330
 6757.00000   29.51450   54.83170  103.93120   50.71010
 6757.50000   25.68030   54.55600  109.05250   53.23000
 6758.00000   24.18850   54.55180  106.10580   55.72280
 6758.50000   24.87920   55.09330  104.24380   55.48730
 6759.00000   25.86200   57.70610  108.66130   53.44640
 6759.50000   26.52820   61.17680  113.01760   51.38490
 6760.00000   29.54840   64.64760  115.48400   49.32340
 6760.50000   32.59280   68.11840  117.90210   47.90870
 6761.00000   35.11770   67.45150  117.92960   46.59050
 6761.50000   33.34870   64.85490  112.20190   45.51760
 6762.00000   32.00520   62.25840  106.47430   45.37670
 6762.50000   31.04770   60.73020  107.76730   45.72730
 6763.00000   29.34210   62.53760  110.36830   47.49130
 6763.50000   26.40470   64.82370  112.10040   49.20130
 6764.00000   27.22680   64.43270  112.95520   49.68220
 6764.50000   30.21590   62.12790  112.94610   46.71830
 6765.00000   33.73830   59.82300  110.63670   42.77020
 6765.50000   33.95310   59.36240  107.10970   41.46220
 6766.00000   32.55700   60.69060  109.71630   43.10720
 6766.50000   32.38960   62.73980  112.75790   46.38510
 6767.00000   32.85710   64.78900  113.09110   49.20690
 6767.50000   32.66470   66.83810  112.91160   49.74420
 6768.00000   31.67450   68.47590  112.60620   49.75310
 6768.50000   30.55740   68.17580  112.30080   49.58280
 6769.00000   32.10830   65.70910  112.10500   49.21740
 6769.50000   34.76940   63.24240  112.01460   49.01130
 6770.00000   37.00750   60.77570  112.01370   49.02010
 6770.50000   37.23510   58.49520  112.01280   49.02900
 6771.00000   35.21780   58.59140  112.21650   49.03790
 6771.50000   31.62050   59.72330  112.57630   49.28820
 6772.00000   26.38360   60.33920  112.91930   50.27040
 6772.50000   21.24450   60.23070  112.99290   52.91840
 6773.00000   18.73010   60.10130  113.12460   55.61890
 6773.50000   19.71450   59.97180  113.26970   56.91010
 6774.00000   21.29280   59.85610  113.41480   55.73890
 6774.50000   23.34230   59.97340  113.56000   53.40600
 6775.00000   26.26130   60.58370  113.70510   51.35950
 6775.50000   29.27540   62.11070  113.75300   50.99420
 6776.00000   30.44230   63.73160  113.79040   50.66330
 6776.50000   30.65280   64.93260  113.59100   50.62290
 6777.00000   29.91000   65.30000  113.33430   49.18980
 6777.50000   28.84880   65.66750  112.72370   47.49420
 6778.00000   28.98180   65.88330  112.15330   46.34460
 6778.50000   30.35440   64.49780  112.14910   47.05410
 6779.00000   31.41940   64.01000  112.22300   48.64590
 6779.50000   30.71820   64.48460  112.42270   50.24130
 6780.00000   29.82890   65.11380  112.71510   51.83660
 6780.50000   30.46330   65.25830  112.84720   52.69030
 6781.00000   32.05050   64.76220  112.98030   52.27690
 6781.50000   33.02710   63.55820  113.13500   49.48260
 6782.00000   33.26300   60.67810  111.50730   46.43410
 6782.50000   32.17190   59.52260  109.15480   43.38560
 6783.00000   29.72710   60.02120  108.95130   42.33520
