~Version ---------------------------------------------------
VERS.   2.0 : CWLS log ASCII Standard -VERSION 2.0
WRAP.    NO : One line per depth step
DLM . SPACE : Column Data Section Delimiter
~Well ------------------------------------------------------
STRT .F                4996.0 : START DEPTH
STOP .F                9504.0 : STOP DEPTH
STEP .F                   0.5 : STEP
NULL .               -9999.25 : NULL VALUE
COMP .                        : COMPANY
WELL .                        : WELL
FLD  .                        : FIELD
LOC  .                        : LOCATION
PROV .                        : PROVINCE
CNTY .                        : COUNTY
STAT .                        : STATE
CTRY .                        : COUNTRY
SRVC .                        : SERVICE COMPANY
DATE .                        : DATE
UWI  .                        : UNIQUE WELL ID
API  .                        : API NUMBER
SLAT .WGS84 2.471292227407197 : SURFACE LATITUDE
SLON .WGS84 5.033315333499999 : SURFACE LONGITUDE
DATUM.F                2578.0 : DEPTH DATUM ELEV
~Curve Information -----------------------------------------
DEPT.F     : 
GR  .GAPI  : GAMMA RAY
DTCO.US/F  : DELTA-T COMPRESSIONAL
DTSM.US/F  : DELTA-T SHEAR
GRS .GAPI  : GAMMA RAY FROM SONIC LOG
~Params ----------------------------------------------------
~Other -----------------------------------------------------
~ASCII -----------------------------------------------------
# ...
 7284.00000   69.27840   56.34110  115.99670   65.96810
 7284.50000   72.33290   62.30000  122.75750   74.06020
 7285.00000   71.49610   62.87390  119.94300   78.27280
 7285.50000   67.48320   62.91580  112.26250   79.26360
 7286.00000   60.05980   62.93310  110.04770   74.36140
 7286.50000   50.77100   62.91930  108.83530   66.06440
 7287.00000   45.11770   62.84990  105.80840   58.01860
 7287.50000   41.64730   62.53320  101.50390   51.64230
 7288.00000   39.84810   56.92030   93.61070   46.94520
 7288.50000   37.87350   49.84140   77.64700   40.31920
 7289.00000   35.15020   46.56390   72.17290   37.28320
 7289.50000   33.13130   53.38710   83.14100   36.10090
 7290.00000   31.48620   61.43760   96.23370   35.71300
 7290.50000   30.24170   63.78290  101.20420   34.45320
 7291.00000   28.46860   63.20840   98.10370   32.36400
 7291.50000   26.91910   61.42140   94.21420   29.50470
 7292.00000   26.50690   57.79450   90.60440   26.71100
 7292.50000   28.36290   54.16760   89.80720   25.51170
 7293.00000   30.66590   56.54040   94.62420   26.00790
 7293.50000   31.41390   58.55620  100.88210   28.35770
 7294.00000   29.50870   60.34010  106.54060   29.70760
 7294.50000   27.81050   62.13760  107.02660   31.02890
 7295.00000   25.90370   62.83910  104.77900   31.24830
 7295.50000   25.83420   62.96460  104.08330   30.13290
 7296.00000   29.09760   62.97610  104.09320   28.61720
 7296.50000   33.30260   62.98770  104.35830   27.53930
 7297.00000   35.93200   62.99920  106.42870   27.57160
 7297.50000   34.43290   63.01070  110.02820   28.38050
 7298.00000   31.11400   63.01140  112.46640   31.54760
 7298.50000   28.17410   62.98590  108.90200   34.60580
 7299.00000   26.64200   62.98440  105.09220   35.65840
 7299.50000   25.63940   62.98340  104.10900   33.17520
 7300.00000   25.30260   63.00260  104.55750   29.37870
 7300.50000   25.40170   63.00230  104.75870   25.40140
 7301.00000   26.40330   62.87740  103.61820   23.34440
 7301.50000   26.49860   62.76800  103.14350   22.59080
 7302.00000   26.52440   61.68230  105.02740   23.41500
 7302.50000   26.82260   59.74550  108.87060   25.40630
 7303.00000   28.44410   56.83950  111.87480   27.30590
 7303.50000   31.03240   55.46960  114.63970   28.01260
 7304.00000   33.33170   58.73530  117.49250   29.55380
 7304.50000   35.30680   61.55340  122.90590   32.29390
 7305.00000   36.51980   62.66860  121.48570   36.02630
 7305.50000   36.74910   62.82740  117.51580   39.91790
 7306.00000   35.09150   62.86450  113.31560   42.65680
 7306.50000   32.61720   62.86810  107.33050   41.91020
 7307.00000   30.94640   62.87180  101.73840   39.99200
 7307.50000   30.26140   62.87550   99.69290   37.28280
 7308.00000   29.57640   62.87920   97.59570   34.60220
 7308.50000   28.89130   62.88290   95.59260   32.53530
 7309.00000   28.77130   62.88660  100.95790   31.23810
 7309.50000   29.34580   62.89020  110.50560   31.11910
 7310.00000   29.54010   62.95710  121.22740   31.77940
 7310.50000   28.72750   63.00320  128.75140   32.68810
 7311.00000   27.01670   62.90440  133.86470   32.69980
 7311.50000   24.26310   62.79170  132.01590   32.01450
 7312.00000   19.81950   59.43660  125.24000   29.44970
 7312.50000   16.61410   55.65760  116.01460   26.04350
 7313.00000   15.11540   54.16820  109.89150   22.44740
 7313.50000   14.32940   53.68610  104.96880   18.93290
 7314.00000   14.30220   54.10070  100.11990   15.33550
 7314.50000   16.49690   55.11430   94.21870   14.31180
 7315.00000   19.41200   56.24160   90.70760   14.13070
 7315.50000   20.39300   57.44280   92.93610   15.13690
 7316.00000   20.04040   59.23100   97.96840   16.80320
 7316.50000   18.27660   61.42570  102.40300   17.78330
 7317.00000   16.76600   61.92260  104.18150   17.62020
 7317.50000   15.83670   60.70440  104.09150   17.09930
 7318.00000   16.06740   58.25410  101.63220   17.06700
 7318.50000   16.80180   55.80390   99.93230   16.78540
 7319.00000   16.66150   58.29600  100.42160   17.02240
 7319.50000   15.38160   61.19770   99.59300   17.23690
 7320.00000   14.03770   62.26390   99.88540   15.93380
 7320.50000   14.70080   62.83630  101.38740   15.29640
 7321.00000   17.91470   62.94120  105.50700   15.29640
 7321.50000   20.55740   63.18260  108.86430   15.54240
 7322.00000   20.74690   63.25850  112.45100   16.76010
 7322.50000   19.42840   63.14080  115.68690   17.84970
 7323.00000   16.83960   62.96070  115.93850   18.26750
 7323.50000   15.70800   62.93790  112.65810   17.75830
 7324.00000   15.26950   62.91960  111.20080   17.38790
 7324.50000   15.24140   62.92950  110.20910   17.07480
 7325.00000   15.15160   62.75780  108.21350   16.76330
 7325.50000   15.06170   59.80380  102.46350   15.66330
 7326.00000   14.97190   56.98910   97.52190   14.66720
 7326.50000   14.22040   54.93100   96.80950   14.86230
 7327.00000   13.34110   54.63990   96.32410   15.22620
 7327.50000   12.72870   54.11670   95.91900   15.22520
 7328.00000   12.58870   53.80720   95.16800   14.36540
 7328.50000   12.48550   53.30880   93.41670   13.32550
 7329.00000   13.06050   50.26440   90.77220   12.97710
 7329.50000   14.43890   50.48740   91.51680   12.95030
 7330.00000   16.55470   52.29640   93.99250   13.99830
 7330.50000   18.04460   53.75380   93.94200   14.94000
 7331.00000   17.94280   54.15030   94.02060   15.34150
 7331.50000   16.63290   53.51840   96.20360   15.39420
 7332.00000   14.52480   53.13980   97.23830   14.70680
 7332.50000   13.81050   53.66030   97.29360   14.23650
 7333.00000   13.80740   54.48640   96.03030   13.97450
 7333.50000   14.92400   55.80390   94.88150   13.97450
 7334.00000   15.23700   55.63790   94.02890   14.36390
 7334.50000   14.55250   54.45040   92.91700   15.32960
 7335.00000   15.16500   54.57020   93.26610   16.46220
 7335.50000   16.44380   54.96000   95.14500   16.90720
 7336.00000   18.34010   54.66840   95.77510   16.23610
 7336.50000   19.61270   54.46170   94.02120   15.76220
 7337.00000   19.25900   54.29530   92.63020   16.15010
 7337.50000   17.67150   53.51940   91.96800   16.73520
 7338.00000   17.38660   53.76800   94.59710   17.52980
 7338.50000   17.10170   54.06810   98.46940   18.26460
 7339.00000   16.81680   54.13370  101.35990   18.03400
 7339.50000   16.69570   54.11990  102.59000   17.39460
 7340.00000   16.24950   52.43920   99.84540   17.17040
 7340.50000   15.12280   51.65000   96.89660   17.07930
 7341.00000   13.99620   53.54200   96.10720   17.84110
 7341.50000   13.80890   56.11830   95.28770   18.01620
 7342.00000   13.83400   60.21660   94.14280   18.04760
 7342.50000   14.44410   63.55900   94.25110   17.88770
 7343.00000   15.06880   64.59520   94.75170   17.41770
 7343.50000   15.96140   64.05890   95.16480   16.55080
 7344.00000   16.52240   60.90250   95.86840   15.63110
 7344.50000   15.47620   56.67790   96.60900   14.85920
 7345.00000   14.20440   51.74920   95.26610   14.98020
 7345.50000   14.02940   51.79330   93.85640   16.12820
 7346.00000   15.86300   54.30560   99.12060   17.68210
 7346.50000   17.71600   56.10860  105.43140   19.25350
 7347.00000   18.86790   56.60500  105.67570   20.77380
 7347.50000   19.03740   56.49710  104.81620   20.71070
 7348.00000   18.65230   56.70230  102.80210   19.69970
 7348.50000   18.27420   57.09620  100.62370   18.52920
 7349.00000   17.90350   57.10130  100.06550   17.89080
 7349.50000   18.05070   56.92290  100.41660   17.66680
 7350.00000   18.29950   56.54220  101.65670   17.40790
 7350.50000   18.59770   55.44590  102.74200   17.29000
 7351.00000   19.20300   54.03440  103.13500   17.76840
 7351.50000   19.73720   53.88940  103.82650   18.49750
 7352.00000   18.98600   56.50560  102.86400   18.68670
 7352.50000   17.81310   59.50690  102.87390   18.56110
 7353.00000   16.67550   59.68130  101.92430   17.64110
 7353.50000   16.88130   59.16070  100.47970   16.65310
 7354.00000   17.65970   57.78320   99.28270   16.61730
 7354.50000   18.45470   56.18200   97.62650   17.19650
 7355.00000   18.79770   55.69590   96.23510   17.62300
