~Version ---------------------------------------------------
VERS.   2.0 : CWLS log ASCII Standard -VERSION 2.0
WRAP.    NO : One line per depth step
DLM . SPACE : Column Data Section Delimiter
~Well ------------------------------------------------------
STRT .F                4996.0 : START DEPTH
STOP .F                9504.0 : STOP DEPTH
STEP .F                   0.5 : STEP
NULL .               -9999.25 : NULL VALUE
COMP .                        : COMPANY
WELL .                        : WELL
FLD  .                        : FIELD
LOC  .                        : LOCATION
PROV .                        : PROVINCE
CNTY .                        : COUNTY
STAT .                        : STATE
CTRY .                        : COUNTRY
SRVC .                        : SERVICE COMPANY
DATE .                        : DATE
UWI  .                        : UNIQUE WELL ID
API  .                        : API NUMBER
SLAT .WGS84 2.471292227407197 : SURFACE LATITUDE
SLON .WGS84 5.033315333499999 : SURFACE LONGITUDE
DATUM.F                2578.0 : DEPTH DATUM ELEV
~Curve Information -----------------------------------------
DEPT.F     : 
GR  .GAPI  : GAMMA RAY
DTCO.US/F  : DELTA-T COMPRESSIONAL
DTSM.US/F  : DELTA-T SHEAR
GRS .GAPI  : GAMMA RAY FROM SONIC LOG
~Params ----------------------------------------------------
~Other -----------------------------------------------------
~ASCII -----------------------------------------------------
# ...
 8857.00000   38.64500   48.60170   90.70910   53.98880
 8857.50000   28.84280   47.93860   95.52330   50.19930
 8858.00000   25.55930   48.11930   98.48510   40.36340
 8858.50000   24.11920   48.62450   99.49580   30.51660
 8859.00000   23.53320   48.55170   99.96300   26.38570
 8859.50000   22.96330   46.29390   97.35600   25.03260
 8860.00000   22.67310   48.00840   94.02270   24.66220
 8860.50000   22.48660   50.07310   90.26920   24.34450
 8861.00000   22.23750   52.38550   89.89990   24.13380
 8861.50000   21.82660   52.32140   89.71890   24.05680
 8862.00000   21.52780   51.75840   89.56390   23.79590
 8862.50000   21.46000   51.50160   89.39030   23.27640
 8863.00000   22.09970   50.95870   89.10590   22.51620
 8863.50000   23.75370   49.90240   88.52790   23.50600
 8864.00000   27.88050   48.60900   87.86290   25.42740
 8864.50000   33.90240   47.83720   87.90400   27.69420
 8865.00000   42.37430   48.49830   89.10580   31.46770
 8865.50000   48.65900   49.18740   90.68640   35.95820
 8866.00000   57.25570   54.49470  102.07810   41.88310
 8866.50000   63.81220   60.78050  108.39410   47.08420
 8867.00000   64.90730   62.69040  109.95180   54.80750
 8867.50000   57.86680   62.61290  106.84340   62.04780
 8868.00000   46.49400   62.29630  102.53680   71.67910
 8868.50000   37.12330   60.44870   96.60060   73.73990
 8869.00000   35.98190   54.91330   90.21850   68.22440
 8869.50000   36.88100   51.90120   85.35530   55.98050
 8870.00000   39.85090   51.62280   90.00680   46.06300
 8870.50000   45.07260   51.78160   96.06700   37.42850
 8871.00000   55.04220   54.50470  104.94170   38.57460
 8871.50000   62.93140   58.05240  112.82650   45.69990
 8872.00000   70.91470   59.27530  113.04470   59.09950
 8872.50000   76.34210   60.60410  112.41930   73.24180
 8873.00000   72.81560   61.38500  106.46580   81.29590
 8873.50000   65.62100   62.05220   99.70160   81.36370
 8874.00000   53.19140   62.62860   97.78950   67.31180
 8874.50000   42.62020   63.39880  101.46580   55.57870
 8875.00000   38.08550   65.67070  103.87840   44.40960
 8875.50000   37.17800   66.51820  103.87840   38.45280
 8876.00000   36.97670   66.05700  101.98890   37.66720
 8876.50000   36.41810   63.80890   99.87700   37.72710
 8877.00000   34.12400   61.49320   97.87580   37.41220
 8877.50000   30.90730   59.25100   96.28600   36.59910
 8878.00000   26.34160   57.80460   94.96860   34.39210
 8878.50000   20.67130   55.63540   92.60940   31.06850
 8879.00000   16.93560   53.02120   90.09300   24.58760
 8879.50000   16.27870   51.59200   88.27370   19.28900
 8880.00000   16.67570   49.67960   87.21040   17.53940
 8880.50000   17.24850   47.32740   87.82120   18.54250
 8881.00000   18.93110   46.09770   90.63120   22.36070
 8881.50000   23.71290   46.60580   91.45020   27.20280
 8882.00000   31.85540   46.51170   89.34590   33.38940
 8882.50000   36.61680   45.98950   87.51290   37.61320
 8883.00000   39.03380   45.26560   87.29640   40.33950
 8883.50000   38.81090   46.93090   89.04080   41.24340
 8884.00000   38.06320   49.36350   92.82950   40.51360
 8884.50000   38.00260   51.38780   95.13550   39.81830
 8885.00000   37.73750   53.26170   95.76240   39.05100
 8885.50000   36.51880   54.79300   95.27160   37.43050
 8886.00000   34.23710   55.93810   95.28960   34.84080
 8886.50000   31.39260   57.26610   95.99270   32.27730
 8887.00000   29.33990   59.14070   96.67590   31.17920
 8887.50000   28.07300   61.01320   97.04560   29.69080
 8888.00000   27.03340   62.20730   96.54100   28.17850
 8888.50000   25.80960   62.71100   96.32890   26.61810
 8889.00000   23.67090   63.00470   97.00900   24.47980
 8889.50000   22.01110   63.11860   99.20760   23.33660
 8890.00000   22.59510   63.53850  102.41730   22.64620
 8890.50000   24.98870   63.91460  104.48620   24.04270
 8891.00000   28.97060   61.14300  101.51450   27.08130
 8891.50000   32.56810   57.12080   98.00880   30.62170
 8892.00000   33.56550   54.20290   95.12360   32.37320
 8892.50000   30.42770   53.29910   93.41850   30.79540
 8893.00000   26.43210   53.58620   95.62600   27.12710
 8893.50000   23.84100   53.67790   96.23220   25.57890
 8894.00000   23.41600   54.12770   95.15190   25.75040
 8894.50000   22.99100   54.26420   93.71970   25.85270
 8895.00000   22.36770   53.08150   91.08760   24.77350
 8895.50000   21.61110   51.45320   90.46410   23.61280
 8896.00000   22.34540   48.40160   91.11010   26.27510
 8896.50000   25.04930   47.74830   89.18220   30.13020
 8897.00000   28.41510   50.12850   92.43390   33.80670
 8897.50000   31.30940   53.25740   96.28730   36.71730
 8898.00000   32.52610   54.81220   96.61510   37.69250
 8898.50000   34.39480   55.88910   96.74880   37.91040
 8899.00000   35.04100   56.29300   95.48140   34.75450
 8899.50000   34.14910   55.08400   91.33550   27.78570
 8900.00000   29.43210   53.75510   87.61260   22.28650
 8900.50000   24.22350   52.86600   84.45310   20.40740
 8901.00000   20.69560   53.22360   83.85450   21.17300
 8901.50000   19.74630   56.79880   89.08870   23.57370
 8902.00000   21.56810   59.72510  101.06430   30.24430
 8902.50000   25.96800   61.83500  118.57820   39.52840
 8903.00000   32.71960   63.29020  128.94050   50.83560
 8903.50000   41.68370   63.74210  136.42430   56.65590
 8904.00000   48.29560   62.82690  127.45240   55.43000
 8904.50000   53.34470   55.33720  111.99080   51.28080
 8905.00000   51.71440   48.38590  102.94310   48.01270
 8905.50000   46.96410   50.31960   98.69310   47.88700
 8906.00000   45.05530   54.95390   98.24170   51.33640
 8906.50000   49.07980   59.61490   98.54190   55.65990
 8907.00000   56.39180   63.47750  101.23760   62.24090
 8907.50000   64.02450   67.18780  104.97490   68.91020
 8908.00000   70.71200   66.69720  105.86830   75.35320
 8908.50000   76.98910   63.24940   97.89430   80.74650
 8909.00000   80.23500   60.81700   91.30830   82.21500
 8909.50000   78.76010   61.49160   95.27550   78.62500
 8910.00000   74.31050   61.79630  100.82640   73.75260
 8910.50000   68.53100   61.46340  104.64980   68.60730
 8911.00000   67.00390   59.56570  108.47330   66.19040
 8911.50000   68.25970   54.76180  106.17730   62.92910
 8912.00000   66.16010   50.56030  100.41880   55.82370
 8912.50000   60.10070   49.17320   96.04000   47.72910
 8913.00000   48.92970   51.65790   98.59020   42.19840
 8913.50000   42.65980   55.41320  102.07950   46.91180
 8914.00000   44.02070   60.40020  103.62910   66.09250
 8914.50000   58.97420   63.30010  103.38170   78.21630
 8915.00000   74.50780   64.80780  100.23030   87.20510
 8915.50000   85.32200   63.58040   97.89470   91.12780
 8916.00000   90.99540   59.56090  100.58850   88.97350
 8916.50000   91.21220   55.54010  106.86400   83.26510
 8917.00000   83.51620   52.85020  110.38170   74.23620
 8917.50000   73.03580   51.27480  109.80320   71.00680
 8918.00000   64.72360   50.89370  110.87850   80.30850
 8918.50000   67.23780   50.64920  110.82870   90.52660
 8919.00000   79.57090   50.26070  106.07590   99.55190
 8919.50000   97.10150   49.87220  100.28360  105.14040
 8920.00000  104.51170   49.48370   94.90660  110.82940
 8920.50000  111.87540   49.61750   90.72810  118.24120
 8921.00000  118.20370   52.34050   90.55540  124.43770
 8921.50000  123.06510   55.59060   93.77320  126.91730
 8922.00000  124.50760   56.13150   93.77320  128.14660
 8922.50000  125.87730   55.44300   94.09680  129.21240
 8923.00000  130.18600   57.42470  109.74310  133.01000
 8923.50000  140.18170   58.70080  122.17440  137.02700
 8924.00000  147.92640   56.76130  121.72030  137.30920
 8924.50000  147.16270   55.00960  117.66680  131.00190
 8925.00000  137.47440   54.31350  114.37590  122.15010
 8925.50000  126.29820   53.68130  112.82840  112.37790
 8926.00000  119.65120   50.85230  107.81550  104.05750
 8926.50000  109.68250   47.53030  102.55680   96.33640
 8927.00000   99.96260   47.89910   99.11750   90.30060
 8927.50000   91.92120   51.64040   97.71600   84.16660
 8928.00000   83.47990   56.69600   98.72040   74.77530
