~Version ---------------------------------------------------
VERS.   2.0 : CWLS log ASCII Standard -VERSION 2.0
WRAP.    NO : One line per depth step
DLM . SPACE : Column Data Section Delimiter
~Well ------------------------------------------------------
STRT .F                4996.0 : START DEPTH
STOP .F                9504.0 : STOP DEPTH
STEP .F                   0.5 : STEP
NULL .               -9999.25 : NULL VALUE
COMP .                        : COMPANY
WELL .                        : WELL
FLD  .                        : FIELD
LOC  .                        : LOCATION
PROV .                        : PROVINCE
CNTY .                        : COUNTY
STAT .                        : STATE
CTRY .                        : COUNTRY
SRVC .                        : SERVICE COMPANY
DATE .                        : DATE
UWI  .                        : UNIQUE WELL ID
API  .                        : API NUMBER
SLAT .WGS84 2.471292227407197 : SURFACE LATITUDE
SLON .WGS84 5.033315333499999 : SURFACE LONGITUDE
DATUM.F                2578.0 : DEPTH DATUM ELEV
~Curve Information -----------------------------------------
DEPT.F     : 
GR  .GAPI  : GAMMA RAY
DTCO.US/F  : DELTA-T COMPRESSIONAL
DTSM.US/F  : DELTA-T SHEAR
GRS .GAPI  : GAMMA RAY FROM SONIC LOG
~Params ----------------------------------------------------
~Other -----------------------------------------------------
~ASCII -----------------------------------------------------
# ...
 7641.50000   22.82840   93.38690  129.48370   20.70120
 7642.00000   20.93180   94.60400  129.46360   23.15210
 7642.50000   20.40040   93.58190  129.44350   23.31560
 7643.00000   19.85700   91.42590  129.42910   21.93010
 7643.50000   19.99940   92.95980  129.50510   20.65210
 7644.00000   19.40050   96.91500  129.58110   21.02150
 7644.50000   18.90240   98.21040  129.65710   22.35590
 7645.00000   19.33480   96.64030  129.73310   22.41490
 7645.50000   19.37910   96.05800  129.80910   20.98940
 7646.00000   18.23850   97.45530  129.88510   20.12170
 7646.50000   17.97490   98.94300  129.93120   19.70450
 7647.00000   17.44660   98.10190  129.86930   19.78450
 7647.50000   16.91840   96.45590  129.80740   19.52730
 7648.00000   16.35990   94.93090  129.74550   18.35930
 7648.50000   16.34670   91.78760  129.22600   16.94090
 7649.00000   16.45770   87.23860  127.95940   16.36050
 7649.50000   16.79430   82.44070  125.65440   16.50780
 7650.00000   17.42240   77.20650  119.98540   17.27600
 7650.50000   18.05940   71.89430  112.20260   17.83710
 7651.00000   18.80640   68.41510  106.27220   17.23810
 7651.50000   19.52360   65.45850  104.06060   16.22000
 7652.00000   20.65830   64.45800  107.05510   15.98340
 7652.50000   21.47110   63.60480  109.79180   16.68480
 7653.00000   21.64500   59.67830  109.45230   20.31950
 7653.50000   21.37200   56.17070  107.59240   24.03740
 7654.00000   20.52990   52.55690  105.99080   25.74250
 7654.50000   19.70960   49.44620  105.00040   26.25300
 7655.00000   19.07970   48.20390  111.23410   23.77010
 7655.50000   18.89230   52.07960  121.20550   20.26910
 7656.00000   20.52180   55.64620  125.90380   18.53790
 7656.50000   25.02300   57.41160  126.87490   18.27290
 7657.00000   30.30730   57.68540  126.40250   20.64190
 7657.50000   32.29640   57.00880  125.93000   25.52020
 7658.00000   28.55390   56.10240  124.19030   32.76760
 7658.50000   22.58490   55.19970  121.41260   37.63520
 7659.00000   19.22470   54.33400  118.54610   36.16950
 7659.50000   19.39680   53.45950  115.74390   29.44020
 7660.00000   23.44420   52.54470  113.23500   22.87850
 7660.50000   28.84350   51.92070  110.89070   19.44720
 7661.00000   32.70120   52.14930  110.16190   24.38510
 7661.50000   33.00760   55.80430  112.19730   31.13960
 7662.00000   29.81030   57.56510  111.01140   35.00600
 7662.50000   26.48270   54.91090  108.86440   33.84420
 7663.00000   23.31830   50.92220  105.47520   30.41610
 7663.50000   21.70330   45.81840   94.23630   27.16430
 7664.00000   21.13210   42.52610   87.57520   25.40430
 7664.50000   24.95780   41.42950   88.34840   23.81340
 7665.00000   32.35350   45.12220   93.43870   25.30110
 7665.50000   42.51670   51.18420   99.35010   29.32150
 7666.00000   54.73110   55.76580  106.75540   36.30800
 7666.50000   66.94540   59.25650  113.82260   42.00650
 7667.00000   75.35460   62.11280  118.54310   54.41560
 7667.50000   73.96850   63.61820  119.85850   65.78800
 7668.00000   59.15820   61.84380  117.14650   72.32670
 7668.50000   42.24360   59.70280  109.76370   61.35120
 7669.00000   31.19360   54.28240   99.36020   45.68230
 7669.50000   22.51350   50.38540   93.62230   33.17510
 7670.00000   18.67410   51.70160   92.20080   26.68120
 7670.50000   16.34160   52.28580   90.20250   21.92340
 7671.00000   14.99940   52.25180   88.94940   18.96040
 7671.50000   13.81180   51.18420   88.45700   18.45100
 7672.00000   14.33510   50.98050   88.46690   18.44100
 7672.50000   15.23310   50.94600   88.66500   18.39540
 7673.00000   18.83290   51.25320   90.44870   18.52560
 7673.50000   20.78420   52.96070   92.04130   19.39720
 7674.00000   19.56370   55.09210   92.86070   21.40380
 7674.50000   17.38310   54.52630   92.62470   22.35640
 7675.00000   15.10420   52.44800   90.67690   20.77210
 7675.50000   13.89130   51.15450   88.72910   17.43790
 7676.00000   13.51730   51.03790   86.47850   14.93110
 7676.50000   14.48970   50.96180   85.54190   12.80910
 7677.00000   14.96060   50.84420   85.71260   11.82380
 7677.50000   13.62810   50.72650   86.41880   11.63290
 7678.00000   12.30760   50.66900   88.71850   11.77630
 7678.50000   11.51930   50.68450   90.95840   11.88640
 7679.00000   12.06240   50.70000   90.42680   11.61710
 7679.50000   13.50690   50.71420   89.58470   11.24530
 7680.00000   14.67610   51.26400   89.02590   10.66220
 7680.50000   14.51440   51.92380   88.65520   10.35940
 7681.00000   13.54320   50.12210   88.49950   10.57030
 7681.50000   12.07170   47.26220   88.41030   11.18430
 7682.00000   11.23920   47.13050   89.80470   11.49200
 7682.50000   12.24560   49.86660   95.40670   11.51220
 7683.00000   14.35780   52.67460  100.56130   11.58460
 7683.50000   17.61100   55.52460  102.90160   12.14130
 7684.00000   20.23070   58.22510  102.96510   14.80440
 7684.50000   20.47150   60.12350  101.68060   18.53780
 7685.00000   18.95430   62.01860   99.62740   20.68690
 7685.50000   16.54340   61.15420   97.06790   20.51270
 7686.00000   16.09050   60.34950   94.19160   18.00240
 7686.50000   16.80810   59.55100   92.45090   16.88910
 7687.00000   17.68690   57.77350   92.09080   16.98680
 7687.50000   18.20930   53.38340   92.01980   17.51890
 7688.00000   18.41240   51.10320   91.94820   18.70100
 7688.50000   18.85800   51.05520   91.09250   19.24100
 7689.00000   19.79010   51.40530   90.17280   18.98390
 7689.50000   20.59230   51.89950   89.24210   18.20190
 7690.00000   20.75370   52.30020   88.01130   18.02240
 7690.50000   20.72040   52.56560   87.41440   18.14310
 7691.00000   20.65150   52.45130   87.34290   18.73640
 7691.50000   20.22930   52.01380   87.28610   19.47090
 7692.00000   19.70360   51.29760   87.28610   19.44500
 7692.50000   19.00290   50.62310   87.30270   19.21140
 7693.00000   18.95060   50.11100   88.09830   19.18330
 7693.50000   18.82190   50.78250   89.67690   19.60870
 7694.00000   18.63900   50.65520   91.15070   19.93510
 7694.50000   18.46230   49.58110   91.07470   19.93480
 7695.00000   18.67650   48.32040   89.42030   18.92550
 7695.50000   19.31580   47.55740   87.78160   18.14740
 7696.00000   20.15230   47.45090   87.59190   18.43600
 7696.50000   20.49030   47.69510   87.99210   19.02880
 7697.00000   21.12500   47.22680   88.12190   19.57020
 7697.50000   21.19110   45.86830   87.62080   19.80790
 7698.00000   21.22540   45.88970   87.45520   19.99630
 7698.50000   17.49960   46.07640   87.73100   20.14380
 7699.00000   18.43990   46.51040   87.95590   19.89150
 7699.50000   19.78710   46.54340   87.89580   19.49270
 7700.00000   19.32190   46.56580   87.69600   19.18210
 7700.50000   17.13110   46.58320   87.75010   18.93420
 7701.00000   15.50560   47.79780   90.39290   18.63170
 7701.50000   13.77480   49.47430   92.24820   17.97310
 7702.00000   11.72890   48.37450   91.92910   16.78200
 7702.50000   11.32740   46.71970   91.49200   15.67230
 7703.00000   10.81990   45.96920   91.20100   14.42910
 7703.50000   10.38140   45.77030   91.71140   13.30790
 7704.00000    9.94290   45.78370   91.80760   12.68800
 7704.50000    9.70580   45.92480   92.06280   12.02840
 7705.00000    9.67400   46.63180   93.54800   11.24860
 7705.50000    9.86170   47.42170   95.20330   10.12470
 7706.00000   10.09980   47.42490   95.43150    9.59100
 7706.50000   10.16570   46.80750   94.22130    9.50390
 7707.00000    9.87930   46.53130   93.16620    9.43720
 7707.50000    9.15430   46.28120   92.57430    9.42210
 7708.00000    8.34280   45.95000   91.94150    9.40700
 7708.50000    7.96700   45.67090   91.20670    9.46010
 7709.00000    8.19840   45.97800   90.73410    9.61340
 7709.50000    8.41210   47.96580   90.51540    9.54910
 7710.00000    8.44980   49.60690   91.80560    8.91300
 7710.50000    8.33250   50.78190   94.02920    8.30670
 7711.00000    8.06300   51.76140   94.77610    8.01140
 7711.50000    7.79650   52.54800   93.33870    7.87710
 7712.00000    7.78130   53.23610   91.91000    8.01940
 7712.50000    8.19990   53.67810   91.18860    8.36380
