~Version ---------------------------------------------------
VERS.   2.0 : CWLS log ASCII Standard -VERSION 2.0
WRAP.    NO : One line per depth step
DLM . SPACE : Column Data Section Delimiter
~Well ------------------------------------------------------
STRT .F                4996.0 : START DEPTH
STOP .F                9504.0 : STOP DEPTH
STEP .F                   0.5 : STEP
NULL .               -9999.25 : NULL VALUE
COMP .                        : COMPANY
WELL .                        : WELL
FLD  .                        : FIELD
LOC  .                        : LOCATION
PROV .                        : PROVINCE
CNTY .                        : COUNTY
STAT .                        : STATE
CTRY .                        : COUNTRY
SRVC .                        : SERVICE COMPANY
DATE .                        : DATE
UWI  .                        : UNIQUE WELL ID
API  .                        : API NUMBER
SLAT .WGS84 2.471292227407197 : SURFACE LATITUDE
SLON .WGS84 5.033315333499999 : SURFACE LONGITUDE
DATUM.F                2578.0 : DEPTH DATUM ELEV
~Curve Information -----------------------------------------
DEPT.F     : 
GR  .GAPI  : GAMMA RAY
DTCO.US/F  : DELTA-T COMPRESSIONAL
DTSM.US/F  : DELTA-T SHEAR
GRS .GAPI  : GAMMA RAY FROM SONIC LOG
~Params ----------------------------------------------------
~Other -----------------------------------------------------
~ASCII -----------------------------------------------------
# ...
 9429.00000   98.49280   49.63540   78.30030   96.19390
 9429.50000   96.30000   47.96700   74.95460   94.17490
 9430.00000   92.02900   47.33610   74.97880   93.40070
 9430.50000   89.68520   48.69760   76.88860   93.08330
 9431.00000   88.94350   50.05910   78.79840   92.27720
 9431.50000   89.03170   50.37330   79.93570   91.34080
 9432.00000   89.60730   49.66800   78.50370   90.89230
 9432.50000   90.38600   48.75320   77.14340   92.50330
 9433.00000   91.00710   48.97250   79.67420   94.32890
 9433.50000   91.04480   49.57780   81.65720   96.39560
 9434.00000   92.19720   49.91150   80.45310   98.10250
 9434.50000   96.15700   49.88820   78.98690   99.93000
 9435.00000  103.15690   49.83790   79.56210  100.41200
 9435.50000  112.89240   49.78760   79.01720  102.42850
 9436.00000  130.12750   49.73730   77.69210  109.27010
 9436.50000  146.46440   49.68700   79.83780  125.54250
 9437.00000  165.10480   49.67240   83.01470  141.89350
 9437.50000  176.59960   49.77840   86.04090  158.24440
 9438.00000  181.52640   49.83210   87.53940  174.79440
 9438.50000  176.99860   49.82220   88.73480  184.03150
 9439.00000  169.46520   49.89050   85.53510  184.55890
 9439.50000  158.95690   50.05320   79.86050  178.30160
 9440.00000  152.51920   50.21460   75.99830  176.35810
 9440.50000  155.18750   49.85780   72.90890  177.62200
 9441.00000  160.09720   49.21680   71.20540  179.03850
 9441.50000  165.03500   47.83090   69.50190  179.66560
 9442.00000  170.64610   47.34910   68.79470  179.93660
 9442.50000  176.25460   46.29570   68.36740  180.19000
 9443.00000  180.08380   44.78900   68.88050  180.89920
 9443.50000  182.75370   44.09380   69.94410  183.39470
 9444.00000  183.61250   44.17050   70.95020  188.15280
 9444.50000  184.46980   44.37850   71.88100  190.55610
 9445.00000  184.49010   44.52480   72.07400  189.89150
 9445.50000  183.93000   44.69080   72.54600  188.56680
 9446.00000  182.18300   45.08930   73.24890  188.23590
 9446.50000  182.69150   45.89390   74.61170  190.88010
 9447.00000  185.25390   46.71560   75.53550  193.58750
 9447.50000  188.93770   47.03600   76.24320  195.96710
 9448.00000  189.39060   48.46670   80.81570  198.18490
 9448.50000  190.10360   50.26670   85.36050  201.06730
 9449.00000  192.29090   51.30960   87.54500  202.51080
 9449.50000  197.13590   53.79720   89.61430  204.89200
 9450.00000  201.18200   54.88570   88.86010  207.48950
 9450.50000  203.53160   55.14640   87.65080  207.75170
 9451.00000  203.89410   54.81480   87.25080  207.35540
 9451.50000  203.50430   53.02650   85.77340  210.55580
 9452.00000  201.63240   50.72630   82.01880  215.17720
 9452.50000  200.21960   52.50280   85.60180  217.69960
 9453.00000  199.77170   60.93300   94.00470  218.20310
 9453.50000  200.24330   65.67430   99.45190  218.82360
 9454.00000  205.71540   63.14690   99.84100  219.52020
 9454.50000  213.03890   58.67460   93.98050  226.02170
 9455.00000  229.28420   52.99030   86.92950  234.65180
 9455.50000  239.33520   50.29120   84.23290  243.00780
 9456.00000  236.68580   47.93000   84.69410  247.32160
 9456.50000  227.86350   45.56880   81.07190  246.93210
 9457.00000  217.00340   45.48420   79.36740  240.75360
 9457.50000  206.47710   48.72520   83.01900  232.01210
 9458.00000  200.80010   53.31300   87.63810  222.28640
 9458.50000  197.70840   57.42190   90.95290  218.56310
 9459.00000  196.91520   60.14350   93.11150  217.95240
 9459.50000  196.58210   59.98200   91.27830  219.62250
 9460.00000  195.44570   57.22820   88.01030  221.46870
 9460.50000  194.03090   56.06960   86.00520  222.51010
 9461.00000  193.93700   54.16450   83.81260  219.16170
 9461.50000  194.59660   56.67070   89.44590  212.11280
 9462.00000  196.17880   61.52350   95.70350  205.04710
 9462.50000  198.10400   63.79960   95.89640  203.20260
 9463.00000  200.43910   61.90230   90.85950  205.54410
 9463.50000  203.31960   62.24000   95.19450  210.00450
 9464.00000  204.45750   65.08120  100.85150  212.12820
 9464.50000  200.95010   66.53530  102.61750  211.48760
 9465.00000  189.31910   63.53350  101.05920  204.26030
 9465.50000  175.28500   57.49540   97.82720  192.67350
 9466.00000  161.48410   54.97660   93.59230  175.36240
 9466.50000  154.98100   54.90750   88.37170  143.28340
 9467.00000  158.62730   54.90430   88.17970  136.04480
 9467.50000  164.17560   54.90120   98.83530  147.44730
 9468.00000  167.43380   54.89810  116.32790  158.84990
 9468.50000  169.01670   54.89910  125.42660  167.68950
 9469.00000  171.00610   55.03720  127.65180  171.76460
 9469.50000  175.00020   55.70520  118.47960  172.89320
 9470.00000  174.66960   57.09990   99.27160  172.95310
 9470.50000  172.31020   58.29580   94.60180  169.89960
 9471.00000  169.41660   62.10600  102.02030  165.56970
 9471.50000  167.20170   67.94630  110.43420  162.03420
 9472.00000  164.58170   70.44240  118.84800  160.97040
 9472.50000  161.36760   72.23700  120.15140  160.15650
 9473.00000  155.18420   72.56000  119.61690  156.49440
 9473.50000  148.68240   72.30700  115.15960  149.61510
 9474.00000  141.57130   70.78930  112.08360  149.00510
 9474.50000  135.28210   68.64280  110.56600  146.55740
 9475.00000  131.22440   66.91620  110.26750  143.29080
 9475.50000  131.39350   69.39130  110.47430  139.45330
 9476.00000  134.81270   72.11260  111.45410  136.43020
 9476.50000  139.30270   74.88750  112.92870  134.27380
 9477.00000  136.14590   78.22560  112.21450  132.59400
 9477.50000  123.08700   77.80460  112.14390  130.94820
 9478.00000  108.42290   70.51660  113.68860  118.66700
 9478.50000   97.84710   65.48050  115.72080  112.35210
 9479.00000   92.83680   62.78690  115.87620  106.48940
 9479.50000   89.88150   60.99820  112.16610   96.53840
 9480.00000   86.50090   60.32930  108.12880   91.43050
 9480.50000   83.02140   61.23210  102.67380   86.50710
 9481.00000   81.33680   60.76530   97.39390   84.67970
 9481.50000   82.20560   55.89160   93.06520   84.47590
 9482.00000   83.78110   53.46950   91.16670   84.27170
 9482.50000   81.84400   59.88660  100.36680   82.73440
 9483.00000   73.85190   67.51170  109.32590   73.15190
 9483.50000   64.62080   69.42220  116.20690   69.38620
 9484.00000   59.80880   66.62940  121.75410   64.63300
 9484.50000   61.49670   64.41420  126.49600   63.12730
 9485.00000   65.41070   64.86730  132.80910   73.85900
 9485.50000   67.07750   66.77500  139.12230  102.86820
 9486.00000   65.12220   69.13620  144.57940  139.24180
 9486.50000   61.35980   71.92740  149.90540  153.23820
 9487.00000   55.95250   75.82500  155.69850  156.93850
 9487.50000   53.47670   78.24950  157.37890  151.05440
 9488.00000   58.40490   79.14500  157.69430  150.35730
 9488.50000   64.55070   79.00030  157.11060  147.97030
 9489.00000   74.45970   75.73810  147.09350  146.80380
 9489.50000   81.43040   70.04030  136.97740  146.60010
 9490.00000   84.08460   64.83080  129.59020  146.64450
 9490.50000   85.01660   68.31600  129.81900  146.72610
 9491.00000   85.28680   74.93790  140.31350  146.73110
 9491.50000   86.58560   80.65910  148.77300  146.73610
 9492.00000   92.67650   81.29840  147.76510  146.74110
 9492.50000   99.65500   80.13640  144.58780  146.74620
 9493.00000  104.71620   82.34800  145.50900  146.62090
 9493.50000  104.20240   83.36870  142.44890  146.51700
 9494.00000   97.21340   79.65140  129.83150  146.53900
 9494.50000   89.38270   74.99400  121.10380  146.56090
 9495.00000   83.44090   72.29850  119.99750  146.58280
 9495.50000   82.68720   72.72790  123.85870  146.60480
 9496.00000   88.33110   72.49840  126.18560  146.62670
 9496.50000   94.49010   70.57080  126.43960  146.64870
 9497.00000   96.58140   67.58800  125.81570  146.67060
 9497.50000   88.94800   63.56570  124.28820  146.69260
 9498.00000   81.89230   58.79180  117.84440  146.71450
 9498.50000   77.52460   54.05700  111.32290  146.73640
 9499.00000   78.22840   43.49620   93.49300  146.75840
 9499.50000   79.14150   40.12650   48.50930  146.78030
 9500.00000   79.09760   39.95950   40.47460  146.80220
