~Version ---------------------------------------------------
VERS.   2.0 : CWLS log ASCII Standard -VERSION 2.0
WRAP.    NO : One line per depth step
DLM . SPACE : Column Data Section Delimiter
~Well ------------------------------------------------------
STRT .F                4996.0 : START DEPTH
STOP .F                9504.0 : STOP DEPTH
STEP .F                   0.5 : STEP
NULL .               -9999.25 : NULL VALUE
COMP .                        : COMPANY
WELL .                        : WELL
FLD  .                        : FIELD
LOC  .                        : LOCATION
PROV .                        : PROVINCE
CNTY .                        : COUNTY
STAT .                        : STATE
CTRY .                        : COUNTRY
SRVC .                        : SERVICE COMPANY
DATE .                        : DATE
UWI  .                        : UNIQUE WELL ID
API  .                        : API NUMBER
SLAT .WGS84 2.471292227407197 : SURFACE LATITUDE
SLON .WGS84 5.033315333499999 : SURFACE LONGITUDE
DATUM.F                2578.0 : DEPTH DATUM ELEV
~Curve Information -----------------------------------------
DEPT.F     : 
GR  .GAPI  : GAMMA RAY
DTCO.US/F  : DELTA-T COMPRESSIONAL
DTSM.US/F  : DELTA-T SHEAR
GRS .GAPI  : GAMMA RAY FROM SONIC LOG
~Params ----------------------------------------------------
~Other -----------------------------------------------------
~ASCII -----------------------------------------------------
# ...
 7427.00000   12.93700   56.16220   90.24730   12.69030
 7427.50000   13.40530   54.73750   88.39310   13.84250
 7428.00000   13.95970   50.80690   86.16330   14.25770
 7428.50000   14.14030   49.23630   85.89180   14.55780
 7429.00000   13.64060   48.65940   87.70270   14.52600
 7429.50000   13.10010   48.34620   89.15040   13.86290
 7430.00000   13.32000   49.14730   89.74880   12.76180
 7430.50000   14.27890   50.43070   90.03050   12.39350
 7431.00000   16.56310   55.15170   93.74860   12.57930
 7431.50000   18.82010   55.77640   94.59550   13.49010
 7432.00000   18.95260   56.06370   94.26030   14.08760
 7432.50000   18.84430   56.33350   94.32680   14.15510
 7433.00000   17.36470   56.73970   95.49250   13.85690
 7433.50000   15.57140   54.64750   96.36250   14.57590
 7434.00000   15.02450   52.53390   96.34120   16.63160
 7434.50000   14.69660   51.77710   94.79730   17.08970
 7435.00000   15.58020   51.52240   94.66240   16.52380
 7435.50000   16.73400   52.88180   98.02670   15.44180
 7436.00000   18.37190   55.40680   98.54410   13.55520
 7436.50000   19.78930   56.95530   96.21970   13.18730
 7437.00000   20.58640   60.62900   94.37570   13.85100
 7437.50000   21.22510   62.41340   93.94220   15.54880
 7438.00000   21.39220   61.92890   95.42170   16.85940
 7438.50000   21.39330   61.01490   97.58210   18.16220
 7439.00000   21.36630   60.47620   99.11510   19.31930
 7439.50000   21.25120   60.48440   99.43220   20.40480
 7440.00000   20.50930   60.49430   96.37070   20.69050
 7440.50000   20.16850   60.50430   95.40020   19.85280
 7441.00000   20.15820   60.51420   98.67900   19.34890
 7441.50000   20.14790   60.14800  103.19060   19.53790
 7442.00000   19.73570   57.98920  107.21490   20.22590
 7442.50000   17.77460   56.58000  111.23790   20.35150
 7443.00000   16.70290   59.43680  115.26360   19.97250
 7443.50000   16.84630   60.39890  113.55610   19.63080
 7444.00000   18.39240   60.62650  105.44280   19.01080
 7444.50000   20.56790   59.68840   98.17450   18.16100
 7445.00000   22.92000   58.16130   93.64540   17.10450
 7445.50000   23.28630   56.39240   91.16340   16.40610
 7446.00000   21.11290   54.70010   89.02330   16.76270
 7446.50000   18.77930   53.40560   88.73610   17.79060
 7447.00000   18.35890   55.83970   92.70550   17.98390
 7447.50000   19.13670   55.98830   94.07700   17.90420
 7448.00000   20.52920   54.46710   91.01000   18.38630
 7448.50000   20.75480   54.74320   92.36450   19.69010
 7449.00000   20.98060   56.96210   96.70910   21.88550
 7449.50000   21.23090   58.53840  104.54960   24.24360
 7450.00000   20.70950   59.55040  111.09490   25.27120
 7450.50000   19.62980   60.45640  112.32610   26.06100
 7451.00000   18.02350   62.22220  113.62150   24.33110
 7451.50000   15.82650   63.10960  112.28500   21.65210
 7452.00000   15.27600   59.81120  107.32700   18.29520
 7452.50000   14.83210   55.96870  102.69980   15.74670
 7453.00000   14.69230   55.30110  104.12820   14.67650
 7453.50000   14.55240   55.10750  102.44600   14.53570
 7454.00000   14.39550   54.55050  100.24660   15.12530
 7454.50000   14.10000   51.85140   97.86900   15.47580
 7455.00000   13.67390   49.96710   95.55590   15.05760
 7455.50000   13.52710   51.20550   93.39880   14.33930
 7456.00000   13.45070   52.51490   91.91650   13.73260
 7456.50000   13.30490   53.81150   90.61450   13.97400
 7457.00000   13.03840   55.09170   89.87660   14.38040
 7457.50000   12.74390   56.37180   89.99470   14.65770
 7458.00000   12.44510   57.10360   89.41930   14.64260
 7458.50000   12.17130   57.47240   86.74860   14.62750
 7459.00000   11.90700   56.67230   86.96320   14.47890
 7459.50000   11.73060   56.35890   90.31870   14.15430
 7460.00000   11.72720   56.42550   92.25780   13.22830
 7460.50000   11.73500   57.03680   92.55880   12.32930
 7461.00000   11.37060   57.73240   91.41930   12.04530
 7461.50000   11.11450   58.24760   92.23490   11.78230
 7462.00000   11.07410   57.73680   92.92910   11.59730
 7462.50000   11.03370   57.01190   92.88340   11.43650
 7463.00000   11.24150   56.62720   94.51310   11.97860
 7463.50000   11.53510   56.73590   96.01220   12.36270
 7464.00000   11.69230   56.85330   95.59160   12.52810
 7464.50000   12.11230   56.02890   91.66300   12.73800
 7465.00000   13.29830   55.05420   88.03590   12.91640
 7465.50000   14.87740   55.75060   85.64950   12.84240
 7466.00000   14.50550   57.79300   90.01170   12.52230
 7466.50000   13.64690   58.87590   94.51720   12.41300
 7467.00000   13.38370   56.99640   94.48120   12.34050
 7467.50000   12.86430   55.30970   92.35330   12.26680
 7468.00000   12.03950   56.41260   91.48630   12.04500
 7468.50000   11.37790   57.14910   91.17000   11.84050
 7469.00000   11.47770   55.85600   89.59360   12.20690
 7469.50000   12.23100   54.73120   87.56380   12.55990
 7470.00000   13.05480   57.63340   88.55410   12.31920
 7470.50000   13.38970   60.54210   91.92400   11.71780
 7471.00000   12.78320   61.49760   95.29390   11.13680
 7471.50000   11.37390   61.51100   96.73770   10.57430
 7472.00000   11.51020   59.64480   96.70760   10.55800
 7472.50000   12.00680   57.41470   96.42970   10.96300
 7473.00000   13.85040   56.25900   97.00760   12.08670
 7473.50000   14.34000   55.20100   97.24530   13.12450
 7474.00000   13.86230   55.89940   96.86460   13.48060
 7474.50000   13.50330   56.68370   94.42570   13.46600
 7475.00000   13.46210   57.27180   92.75720   13.45090
 7475.50000   13.72330   57.22700   91.48080   13.43580
 7476.00000   14.61530   55.84070   90.33660   13.51220
 7476.50000   15.05200   55.29070   90.29980   13.72120
 7477.00000   14.77820   55.51300   91.43120   13.92110
 7477.50000   14.08540   55.80460   92.15640   14.03360
 7478.00000   13.28300   56.00820   91.21200   14.46930
 7478.50000   13.85690   56.03830   90.23900   15.07830
 7479.00000   14.62720   56.05230   90.34510   15.42200
 7479.50000   14.12700   56.02460   90.76230   15.27020
 7480.00000   13.35000   56.03100   91.30180   14.79800
 7480.50000   12.64910   56.03390   91.70070   14.23860
 7481.00000   12.57300   55.71420   90.03870   13.66850
 7481.50000   12.53320   53.58270   86.10170   13.20750
 7482.00000   12.60770   51.68220   83.44620   12.83960
 7482.50000   12.68210   53.05360   86.37120   12.70950
 7483.00000   13.26570   56.43670   88.69750   12.94150
 7483.50000   14.44050   58.47380   89.59220   13.20550
 7484.00000   15.11740   62.21680   91.48720   13.44510
 7484.50000   15.11740   65.67830   92.58410   13.68470
 7485.00000   13.89000   65.92290   92.41310   13.91180
 7485.50000   12.44650   64.56190   90.08010   14.11700
 7486.00000   11.14710   62.48150   87.09960   14.32220
 7486.50000   10.99620   61.84740   86.45600   14.52730
 7487.00000   11.38440   61.18730   86.22380   14.73250
 7487.50000   11.81880   59.83830   85.95950   14.75740
 7488.00000   11.85560   58.01750   85.58390   14.33060
 7488.50000   11.57540   57.02690   86.75590   13.57090
 7489.00000   11.52420   56.90270   90.88800   13.06410
 7489.50000   11.80150   56.87790   94.80740   13.02580
 7490.00000   12.36710   56.74680   99.00630   12.62010
 7490.50000   12.65690   56.46640  101.59810   12.04270
 7491.00000   12.81260   53.93150   99.53570   11.59790
 7491.50000   13.59690   48.55660   93.07960   11.15310
 7492.00000   14.73140   45.59950   86.91300   10.67660
 7492.50000   15.86590   45.89530   84.92950   10.37220
 7493.00000   14.94630   50.08540   88.38210   10.78510
 7493.50000   13.40350   56.32770   93.20030   12.06470
 7494.00000   13.17110   56.99970   97.28040   13.21840
 7494.50000   13.12240   56.99480   97.39230   14.31990
 7495.00000   12.98480   56.96900   95.39640   14.63870
 7495.50000   11.74980   56.62870   93.51670   14.95750
 7496.00000   11.39420   56.29180   89.94310   14.99780
 7496.50000   12.27870   55.88760   87.95950   14.45980
 7497.00000   13.97450   55.48540   88.20910   13.61870
 7497.50000   13.67210   55.35100   89.20510   12.31030
 7498.00000   12.35780   55.10580   90.41350   11.93790
