~Version ---------------------------------------------------
VERS.   2.0 : CWLS log ASCII Standard -VERSION 2.0
WRAP.    NO : One line per depth step
DLM . SPACE : Column Data Section Delimiter
~Well ------------------------------------------------------
STRT .F                4996.0 : START DEPTH
STOP .F                9504.0 : STOP DEPTH
STEP .F                   0.5 : STEP
NULL .               -9999.25 : NULL VALUE
COMP .                        : COMPANY
WELL .                        : WELL
FLD  .                        : FIELD
LOC  .                        : LOCATION
PROV .                        : PROVINCE
CNTY .                        : COUNTY
STAT .                        : STATE
CTRY .                        : COUNTRY
SRVC .                        : SERVICE COMPANY
DATE .                        : DATE
UWI  .                        : UNIQUE WELL ID
API  .                        : API NUMBER
SLAT .WGS84 2.471292227407197 : SURFACE LATITUDE
SLON .WGS84 5.033315333499999 : SURFACE LONGITUDE
DATUM.F                2578.0 : DEPTH DATUM ELEV
~Curve Information -----------------------------------------
DEPT.F     : 
GR  .GAPI  : GAMMA RAY
DTCO.US/F  : DELTA-T COMPRESSIONAL
DTSM.US/F  : DELTA-T SHEAR
GRS .GAPI  : GAMMA RAY FROM SONIC LOG
~Params ----------------------------------------------------
~Other -----------------------------------------------------
~ASCII -----------------------------------------------------
# ...
 6926.50000   20.07090   57.52280  105.83370   19.40480
 6927.00000   20.92320   57.42900  105.21670   20.89240
 6927.50000   21.19990   56.88610  104.70470   22.59330
 6928.00000   21.27470   56.34320  103.79420   23.24090
 6928.50000   21.62100   55.80030  101.14490   23.32180
 6929.00000   22.32280   54.67600   98.61050   23.06700
 6929.50000   22.17880   54.30940   96.74700   22.24270
 6930.00000   21.50030   54.63500   97.61550   21.34670
 6930.50000   20.82000   54.93040   97.73070   20.59600
 6931.00000   20.65420   54.03080   97.27320   19.93100
 6931.50000   20.65360   53.49160   96.76980   19.03600
 6932.00000   20.42550   53.49350   96.14200   18.43010
 6932.50000   19.80410   53.49550   95.79520   17.84000
 6933.00000   17.68990   53.49750   95.79720   17.28590
 6933.50000   13.79450   53.49950   95.79920   16.99550
 6934.00000   14.16230   53.09300   95.87040   17.73270
 6934.50000   16.30080   52.40390   96.07490   19.09090
 6935.00000   18.88550   51.85110   96.46330   20.95570
 6935.50000   22.34760   51.23780   96.85560   21.68550
 6936.00000   22.72830   51.07820   96.92500   22.12610
 6936.50000   22.40710   51.49680   95.74670   22.30320
 6937.00000   21.97890   53.32120   92.01080   22.35030
 6937.50000   21.83080   55.19030   88.62300   22.38130
 6938.00000   23.09190   56.50070   85.53980   22.33570
 6938.50000   25.78550   54.25050   81.23120   23.16510
 6939.00000   28.41130   53.22120   76.98680   24.29650
 6939.50000   29.74090   52.03890   78.71860   24.75740
 6940.00000   30.00850   49.90280   82.28840   25.47240
 6940.50000   29.82480   48.78480   85.88630   26.18740
 6941.00000   29.60570   48.23750   86.61560   26.94400
 6941.50000   28.31130   47.28240   83.11200   27.58910
 6942.00000   25.69550   47.47610   82.97480   26.39630
 6942.50000   23.36200   49.28360   89.62650   23.74100
 6943.00000   22.55200   50.62790   92.97470   21.77460
 6943.50000   21.52300   49.84020   92.79610   20.92780
 6944.00000   19.82400   49.28440   89.76620   20.30820
 6944.50000   18.29990   49.09060   89.03950   19.82440
 6945.00000   17.94470   48.62100   89.28550   19.80200
 6945.50000   18.86880   47.66610   89.50520   20.29510
 6946.00000   21.91550   46.24770   89.50220   23.76710
 6946.50000   27.06320   44.71640   89.18280   29.32600
 6947.00000   35.10960   43.69250   87.36640   36.25070
 6947.50000   41.31070   42.05150   84.35450   42.42820
 6948.00000   44.99400   41.00210   79.43810   46.83790
 6948.50000   47.88090   41.68170   76.01640   47.55750
 6949.00000   48.37070   44.10030   80.25280   47.55230
 6949.50000   47.70130   46.80350   90.16840   47.74720
 6950.00000   46.77480   51.77400  106.74420   50.70750
 6950.50000   49.28460   56.04330  115.90590   54.56450
 6951.00000   55.27870   59.28110  120.47160   60.26480
 6951.50000   62.75240   59.87820  123.04580   65.62200
 6952.00000   68.03010   60.47520  126.11330   69.58970
 6952.50000   70.57200   60.81650  129.04550   72.47770
 6953.00000   71.23570   60.54480  129.72570   76.71130
 6953.50000   72.64040   59.14880  123.95880   80.09920
 6954.00000   76.18070   56.88440  117.51380   81.87200
 6954.50000   80.61580   54.38690  110.56620   82.95650
 6955.00000   84.24250   49.13020  102.12130   84.67960
 6955.50000   87.41080   44.03500   89.53680   86.39870
 6956.00000   87.90130   43.72330   79.79590   86.45370
 6956.50000   85.78180   45.61560   78.08900   84.13280
 6957.00000   80.90570   46.56250   94.41730   76.84510
 6957.50000   71.72690   47.05550  102.72340   67.38010
 6958.00000   57.83140   47.25840  105.72050   56.85300
 6958.50000   47.57130   46.82380  103.36840   46.54540
 6959.00000   40.94250   48.00800  103.10460   38.96710
 6959.50000   38.89390   51.25880  103.97240   32.94000
 6960.00000   37.13580   53.17770  103.02980   30.72450
 6960.50000   35.26500   53.92310  102.81510   30.45600
 6961.00000   31.77640   55.61460  102.68440   30.48910
 6961.50000   30.51590   56.37560  102.09460   30.19280
 6962.00000   29.86000   54.90690   98.80550   29.73990
 6962.50000   29.38550   56.13120   97.19910   29.32110
 6963.00000   29.25990   57.86030   98.56740   28.90220
 6963.50000   29.56700   59.54320  101.71320   28.59850
 6964.00000   30.30710   62.90830  107.79270   27.51910
 6964.50000   30.63370   64.29320  111.30180   26.61640
 6965.00000   30.30910   63.03600  107.88780   25.96470
 6965.50000   29.49450   59.26520  102.44240   25.77790
 6966.00000   28.81500   57.70340   98.74830   25.80950
 6966.50000   28.12520   55.73630   95.69100   26.38570
 6967.00000   26.60480   54.54620   94.59760   26.71210
 6967.50000   25.21940   57.15280   97.32480   26.88820
 6968.00000   24.38770   60.14110   99.38070   26.95010
 6968.50000   23.76660   62.51310  100.44440   27.11630
 6969.00000   23.93960   62.67800   99.88610   27.58070
 6969.50000   24.57470   61.54540  100.44660   28.08170
 6970.00000   26.47310   60.18890   97.49450   29.65980
 6970.50000   29.17160   59.06410   96.07330   31.49500
 6971.00000   35.15120   60.31380   97.66070   38.09120
 6971.50000   41.36640   65.11630  103.02580   48.77980
 6972.00000   48.55530   69.12990  108.93490   58.51590
 6972.50000   54.88850   72.66100  112.95020   61.92360
 6973.00000   58.58160   71.75370  113.38230   61.46400
 6973.50000   58.09330   69.02320  114.03960   58.06600
 6974.00000   53.71410   66.86120  114.63980   54.08410
 6974.50000   48.37140   63.98160  114.63790   49.42750
 6975.00000   43.40230   59.62170  110.94890   43.15790
 6975.50000   37.19780   55.35450  104.91940   37.14110
 6976.00000   31.05820   50.54280   98.86800   31.77460
 6976.50000   25.50560   49.05890   96.36260   25.07400
 6977.00000   21.72410   49.42130   95.97120   21.04050
 6977.50000   19.88030   50.94870   95.64280   19.32160
 6978.00000   19.52650   51.97190   95.55920   19.80440
 6978.50000   19.66330   51.07800   95.22570   21.27560
 6979.00000   19.98690   49.80570   95.30530   23.48610
 6979.50000   21.15590   48.77940   96.72340   24.77630
 6980.00000   23.86860   49.07560   98.82690   25.62040
 6980.50000   26.00810   52.01990  100.99210   26.46380
 6981.00000   27.41170   54.23980  102.57420   27.26310
 6981.50000   27.79590   55.76920  102.86120   27.61710
 6982.00000   26.70130   56.58890  102.88060   27.25820
 6982.50000   24.70280   56.67590  102.42610   25.88260
 6983.00000   22.12810   55.71400  100.79740   23.44220
 6983.50000   21.24890   53.96610   98.37460   22.69660
 6984.00000   26.28810   52.06550   97.04570   23.66130
 6984.50000   33.72900   51.41390   96.72490   24.89810
 6985.00000   44.27570   52.11470   97.02390   26.62450
 6985.50000   52.53570   52.75350   97.56660   31.22630
 6986.00000   53.71770   52.80400   98.79330   40.04140
 6986.50000   50.59930   52.51250   99.62480   47.34350
 6987.00000   46.20570   51.48410   98.96320   49.53820
 6987.50000   41.98680   52.16680   98.20130   48.00420
 6988.00000   38.19040   51.81760   98.53000   45.67100
 6988.50000   35.54050   48.90650   97.26490   43.34720
 6989.00000   33.07470   47.32560   95.78840   41.15080
 6989.50000   30.77530   46.19220   94.97700   39.13710
 6990.00000   29.29230   47.24800   95.07040   36.46990
 6990.50000   28.53550   48.96880   95.40670   33.58310
 6991.00000   29.30600   51.25090   95.54430   30.53820
 6991.50000   31.55700   52.25300   95.55990   29.00030
 6992.00000   34.43910   52.26480   95.56980   28.69620
 6992.50000   37.51070   52.28310   95.81090   30.70180
 6993.00000   37.36140   52.29580   96.71730   32.78900
 6993.50000   34.90150   52.30640   96.89630   33.55110
 6994.00000   33.18080   52.43260   96.29310   33.73820
 6994.50000   32.65690   53.08580   95.94370   33.67550
 6995.00000   32.11900   53.71980   97.75510   32.76230
 6995.50000   30.88680   54.58480  100.46890   31.61420
 6996.00000   30.96090   55.78980  103.23920   30.44290
 6996.50000   31.00990   57.44390  104.32360   31.19620
 6997.00000   30.86100   58.21340  104.74090   32.55920
 6997.50000   29.50940   58.23880  105.08780   33.66600
