~Version ---------------------------------------------------
VERS.   2.0 : CWLS log ASCII Standard -VERSION 2.0
WRAP.    NO : One line per depth step
DLM . SPACE : Column Data Section Delimiter
~Well ------------------------------------------------------
STRT .F                4996.0 : START DEPTH
STOP .F                9504.0 : STOP DEPTH
STEP .F                   0.5 : STEP
NULL .               -9999.25 : NULL VALUE
COMP .                        : COMPANY
WELL .                        : WELL
FLD  .                        : FIELD
LOC  .                        : LOCATION
PROV .                        : PROVINCE
CNTY .                        : COUNTY
STAT .                        : STATE
CTRY .                        : COUNTRY
SRVC .                        : SERVICE COMPANY
DATE .                        : DATE
UWI  .                        : UNIQUE WELL ID
API  .                        : API NUMBER
SLAT .WGS84 2.471292227407197 : SURFACE LATITUDE
SLON .WGS84 5.033315333499999 : SURFACE LONGITUDE
DATUM.F                2578.0 : DEPTH DATUM ELEV
~Curve Information -----------------------------------------
DEPT.F     : 
GR  .GAPI  : GAMMA RAY
DTCO.US/F  : DELTA-T COMPRESSIONAL
DTSM.US/F  : DELTA-T SHEAR
GRS .GAPI  : GAMMA RAY FROM SONIC LOG
~Params ----------------------------------------------------
~Other -----------------------------------------------------
~ASCII -----------------------------------------------------
# ...
 9214.50000   45.96710   51.24450   93.13060   50.88230
 9215.00000   47.48530   50.33360   92.41590   47.38120
 9215.50000   50.40600   51.69100   93.27660   44.83630
 9216.00000   52.86300   53.79490   97.57400   44.18350
 9216.50000   55.09110   55.64860  102.09290   45.74260
 9217.00000   58.01850   57.46170  106.24300   49.07030
 9217.50000   60.08360   59.79030  110.26350   52.62490
 9218.00000   56.28210   60.75380  111.57420   55.25330
 9218.50000   51.26480   61.05490  109.56760   57.38860
 9219.00000   47.57930   60.51660  106.98510   57.68600
 9219.50000   51.50780   59.74660  103.37730   56.40480
 9220.00000   57.94140   58.70080  100.93740   56.83420
 9220.50000   64.11420   58.10220   98.71280   58.00180
 9221.00000   64.37300   58.28330   97.51820   57.14860
 9221.50000   62.28790   60.71730  104.36110   54.26600
 9222.00000   58.97040   62.26140  106.45740   54.32820
 9222.50000   55.56780   63.04730  105.37570   59.78910
 9223.00000   54.24510   63.80960  103.57940   64.34440
 9223.50000   55.53750   62.02660  102.29800   66.54590
 9224.00000   60.89550   61.91380  101.61340   64.55220
 9224.50000   68.17290   63.00110  101.34600   57.47330
 9225.00000   77.58740   64.55960  103.56840   52.29130
 9225.50000   88.42920   70.47540  112.32560   51.50680
 9226.00000   98.42520   74.19020  117.80580   57.21030
 9226.50000  104.44180   71.56230  114.82710   65.09090
 9227.00000  104.16230   68.35870  111.32470   74.77720
 9227.50000   96.09860   66.73690  109.27570   84.46360
 9228.00000   84.44920   62.89200  106.61450   95.81090
 9228.50000   69.45120   57.80520  103.70080   99.04030
 9229.00000   59.95760   51.31780  102.03650   96.75030
 9229.50000   53.34050   48.24030  100.83370   92.11980
 9230.00000   51.60010   50.67000  101.61980   81.85520
 9230.50000   52.43080   53.51530  104.65010   76.97210
 9231.00000   56.48360   54.81870  104.68540   66.68200
 9231.50000   60.10450   55.93810  104.43860   58.11520
 9232.00000   57.92330   56.79660  104.00570   52.33240
 9232.50000   48.92280   56.84610  102.32040   52.75440
 9233.00000   33.73490   56.28860   97.55830   56.43050
 9233.50000   19.72280   55.93230   94.58590   59.44580
 9234.00000   13.91710   56.29430   93.61220   51.46770
 9234.50000   13.48960   53.38630   92.04820   36.76100
 9235.00000   13.16910   50.89540   89.98750   23.42110
 9235.50000   13.13320   48.62780   87.95600   14.29730
 9236.00000   13.08620   46.81870   87.35450   12.98250
 9236.50000   12.24220   46.21450   87.07990   12.89300
 9237.00000   11.74800   45.98530   87.07200   12.40610
 9237.50000   11.72910   45.96420   87.05680   11.93720
 9238.00000   11.72840   45.96420   86.63410   11.75920
 9238.50000   11.72730   45.96420   85.91040   11.77190
 9239.00000   11.80190   46.00830   85.66220   11.79790
 9239.50000   11.34190   46.24080   85.76890   11.82380
 9240.00000   10.88260   46.42660   85.88760   12.10260
 9240.50000   10.51350   46.49840   85.97130   12.27670
 9241.00000   10.47790   46.23430   86.07480   11.73640
 9241.50000   10.95760   46.29790   85.96780   11.26290
 9242.00000   11.40680   46.92850   85.88610   11.24010
 9242.50000   11.81400   46.92520   85.91640   11.55270
 9243.00000   12.12100   46.71500   86.03630   12.36750
 9243.50000   12.43920   46.41250   86.35770   12.71750
 9244.00000   12.78240   46.62080   87.38560   12.69370
 9244.50000   12.90760   46.99320   87.77700   12.42970
 9245.00000   12.92230   47.50700   88.05340   12.02700
 9245.50000   12.27690   48.17540   88.54200   11.47870
 9246.00000   11.39330   48.08360   90.46900   11.17240
 9246.50000   11.12190   46.49910   88.67700    9.80520
 9247.00000   11.02860   42.80220   84.71290    9.17810
 9247.50000   10.88160   41.15820   80.84200    8.99450
 9248.00000   10.73450   42.21760   82.75490    9.15820
 9248.50000   10.58740   43.98870   87.35370    9.75610
 9249.00000   10.57080   44.32890   86.82600   10.54020
 9249.50000   10.66160   43.83120   85.88360   10.94200
 9250.00000   12.20260   43.18360   82.95820   11.39710
 9250.50000   14.14620   42.59260   83.33710   12.18990
 9251.00000   17.34420   43.43990   85.73450   13.75630
 9251.50000   19.31740   44.03400   86.83630   15.75040
 9252.00000   19.31490   44.14750   86.15350   17.34040
 9252.50000   18.98000   44.54550   87.23650   18.14300
 9253.00000   18.45020   46.99810   90.22680   18.11820
 9253.50000   19.37810   49.85190   92.16040   17.80290
 9254.00000   21.46900   52.56600   92.12920   20.26610
 9254.50000   22.50340   55.67940   91.12460   24.04540
 9255.00000   20.59410   57.33700   92.30340   26.48170
 9255.50000   16.66940   56.20060   92.68350   24.24140
 9256.00000   13.79860   53.06040   92.38670   19.83110
 9256.50000   11.87580   51.85400   91.99600   14.33930
 9257.00000   11.31580   51.52380   92.09800   12.06820
 9257.50000   11.13090   51.37600   92.01280   10.11900
 9258.00000   11.14150   51.25750   92.00400    9.32830
 9258.50000   11.45160   51.09120   92.02980    9.39700
 9259.00000   11.82860   50.96920   91.42030   10.56540
 9259.50000   12.04640   50.93490   91.17670   12.11810
 9260.00000   11.98590   50.92780   92.01210   12.57490
 9260.50000   11.92540   50.84610   91.80230   11.89120
 9261.00000   11.75300   50.56130   90.80490   10.41220
 9261.50000   11.03840   50.34340   88.47840    9.98530
 9262.00000   10.66310   50.71630   88.30170   10.12630
 9262.50000   10.34930   50.79420   88.81160   10.57720
 9263.00000    9.76430   49.88590   87.96180   10.70560
 9263.50000    9.40930   49.55380   87.43710   10.38720
 9264.00000    9.60880   50.81480   87.76030    9.95500
 9264.50000   10.82140   51.31290   88.26140    9.73500
 9265.00000   11.82030   50.96280   88.02690    9.98710
 9265.50000   11.75330   50.75550   88.06590   10.41740
 9266.00000   10.76640   51.03190   89.47220   10.54940
 9266.50000    9.72010   51.27400   89.68720   10.23650
 9267.00000    9.39220   50.52100   88.59430    9.86030
 9267.50000    9.49840   49.45140   87.99350    9.48500
 9268.00000   10.20660   49.00160   88.30740    9.39050
 9268.50000   11.09020   49.92310   88.82980    9.49930
 9269.00000   10.82750   49.77640   88.05600    9.56710
 9269.50000   10.54420   48.51340   87.11460    9.52620
 9270.00000   10.94120   48.47310   86.69120    9.76950
 9270.50000   11.64310   49.90760   87.81890    9.96590
 9271.00000   11.58860   50.16950   88.99000   10.02670
 9271.50000   11.39600   48.81960   88.12080   10.15630
 9272.00000   11.14150   48.53730   87.63090   10.29310
 9272.50000   11.13960   49.05730   87.87480   10.37320
 9273.00000   10.99810   48.62160   87.97900   10.05420
 9273.50000   10.70860   47.78020   88.17210    9.65220
 9274.00000   10.53340   47.24070   89.18330    9.65540
 9274.50000   10.65600   47.10250   90.19440   10.45410
 9275.00000   11.05230   49.56030   91.79750   11.83640
 9275.50000   11.57800   53.22230   96.20030   12.26380
 9276.00000   11.56470   53.61530   96.63940   12.37360
 9276.50000   10.94860   49.99390   93.14080   12.25060
 9277.00000   10.27070   49.71930   91.45930   11.87530
 9277.50000    9.96030   50.40820   91.30200   11.66730
 9278.00000    9.93200   50.72890   89.13620   10.95240
 9278.50000   10.23130   49.44780   85.81030   10.56790
 9279.00000   10.53910   48.62740   86.03680   10.67520
 9279.50000   10.33360   49.02330   87.99500   10.98710
 9280.00000    9.71740   49.78700   88.68800   10.92110
 9280.50000    9.08810   51.31270   90.30980   10.52580
 9281.00000    8.98820   52.64060   94.69600   10.17130
 9281.50000    9.66900   55.96920   99.92370    9.97630
 9282.00000   12.35890   61.08350  105.10100    9.97250
 9282.50000   15.76450   66.19790  106.60330   10.50410
 9283.00000   22.66750   66.83100  104.64270   13.38600
 9283.50000   35.02380   66.90290  102.90860   24.00620
 9284.00000   51.81270   66.83550  102.26790   35.41130
 9284.50000   64.79390   66.86110  101.92330   47.32650
 9285.00000   71.39620   67.05870  102.04450   53.87130
 9285.50000   75.13520   67.29900  102.46850   60.72980
