~Version ---------------------------------------------------
VERS.   2.0 : CWLS log ASCII Standard -VERSION 2.0
WRAP.    NO : One line per depth step
DLM . SPACE : Column Data Section Delimiter
~Well ------------------------------------------------------
STRT .F                4996.0 : START DEPTH
STOP .F                9504.0 : STOP DEPTH
STEP .F                   0.5 : STEP
NULL .               -9999.25 : NULL VALUE
COMP .                        : COMPANY
WELL .                        : WELL
FLD  .                        : FIELD
LOC  .                        : LOCATION
PROV .                        : PROVINCE
CNTY .                        : COUNTY
STAT .                        : STATE
CTRY .                        : COUNTRY
SRVC .                        : SERVICE COMPANY
DATE .                        : DATE
UWI  .                        : UNIQUE WELL ID
API  .                        : API NUMBER
SLAT .WGS84 2.471292227407197 : SURFACE LATITUDE
SLON .WGS84 5.033315333499999 : SURFACE LONGITUDE
DATUM.F                2578.0 : DEPTH DATUM ELEV
~Curve Information -----------------------------------------
DEPT.F     : 
GR  .GAPI  : GAMMA RAY
DTCO.US/F  : DELTA-T COMPRESSIONAL
DTSM.US/F  : DELTA-T SHEAR
GRS .GAPI  : GAMMA RAY FROM SONIC LOG
~Params ----------------------------------------------------
~Other -----------------------------------------------------
~ASCII -----------------------------------------------------
# ...
 7784.50000   17.39720   55.55930  100.92050   17.95410
 7785.00000   19.37890   55.82340  101.32210   19.29150
 7785.50000   20.50110   60.60220  106.17600   19.67310
 7786.00000   20.69420   62.66620  107.59120   20.25020
 7786.50000   20.60600   57.82160  101.04620   21.75210
 7787.00000   21.12850   52.88220   93.83910   22.79610
 7787.50000   25.44780   50.94450   91.67640   23.34730
 7788.00000   33.18330   52.79500   94.60680   24.14820
 7788.50000   40.62480   55.96360  102.13250   27.12890
 7789.00000   45.55630   59.88820  112.02710   35.02670
 7789.50000   50.62190   61.36030  118.22440   43.98760
 7790.00000   55.95680   59.22850  118.87430   52.63290
 7790.50000   61.08960   57.11340  113.39860   58.10960
 7791.00000   62.69880   58.24070  108.20140   57.16390
 7791.50000   62.29160   63.69360  112.42680   54.55520
 7792.00000   61.78460   69.82230  120.42290   56.66010
 7792.50000   61.61670   73.15530  130.13220   60.31900
 7793.00000   61.35650   70.21220  130.87720   63.64630
 7793.50000   60.42080   65.89590  125.62740   64.57140
 7794.00000   56.50520   63.88390  121.27730   61.97930
 7794.50000   52.03940   63.07150  117.51670   58.25540
 7795.00000   47.35250   61.51150  111.09650   54.40870
 7795.50000   42.61810   57.74770  103.99720   48.91010
 7796.00000   41.47740   55.18970   97.63640   45.45480
 7796.50000   45.06320   54.77070   94.50250   46.16110
 7797.00000   49.72070   55.16390   93.09640   49.33140
 7797.50000   54.77800   57.82530   95.10460   53.06610
 7798.00000   59.20030   63.19940  101.88020   60.83820
 7798.50000   63.92030   68.79460  108.93720   68.80890
 7799.00000   67.01910   69.73580  110.99190   74.14510
 7799.50000   69.85200   69.31270  109.19150   73.65720
 7800.00000   73.08470   68.30690  107.00000   70.15290
 7800.50000   71.14220   66.11850  106.18590   66.44810
 7801.00000   65.08410   63.41350  103.90530   63.68310
 7801.50000   57.67710   62.22410   99.76380   61.44160
 7802.00000   54.51800   64.19120  102.56780   60.02490
 7802.50000   56.88160   68.91840  111.08560   59.90460
 7803.00000   60.94510   74.79150  118.64350   64.17040
 7803.50000   64.23720   78.41170  124.34950   67.48210
 7804.00000   63.42320   75.69310  123.04360   64.15130
 7804.50000   59.40400   71.08100  113.40910   56.95290
 7805.00000   54.45210   68.87030  108.43540   50.35120
 7805.50000   50.32740   70.74580  109.62740   47.37000
 7806.00000   50.66870   71.84330  111.00920   49.27880
 7806.50000   53.37920   67.58980  104.73490   51.36030
 7807.00000   54.20550   62.00740   96.28510   51.60890
 7807.50000   51.13110   58.13490   87.94710   49.49990
 7808.00000   47.75150   55.50470   85.75970   46.94580
 7808.50000   46.88000   53.90440   83.67130   46.19590
 7809.00000   49.97670   51.81250   82.18810   49.24370
 7809.50000   52.06920   53.41370   83.14270   52.95420
 7810.00000   52.17780   58.20570   87.23350   54.39890
 7810.50000   51.38620   63.52260   96.73260   53.25590
 7811.00000   50.55310   68.32900  106.09110   53.61280
 7811.50000   50.10200   73.20380  109.53980   55.77740
 7812.00000   50.14040   74.58870  107.20890   57.45440
 7812.50000   51.08120   72.97680  103.06650   54.60010
 7813.00000   50.21240   69.31620   97.70080   49.06130
 7813.50000   44.80250   63.35410   92.38170   41.26320
 7814.00000   40.71290   57.53510   87.95540   38.29860
 7814.50000   40.46850   53.62200   91.54680   43.66190
 7815.00000   48.83320   55.69750   99.86660   54.82450
 7815.50000   61.57080   58.51750  107.32860   65.07550
 7816.00000   73.25910   60.17730  112.64640   71.28470
 7816.50000   79.62130   61.70570  117.49570   74.29400
 7817.00000   83.46630   62.55740  122.78450   77.03220
 7817.50000   84.38410   63.36950  124.93190   80.50840
 7818.00000   78.69240   64.18450  121.76910   80.16350
 7818.50000   67.31890   64.90310  117.35750   70.10720
 7819.00000   59.30870   64.72400  112.49410   59.15220
 7819.50000   51.42760   63.22720  106.68900   51.16450
 7820.00000   44.74320   61.51540   99.06370   44.36380
 7820.50000   34.21420   59.32840   96.05200   36.89790
 7821.00000   27.15230   56.64560   95.88700   30.04650
 7821.50000   25.64600   53.87400   95.97380   27.06160
 7822.00000   25.88830   52.79710   95.25870   27.63750
 7822.50000   26.85210   52.42620   93.58000   28.72470
 7823.00000   26.68900   50.06410   91.67290   29.76650
 7823.50000   25.90050   47.27970   90.34590   29.46230
 7824.00000   24.78850   47.45220   92.92600   28.53240
 7824.50000   24.49520   48.59050   94.53920   27.33480
 7825.00000   24.58840   48.84180   94.26310   25.95960
 7825.50000   24.84430   50.17720   96.42510   25.86040
 7826.00000   26.01460   51.76570  100.68190   27.47040
 7826.50000   28.29530   52.99900  102.97780   29.54320
 7827.00000   28.26110   52.86720  102.83660   29.90010
 7827.50000   26.93720   51.09400  102.48240   27.23450
 7828.00000   24.48120   53.48110  103.77060   24.10920
 7828.50000   21.55590   57.39360  104.89020   22.36240
 7829.00000   20.02870   57.70710   99.33390   21.58000
 7829.50000   18.53170   56.97710   95.41020   20.89830
 7830.00000   17.29500   56.73530   93.55830   19.60450
 7830.50000   16.96790   55.45970   92.77200   18.35630
 7831.00000   17.23490   53.96460   94.83240   17.42580
 7831.50000   17.48090   53.60840   93.08210   17.19590
 7832.00000   17.68600   52.40250   87.37310   17.45740
 7832.50000   17.89100   53.06950   82.74240   18.21170
 7833.00000   19.86660   57.66620   90.11460   21.89980
 7833.50000   24.01830   59.62860   94.08070   27.91800
 7834.00000   26.86390   60.31690   95.31120   30.28720
 7834.50000   27.21240   63.45820   97.54660   27.01480
 7835.00000   24.74110   66.20060   99.80300   21.39170
 7835.50000   20.77200   63.85530   96.19080   16.27720
 7836.00000   16.73310   61.25080   91.86770   13.59450
 7836.50000   13.16680   59.98730   91.91570   11.59540
 7837.00000   11.81410   61.80110   93.00690   10.95010
 7837.50000   11.61350   61.89350   93.75970   10.93450
 7838.00000   12.29480   63.00380   94.40400   11.65810
 7838.50000   12.99110   65.13720   98.63570   12.71730
 7839.00000   13.76580   68.49340  103.63780   13.64760
 7839.50000   14.84830   70.26170  105.35130   14.55970
 7840.00000   16.08690   68.09300  102.86840   15.50650
 7840.50000   17.17800   65.04140   98.82820   16.60240
 7841.00000   17.63390   60.16160   97.11130   18.29060
 7841.50000   17.65040   51.76380   96.41060   19.30430
 7842.00000   16.68570   47.27590   96.14110   19.38220
 7842.50000   14.79900   45.96070  102.53200   18.33690
 7843.00000   13.32890   45.96070  103.77330   17.25240
 7843.50000   12.51790   45.96070  100.34010   15.78620
 7844.00000   11.86810   45.95590   95.06330   14.21630
 7844.50000   11.45660   45.94790   92.05200   12.72900
 7845.00000   10.28760   46.11980   90.67120   11.63900
 7845.50000    9.71930   48.21460  101.54250   11.25680
 7846.00000   11.04300   55.88150  112.56750   12.20980
 7846.50000   13.63790   63.86070  123.58980   13.85310
 7847.00000   14.73700   76.22880  134.59910   15.22430
 7847.50000   15.75140   86.49960  142.90610   16.73910
 7848.00000   19.37350   90.23470  149.12930   20.87760
 7848.50000   26.29150   92.64140  150.97170   25.05710
 7849.00000   40.65870   94.03800  150.97770   37.48160
 7849.50000   61.24490   95.49410  150.83600   51.69940
 7850.00000   82.53470   93.47720  147.71730   72.01760
 7850.50000  102.38970   87.62360  133.10390   95.89520
 7851.00000  106.81730   79.70230  115.32350  102.50750
 7851.50000   96.13950   73.86130  109.25590   92.41880
 7852.00000   78.72490   72.83520  108.88190   76.44220
 7852.50000   62.82300   72.50730  114.05170   62.63370
 7853.00000   51.39330   67.89810  111.78860   55.51690
 7853.50000   39.91640   62.60820  107.55520   44.63420
 7854.00000   32.89790   60.40090  105.72670   36.53510
 7854.50000   29.12020   59.64660  108.48470   30.79270
 7855.00000   34.43150   63.92000  111.89200   35.87350
 7855.50000   45.57550   67.80020  117.14920   45.16890
