~Version ---------------------------------------------------
VERS.   2.0 : CWLS log ASCII Standard -VERSION 2.0
WRAP.    NO : One line per depth step
DLM . SPACE : Column Data Section Delimiter
~Well ------------------------------------------------------
STRT .F                4996.0 : START DEPTH
STOP .F                9504.0 : STOP DEPTH
STEP .F                   0.5 : STEP
NULL .               -9999.25 : NULL VALUE
COMP .                        : COMPANY
WELL .                        : WELL
FLD  .                        : FIELD
LOC  .                        : LOCATION
PROV .                        : PROVINCE
CNTY .                        : COUNTY
STAT .                        : STATE
CTRY .                        : COUNTRY
SRVC .                        : SERVICE COMPANY
DATE .                        : DATE
UWI  .                        : UNIQUE WELL ID
API  .                        : API NUMBER
SLAT .WGS84 2.471292227407197 : SURFACE LATITUDE
SLON .WGS84 5.033315333499999 : SURFACE LONGITUDE
DATUM.F                2578.0 : DEPTH DATUM ELEV
~Curve Information -----------------------------------------
DEPT.F     : 
GR  .GAPI  : GAMMA RAY
DTCO.US/F  : DELTA-T COMPRESSIONAL
DTSM.US/F  : DELTA-T SHEAR
GRS .GAPI  : GAMMA RAY FROM SONIC LOG
~Params ----------------------------------------------------
~Other -----------------------------------------------------
~ASCII -----------------------------------------------------
# ...
 9071.50000   15.05920   48.91130   92.14150   13.57850
 9072.00000   16.10090   46.62330   93.91000   15.08350
 9072.50000   16.10090   46.80660   93.72900   14.76580
 9073.00000   16.26360   47.33900   93.50390   13.79600
 9073.50000   17.86010   47.89950   93.33050   13.44350
 9074.00000   20.43220   48.88620   93.44060   17.22390
 9074.50000   23.91310   49.66180   93.93980   21.52960
 9075.00000   27.79730   51.22600   94.41810   27.71140
 9075.50000   33.04880   53.12380   95.44800   33.46050
 9076.00000   35.73020   55.28440   98.68740   35.37620
 9076.50000   37.16550   58.03100  101.60740   34.66630
 9077.00000   35.89390   59.69990   98.53600   32.02480
 9077.50000   34.51690   61.61180   94.88640   31.71070
 9078.00000   34.89850   62.60400   91.34870   34.65050
 9078.50000   37.23890   61.15560   89.90920   39.38910
 9079.00000   38.78360   58.69000   88.64340   43.28820
 9079.50000   37.81860   57.79810   88.20900   44.77620
 9080.00000   37.50220   55.21130   88.24420   41.76190
 9080.50000   39.87140   52.64070   90.50690   41.59870
 9081.00000   43.27010   52.72840   93.32400   45.17340
 9081.50000   45.28510   53.05130   95.73070   48.47220
 9082.00000   37.08320   52.41320   96.42500   46.47430
 9082.50000   31.30660   51.52890   96.98270   40.49510
 9083.00000   28.31110   50.67910   95.97340   36.99030
 9083.50000   30.45470   51.22120   94.27370   37.23660
 9084.00000   33.11740   55.17950   96.84010   38.93800
 9084.50000   34.27570   58.40580  101.51000   39.33040
 9085.00000   34.28950   56.57680   97.60190   38.08760
 9085.50000   34.17980   53.19820   93.30910   37.58740
 9086.00000   36.27150   52.01010   93.69590   38.79650
 9086.50000   39.70810   53.35070   98.97400   42.11370
 9087.00000   46.22250   57.06100  104.00910   48.97440
 9087.50000   55.17570   58.77020  108.96820   55.97120
 9088.00000   60.31720   59.76370  110.79240   63.58000
 9088.50000   53.76170   60.50580  107.45020   64.17840
 9089.00000   46.04880   62.51300  109.68540   54.65870
 9089.50000   36.84780   63.20370  111.34240   43.89700
 9090.00000   35.02310   58.62490  106.15060   36.60410
 9090.50000   34.19650   53.40590   98.41310   32.70550
 9091.00000   34.63310   49.05060   92.73530   33.20600
 9091.50000   34.89380   48.36310   90.66720   35.35160
 9092.00000   35.85510   48.18420   90.54110   36.97620
 9092.50000   38.29400   48.33620   91.77880   37.53830
 9093.00000   41.46590   47.81680   90.19080   38.14830
 9093.50000   42.89310   46.26890   89.30340   39.81180
 9094.00000   42.61240   47.34100   89.95530   41.68310
 9094.50000   41.80200   48.90450   91.46570   43.16580
 9095.00000   40.97530   49.29310   92.61340   43.94270
 9095.50000   40.01890   49.47050   93.40610   44.35330
 9096.00000   38.34970   51.32880   94.38480   43.51860
 9096.50000   36.43460   52.26480   95.46310   40.36130
 9097.00000   33.70800   52.03420   96.11070   37.27070
 9097.50000   31.00930   49.90180   95.63880   34.62840
 9098.00000   27.24310   47.24900   91.31060   32.05180
 9098.50000   27.10780   48.12800   89.50970   29.43100
 9099.00000   29.41670   54.00280   92.49220   28.33360
 9099.50000   31.90250   55.96200   93.59850   31.11400
 9100.00000   33.23980   56.65500   95.62320   34.35030
 9100.50000   33.12020   57.70100   98.83840   36.78620
 9101.00000   32.01630   58.72090  101.36890   37.83560
 9101.50000   30.28450   58.44590   96.01870   37.53530
 9102.00000   29.08240   56.77660   89.07810   34.93670
 9102.50000   28.76570   54.78160   82.87230   31.47740
 9103.00000   29.73590   52.25820   78.73050   28.95090
 9103.50000   31.01750   52.33880   77.54540   27.57200
 9104.00000   31.08330   54.97310   81.04450   29.06480
 9104.50000   29.17090   57.96540   86.63610   29.72570
 9105.00000   27.89350   59.29810   92.46820   28.86270
 9105.50000   26.44890   60.64460   97.70960   27.07860
 9106.00000   26.88130   58.04500  100.05250   26.82620
 9106.50000   29.26020   54.04600  100.22050   27.07370
 9107.00000   33.13500   49.41420   97.09630   30.62040
 9107.50000   39.58110   47.55300   94.25420   36.71820
 9108.00000   49.48770   47.41160   95.82230   46.93090
 9108.50000   58.05040   47.55640   98.11590   55.70610
 9109.00000   62.52900   47.83580  100.79570   61.49760
 9109.50000   64.96660   51.17250  103.63690   63.24620
 9110.00000   69.93690   60.49490  108.51320   66.62850
 9110.50000   79.28520   71.01870  114.75670   74.51560
 9111.00000   90.85380   80.67610  122.42010   87.47110
 9111.50000  101.76260   89.75870  129.29190   99.52740
 9112.00000  104.58270   93.02020  132.71050  107.74610
 9112.50000  100.56370   91.34200  135.33700  112.36180
 9113.00000   88.00120   87.33880  139.67540  111.32670
 9113.50000   72.74830   80.61980  143.39180  101.95620
 9114.00000   65.91160   70.82110  136.34470   90.04290
 9114.50000   65.80970   63.19950  122.25110   79.29430
 9115.00000   67.84660   56.70560  107.79420   70.06280
 9115.50000   62.40030   52.73610   94.46890   62.30690
 9116.00000   49.32710   51.98120   88.40900   46.73380
 9116.50000   37.91570   53.32750   89.96270   37.11750
 9117.00000   30.82800   56.91030   95.95810   29.44420
 9117.50000   32.18240   60.92860  101.95350   32.60550
 9118.00000   43.35600   67.85650  115.30860   44.08270
 9118.50000   63.07760   76.80790  129.39030   61.93140
 9119.00000   91.53280   85.75930  146.56110   91.46690
 9119.50000  116.63090   90.07040  159.48760  122.22460
 9120.00000  132.90880   90.56960  158.24790  150.91640
 9120.50000  146.52370   88.45170  150.35680  155.16530
 9121.00000  154.16540   86.34240  143.30990  159.20390
 9121.50000  163.13640   86.60480  137.94670  165.16840
 9122.00000  178.57500   83.04610  128.72900  177.08570
 9122.50000  195.18640   75.35570  115.21310  192.10070
 9123.00000  212.54780   70.34410  103.89680  202.51170
 9123.50000  213.15130   70.19930  103.21680  203.56900
 9124.00000  203.42560   75.48790  115.17080  191.00770
 9124.50000  189.89640   84.38570  132.89800  176.50270
 9125.00000  179.32800   86.53450  138.77300  164.21260
 9125.50000  168.43930   83.14000  130.84930  150.73700
 9126.00000  158.32140   79.43540  120.57640  144.87890
 9126.50000  146.32810   77.30940  112.98040  132.49610
 9127.00000  134.59940   75.63840  110.99180  124.89390
 9127.50000  121.97650   72.51310  110.68640  122.12960
 9128.00000  113.94830   69.37540  107.70210  129.19200
 9128.50000  109.57110   64.23930  100.39880  133.63410
 9129.00000  113.97630   59.41120   92.28630  130.60650
 9129.50000  120.17710   55.20800   84.94000  123.75760
 9130.00000  121.40710   55.99290   84.20560  112.58210
 9130.50000  111.72960   61.26370   92.23300   99.12030
 9131.00000   98.18290   65.31330   99.59750   84.43200
 9131.50000   81.10250   66.32320  100.10200   69.74370
 9132.00000   64.79160   63.70440   91.41500   58.35710
 9132.50000   57.13650   55.79650   81.88310   53.40470
 9133.00000   62.39380   49.28310   75.23010   59.80860
 9133.50000   71.25580   47.41580   73.78750   71.02280
 9134.00000   79.31370   47.33650   75.03480   79.79830
 9134.50000   79.47690   49.51460   79.32820   81.12660
 9135.00000   75.10150   53.42910   81.66000   82.22860
 9135.50000   67.04230   57.28360   84.06660   79.26390
 9136.00000   61.41420   61.88610   88.82370   71.90260
 9136.50000   56.13930   65.93190   93.64940   63.57340
 9137.00000   52.93650   66.81120   99.01120   56.66140
 9137.50000   51.55600   63.08440  102.84820   54.18830
 9138.00000   51.51330   59.99540  102.51290   56.29510
 9138.50000   56.45520   59.30060  103.13360   61.00510
 9139.00000   58.74140   62.02230  106.46230   62.38150
 9139.50000   59.87720   64.79700  110.19820   61.30780
 9140.00000   58.54460   65.91280  111.96870   57.32290
 9140.50000   58.17570   66.19760  112.62070   54.88800
 9141.00000   58.52870   65.64320  112.64570   55.26980
 9141.50000   59.39930   64.43240  110.48510   59.39310
 9142.00000   61.20340   62.01120  108.61150   65.34240
 9142.50000   62.04380   61.73130  107.20900   69.17290
