~Version ---------------------------------------------------
VERS.   2.0 : CWLS log ASCII Standard -VERSION 2.0
WRAP.    NO : One line per depth step
DLM . SPACE : Column Data Section Delimiter
~Well ------------------------------------------------------
STRT .F                4996.0 : START DEPTH
STOP .F                9504.0 : STOP DEPTH
STEP .F                   0.5 : STEP
NULL .               -9999.25 : NULL VALUE
COMP .                        : COMPANY
WELL .                        : WELL
FLD  .                        : FIELD
LOC  .                        : LOCATION
PROV .                        : PROVINCE
CNTY .                        : COUNTY
STAT .                        : STATE
CTRY .                        : COUNTRY
SRVC .                        : SERVICE COMPANY
DATE .                        : DATE
UWI  .                        : UNIQUE WELL ID
API  .                        : API NUMBER
SLAT .WGS84 2.471292227407197 : SURFACE LATITUDE
SLON .WGS84 5.033315333499999 : SURFACE LONGITUDE
DATUM.F                2578.0 : DEPTH DATUM ELEV
~Curve Information -----------------------------------------
DEPT.F     : 
GR  .GAPI  : GAMMA RAY
DTCO.US/F  : DELTA-T COMPRESSIONAL
DTSM.US/F  : DELTA-T SHEAR
GRS .GAPI  : GAMMA RAY FROM SONIC LOG
~Params ----------------------------------------------------
~Other -----------------------------------------------------
~ASCII -----------------------------------------------------
# ...
 8356.50000   24.46940   46.22690   90.23200   28.15140
 8357.00000   25.86300   48.26760   90.08620   25.21950
 8357.50000   34.18080   50.47840   89.68020   27.47730
 8358.00000   40.56760   51.34520   89.30740   33.08880
 8358.50000   43.48790   50.88530   88.57000   39.08480
 8359.00000   41.06160   50.23360   87.55060   41.91350
 8359.50000   39.67170   50.39710   87.39150   40.96760
 8360.00000   45.62980   51.60920   91.47270   40.77700
 8360.50000   54.94680   52.78740   94.22270   45.00980
 8361.00000   70.50430   51.97300   92.31190   55.68550
 8361.50000   81.89920   52.16360   92.54220   69.54010
 8362.00000   82.99110   54.31550   94.62000   79.89450
 8362.50000   78.19550   56.76480   95.62220   81.39020
 8363.00000   71.89380   59.33170   97.47640   76.08920
 8363.50000   64.55100   60.85710   99.98260   69.15330
 8364.00000   59.47800   61.03400  101.15160   64.25540
 8364.50000   54.44830   60.72750  100.28550   58.65040
 8365.00000   50.36600   62.12490  101.27150   54.62930
 8365.50000   46.13600   62.92720  103.14260   49.53310
 8366.00000   40.06210   63.23140  102.74130   46.11730
 8366.50000   34.16310   62.70910  100.49050   42.64670
 8367.00000   28.60650   59.22990   97.99860   36.89560
 8367.50000   25.36160   55.66430   95.03360   30.95380
 8368.00000   23.13350   53.29930   90.72220   27.47900
 8368.50000   20.91760   52.26090   88.50630   24.00420
 8369.00000   18.30630   49.71030   87.93120   21.56410
 8369.50000   16.40830   46.54710   87.30020   19.56400
 8370.00000   16.99290   46.66040   86.74760   18.58270
 8370.50000   17.99570   47.95320   86.60090   18.41490
 8371.00000   19.62890   49.62490   86.84570   18.89500
 8371.50000   21.24230   52.26010   88.67770   19.34280
 8372.00000   28.61160   55.07900   90.50980   21.53360
 8372.50000   37.83490   56.98820   91.84720   28.44840
 8373.00000   49.28490   59.77490   94.17530   38.65840
 8373.50000   53.94920   62.15810   95.87320   50.11040
 8374.00000   50.38840   62.44750   96.73670   56.68870
 8374.50000   44.57760   61.96710   97.01070   51.48940
 8375.00000   37.19300   59.13880   96.84420   43.91860
 8375.50000   33.01420   55.89940   94.98730   37.04810
 8376.00000   32.40790   54.20310   92.74410   33.97120
 8376.50000   32.19150   52.98280   92.00540   33.61130
 8377.00000   32.63180   52.07400   91.47780   33.61870
 8377.50000   31.74020   51.09090   90.73330   32.82730
 8378.00000   31.18100   50.12680   90.01780   30.58150
 8378.50000   32.42970   49.80540   89.81850   28.29410
 8379.00000   36.55080   49.61700   89.71890   28.36820
 8379.50000   39.83990   49.54900   89.85230   31.68410
 8380.00000   38.30180   50.00690   90.64900   34.18670
 8380.50000   31.48690   50.59920   91.28970   36.91920
 8381.00000   26.43890   51.42190   91.46300   36.72250
 8381.50000   24.86020   52.86400   90.82820   34.36460
 8382.00000   24.40180   54.69610   90.26240   31.44620
 8382.50000   24.81960   56.27560   90.44160   29.86530
 8383.00000   27.91880   54.07660   89.19230   31.16680
 8383.50000   32.30740   50.78830   86.80990   33.52760
 8384.00000   37.06830   50.81820   86.52630   37.57180
 8384.50000   40.13420   51.53030   88.06020   40.31760
 8385.00000   41.04580   51.50970   90.29130   41.00700
 8385.50000   41.96810   51.73250   92.66400   42.52010
 8386.00000   45.71840   52.31640   94.31110   46.13980
 8386.50000   50.00040   52.40730   95.58140   53.01380
 8387.00000   54.45890   51.28910   95.08430   57.98070
 8387.50000   57.85100   49.95340   94.77020   62.18190
 8388.00000   60.20680   52.78550   98.89380   63.56210
 8388.50000   60.03780   56.39370  100.19560   60.50650
 8389.00000   53.17570   57.49000   97.90260   54.38140
 8389.50000   47.44110   57.28810   95.87880   48.68650
 8390.00000   45.56440   55.95700   94.66920   45.00100
 8390.50000   55.69810   54.78580   93.94780   46.89330
 8391.00000   69.90650   56.56250   98.56230   56.30340
 8391.50000   83.51820   59.19680  106.40070   69.43720
 8392.00000   90.55230   60.18190  112.20470   83.92070
 8392.50000   92.80870   58.87080  112.26600   95.14970
 8393.00000   87.41610   57.42730  108.63380   96.43550
 8393.50000   81.65170   58.17900  102.89530   89.95400
 8394.00000   77.24960   60.02830   98.98760   81.48060
 8394.50000   76.57160   59.38680   95.54800   76.03330
 8395.00000   77.18060   56.41360   92.93800   71.94090
 8395.50000   74.73240   54.57930   92.72860   68.73590
 8396.00000   69.85130   53.32240   93.72360   64.24790
 8396.50000   57.90150   51.55540   93.68890   56.65650
 8397.00000   49.33090   50.17040   93.49950   52.12680
 8397.50000   42.70700   49.66580   93.98410   46.69250
 8398.00000   36.39430   48.59630   93.82850   40.22290
 8398.50000   33.96020   47.07410   90.42550   36.21080
 8399.00000   33.93900   46.60040   88.27420   32.46240
 8399.50000   37.42960   47.86290   87.38300   32.68910
 8400.00000   42.91950   50.19770   88.16070   37.58630
 8400.50000   47.33310   52.74370   89.63300   43.09290
 8401.00000   49.02170   53.66080   91.08530   48.47560
 8401.50000   51.36050   52.54620   91.00140   50.19440
 8402.00000   54.91350   50.06110   89.47160   51.86150
 8402.50000   57.69720   48.74160   87.96440   54.55220
 8403.00000   55.73640   50.00420   87.99720   58.35140
 8403.50000   52.43090   50.74080   86.83860   59.68130
 8404.00000   51.19070   51.36150   87.08290   56.92730
 8404.50000   56.57920   52.31610   91.40770   53.46840
 8405.00000   65.98050   53.40600   94.26550   54.64140
 8405.50000   72.77590   53.32580   95.59650   59.37880
 8406.00000   75.39480   54.67650   95.90800   65.54650
 8406.50000   70.29930   57.89670   97.58100   69.43430
 8407.00000   63.40660   62.68170  100.29870   70.65310
 8407.50000   57.80050   66.47050  102.42090   67.64100
 8408.00000   51.55460   66.33150  102.76230   61.92710
 8408.50000   46.14430   64.94740  103.22510   55.36570
 8409.00000   42.10370   64.29920  103.72950   51.16360
 8409.50000   41.10820   63.23340  103.08100   49.14290
 8410.00000   42.68080   62.25500  102.00610   48.03890
 8410.50000   43.03580   60.19950  102.65170   47.36080
 8411.00000   39.71080   56.67390   99.10640   45.59600
 8411.50000   34.52160   51.61980   93.01550   42.86260
 8412.00000   31.92120   47.99600   87.46670   37.63850
 8412.50000   35.95470   47.90890   87.53000   32.89240
 8413.00000   46.56360   50.65000   91.37420   32.45710
 8413.50000   57.26640   53.29400   94.24240   40.78060
 8414.00000   60.97680   54.96910   95.94700   55.48340
 8414.50000   58.25800   55.62930   95.56440   63.88550
 8415.00000   56.67930   54.96470   94.01200   66.42170
 8415.50000   57.42380   52.68540   92.45970   65.13920
 8416.00000   56.70700   51.45420   91.03970   62.34250
 8416.50000   52.87200   51.30420   88.87080   58.44450
 8417.00000   52.21910   51.41680   88.89570   52.53510
 8417.50000   62.46670   52.41170   93.19430   48.74360
 8418.00000   82.18740   53.89740   98.12790   56.13390
 8418.50000   98.28870   55.01670  101.57330   80.05410
 8419.00000  103.58700   55.45230  103.32040   93.05350
 8419.50000  102.37970   55.93850  103.82260   96.93620
 8420.00000   98.97760   56.97290  104.86700   95.80740
 8420.50000   96.70560   58.14130  105.90150   95.49530
 8421.00000   96.79080   58.81670  106.44720   98.71890
 8421.50000   96.03840   61.78130  108.06650  101.36880
 8422.00000   89.06370   65.03440  108.62560   99.18110
 8422.50000   82.10900   66.41790  105.46350   93.98660
 8423.00000   74.57750   66.55720  101.31140   87.44640
 8423.50000   69.18350   66.13270   97.99830   80.83010
 8424.00000   66.28790   65.57490   96.76330   73.42410
 8424.50000   64.66990   65.07580   95.86110   70.01250
 8425.00000   64.65000   64.78630   95.90250   68.03120
 8425.50000   68.97280   64.57380   97.83180   68.09970
 8426.00000   74.09270   64.68050  100.18000   69.79070
 8426.50000   78.66910   63.90210  102.38270   72.37740
 8427.00000   75.98330   63.19780  103.63540   73.82320
 8427.50000   70.22650   62.90060  104.90310   72.43670
