~Version ---------------------------------------------------
VERS.   2.0 : CWLS log ASCII Standard -VERSION 2.0
WRAP.    NO : One line per depth step
DLM . SPACE : Column Data Section Delimiter
~Well ------------------------------------------------------
STRT .F                4996.0 : START DEPTH
STOP .F                9504.0 : STOP DEPTH
STEP .F                   0.5 : STEP
NULL .               -9999.25 : NULL VALUE
COMP .                        : COMPANY
WELL .                        : WELL
FLD  .                        : FIELD
LOC  .                        : LOCATION
PROV .                        : PROVINCE
CNTY .                        : COUNTY
STAT .                        : STATE
CTRY .                        : COUNTRY
SRVC .                        : SERVICE COMPANY
DATE .                        : DATE
UWI  .                        : UNIQUE WELL ID
API  .                        : API NUMBER
SLAT .WGS84 2.471292227407197 : SURFACE LATITUDE
SLON .WGS84 5.033315333499999 : SURFACE LONGITUDE
DATUM.F                2578.0 : DEPTH DATUM ELEV
~Curve Information -----------------------------------------
DEPT.F     : 
GR  .GAPI  : GAMMA RAY
DTCO.US/F  : DELTA-T COMPRESSIONAL
DTSM.US/F  : DELTA-T SHEAR
GRS .GAPI  : GAMMA RAY FROM SONIC LOG
~Params ----------------------------------------------------
~Other -----------------------------------------------------
~ASCII -----------------------------------------------------
# ...
 8499.50000   67.71030   49.36280  100.24970   53.99220
 8500.00000   66.26310   48.63330   93.33360   59.33640
 8500.50000   64.33210   50.59760   92.90540   64.64190
 8501.00000   62.67640   52.59230   93.92020   66.71700
 8501.50000   60.28820   54.87510   94.53910   65.86180
 8502.00000   57.21670   55.56860   95.05180   62.29570
 8502.50000   54.44360   54.35270   95.73010   58.70390
 8503.00000   56.56750   52.13210   97.51290   56.53040
 8503.50000   62.39950   50.34750   99.22880   56.73160
 8504.00000   69.32310   50.13620  100.32010   61.04220
 8504.50000   74.38460   55.62580  107.05710   66.48870
 8505.00000   76.40660   63.48290  118.04900   72.15950
 8505.50000   75.91620   70.76490  125.94980   73.83160
 8506.00000   75.17860   73.91590  124.90560   74.59450
 8506.50000   78.75510   73.98400  121.04500   76.35290
 8507.00000   82.81520   73.85580  119.93700   81.65660
 8507.50000   84.99230   73.88890  121.36960   87.52270
 8508.00000   86.12700   73.79370  123.23030   89.37390
 8508.50000   87.35000   73.51910  123.73620   87.42100
 8509.00000   89.98270   74.81340  125.94500   88.22980
 8509.50000   92.46210   76.78160  129.02160   93.14770
 8510.00000   93.45910   76.11550  129.89980   96.65310
 8510.50000   90.91220   75.51230  129.86750   95.08300
 8511.00000   84.25400   75.06840  129.37520   88.72540
 8511.50000   77.17050   74.09440  128.75040   81.03010
 8512.00000   74.24610   73.22930  127.42010   75.60240
 8512.50000   72.58670   70.83550  122.84560   71.08320
 8513.00000   71.63900   65.80240  113.86620   71.06390
 8513.50000   70.31240   60.20180  104.47420   70.90920
 8514.00000   70.17800   56.16510   95.90810   70.70220
 8514.50000   70.67950   53.48310   93.36210   70.51620
 8515.00000   69.71770   57.20940  103.26070   70.88120
 8515.50000   60.50700   62.02280  107.85110   69.48870
 8516.00000   54.43740   58.63560  107.58810   65.10250
 8516.50000   46.82130   52.22980  104.10540   56.88270
 8517.00000   42.03980   48.77090  100.45020   48.43250
 8517.50000   38.05300   50.55690  102.18580   42.05390
 8518.00000   38.65590   51.73820  106.12160   35.74310
 8518.50000   48.95910   49.59340  102.96520   33.33620
 8519.00000   62.95400   50.07700   98.23930   39.41760
 8519.50000   79.31130   54.47010   97.28470   57.17480
 8520.00000   90.00500   62.13620   99.99810   74.54660
 8520.50000   89.60370   66.97830  104.34700   79.91520
 8521.00000   84.77670   71.59740  108.43110   81.35140
 8521.50000   76.55320   74.06520  109.28450   78.85800
 8522.00000   68.08960   73.49710  104.97430   73.39600
 8522.50000   59.62600   65.08620   97.23690   67.92310
 8523.00000   53.70410   57.94600   88.95920   60.69960
 8523.50000   51.22160   53.76030   83.34160   52.55860
 8524.00000   50.86110   53.86790   87.58640   48.28840
 8524.50000   51.74570   56.34830   92.50030   48.40540
 8525.00000   56.20880   57.33950   97.42520   51.48300
 8525.50000   62.58830   56.38170   98.99820   57.38220
 8526.00000   65.44990   56.18450   99.45330   63.06200
 8526.50000   64.98590   57.19200   99.85030   63.14010
 8527.00000   62.92470   58.40410  103.12770   61.65920
 8527.50000   62.13860   57.91420  106.66670   61.51160
 8528.00000   59.25380   57.83890  111.40490   61.86400
 8528.50000   54.88780   59.02100  115.56040   62.18610
 8529.00000   45.98790   59.86260  119.20190   61.03320
 8529.50000   35.60840   60.95770  122.18750   53.35820
 8530.00000   28.16330   70.18520  131.65620   41.82800
 8530.50000   26.21790   81.21540  148.95740   33.21870
 8531.00000   28.85200   84.87800  155.20150   27.76830
 8531.50000   30.50690   82.88510  144.46810   26.51290
 8532.00000   32.44510   73.57940  128.26420   27.58520
 8532.50000   33.52720   62.36720  107.22630   30.54090
 8533.00000   34.10260   53.11510   90.97730   36.14410
 8533.50000   34.14310   51.17780   88.08330   41.11820
 8534.00000   30.83240   49.52020   88.79790   42.11770
 8534.50000   24.55860   48.23330   90.50430   36.34980
 8535.00000   19.75950   48.52520   91.65250   25.59800
 8535.50000   16.24670   47.94840   90.10510   17.38600
 8536.00000   15.26420   47.27070   87.74030   14.68280
 8536.50000   15.37420   47.22970   86.62400   13.36780
 8537.00000   15.93920   47.40180   86.58440   13.78060
 8537.50000   16.22210   47.85840   87.02050   14.74630
 8538.00000   16.23220   47.41730   88.41560   15.71200
 8538.50000   16.24230   47.28120   89.76230   16.16760
 8539.00000   16.23040   46.96560   89.63700   15.95960
 8539.50000   15.69840   46.34210   86.83960   15.69920
 8540.00000   15.06580   45.68460   86.23980   15.50230
 8540.50000   14.72020   45.12400   86.50380   15.93020
 8541.00000   16.60190   44.52900   86.00490   17.66900
 8541.50000   19.13640   43.14150   84.94270   21.09040
 8542.00000   23.12810   43.26510   86.16060   24.57290
 8542.50000   27.93710   46.08670   88.40600   28.49610
 8543.00000   38.68990   49.73160   88.28690   36.14020
 8543.50000   52.79420   52.51920   88.06280   45.80940
 8544.00000   63.90960   53.38670   90.11740   60.12530
 8544.50000   71.86970   55.18340   96.37240   71.64810
 8545.00000   75.76540   57.31970  101.40020   75.90840
 8545.50000   72.25010   60.24080  104.43610   76.05940
 8546.00000   64.17660   62.73970  104.78380   67.82840
 8546.50000   55.37830   64.67220  103.55390   58.45550
 8547.00000   53.42760   64.55500  103.13580   50.35010
 8547.50000   57.83550   62.77210  105.23470   51.76260
 8548.00000   62.03140   60.03000  107.31230   59.27560
 8548.50000   64.38340   56.42130  107.02360   65.60210
 8549.00000   59.91880   55.16800  104.78250   65.93100
 8549.50000   56.38780   55.09530  103.78470   59.27100
 8550.00000   61.29430   54.02400  103.53560   54.92530
 8550.50000   67.41810   50.63500  103.26990   59.19920
 8551.00000   71.23520   48.31330  102.70630   67.13990
 8551.50000   72.69830   47.91590  103.80980   74.85050
 8552.00000   74.39820   48.28660  102.30730   75.42240
 8552.50000   76.09810   48.41080  101.10310   73.52030
 8553.00000   77.77240   51.57190  107.90440   72.23550
 8553.50000   78.04910   57.96050  122.35110   72.55640
 8554.00000   75.45610   59.33830  122.66540   72.48480
 8554.50000   71.47820   57.18630  114.75280   70.93100
 8555.00000   64.70950   56.76150  106.44080   66.00260
 8555.50000   54.89720   56.47820  101.93770   56.75070
 8556.00000   44.94230   55.09510   98.51600   47.09000
 8556.50000   36.43560   53.50060   96.45500   39.93810
 8557.00000   41.56930   52.84200   97.43650   45.64140
 8557.50000   53.76740   50.34500   93.78800   61.00790
 8558.00000   66.00870   46.81580   87.92240   72.10490
 8558.50000   67.39330   45.03880   82.90270   74.77490
 8559.00000   64.36200   45.78690   84.56780   69.13130
 8559.50000   64.71120   46.82020   86.00780   65.01040
 8560.00000   74.03430   47.08130   86.77010   68.12830
 8560.50000   85.21270   47.44060   87.05800   74.15030
 8561.00000   97.57820   48.55150   88.94920   88.35290
 8561.50000  102.74910   51.34320   90.29080  101.34950
 8562.00000  100.60560   53.89940   88.10180  106.55730
 8562.50000   97.09970   55.49860   81.93560  103.59510
 8563.00000   93.22930   54.12460   78.08090   98.99760
 8563.50000   85.46900   52.14570   77.00630   89.59430
 8564.00000   76.00360   49.99360   79.68680   78.00000
 8564.50000   60.89230   52.84270   85.30530   61.26090
 8565.00000   46.41700   55.62970   92.82340   49.67350
 8565.50000   38.56910   56.24540   99.10590   40.31010
 8566.00000   37.04830   54.35050   97.50820   36.36790
 8566.50000   35.93620   54.03990   93.59700   33.92070
 8567.00000   35.56510   54.11010   90.53080   32.28660
 8567.50000   34.08020   53.28760   88.37830   30.69620
 8568.00000   31.25720   51.09320   86.22580   29.44230
 8568.50000   28.76020   48.66030   84.43860   28.22920
 8569.00000   25.95460   46.47430   82.65800   25.12110
 8569.50000   24.16110   46.19100   84.33750   21.37960
 8570.00000   28.51110   45.80920   86.25510   23.32780
 8570.50000   33.86020   45.68140   86.04220   29.44580
