~Version ---------------------------------------------------
VERS.   2.0 : CWLS log ASCII Standard -VERSION 2.0
WRAP.    NO : One line per depth step
DLM . SPACE : Column Data Section Delimiter
~Well ------------------------------------------------------
STRT .F                4996.0 : START DEPTH
STOP .F                9504.0 : STOP DEPTH
STEP .F                   0.5 : STEP
NULL .               -9999.25 : NULL VALUE
COMP .                        : COMPANY
WELL .                        : WELL
FLD  .                        : FIELD
LOC  .                        : LOCATION
PROV .                        : PROVINCE
CNTY .                        : COUNTY
STAT .                        : STATE
CTRY .                        : COUNTRY
SRVC .                        : SERVICE COMPANY
DATE .                        : DATE
UWI  .                        : UNIQUE WELL ID
API  .                        : API NUMBER
SLAT .WGS84 2.471292227407197 : SURFACE LATITUDE
SLON .WGS84 5.033315333499999 : SURFACE LONGITUDE
DATUM.F                2578.0 : DEPTH DATUM ELEV
~Curve Information -----------------------------------------
DEPT.F     : 
GR  .GAPI  : GAMMA RAY
DTCO.US/F  : DELTA-T COMPRESSIONAL
DTSM.US/F  : DELTA-T SHEAR
GRS .GAPI  : GAMMA RAY FROM SONIC LOG
~Params ----------------------------------------------------
~Other -----------------------------------------------------
~ASCII -----------------------------------------------------
# ...
 7069.50000   61.08910   46.44900   83.72480   60.94850
 7070.00000   57.71760   48.40120   86.66370   59.34610
 7070.50000   52.00720   49.28920   86.86750   53.79510
 7071.00000   46.38100   49.35370   88.15810   47.51990
 7071.50000   42.68340   52.41410   93.01390   42.49500
 7072.00000   43.22240   55.49550   97.63650   41.05280
 7072.50000   45.25090   55.43530   99.19070   44.76410
 7073.00000   48.39280   56.07420  100.51030   47.59050
 7073.50000   51.61960   58.88540  105.35140   50.33170
 7074.00000   58.31460   62.04710  110.25870   55.99790
 7074.50000   65.18640   64.20070  112.60280   62.58420
 7075.00000   75.09940   65.34410  114.90010   71.24940
 7075.50000   84.12970   67.88500  117.93810   78.67020
 7076.00000   93.38900   68.24370  117.24960   87.06600
 7076.50000  103.90850   64.74770  114.69330   94.76520
 7077.00000  107.07910   61.10320  112.50680  100.79590
 7077.50000  105.01890   58.52120  111.03260  102.61120
 7078.00000   97.89300   56.54230  110.10800   99.93690
 7078.50000   91.56260   55.89620  108.39880   96.98060
 7079.00000   85.71160   55.97990  105.21550   91.88940
 7079.50000   77.74210   56.40020  103.07700   85.82920
 7080.00000   68.25630   56.26560  104.17240   79.66530
 7080.50000   60.08600   55.30510  104.66290   72.33460
 7081.00000   51.20500   56.75760  104.57610   64.99020
 7081.50000   46.11340   55.41620  102.98670   57.38250
 7082.00000   40.79430   53.41180  100.32650   51.33570
 7082.50000   35.31150   52.39930   99.25140   45.33720
 7083.00000   31.83560   52.06220   98.66870   40.32280
 7083.50000   29.55210   51.44050   95.34200   35.56860
 7084.00000   27.51780   50.01660   91.73490   31.40510
 7084.50000   25.24630   50.76410   92.30240   27.94360
 7085.00000   23.47930   52.01430   91.56050   26.58090
 7085.50000   22.26570   53.14130   92.37290   25.11750
 7086.00000   22.48720   55.06240   93.97020   23.07070
 7086.50000   22.70330   55.79900   92.91940   21.10790
 7087.00000   23.41520   56.16740   93.27930   21.19540
 7087.50000   24.93790   57.63390   95.62030   22.46250
 7088.00000   29.24300   59.91410   96.89500   24.91100
 7088.50000   35.01130   60.82200   96.81260   28.73560
 7089.00000   37.36800   57.99700   95.09140   31.80560
 7089.50000   39.94460   54.13700   91.72320   33.65390
 7090.00000   45.02270   50.27690   88.96740   36.67340
 7090.50000   51.97320   53.45440   92.93940   40.92740
 7091.00000   59.87720   58.79570  103.22680   45.73330
 7091.50000   68.14050   61.06310  105.53660   51.47810
 7092.00000   76.05500   59.06430   98.20920   57.20680
 7092.50000   84.86670   56.76360   88.61170   64.56760
 7093.00000   89.90190   55.30990   82.48660   74.92420
 7093.50000   90.89810   54.68640   79.89150   82.35410
 7094.00000   88.84590   53.94220   78.23160   86.23490
 7094.50000   87.31170   52.48980   76.08530   88.28680
 7095.00000   89.58140   52.90690   75.96250   87.78300
 7095.50000   90.34630   55.36270   78.98430   86.92420
 7096.00000   84.10370   55.08490   80.47630   85.55110
 7096.50000   76.23500   53.78380   79.91180   84.14360
 7097.00000   69.31060   54.36770   83.43490   80.65560
 7097.50000   66.40520   55.15290   84.91560   76.29000
 7098.00000   64.09900   55.74750   82.03250   72.83520
 7098.50000   61.55140   56.87390   88.77000   71.62600
 7099.00000   59.73880   58.06820   98.28210   71.13120
 7099.50000   58.37850   57.80430  108.89770   70.94210
 7100.00000   59.47480   56.59190  120.70530   69.14850
 7100.50000   69.39260   55.79670  123.95990   67.21140
 7101.00000   77.83530   57.30140  128.41630   66.48880
 7101.50000   88.12920   60.60440  133.84370   67.45980
 7102.00000   92.85220   63.86230  135.01610   69.95290
 7102.50000   90.69100   63.21630  132.47060   76.93870
 7103.00000   84.82620   62.84720  131.57960   81.87200
 7103.50000   76.96940   65.89400  133.19830   83.48610
 7104.00000   69.95170   66.85160  131.53340   78.42550
 7104.50000   65.15300   63.44280  128.91950   73.93010
 7105.00000   63.48290   60.13910  127.83470   69.22680
 7105.50000   61.71790   58.70850  124.57210   64.70500
 7106.00000   58.17430   57.40920  116.97860   59.96590
 7106.50000   53.73740   56.82210  113.48420   54.80670
 7107.00000   50.91470   57.30690  113.00610   50.95760
 7107.50000   50.52700   59.41320  113.48190   49.10920
 7108.00000   50.28190   60.66180  116.33260   46.84690
 7108.50000   49.01440   61.84520  119.60510   45.55150
 7109.00000   46.62760   61.95100  119.24120   45.05420
 7109.50000   44.58490   60.53040  116.91830   44.46740
 7110.00000   43.83970   60.10260  114.69330   43.64420
 7110.50000   46.05800   59.79470  113.17910   43.87050
 7111.00000   49.66690   59.71460  111.84060   46.53840
 7111.50000   53.65610   60.15320  110.88800   50.35820
 7112.00000   55.71370   60.55460  111.63140   53.03880
 7112.50000   58.25130   59.62930  111.98050   55.71940
 7113.00000   62.54340   57.83700  110.88520   58.46420
 7113.50000   67.30730   58.95370  110.02910   60.37960
 7114.00000   67.96500   60.87420  110.88220   62.29500
 7114.50000   64.82670   61.98150  110.88980   64.57740
 7115.00000   62.28660   61.24780  108.67800   66.11130
 7115.50000   62.32490   60.73750  108.69490   66.45790
 7116.00000   65.09810   60.56310  110.42970   66.74060
 7116.50000   68.24860   62.40220  113.17430   66.97990
 7117.00000   68.55060   63.63940  113.80440   67.51900
 7117.50000   66.44610   63.94720  112.19490   68.93100
 7118.00000   63.41810   64.94870  109.54520   69.60040
 7118.50000   62.64290   66.66610  111.00210   69.59190
 7119.00000   62.58000   67.36410  113.97000   68.17190
 7119.50000   62.34560   68.78000  118.88360   66.48370
 7120.00000   60.97720   71.53160  128.17880   64.12630
 7120.50000   58.61890   73.65480  131.33670   60.31730
 7121.00000   55.54180   73.70390  134.81790   55.87730
 7121.50000   51.91220   73.57830  139.37840   52.70690
 7122.00000   50.27660   73.41420  144.19870   50.58250
 7122.50000   52.31020   71.75430  146.71890   50.86540
 7123.00000   55.96440   64.58730  138.41070   52.58930
 7123.50000   58.70700   54.71730  121.29300   55.71340
 7124.00000   59.99320   48.78860  106.27120   57.86250
 7124.50000   61.27930   46.72870   95.94980   59.47270
 7125.00000   63.14070   47.15140   85.27810   60.44310
 7125.50000   66.22740   48.24540   75.04360   62.45970
 7126.00000   70.24080   48.76750   71.03860   64.74890
 7126.50000   73.87450   49.35150   71.18390   67.09950
 7127.00000   75.87960   50.51250   72.01290   69.65490
 7127.50000   75.57930   51.07250   72.70770   72.64460
 7128.00000   73.26920   50.83830   72.64630   76.09180
 7128.50000   72.25920   50.31660   71.51600   79.53910
 7129.00000   73.26280   49.41280   70.96750   82.19320
 7129.50000   75.44480   48.39310   71.59960   82.41340
 7130.00000   77.45110   47.11310   71.79630   81.34830
 7130.50000   78.18020   45.36810   71.65650   79.63060
 7131.00000   77.60090   43.09520   71.19830   76.63510
 7131.50000   75.36760   41.67090   71.04110   75.75620
 7132.00000   73.61400   40.95940   73.42550   76.25310
 7132.50000   73.64460   42.80900   80.10870   76.83700
 7133.00000   74.60990   49.67520   92.64940   76.99500
 7133.50000   75.83230   59.40010  107.20110   76.41900
 7134.00000   76.83730   71.50530  124.59060   76.82790
 7134.50000   78.01440   82.54550  136.98520   78.26560
 7135.00000   80.63150   83.41100  131.02890   78.97920
 7135.50000   83.55320   79.12740  122.17990   77.38430
 7136.00000   84.40710   69.98890  113.01230   75.52230
 7136.50000   84.40530   64.67760  103.74580   77.39490
 7137.00000   83.57380   57.97750   93.95060   79.95020
 7137.50000   82.00610   52.50180   82.96940   82.44430
 7138.00000   79.38450   48.76560   74.21570   84.03860
 7138.50000   76.94540   46.96740   73.71710   85.63280
 7139.00000   77.28930   47.94420   75.53400   85.98910
 7139.50000   79.52840   49.23960   76.66430   86.15370
 7140.00000   81.05780   49.58330   74.95380   85.60510
 7140.50000   79.60810   49.92700   73.17680   84.94930
