~Version ---------------------------------------------------
VERS.   2.0 : CWLS log ASCII Standard -VERSION 2.0
WRAP.    NO : One line per depth step
DLM . SPACE : Column Data Section Delimiter
~Well ------------------------------------------------------
STRT .F                  200.0 : START DEPTH
STOP .F                 9607.0 : STOP DEPTH
STEP .F                    0.5 : STEP
NULL .                -9999.25 : NULL VALUE
COMP .                         : COMPANY
WELL .                         : WELL
FLD  .                         : FIELD
LOC  .                         : LOCATION
PROV .                         : PROVINCE
CNTY .                         : COUNTY
STAT .                         : STATE
CTRY .                         : COUNTRY
SRVC .                         : SERVICE COMPANY
DATE .                         : DATE
UWI  .                         : UNIQUE WELL ID
API  .                         : API NUMBER
SLAT .WGS84 2.2067796976868017 : SURFACE LATITUDE
SLON .WGS84     8.651018502393 : SURFACE LONGITUDE
DATUM.F                    nan : DEPTH DATUM ELEV
~Curve Information -----------------------------------------
DEPT   .F     : 1 MEASURED DEPTH
DTCO   .US/F  : DELTA-T COMPRESSIONAL
DTSM   .US/F  : DELTA-T SHEAR
RLA3   .OHMM  : APPARENT RESISTIVITY FROM COMPUTED FOCUSING MODE 3
RLA4   .OHMM  : APPARENT RESISTIVITY FROM COMPUTED FOCUSING MODE 4
RLA5   .OHMM  : APPARENT RESISTIVITY FROM COMPUTED FOCUSING MODE 5
SGRDD  .GAPI  : SPECTROSCOPY GAMMA RAY FROM DENSITY LOG
TNPH_LS.DEC   : THERMAL NEUTRON POROSITY [LIMESTONE]
CALD   .IN    : CALIPER FROM DENSITY LOG
DPHZ_LS.DEC   : HGRD STANDARD RESOLUTION DENSITY POROSITY
PEFZ   .B/E   : HRDD STANDARD RESOLUTION FORMATION PHOTOELECTRIC FACTOR
HDRA   .G/C3  : HRDD SPINE AND RIBS DENSITY CORRECTION
RHOZ   .G/C3  : HRDD STANDARD RESOLUTION FORMATION DENSITY
~Params ----------------------------------------------------
~Other -----------------------------------------------------
~ASCII -----------------------------------------------------
# ...
 2636.00000   75.32960  131.07810    0.21180    0.75320    3.76390   83.14040    0.26310   10.10550    0.25550    4.00750    0.05900    2.36880
 2636.50000   75.30990  131.08670    3.25220    4.01280    4.45130   94.27400    0.26850   10.16300    0.25270    4.01070    0.05930    2.31280
 2637.00000   75.22150  131.83260    5.01980    5.53550   11.14070   99.09750    0.24880   10.14600    0.23990    4.01390    0.05960    2.32340
 2637.50000   75.06040  132.77960    6.83840    7.42240    9.56270   92.46730    0.22960   10.11220    0.22390    4.01710    0.05970    2.33820
 2638.00000   74.98510  133.64540    8.14260    8.55040    9.36410   83.58100    0.21270    9.85570    0.21150    4.02030    0.05960    2.36070
 2638.50000   75.14110  133.56220    6.35950    9.23520   10.83610   77.85130    0.19580    9.65260    0.20430    4.02310    0.05990    2.39310
 2639.00000   76.11240  132.59920    3.94260    9.57020   10.83610   79.56590    0.19090   10.16820    0.17990    4.02310    0.06120    2.42560
 2639.50000   77.24150  132.38500    3.58510   10.81490   11.29020   85.14240    0.21980   10.60340    0.14700    4.01560    0.06260    2.46040
 2640.00000   78.91090  134.08940    4.90120    9.05410   15.95500   90.49300    0.24240   10.72830    0.13190    3.98300    0.06020    2.49680
 2640.50000   79.80020  135.17610    8.06510    8.32360   17.79910   87.42100    0.23450   10.87050    0.13000    3.88860    0.04340    2.49890
 2641.00000   80.65220  136.93020    7.38640    8.26220   10.11270   76.40560    0.21690   10.93200    0.14640    3.73100    0.02580    2.45970
 2641.50000   81.28950  137.65520    4.67130    5.50330    6.15210   69.98810    0.20620   11.01270    0.17460    3.57640    0.02240    2.40630
 2642.00000   81.85970  139.01180    3.39510    3.53580    4.85950   67.40160    0.20080   11.67140    0.19690    3.43710    0.02090    2.39760
 2642.50000   81.89550  141.47070    3.40350    3.52100    4.56060   68.25060    0.19340   10.78130    0.18470    3.22970    0.02090    2.42090
 2643.00000   81.90520  143.77000    4.01690    4.39500    5.15710   68.96560    0.18360   10.15260    0.16730    2.94410    0.01540    2.44820
 2643.50000   81.64100  145.22190    4.94790    4.99290    5.43640   68.66540    0.16980   10.01270    0.15960    2.79110    0.00970    2.46120
 2644.00000   80.99620  145.61320    4.87360    4.94790    5.75100   68.34300    0.16630    9.94510    0.15580    2.69580    0.00340    2.45840
 2644.50000   80.34470  145.41980    4.69310    4.76410    5.52640   67.36370    0.17240    9.92020    0.16030    2.67990   -0.00220    2.44840
 2645.00000   79.62650  143.62680    4.40520    4.52970    5.31280   67.87470    0.17800    9.89950    0.16490    2.71140   -0.00380    2.43820
 2645.50000   79.25420  142.30140    4.36680    4.44490    5.28440   69.28590    0.17880    9.85240    0.16940    2.74430   -0.00530    2.43520
 2646.00000   79.08710  141.08250    4.57610    4.79180    5.40170   71.81390    0.17950    9.82550    0.16980    2.75520   -0.00570    2.43810
 2646.50000   78.93470  140.41710    5.17110    5.49670    5.84250   74.58080    0.18030    9.79860    0.16650    2.74440   -0.00500    2.44530
 2647.00000   78.77540  140.07640    5.29130    5.75100    6.20100   75.78490    0.18120    9.77430    0.16100    2.71870   -0.00470    2.45490
 2647.50000   78.54280  139.95570    5.29930    5.58190    5.93520   74.02730    0.18240    9.74010    0.15420    2.74650   -0.00440    2.46010
 2648.00000   78.11940  139.57940    5.08220    5.32990    5.74450   70.62930    0.18400    9.72020    0.15520    2.75380   -0.00400    2.46020
 2648.50000   77.72530  138.96970    5.20100    5.37320    5.72010   69.04350    0.18370    9.70040    0.15490    2.75590   -0.00360    2.46040
 2649.00000   77.43670  138.14370    5.40160    5.51780    5.74200   70.22960    0.17020    9.68050    0.15360    2.77380   -0.00330    2.46060
 2649.50000   77.36790  137.97940    5.60990    5.73050    5.88100   71.71320    0.15590    9.66060    0.15450    2.80270   -0.00310    2.46140
 2650.00000   77.35850  138.11960    5.80210    5.90660    6.04680   71.69020    0.15130    9.64070    0.15400    2.83400   -0.00410    2.46260
 2650.50000   77.36410  138.26960    5.90940    6.01580    6.21730   71.62640    0.14680    9.63290    0.15480    2.84770   -0.00510    2.46420
 2651.00000   77.37010  138.42590    5.97650    6.07680    6.31160   71.56260    0.14660    9.63010    0.15240    2.84280   -0.00610    2.46590
 2651.50000   77.62160  138.78090    5.86450    5.98170    6.17040   71.70050    0.15000    9.62730    0.15320    2.82660   -0.00690    2.46750
 2652.00000   77.79030  139.06880    5.63200    5.74200    5.84960   72.06400    0.15770    9.62460    0.15180    2.80480   -0.00610    2.46850
 2652.50000   78.00600  139.94280    5.24780    5.44530    5.58280   73.12360    0.17090    9.62180    0.14980    2.78950   -0.00430    2.46640
 2653.00000   78.59970  140.61240    4.98130    5.14140    5.36760   74.19280    0.17270    9.61900    0.15080    2.79640   -0.00260    2.44990
 2653.50000   79.10740  141.29100    4.95840    5.07950    5.18240   74.07230    0.17040    9.61620    0.15830    2.80340   -0.00270    2.44670
 2654.00000   79.43580  141.84870    4.89020    5.02490    5.12040   71.30540    0.16700    9.61340    0.16290    2.79670   -0.00370    2.44860
 2654.50000   79.67640  142.59660    4.81820    5.00670    5.15860   70.32550    0.16360    9.61060    0.16200    2.78590   -0.00450    2.45060
 2655.00000   79.81940  143.39700    4.98200    5.21240    5.48800   69.19200    0.16150    9.60780    0.16030    2.77980   -0.00170    2.44950
 2655.50000   79.96380  143.94080    4.94290    5.08220    5.20810   72.15100    0.16120    9.60500    0.16470    2.77420   -0.00320    2.43940
 2656.00000   80.15660  144.36330    4.69550    4.81050    4.98040   71.88360    0.16660    9.60220    0.16980    2.76550   -0.00630    2.42920
 2656.50000   80.38900  144.66610    4.63500    4.92050    5.07140   73.25390    0.16930    9.61410    0.17420    2.75530   -0.00790    2.42870
 2657.00000   80.64960  145.07980    5.39440    5.71910    6.00150   75.40040    0.16980    9.63060    0.17300    2.76270   -0.00750    2.43610
 2657.50000   81.41190  145.54520    6.16510    6.26870    6.52640   77.87080    0.17010    9.64700    0.16920    2.77950   -0.00680    2.43420
 2658.00000   82.00130  146.32190    5.27700    5.47550    5.95960   78.07950    0.17290    9.66350    0.17330    2.78810   -0.00630    2.42410
 2658.50000   82.44200  147.33480    4.76580    5.01940    5.25440   76.93730    0.17400    9.67990    0.17940    2.77010   -0.00620    2.41510
 2659.00000   82.84340  148.17440    4.56740    4.69500    4.90410   75.37420    0.16950    9.69640    0.18660    2.74970   -0.00680    2.40760
 2659.50000   83.21890  149.20790    4.24780    4.39440    4.55760   73.88840    0.17360    9.73740    0.18930    2.69160   -0.00780    2.40070
 2660.00000   83.51960  150.40970    3.99580    4.09240    4.18710   71.89210    0.18050    9.76460    0.19250    2.65220   -0.00570    2.39370
 2660.50000   83.70980  152.05040    3.94330    4.00810    4.15200   69.38310    0.19030    9.79180    0.19480    2.59620   -0.00340    2.38680
 2661.00000   83.79300  152.92580    3.88430    3.91140    4.01480   69.02290    0.19530    9.81890    0.19940    2.59510   -0.00350    2.38410
 2661.50000   83.77770  153.31200    3.73860    3.80670    3.85620   68.57000    0.18370    9.84610    0.20270    2.61230   -0.00360    2.38510
 2662.00000   83.70670  153.57450    3.64340    3.72600    3.77090   68.11720    0.18790    9.85960    0.20140    2.61730   -0.00450    2.39060
 2662.50000   83.49250  153.65700    3.67860    3.74330    3.85430   66.51570    0.17950    9.86930    0.19640    2.63290   -0.00500    2.39450
 2663.00000   83.21340  153.61530    3.77810    3.95110    4.04790   66.40580    0.18300    9.87900    0.19590    2.65730   -0.00520    2.39440
 2663.50000   82.93840  153.57360    3.92400    4.02030    4.06490   67.18430    0.18010    9.88910    0.19750    2.67380   -0.00530    2.39120
