~Version ---------------------------------------------------
VERS.   2.0 : CWLS log ASCII Standard -VERSION 2.0
WRAP.    NO : One line per depth step
DLM . SPACE : Column Data Section Delimiter
~Well ------------------------------------------------------
STRT .F                  200.0 : START DEPTH
STOP .F                 9607.0 : STOP DEPTH
STEP .F                    0.5 : STEP
NULL .                -9999.25 : NULL VALUE
COMP .                         : COMPANY
WELL .                         : WELL
FLD  .                         : FIELD
LOC  .                         : LOCATION
PROV .                         : PROVINCE
CNTY .                         : COUNTY
STAT .                         : STATE
CTRY .                         : COUNTRY
SRVC .                         : SERVICE COMPANY
DATE .                         : DATE
UWI  .                         : UNIQUE WELL ID
API  .                         : API NUMBER
SLAT .WGS84 2.2067796976868017 : SURFACE LATITUDE
SLON .WGS84     8.651018502393 : SURFACE LONGITUDE
DATUM.F                    nan : DEPTH DATUM ELEV
~Curve Information -----------------------------------------
DEPT   .F     : 1 MEASURED DEPTH
DTCO   .US/F  : DELTA-T COMPRESSIONAL
DTSM   .US/F  : DELTA-T SHEAR
RLA3   .OHMM  : APPARENT RESISTIVITY FROM COMPUTED FOCUSING MODE 3
RLA4   .OHMM  : APPARENT RESISTIVITY FROM COMPUTED FOCUSING MODE 4
RLA5   .OHMM  : APPARENT RESISTIVITY FROM COMPUTED FOCUSING MODE 5
SGRDD  .GAPI  : SPECTROSCOPY GAMMA RAY FROM DENSITY LOG
TNPH_LS.DEC   : THERMAL NEUTRON POROSITY [LIMESTONE]
CALD   .IN    : CALIPER FROM DENSITY LOG
DPHZ_LS.DEC   : HGRD STANDARD RESOLUTION DENSITY POROSITY
PEFZ   .B/E   : HRDD STANDARD RESOLUTION FORMATION PHOTOELECTRIC FACTOR
HDRA   .G/C3  : HRDD SPINE AND RIBS DENSITY CORRECTION
RHOZ   .G/C3  : HRDD STANDARD RESOLUTION FORMATION DENSITY
~Params ----------------------------------------------------
~Other -----------------------------------------------------
~ASCII -----------------------------------------------------
# ...
 6304.00000   64.46020  103.71800  148.42040  183.04430  207.41080   97.71480    0.09480    8.77940    0.08540    2.83210   -0.00560    2.57260
 6304.50000   65.38200  104.05190  224.47450  302.01610  348.03040  115.81440    0.11080    8.79850    0.08450    2.87270   -0.00560    2.57410
 6305.00000   66.38620  107.62050  509.33510 1150.77160 1382.84440  132.15630    0.12280    8.80260    0.08260    2.89990   -0.00560    2.57700
 6305.50000   68.10650  108.48930  543.13780 1243.74010 1471.15310  140.17460    0.13350    8.79730    0.07760    2.92850   -0.00480    2.58330
 6306.00000   68.86560  110.94330  471.17370  846.73730 1221.90600  147.20290    0.13750    8.79200    0.07620    2.97150   -0.00470    2.58730
 6306.50000   69.28050  111.41580  687.29200 1536.27370 1961.16910  159.90320    0.14020    8.77640    0.08930    3.08160   -0.00540    2.56610
 6307.00000   69.48940  111.50080  639.40300 2170.44140 3046.52470  192.18760    0.14210    8.69690    0.10730    3.16380   -0.00660    2.53840
 6307.50000   69.28560  111.81340  417.32700  715.26370  757.77280  225.99560    0.14910    8.68340    0.12000    3.15280   -0.00700    2.51730
 6308.00000   68.93440  112.53570  457.99630  859.30410 1120.85110  250.02200    0.15910    8.71280    0.12070    3.12970   -0.00690    2.51580
 6308.50000   68.71490  112.16600  648.94970 1579.97190 1952.29260  257.01900    0.15920    8.71010    0.11960    3.17240   -0.00660    2.51790
 6309.00000   68.82710  112.24910  664.16990 2300.63960 2783.73410  241.22830    0.15560    8.70610    0.10860    3.26630   -0.00590    2.52820
 6309.50000   68.71770  112.34170  737.93470 2916.03340 3340.91330  201.83310    0.14310    8.70210    0.09930    3.43800   -0.00560    2.54150
 6310.00000   68.37910  111.54410  768.12730 4103.61040 5692.90140  145.38650    0.11880    8.69810    0.08520    3.62550   -0.00530    2.56370
 6310.50000   67.98580  111.61700  777.85000 4117.30520 6894.35790  128.87430    0.10570    8.70110    0.07940    3.74750   -0.00490    2.58090
 6311.00000   67.30740  108.75720  729.04340 2986.18510 4881.35600  147.26570    0.11290    8.70670    0.08650    3.67200   -0.00410    2.58060
 6311.50000   66.65290  110.47090  567.67040 1589.89620 2696.96190  184.95150    0.14800    8.71230    0.10530    3.50930   -0.00340    2.55600
 6312.00000   66.41060  109.85730  174.09830  193.60740  235.24220  201.78470    0.17990    8.71790    0.10690    3.38990   -0.00300    2.53810
 6312.50000   66.21500  110.64330  183.34000  268.47780  477.38790  174.58900    0.17730    8.72280    0.10160    3.36030   -0.00300    2.53830
 6313.00000   66.19270  109.94860  850.72940 2136.29930 2700.26560  128.11120    0.14430    8.70360    0.09240    3.52480   -0.00300    2.55260
 6313.50000   66.18950  109.15930  978.91950 3831.13990 4514.06150   96.38890    0.11650    8.68440    0.08330    3.75290   -0.00300    2.56700
 6314.00000   66.06520  109.36980 1010.69320 3749.65480 4955.01270   92.86440    0.10070    8.66900    0.07820    3.88620   -0.00300    2.58100
 6314.50000   65.96660  108.88820  869.07140 2452.20020 3544.98510  107.21950    0.10000    8.69840    0.07580    3.86220   -0.00290    2.58690
 6315.00000   65.95430  108.34800  568.75880  915.24100 1033.82540  130.50060    0.11090    8.71400    0.07800    3.73370   -0.00290    2.58750
 6315.50000   66.00780  108.52550  662.75020 1094.81020 1371.54370  149.90200    0.12530    8.71510    0.08330    3.51110   -0.00250    2.57680
 6316.00000   66.35820  108.82390  920.21260 2178.37840 3025.64040  169.30350    0.13680    8.71620    0.08380    3.34950   -0.00230    2.57550
 6316.50000   66.82680  108.97170  868.01140 2924.80470 3502.57420  172.26190    0.14180    8.71500    0.08290    3.24980   -0.00270    2.57530
 6317.00000   67.11040  109.20870  803.50400 2283.70850 2446.82130  162.59860    0.13930    8.71090    0.08560    3.24230   -0.00360    2.57500
 6317.50000   67.96880  109.79490  893.75570 2997.27610 3642.04930  138.16520    0.12390    8.70670    0.09060    3.32650   -0.00570    2.57000
 6318.00000   68.83600  110.55300 1035.99680 3713.15970 4720.06300  117.55440    0.11020    8.68780    0.08940    3.47160   -0.00790    2.56450
 6318.50000   68.96970  111.57860  978.03850 2870.20020 3722.84470  114.18350    0.10180    8.65790    0.08650    3.41020   -0.00860    2.56360
 6319.00000   69.52310  112.00400  733.09090 1701.86680 2555.87300  138.67630    0.11460    8.68480    0.08740    3.32790   -0.00690    2.57400
 6319.50000   69.96100  112.48300  728.54250 1301.46890 1388.90110  160.00490    0.13950    8.74410    0.09610    3.17310   -0.00440    2.56340
 6320.00000   70.50780  112.46980  865.30240 1788.07250 1868.29930  173.07980    0.16100    8.80340    0.11040    3.09930   -0.00200    2.54750
 6320.50000   70.57200  112.24130  889.84010 2007.62850 2032.13880  184.51550    0.17040    8.81450    0.11170    3.09210   -0.00050    2.53340
 6321.00000   70.40310  113.96270  266.12360  425.87770  544.46260  192.50710    0.17060    8.80100    0.11160    3.19640   -0.00170    2.53270
 6321.50000   70.09080  114.97860  378.44100  694.48770 1273.54790  196.69910    0.17090    8.78750    0.11120    3.33120   -0.00290    2.53180
 6322.00000   69.03850  115.09450  702.30370 1339.83220 1852.75950  193.35850    0.17090    8.77400    0.11190    3.43240   -0.00330    2.53120
 6322.50000   67.84120  112.59540  677.05670 1309.45470 2431.97120  182.67450    0.16090    8.76060    0.10680    3.48830   -0.00350    2.53340
 6323.00000   65.86890  111.83580  744.96340 1813.49980 2376.85690  171.73250    0.14040    8.74710    0.08480    3.51470   -0.00350    2.55580
 6323.50000   63.78950  109.73290  499.32890  771.49300  819.42350  160.56470    0.12570    8.73360    0.06940    3.54840   -0.00140    2.59070
 6324.00000   62.10240  107.58430  572.13750  825.28830 1090.89670  154.51520    0.13240    8.73160    0.07190    3.68250   -0.00050    2.59400
 6324.50000   58.10030  105.65890  717.51490 1171.74950 1790.84880  132.69540    0.13450    8.74220    0.07500    3.87220   -0.00060    2.58880
 6325.00000   57.29190  103.85210  842.59220 2417.95310 2685.57670  105.71690    0.11470    8.75270    0.06300    4.31750   -0.00170    2.59460
 6325.50000   56.55440  102.65350  858.55010 2715.64310 3239.72800   72.59850    0.03710    8.78110    0.04190    4.66230   -0.00020    2.61030
 6326.00000   56.45490  101.62280  998.25250 3274.94820 3734.87550   40.87820    0.00470    8.81160    0.02140    4.94990    0.00060    2.64340
 6326.50000   56.87180  100.41560 1035.75350 3886.14530 4656.04490   27.48030   -0.00240    8.80800    0.00180    5.17200   -0.00070    2.69550
 6327.00000   57.54880   99.56080 1044.25650 3700.66870 4693.82760   26.61000    0.00740    8.80410   -0.00550    5.19290   -0.00630    2.73070
 6327.50000   58.77930  101.44570  965.31540 3320.46390 4238.62450   41.58000    0.02520    8.80020    0.00120    5.02990   -0.00850    2.73060
 6328.00000   60.01040  103.10210  655.08260 1527.30960 1962.31290   68.21470    0.04350    8.79620    0.01720    4.61240   -0.00700    2.69350
 6328.50000   62.37490  104.44870  708.20720 1389.93400 1659.43580   92.73480    0.06490    8.79230    0.03650    4.30240   -0.00490    2.66140
 6329.00000   63.75060  105.40960  748.31630 1630.64590 1888.29100  109.45820    0.08540    8.79720    0.05520    3.98820   -0.00520    2.64100
 6329.50000   64.23910  106.47430  679.98190 1091.06920 1487.01420  115.14540    0.10190    8.80580    0.06450    3.88690   -0.00630    2.62060
 6330.00000   64.51950  107.22350  516.08800  810.97830  891.27360  115.02250    0.11330    8.81430    0.07190    3.93240   -0.00740    2.60030
 6330.50000   64.27360  107.88640  481.83700  720.06950  789.08720  120.82590    0.11900    8.82280    0.07730    4.04760   -0.00850    2.58550
 6331.00000   63.70980  107.88870  570.74930  823.29590  867.79850  127.14650    0.12190    8.83130    0.07770    4.10140   -0.00880    2.58480
 6331.50000   63.24170  107.73760  674.81020 1306.00870 1561.87900  122.37660    0.11450    8.82200    0.07550    4.26580   -0.00910    2.58990
