~Version ---------------------------------------------------
VERS.   2.0 : CWLS log ASCII Standard -VERSION 2.0
WRAP.    NO : One line per depth step
DLM . SPACE : Column Data Section Delimiter
~Well ------------------------------------------------------
STRT .F                  200.0 : START DEPTH
STOP .F                 9607.0 : STOP DEPTH
STEP .F                    0.5 : STEP
NULL .                -9999.25 : NULL VALUE
COMP .                         : COMPANY
WELL .                         : WELL
FLD  .                         : FIELD
LOC  .                         : LOCATION
PROV .                         : PROVINCE
CNTY .                         : COUNTY
STAT .                         : STATE
CTRY .                         : COUNTRY
SRVC .                         : SERVICE COMPANY
DATE .                         : DATE
UWI  .                         : UNIQUE WELL ID
API  .                         : API NUMBER
SLAT .WGS84 2.2067796976868017 : SURFACE LATITUDE
SLON .WGS84     8.651018502393 : SURFACE LONGITUDE
DATUM.F                    nan : DEPTH DATUM ELEV
~Curve Information -----------------------------------------
DEPT   .F     : 1 MEASURED DEPTH
DTCO   .US/F  : DELTA-T COMPRESSIONAL
DTSM   .US/F  : DELTA-T SHEAR
RLA3   .OHMM  : APPARENT RESISTIVITY FROM COMPUTED FOCUSING MODE 3
RLA4   .OHMM  : APPARENT RESISTIVITY FROM COMPUTED FOCUSING MODE 4
RLA5   .OHMM  : APPARENT RESISTIVITY FROM COMPUTED FOCUSING MODE 5
SGRDD  .GAPI  : SPECTROSCOPY GAMMA RAY FROM DENSITY LOG
TNPH_LS.DEC   : THERMAL NEUTRON POROSITY [LIMESTONE]
CALD   .IN    : CALIPER FROM DENSITY LOG
DPHZ_LS.DEC   : HGRD STANDARD RESOLUTION DENSITY POROSITY
PEFZ   .B/E   : HRDD STANDARD RESOLUTION FORMATION PHOTOELECTRIC FACTOR
HDRA   .G/C3  : HRDD SPINE AND RIBS DENSITY CORRECTION
RHOZ   .G/C3  : HRDD STANDARD RESOLUTION FORMATION DENSITY
~Params ----------------------------------------------------
~Other -----------------------------------------------------
~ASCII -----------------------------------------------------
# ...
 4484.00000   69.11960  116.20180    5.15080    6.44440    8.73470   53.26180    0.07630    9.30450    0.10360    2.82910   -0.00160    2.53810
 4484.50000   69.60910  117.13310    4.45240    5.11980    5.99870   56.33020    0.09060    9.35320    0.11640    2.76180    0.00070    2.51130
 4485.00000   70.31440  119.64710    2.67690    3.12330    3.29460   57.77420    0.11460    9.40190    0.13270    2.66820    0.00080    2.48620
 4485.50000   70.70120  120.72460    1.86970    2.02410    2.25190   57.96820    0.13640    9.45060    0.14950    2.62070   -0.00060    2.46760
 4486.00000   71.29820  121.92580    1.95670    2.09750    2.15210   57.18820    0.13750    9.48110    0.16030    2.61540   -0.00210    2.44890
 4486.50000   71.49690  124.00360    2.19520    2.23120    2.36870   56.85380    0.13640    9.50340    0.16350    2.61390   -0.00350    2.44610
 4487.00000   71.22320  124.49580    2.24950    2.30550    2.51850   61.12050    0.14160    9.52570    0.15900    2.60870   -0.00500    2.45970
 4487.50000   71.12020  124.69220    2.65620    2.89230    3.23230   67.99140    0.14510    9.53150    0.14790    2.59880   -0.00640    2.47520
 4488.00000   71.20040  124.42500    4.12010    4.52990    4.56070   73.58240    0.13940    9.53680    0.13550    2.57540   -0.00410    2.49730
 4488.50000   71.47610  123.91700    4.62970    4.91070    5.12880   76.31920    0.13090    9.54620    0.12620    2.58110   -0.00380    2.50770
 4489.00000   72.18770  122.97540    4.67080    5.00530    5.29050   77.29000    0.13190    9.57710    0.12670    2.59510   -0.00350    2.50760
 4489.50000   72.74760  122.24240    4.61950    5.00530    5.21020   77.69370    0.13330    9.60800    0.12800    2.60910   -0.00330    2.50420
 4490.00000   73.39660  122.69030    4.53840    4.96450    5.14470   76.41870    0.13550    9.63890    0.13150    2.63720   -0.00360    2.49590
 4490.50000   73.95000  123.71920    3.46460    4.85200    5.08460   74.40400    0.13980    9.66980    0.14300    2.65260   -0.00390    2.47290
 4491.00000   74.55560  125.72710    2.44900    3.19830    4.44870   69.14910    0.15480    9.70070    0.16100    2.64310   -0.00410    2.43820
 4491.50000   75.19180  126.80910    2.23930    2.34760    2.70390   60.56660    0.16800    9.73160    0.17540    2.59870   -0.00410    2.42290
 4492.00000   75.76360  128.01740    2.16760    2.21040    2.31510   55.83100    0.17120    9.76250    0.18480    2.55340   -0.00410    2.40760
 4492.50000   76.44140  128.97310    2.12270    2.16130    2.21830   52.86010    0.17410    9.78400    0.19250    2.54350   -0.00420    2.39900
 4493.00000   76.66690  129.29290    2.08590    2.12430    2.16330   53.54590    0.18010    9.80960    0.19130    2.59780   -0.00560    2.40750
 4493.50000   76.11060  129.64300    2.05100    2.10500    2.14730   53.09470    0.16360    9.79980    0.17900    2.64010   -0.00610    2.42960
 4494.00000   75.27300  129.56590    2.12800    2.25750    2.35470   53.01820    0.14300    9.75690    0.16220    2.67680   -0.00610    2.45320
 4494.50000   74.50830  128.55750    2.49450    2.55060    2.63340   55.76030    0.13560    9.71410    0.15200    2.67750   -0.00660    2.46750
 4495.00000   72.83040  127.16020    2.72860    3.02840    3.13770   61.38140    0.14540    9.67120    0.14840    2.66040   -0.00660    2.47420
 4495.50000   73.13220  126.01250    3.69900    4.57630    4.79620   72.73050    0.15220    9.63020    0.14170    2.64330   -0.00540    2.48460
 4496.00000   72.23650  124.74160    5.43560    5.95480    6.20420   82.37090    0.15200    9.61840    0.13480    2.61820   -0.00420    2.49590
 4496.50000   71.26560  123.97520    5.69360    6.44850    8.78450   86.84330    0.14920    9.60660    0.13290    2.61970   -0.00300    2.49860
 4497.00000   73.70360  123.42410    4.33890    5.92750   10.30290   80.75910    0.14330    9.59480    0.14090    2.61820   -0.00170    2.47910
 4497.50000   70.31690  121.95000    4.00490    4.14070    4.34050   65.48400    0.13620    9.58310    0.14920    2.60350   -0.00050    2.46690
 4498.00000   73.24520  121.50430    3.92080    4.08380    4.24110   54.08150    0.13030    9.57160    0.15480    2.58380    0.00070    2.45780
 4498.50000   69.40310  119.85510    3.25260    3.41860    3.74130   54.13280    0.12600    9.56010    0.15790    2.58040    0.00100    2.45490
 4499.00000   68.17720  118.78730    3.01690    3.16090    3.25690   58.70880    0.13080    9.54870    0.15430    2.59130   -0.00020    2.45680
 4499.50000   66.97760  117.61040    3.84360    4.36860    5.09860   59.79280    0.13680    9.53250    0.13850    2.67090   -0.00130    2.47620
 4500.00000   65.65030  115.79240    4.62240    4.92340    5.22010   56.66270    0.12640    9.50430    0.11970    2.76960   -0.00090    2.51680
 4500.50000   64.84710  111.82580    4.78990    5.04260    5.26250   50.93780    0.08830    9.47610    0.10020    2.93990    0.00000    2.56260
 4501.00000   62.58240  108.39030    6.30730    7.18680    8.14440   45.78310    0.05480    9.44790    0.07870    3.07450    0.00090    2.59790
 4501.50000   62.45730  105.88320   17.08020   26.65010   33.82570   40.49960    0.02780    9.32400    0.05610    3.18070    0.00150    2.63290
 4502.00000   62.31360  105.83130   61.76470   68.60680   89.27110   38.30720    0.01790    9.20000    0.03890    3.26550    0.00200    2.64980
 4502.50000   62.59960  106.61780   58.88410   73.52200   86.02590   37.54380    0.01660    9.14440    0.03530    3.29170    0.00300    2.65050
 4503.00000   64.29890  108.35490   22.42320   30.24940   52.92040   39.70080    0.01830    9.18080    0.04770    3.24020    0.00550    2.61540
 4503.50000   66.45740  109.54350    6.85220    9.19450   11.78270   47.27130    0.03080    9.22600    0.06600    3.08730    0.00840    2.59260
 4504.00000   68.61690  113.30990    3.87740    4.25390    4.78270   53.18740    0.06100    9.29260    0.10600    2.93460    0.00850    2.53560
 4504.50000   71.29400  116.63330    3.34990    3.42140    3.65020   59.20050    0.09040    9.35910    0.13480    2.80670    0.00690    2.47550
 4505.00000   72.78140  120.26060    3.74550    3.98300    4.42290   65.46870    0.12910    9.42570    0.15850    2.75300    0.00160    2.43410
 4505.50000   73.68700  124.44830    4.22570    4.60750    5.08050   67.85050    0.16230    9.49220    0.16670    2.77370   -0.00320    2.44110
 4506.00000   74.57720  127.45470    3.12670    3.48150    3.62370   63.51360    0.16450    9.51470    0.17440    2.74890   -0.00380    2.43440
 4506.50000   75.27440  128.90500    2.69800    2.86360    2.95390   56.94450    0.16520    9.52670    0.18630    2.70220   -0.00390    2.40820
 4507.00000   75.29010  130.08980    2.49250    2.64160    2.71100   51.49520    0.16600    9.52010    0.19250    2.62380   -0.00400    2.39970
 4507.50000   75.04380  130.74270    2.71240    2.87460    3.14110   53.06720    0.16510    9.51310    0.19090    2.58390   -0.00330    2.40030
 4508.00000   74.71850  130.24840    2.80730    2.96210    3.08090   58.42320    0.16160    9.50610    0.17860    2.57210   -0.00160    2.42850
 4508.50000   74.27350  129.06280    2.59670    2.74940    2.87940   63.83070    0.15650    9.49910    0.16380    2.55000    0.00040    2.46010
 4509.00000   73.32600  126.98100    4.56210    5.20580    6.99700   68.31180    0.15130    9.46630    0.14660    2.52790    0.00160    2.48380
 4509.50000   72.18320  124.34950    7.04960    7.87040    8.88670   72.36810    0.14120    9.41850    0.12930    2.57070    0.00130    2.50690
 4510.00000   71.82660  121.75330    8.07200    9.23280   10.14600   76.42430    0.12860    9.37070    0.11840    2.61880   -0.00010    2.52120
 4510.50000   71.05140  119.48990    9.58500   10.52220   12.22820   79.27200    0.12420    9.32290    0.11710    2.66700   -0.00160    2.52200
 4511.00000   69.58760  117.83370    9.87800   10.70330   12.03320   80.86300    0.12370    9.27460    0.11880    2.71370   -0.00330    2.51680
 4511.50000   68.68600  115.92800    9.84010   10.19920   10.97920   80.74040    0.12450    9.23330    0.12510    2.72680   -0.00490    2.50840
