~Version ---------------------------------------------------
VERS.   2.0 : CWLS log ASCII Standard -VERSION 2.0
WRAP.    NO : One line per depth step
DLM . SPACE : Column Data Section Delimiter
~Well ------------------------------------------------------
STRT .F                  200.0 : START DEPTH
STOP .F                 9607.0 : STOP DEPTH
STEP .F                    0.5 : STEP
NULL .                -9999.25 : NULL VALUE
COMP .                         : COMPANY
WELL .                         : WELL
FLD  .                         : FIELD
LOC  .                         : LOCATION
PROV .                         : PROVINCE
CNTY .                         : COUNTY
STAT .                         : STATE
CTRY .                         : COUNTRY
SRVC .                         : SERVICE COMPANY
DATE .                         : DATE
UWI  .                         : UNIQUE WELL ID
API  .                         : API NUMBER
SLAT .WGS84 2.2067796976868017 : SURFACE LATITUDE
SLON .WGS84     8.651018502393 : SURFACE LONGITUDE
DATUM.F                    nan : DEPTH DATUM ELEV
~Curve Information -----------------------------------------
DEPT   .F     : 1 MEASURED DEPTH
DTCO   .US/F  : DELTA-T COMPRESSIONAL
DTSM   .US/F  : DELTA-T SHEAR
RLA3   .OHMM  : APPARENT RESISTIVITY FROM COMPUTED FOCUSING MODE 3
RLA4   .OHMM  : APPARENT RESISTIVITY FROM COMPUTED FOCUSING MODE 4
RLA5   .OHMM  : APPARENT RESISTIVITY FROM COMPUTED FOCUSING MODE 5
SGRDD  .GAPI  : SPECTROSCOPY GAMMA RAY FROM DENSITY LOG
TNPH_LS.DEC   : THERMAL NEUTRON POROSITY [LIMESTONE]
CALD   .IN    : CALIPER FROM DENSITY LOG
DPHZ_LS.DEC   : HGRD STANDARD RESOLUTION DENSITY POROSITY
PEFZ   .B/E   : HRDD STANDARD RESOLUTION FORMATION PHOTOELECTRIC FACTOR
HDRA   .G/C3  : HRDD SPINE AND RIBS DENSITY CORRECTION
RHOZ   .G/C3  : HRDD STANDARD RESOLUTION FORMATION DENSITY
~Params ----------------------------------------------------
~Other -----------------------------------------------------
~ASCII -----------------------------------------------------
# ...
 8152.00000   74.04340  124.77170   11.74980   11.94060   12.12740   90.33050    0.17230    8.96430    0.08870    3.10560   -0.00400    2.56710
 8152.50000   73.88140  124.21660   12.50400   12.96410   14.04860   82.74430    0.16420    8.96280    0.08780    3.10800   -0.00380    2.56850
 8153.00000   73.82200  123.92370   15.57340   17.27160   19.72960   69.77690    0.14850    8.94980    0.06950    3.11050   -0.00320    2.59330
 8153.50000   73.79280  123.27930   24.52670   25.95240   30.62030   61.62860    0.12500    8.92420    0.05120    3.11290   -0.00130    2.62790
 8154.00000   73.62910  123.32010   20.54930   23.67430   25.91270   62.60890    0.11050    8.93100    0.04670    3.11540    0.00030    2.63430
 8154.50000   73.24720  123.78680   12.45410   14.23080   16.00450   76.32620    0.11210    8.94650    0.05900    3.11610    0.00040    2.61450
 8155.00000   73.04020  122.22730   11.53950   11.71270   12.52190   90.33010    0.12680    8.96190    0.07480    3.07800   -0.00040    2.58980
 8155.50000   73.21510  121.07560   11.40690   11.55470   12.01430   98.60990    0.15310    8.98610    0.09330    3.02430   -0.00170    2.55930
 8156.00000   73.82380  122.94590   11.38170   11.52900   12.12460   98.63300    0.16990    9.00120    0.10330    2.97750   -0.00280    2.54700
 8156.50000   73.81140  122.59400   11.55010   11.93490   12.82900   88.57860    0.15270    8.99520    0.10220    2.96330   -0.00920    2.54490
 8157.00000   73.52270  121.96400   13.32770   14.20490   15.53020   77.45010    0.12640    8.98640    0.09730    2.95300   -0.00850    2.55270
 8157.50000   73.28620  121.57850   17.51540   18.94220   19.25760   73.56910    0.10500    8.97760    0.09160    2.96690   -0.00650    2.56250
 8158.00000   72.12470  120.66800   15.90960   17.08740   18.22330   79.00450    0.09700    8.96880    0.09030    2.99390   -0.00500    2.56430
 8158.50000   71.21680  118.83140   12.24110   12.72740   13.66850   84.30410    0.10010    8.97710    0.09500    3.02080   -0.00370    2.55680
 8159.00000   70.76540  117.47290   11.08980   11.41470   11.66930   86.22330    0.10880    8.99300    0.09470    3.02050   -0.00450    2.55740
 8159.50000   70.56500  117.02410   10.66300   10.82390   11.05260   79.81200    0.11590    8.99670    0.08860    3.00490   -0.00650    2.56730
 8160.00000   69.72780  116.59950   10.11690   10.41920   10.58660   75.09150    0.11550    8.99320    0.08130    2.99260   -0.00840    2.57900
 8160.50000   67.51880  116.17480    8.77020    9.14210    9.46160   74.02760    0.10880    8.98970    0.08040    3.01030   -0.00920    2.58030
 8161.00000   66.02150  114.02250    7.98890    8.20120    8.40370   74.82630    0.10660    8.98610    0.08350    3.06060   -0.00950    2.57540
 8161.50000   65.95550  113.09940    7.86670    7.96850    8.05290   71.82800    0.10470    8.98260    0.07560    3.13100   -0.00980    2.58830
 8162.00000   65.79680  112.84170    8.15060    9.01310   10.00800   66.30700    0.09910    8.97910    0.06070    3.32570   -0.00960    2.61240
 8162.50000   65.64110  111.08450   13.97520   17.24890   19.38550   58.76290    0.08960    8.97560    0.04910    3.48820   -0.00920    2.63100
 8163.00000   66.47600  111.08340   20.71720   22.53550   23.31390   53.30750    0.08020    8.97210    0.03860    3.63460   -0.00880    2.64780
 8163.50000   66.66650  111.55890   17.21720   18.66460   19.82910   54.31380    0.07360    8.96850    0.03460    3.64600   -0.00870    2.65410
 8164.00000   67.06580  112.20850   11.55530   12.96060   14.22940   63.46110    0.07440    8.96500    0.04160    3.37360   -0.00840    2.64270
 8164.50000   67.72470  114.36560   10.25140   10.38400   10.51590   73.34320    0.08490    8.96150    0.05790    3.10190   -0.00820    2.61630
 8165.00000   70.80680  116.10790   10.47910   10.61470   10.72710   85.62600    0.09860    8.95800    0.07470    2.92980   -0.00790    2.58960
 8165.50000   71.20410  116.52780   10.79940   11.59890   12.23300   95.51510    0.10960    8.95440    0.08440    2.91250   -0.00800    2.57410
 8166.00000   71.99770  117.43360   13.89290   15.21370   16.28420  105.29110    0.12130    8.95090    0.08740    2.93930   -0.00830    2.56910
 8166.50000   73.59630  119.90500   16.96180   17.50360   18.35210  109.28430    0.13410    8.94740    0.08840    2.96600   -0.00860    2.56750
 8167.00000   74.45440  120.82870   16.95870   17.57610   18.33270  111.84880    0.14690    8.94740    0.08950    2.99270   -0.00670    2.56560
 8167.50000   74.39870  121.24920   17.84010   18.26940   18.83950  110.59430    0.15210    8.94330    0.09390    2.99600   -0.00630    2.55870
 8168.00000   74.26340  121.63190   15.86690   16.38280   16.83180  109.92820    0.15430    8.94220    0.09300    2.98020   -0.00590    2.56020
 8168.50000   73.90470  122.01990   14.70050   15.06940   15.37710  106.35110    0.15340    8.93340    0.08880    2.96440   -0.00480    2.56690
 8169.00000   73.19360  121.17460   13.38010   13.84340   14.23360  102.33180    0.15180    8.92030    0.08200    2.94020   -0.00250    2.57790
 8169.50000   73.13950  120.03120   11.58630   12.35920   12.72410   97.08690    0.14460    8.93200    0.08410    2.91260   -0.00090    2.57440
 8170.00000   73.04700  120.38980   10.94270   11.47180   12.11750   93.74150    0.13400    8.93250    0.08770    2.88490   -0.00250    2.56980
 8170.50000   72.41340  120.66550   12.54600   12.81730   13.01040   90.39620    0.12480    8.92750    0.08970    2.85730   -0.00600    2.56890
 8171.00000   71.57930  119.36360   12.89730   13.06410   13.20240   90.40730    0.11650    8.91420    0.08710    2.87270   -0.00680    2.56810
 8171.50000   70.98730  119.08150   12.93980   13.23930   13.62040   98.47710    0.11570    8.90080    0.09110    2.92280   -0.00770    2.56460
 8172.00000   70.46950  119.10060   13.03970   13.53550   14.10240  106.76490    0.12870    8.90140    0.09290    2.94090   -0.00730    2.56100
 8172.50000   69.84120  119.06970   11.78520   12.56290   12.84950  107.40130    0.14050    8.90730    0.09360    2.93410   -0.00680    2.56380
 8173.00000   69.52830  117.54820   11.36720   11.88440   12.16680   92.14770    0.14590    8.90270    0.08290    2.90160   -0.00620    2.57670
 8173.50000   69.33620  117.42700   10.73010   12.09420   12.22220   78.60030    0.13550    8.89800    0.07460    2.85440   -0.00380    2.58980
 8174.00000   69.53780  117.33670   11.68610   11.97370   12.12580   68.55120    0.12370    8.89340    0.06760    2.80070   -0.00330    2.60120
 8174.50000   70.41330  117.08600   11.78120   12.15130   12.27960   69.34200    0.11280    8.88880    0.06560    2.79890   -0.00300    2.60420
 8175.00000   70.93830  116.96780   11.54250   12.14670   12.40140   73.34700    0.10530    8.88410    0.06810    2.83880   -0.00280    2.60090
 8175.50000   71.11430  117.30570   12.46250   13.06340   13.63660   78.92060    0.10510    8.87950    0.06960    2.88890   -0.00250    2.59770
 8176.00000   71.48920  117.93560   15.08790   16.55320   18.33800   84.98470    0.11300    8.87480    0.07210    2.93890   -0.00230    2.59380
 8176.50000   72.56160  118.82270   18.68950   19.46280   20.37180   91.93840    0.12890    8.87020    0.07350    2.96530   -0.00300    2.59150
 8177.00000   72.48420  119.97890   18.73940   19.01490   19.24330  101.22860    0.15130    8.86550    0.08290    2.96780   -0.00410    2.57630
 8177.50000   72.28600  120.08260   15.98270   17.20520   18.17870  110.64190    0.15090    8.86090    0.08860    3.01080   -0.00460    2.56720
 8178.00000   71.69610  119.21640   11.86380   13.04560   13.81230  111.57370    0.14390    8.85620    0.09360    3.07290   -0.00500    2.55930
 8178.50000   69.78640  117.97580   15.02710   16.17030   16.56130  105.36680    0.13970    8.85160    0.09240    3.15910   -0.00550    2.56110
 8179.00000   67.37800  116.50290   17.25750   17.76970   18.23060   96.95970    0.13590    8.84690    0.08380    3.31580   -0.00510    2.57480
 8179.50000   66.42900  115.55430   19.60610   23.57200   26.44170   81.20920    0.12560    8.84230    0.07070    3.59660   -0.00210    2.59630
