~Version ---------------------------------------------------
VERS.   2.0 : CWLS log ASCII Standard -VERSION 2.0
WRAP.    NO : One line per depth step
DLM . SPACE : Column Data Section Delimiter
~Well ------------------------------------------------------
STRT .F                  200.0 : START DEPTH
STOP .F                 9607.0 : STOP DEPTH
STEP .F                    0.5 : STEP
NULL .                -9999.25 : NULL VALUE
COMP .                         : COMPANY
WELL .                         : WELL
FLD  .                         : FIELD
LOC  .                         : LOCATION
PROV .                         : PROVINCE
CNTY .                         : COUNTY
STAT .                         : STATE
CTRY .                         : COUNTRY
SRVC .                         : SERVICE COMPANY
DATE .                         : DATE
UWI  .                         : UNIQUE WELL ID
API  .                         : API NUMBER
SLAT .WGS84 2.2067796976868017 : SURFACE LATITUDE
SLON .WGS84     8.651018502393 : SURFACE LONGITUDE
DATUM.F                    nan : DEPTH DATUM ELEV
~Curve Information -----------------------------------------
DEPT   .F     : 1 MEASURED DEPTH
DTCO   .US/F  : DELTA-T COMPRESSIONAL
DTSM   .US/F  : DELTA-T SHEAR
RLA3   .OHMM  : APPARENT RESISTIVITY FROM COMPUTED FOCUSING MODE 3
RLA4   .OHMM  : APPARENT RESISTIVITY FROM COMPUTED FOCUSING MODE 4
RLA5   .OHMM  : APPARENT RESISTIVITY FROM COMPUTED FOCUSING MODE 5
SGRDD  .GAPI  : SPECTROSCOPY GAMMA RAY FROM DENSITY LOG
TNPH_LS.DEC   : THERMAL NEUTRON POROSITY [LIMESTONE]
CALD   .IN    : CALIPER FROM DENSITY LOG
DPHZ_LS.DEC   : HGRD STANDARD RESOLUTION DENSITY POROSITY
PEFZ   .B/E   : HRDD STANDARD RESOLUTION FORMATION PHOTOELECTRIC FACTOR
HDRA   .G/C3  : HRDD SPINE AND RIBS DENSITY CORRECTION
RHOZ   .G/C3  : HRDD STANDARD RESOLUTION FORMATION DENSITY
~Params ----------------------------------------------------
~Other -----------------------------------------------------
~ASCII -----------------------------------------------------
# ...
 4008.00000   63.95440  108.00090   16.15730   17.10000   19.04280   52.40260    0.05750    9.15960    0.07680    2.80130   -0.00400    2.60290
 4008.50000   63.71270  108.53410   13.88820   16.21920   18.00560   50.32320    0.05980    9.17280    0.07730    2.80140   -0.00280    2.59810
 4009.00000   63.78370  109.13960   12.24310   13.48110   14.66140   57.41410    0.06750    9.18440    0.08250    2.80540   -0.00270    2.58890
 4009.50000   64.22550  109.17110   12.18800   12.76830   13.68280   67.24600    0.09900    9.19590    0.08540    2.85040   -0.00280    2.58670
 4010.00000   64.97880  109.21830    8.69680   10.98940   15.68450   70.12730    0.09950    9.20750    0.08250    2.92030   -0.00290    2.58520
 4010.50000   65.18060  109.60780    9.48810   11.77070   16.83930   63.14720    0.08980    9.21900    0.07840    2.94280   -0.00340    2.58390
 4011.00000   66.19120  111.02320   13.44240   14.38630   15.59720   57.88250    0.07930    9.23910    0.08500    2.91850   -0.00520    2.58290
 4011.50000   66.17080  111.54080    7.93000    9.05050   10.23510   65.75310    0.07720    9.26170    0.10000    2.88510   -0.00700    2.57490
 4012.00000   65.84960  111.55160    7.28770    7.46390    7.82280   74.02080    0.09720    9.28440    0.11870    2.82490   -0.00850    2.54260
 4012.50000   65.37700  111.42390    7.51860    7.64440    7.82290   81.63370    0.11900    9.30710    0.12820    2.77360   -0.00900    2.50370
 4013.00000   65.09500  111.42160    7.42860    7.61420    7.88660   82.10170    0.12660    9.31280    0.12910    2.75510   -0.00910    2.50100
 4013.50000   65.22690  110.68810    7.15020    7.68620    8.23770   75.17250    0.11530    9.30970    0.12320    2.77170   -0.00600    2.50920
 4014.00000   65.38870  110.31850    9.17090   10.27730   10.68400   68.63970    0.09950    9.27590    0.09950    2.80320   -0.00370    2.53630
 4014.50000   65.16590  110.58260   13.10060   16.31660   19.28140   62.65500    0.08030    9.24200    0.07000    2.85260   -0.00140    2.56850
 4015.00000   64.35030  110.58970   22.89440   26.58580   29.70990   60.31000    0.06580    9.21030    0.05990    2.88470    0.00080    2.60170
 4015.50000   63.89480  109.64520   13.99230   19.82580   22.14390   63.64800    0.06690    9.22870    0.06390    2.89790    0.00010    2.61280
 4016.00000   64.00270  109.31180   10.70720   11.78840   12.69780   71.10510    0.07830    9.24710    0.08430    2.84810   -0.00130    2.58100
 4016.50000   64.03520  108.24760    9.21210    9.70900    9.98260   75.39690    0.08980    9.26550    0.10060    2.81130   -0.00260    2.55100
 4017.00000   64.50820  108.92090    8.58410    8.93440    9.51720   74.73160    0.09550    9.28380    0.10230    2.80260   -0.00350    2.54250
 4017.50000   65.00740  109.77220    8.61900    9.80350   11.34450   71.65200    0.08600    9.29750    0.09050    2.84050   -0.00260    2.54840
 4018.00000   65.60310  110.63450   15.12500   16.41750   18.29480   66.91450    0.07410    9.30950    0.07760    2.89330    0.00030    2.57030
 4018.50000   65.85150  111.32580   17.85120   21.04580   26.05590   67.78210    0.07070    9.32150    0.06970    2.87100    0.00090    2.59470
 4019.00000   65.88740  112.16850   10.15090   10.53800   13.37740   70.60630    0.09050    9.33360    0.08160    2.81230    0.00010    2.59050
 4019.50000   66.08530  112.95960    8.36320    8.70140    8.92860   75.95480    0.11000    9.33920    0.09510    2.73480   -0.00170    2.57290
 4020.00000   66.35000  113.63890    8.10940    8.32120    8.58430   77.49930    0.11940    9.34850    0.10850    2.72360   -0.00250    2.54970
 4020.50000   66.61480  114.40280    7.98780    8.13130    8.46900   77.12430    0.11730    9.36080    0.11080    2.72940   -0.00280    2.53280
 4021.00000   67.38950  115.11280    7.94560    8.07910    8.43360   75.18240    0.11960    9.36080    0.11230    2.75610   -0.00370    2.52950
 4021.50000   67.86070  115.30160    8.58290    9.40320    9.98010   73.34910    0.11920    9.36020    0.10700    2.78600   -0.00470    2.52880
 4022.00000   67.98190  115.21400   10.06500   10.48900   11.11310   71.94030    0.11550    9.35960    0.10360    2.80000   -0.00560    2.53940
 4022.50000   68.05530  115.28280   10.15520   10.53510   10.95400   72.39190    0.11330    9.35820    0.10020    2.80010   -0.00650    2.54980
 4023.00000   68.67450  115.47890   10.54730   10.70340   11.18820   77.12080    0.11760    9.33850    0.10320    2.80020   -0.00740    2.54730
 4023.50000   69.24200  115.37120   10.24960   10.44420   10.78280   91.52920    0.12640    9.31880    0.10540    2.80060   -0.00590    2.54210
 4024.00000   69.69010  115.41060   16.74210   21.58200   27.51850  105.71770    0.13460    9.29910    0.10680    2.80550   -0.00700    2.53940
 4024.50000   70.52330  115.53200   25.83780   27.25050   41.34680  109.66350    0.13990    9.27480    0.11030    2.81040   -0.00820    2.53590
 4025.00000   70.66090  115.69810   20.94670   21.84870   23.33700  103.86750    0.13450    9.29790    0.11210    2.81530   -0.00870    2.52990
 4025.50000   70.96770  116.71070   18.00310   18.89380   19.95420  102.69470    0.12350    9.31180    0.10240    2.81320   -0.00720    2.53030
 4026.00000   70.98520  116.99010   21.48550   25.11430   27.70390  117.56660    0.12410    9.27490    0.09640    2.86620   -0.00520    2.55160
 4026.50000   70.85870  117.03940   35.41370   39.82210   50.86190  143.05810    0.15540    9.23580    0.09680    2.98690   -0.00330    2.55700
 4027.00000   70.26860  117.03600   66.68680   70.97510   94.56730  161.81680    0.18500    9.19670    0.10220    3.16000   -0.00190    2.55100
 4027.50000   69.97560  117.14620   59.01590   63.12370   70.84530  156.73610    0.18900    9.15280    0.09940    3.17080   -0.00300    2.54560
 4028.00000   69.66110  117.18650   48.50450   50.46540   56.75840  141.73110    0.16990    9.15110    0.08990    3.16350   -0.00450    2.55220
 4028.50000   69.33160  116.64470   39.08070   44.60230   47.74030  123.28850    0.14390    9.18350    0.08120    3.13690   -0.00610    2.57030
 4029.00000   68.90170  115.64650   30.46980   32.14890   34.64650  112.26610    0.12410    9.19210    0.07590    3.12280   -0.00690    2.58330
 4029.50000   68.49420  115.05530   28.09480   29.77450   31.10050  107.85340    0.12080    9.20070    0.07070    3.13730   -0.00610    2.59330
 4030.00000   68.35660  114.79890   29.19560   31.45000   35.74500  112.02660    0.12760    9.20940    0.06550    3.13090   -0.00540    2.60180
 4030.50000   68.39390  114.68820   34.19940   36.65130   40.71570  116.96250    0.14200    9.21520    0.06290    3.10840   -0.00410    2.60660
 4031.00000   68.76700  114.81220   38.26870   40.41860   42.91780  123.01570    0.14780    9.22990    0.06750    3.01330   -0.00190    2.60620
 4031.50000   69.02220  115.24010   39.52630   42.44700   45.06190  124.67360    0.14710    9.26590    0.07620    2.92870    0.00030    2.59860
 4032.00000   69.61480  116.06510   27.69200   29.82800   40.84000  118.66590    0.14480    9.31290    0.09330    2.89510   -0.00140    2.57300
 4032.50000   69.68020  116.92960   12.57520   15.56000   18.62760  107.32550    0.14420    9.35230    0.11130    2.86510   -0.00410    2.54060
 4033.00000   69.98210  117.91830    7.89890    8.68450    9.34730   94.58850    0.14280    9.38580    0.12930    2.82360   -0.00670    2.50940
 4033.50000   70.27370  118.82220    5.95830    6.30000    6.72820   83.27580    0.13750    9.41930    0.13900    2.78700   -0.00890    2.48920
 4034.00000   70.39880  119.22650    5.84240    5.94060    6.07290   79.55080    0.13740    9.44670    0.13890    2.77040   -0.00700    2.48580
 4034.50000   70.19800  119.49570    5.84240    5.94060    6.07290   76.83060    0.13860    9.45380    0.13280    2.75760   -0.00490    2.49270
 4035.00000   69.67990  119.79730    5.71100    5.84810    5.94410   76.24580    0.13730    9.45560    0.12570    2.74480   -0.00290    2.50350
 4035.50000   69.49060  120.84960    5.56710    5.66300    5.73360   76.11450    0.13250    9.46930    0.11940    2.75300   -0.00320    2.51630
