~Version ---------------------------------------------------
VERS.   2.0 : CWLS log ASCII Standard -VERSION 2.0
WRAP.    NO : One line per depth step
DLM . SPACE : Column Data Section Delimiter
~Well ------------------------------------------------------
STRT .F                  200.0 : START DEPTH
STOP .F                 9607.0 : STOP DEPTH
STEP .F                    0.5 : STEP
NULL .                -9999.25 : NULL VALUE
COMP .                         : COMPANY
WELL .                         : WELL
FLD  .                         : FIELD
LOC  .                         : LOCATION
PROV .                         : PROVINCE
CNTY .                         : COUNTY
STAT .                         : STATE
CTRY .                         : COUNTRY
SRVC .                         : SERVICE COMPANY
DATE .                         : DATE
UWI  .                         : UNIQUE WELL ID
API  .                         : API NUMBER
SLAT .WGS84 2.2067796976868017 : SURFACE LATITUDE
SLON .WGS84     8.651018502393 : SURFACE LONGITUDE
DATUM.F                    nan : DEPTH DATUM ELEV
~Curve Information -----------------------------------------
DEPT   .F     : 1 MEASURED DEPTH
DTCO   .US/F  : DELTA-T COMPRESSIONAL
DTSM   .US/F  : DELTA-T SHEAR
RLA3   .OHMM  : APPARENT RESISTIVITY FROM COMPUTED FOCUSING MODE 3
RLA4   .OHMM  : APPARENT RESISTIVITY FROM COMPUTED FOCUSING MODE 4
RLA5   .OHMM  : APPARENT RESISTIVITY FROM COMPUTED FOCUSING MODE 5
SGRDD  .GAPI  : SPECTROSCOPY GAMMA RAY FROM DENSITY LOG
TNPH_LS.DEC   : THERMAL NEUTRON POROSITY [LIMESTONE]
CALD   .IN    : CALIPER FROM DENSITY LOG
DPHZ_LS.DEC   : HGRD STANDARD RESOLUTION DENSITY POROSITY
PEFZ   .B/E   : HRDD STANDARD RESOLUTION FORMATION PHOTOELECTRIC FACTOR
HDRA   .G/C3  : HRDD SPINE AND RIBS DENSITY CORRECTION
RHOZ   .G/C3  : HRDD STANDARD RESOLUTION FORMATION DENSITY
~Params ----------------------------------------------------
~Other -----------------------------------------------------
~ASCII -----------------------------------------------------
# ...
 9524.00000   73.40750  115.73250   13.37920   14.09300   16.00900   58.11440    0.07910    8.65610    0.10660    2.86360   -0.00590    2.53540
 9524.50000   74.27410  116.84390   10.42110   10.98110   12.32550   59.57230    0.09200    8.65560    0.11000    2.73770   -0.00490    2.53010
 9525.00000   74.70680  119.24250    9.12640    9.21880    9.74130   62.75070    0.11080    8.65520    0.11320    2.69360   -0.00480    2.52420
 9525.50000   74.99210  119.86740    9.48310    9.59270   10.06330   -9999.25    0.12010    8.65470    0.11610    2.65010   -0.00460    2.52150
 9526.00000   75.46860  120.46950    9.35720    9.47290   10.65560   -9999.25    0.11230    8.65430    0.11660    2.64690   -0.00440    2.52110
 9526.50000   75.61130  121.07160    9.01390    9.12560   10.77770   -9999.25    0.10440    8.65380    0.11730    2.66500   -0.00430    2.52070
 9527.00000   75.37000  122.67140    8.70570    8.80650    9.93890   -9999.25    0.10310    8.65340    0.11860    2.69100   -0.00460    2.51950
 9527.50000   75.12410  122.07870    8.71170    8.80460    9.30000   -9999.25    0.10580    8.65290    0.11990    2.69460   -0.00530    2.51550
 9528.00000   75.00890  121.82500    8.89940    8.99170    9.23270   -9999.25    0.11400    8.65250    0.12060    2.67070   -0.00570    2.51490
 9528.50000   74.96470  122.67140    9.00640    9.22890    9.49280   -9999.25    0.11240    8.65200    0.11750    2.65700   -0.00490    2.52000
 9529.00000   75.05250  121.39180    9.33150    9.67300   10.34270   -9999.25    0.10520    8.65160    0.11520    2.65700   -0.00430    2.52480
 9529.50000   75.02560  122.44750    9.99570   10.09200   13.27330   -9999.25    0.09710    8.65110    0.11280    2.67650   -0.00390    2.52740
 9530.00000   75.37860  122.54810    9.38220    9.59310   11.79490   -9999.25    0.10060    8.65070    0.10790    2.69420   -0.00360    2.53620
 9530.50000   75.84700  122.60780    8.50990    8.70200    9.71690   -9999.25    0.11180    8.65020    0.10360    2.71180   -0.00330    2.54310
 9531.00000   75.58910  122.79460    8.20200    8.28100    8.58100   -9999.25    0.12620    8.64980    0.10290    2.76850   -0.00350    2.54430
 9531.50000   76.29970  123.06320    8.27870    8.36580    8.97050   -9999.25    0.13100    8.64930    0.10380    2.80300   -0.00390    2.54290
 9532.00000   76.20690  123.03760    8.61730    8.74060    9.70920   -9999.25    0.12350    8.64890    0.10770    2.84210   -0.00520    2.53670
 9532.50000   75.98190  123.16830    9.06490    9.23030   10.10970   -9999.25    0.11600    8.64840    0.10960    2.85240   -0.00670    2.53370
 9533.00000   75.46900  123.34260   10.00450   10.32060   11.20500   -9999.25    0.11520    8.64800    0.10900    2.83400   -0.00770    2.53400
 9533.50000   75.41000  124.11140   12.09410   13.85630   15.17600   -9999.25    0.11990    8.64750    0.10760    2.81450   -0.00690    2.53490
 9534.00000   75.88100  124.09240   15.76290   15.92960   16.67650   -9999.25    0.11780    8.64790    0.10740    2.82380   -0.00660    2.53590
 9534.50000   76.92280  123.79350   15.62480   16.14330   17.09690   -9999.25    0.11530    8.65110    0.10390    2.86600   -0.00630    2.54370
 9535.00000   78.64320  125.10240   18.79570   19.55060   20.37930   -9999.25    0.11890    8.65430    0.09170    2.95860   -0.00190    2.56450
 9535.50000   79.62580  127.94100   28.02420   28.67890   38.71800   -9999.25    0.11810    8.65750    0.07540    3.01580    0.00560    2.60580
 9536.00000   79.83730  128.58040   28.41130   28.79820   33.02850   -9999.25    0.11230    8.66080    0.06280    3.07300    0.01250    2.60750
 9536.50000   79.75550  129.45110   21.81630   23.56010   25.16810   -9999.25    0.10710    8.66400    0.07370    3.07440    0.01900    2.59140
 9537.00000   78.95980  130.52640   16.95010   18.68860   19.72980   -9999.25    0.12660    8.66720    0.09940    3.10190    0.01070    2.54820
 9537.50000   78.32270  130.17590   16.72740   18.22900   21.63770   -9999.25    0.16130    8.67040    0.12530    3.15620   -0.00090    2.50840
 9538.00000   78.36510  129.54230   16.17710   16.99840   19.75450   -9999.25    0.18210    8.66520    0.12300    3.27750   -0.00910    2.51190
 9538.50000   78.83040  129.39370   15.88800   16.05980   16.47450   -9999.25    0.18170    8.65290    0.10540    3.39880   -0.01030    2.54030
 9539.00000   79.89580  130.83080   16.26800   17.56710   18.50550   -9999.25    0.16610    8.65180    0.07950    3.45770   -0.00570    2.58170
 9539.50000   79.84740  130.62050   24.50060   28.06240   31.18090   -9999.25    0.16300    8.64770    0.05860    3.50700   -0.00160    2.61560
 9540.00000   79.51190  129.64260   21.38300   24.31990   33.83500   -9999.25    0.13460    8.63760    0.07060    3.46330   -0.00210    2.59670
 9540.50000   79.06320  129.07240   17.24660   17.54370   19.24070   -9999.25    0.10840    8.63530    0.09870    3.37870   -0.00330    2.55120
 9541.00000   78.78260  129.38360   17.40400   17.60280   18.11960   -9999.25    0.09850    8.63830    0.12600    3.30690   -0.00470    2.50760
 9541.50000   78.32330  129.26690   20.80110   21.49180   22.25090   -9999.25    0.09690    8.63180    0.14410    3.31990   -0.00700    2.47800
 9542.00000   78.06060  129.01700   22.27880   22.49350   24.12800   -9999.25    0.09290    8.62580    0.13880    3.33110   -0.00830    2.48890
 9542.50000   77.76670  128.85060   20.02580   20.86030   21.59610   -9999.25   -9999.25    8.62090    0.11950    3.32240   -0.00900    2.52400
 9543.00000   78.13550  128.85340   23.98800   26.77380   28.14450   -9999.25   -9999.25    8.61600    0.10410    3.28670   -0.00810    2.54980
 9543.50000   78.69760  128.94010   25.78950   26.46760   27.48790   -9999.25   -9999.25    8.63520    0.09610    3.23340   -0.00610    2.55440
 9544.00000   79.04410  129.19570   23.95230   24.20480   25.02730   -9999.25   -9999.25    8.62680    0.09460    3.18870   -0.00560    2.55770
 9544.50000   78.88420  129.31810   19.61020   20.75650   21.92690   -9999.25   -9999.25    8.64070    0.09460    3.11980   -0.00560    2.55770
 9545.00000   79.18620  129.65130   13.78830   14.87450   15.85370   -9999.25   -9999.25    8.66330    0.10490    3.09150   -0.00530    2.54130
 9545.50000   79.37100  130.53930    9.58860   10.34210   11.27600   -9999.25   -9999.25    8.68690    0.11850    3.13710   -0.00390    2.51950
 9546.00000   79.15030  129.61530    8.77040    8.93050    9.81190   -9999.25   -9999.25    8.69110    0.12890    3.18270   -0.00260    2.50250
 9546.50000   78.71420  129.55580   10.75940   11.31620   13.71400   -9999.25   -9999.25    8.68330    0.13820    3.22820   -0.00190    2.48750
 9547.00000   78.29340  129.50270   19.65570   23.24580   29.67130   -9999.25   -9999.25    8.67560    0.13880    3.31860   -0.00160    2.48650
 9547.50000   77.72180  128.59040   42.98210   47.86670   57.36850   -9999.25   -9999.25    8.70370    0.13040    3.33900   -0.00140    2.50250
 9548.00000   76.61790  126.93820   51.92790   53.14640   54.74350   -9999.25   -9999.25    8.74920    0.11600    3.35950   -0.00120    2.53090
 9548.50000   75.47810  125.55540   52.67570   53.94950   56.18650   -9999.25   -9999.25    8.76810    0.10300    3.36310   -0.00100    2.54630
 9549.00000   75.39960  124.86490   54.87840   56.69320   59.21980   -9999.25   -9999.25    8.66440    0.09650    3.33360   -0.00200    2.55650
 9549.50000   74.87100  124.36150   15.29080   15.60810   21.24110   -9999.25   -9999.25    8.65330    0.09020    3.30410   -0.00210    2.56420
 9550.00000   74.91000  123.32050   15.77730   16.27290   16.63790   -9999.25   -9999.25    8.65230    0.08490    3.25030   -0.00210    2.57210
 9550.50000   75.46100  123.11430   16.25330   16.57750   16.81900   -9999.25   -9999.25    8.65130    0.08510    3.18890   -0.00240    2.57330
 9551.00000   75.67390  123.83810   15.70880   16.94800   18.56490   -9999.25   -9999.25    8.65030    0.08590    3.15010   -0.00210    2.57460
 9551.50000   75.68030  123.12570   26.26150   31.15820   37.08320   -9999.25   -9999.25    8.64930    0.08310    3.11120   -0.00140    2.58000
