~Version ---------------------------------------------------
VERS.   2.0 : CWLS log ASCII Standard -VERSION 2.0
WRAP.    NO : One line per depth step
DLM . SPACE : Column Data Section Delimiter
~Well ------------------------------------------------------
STRT .F                  200.0 : START DEPTH
STOP .F                 9607.0 : STOP DEPTH
STEP .F                    0.5 : STEP
NULL .                -9999.25 : NULL VALUE
COMP .                         : COMPANY
WELL .                         : WELL
FLD  .                         : FIELD
LOC  .                         : LOCATION
PROV .                         : PROVINCE
CNTY .                         : COUNTY
STAT .                         : STATE
CTRY .                         : COUNTRY
SRVC .                         : SERVICE COMPANY
DATE .                         : DATE
UWI  .                         : UNIQUE WELL ID
API  .                         : API NUMBER
SLAT .WGS84 2.2067796976868017 : SURFACE LATITUDE
SLON .WGS84     8.651018502393 : SURFACE LONGITUDE
DATUM.F                    nan : DEPTH DATUM ELEV
~Curve Information -----------------------------------------
DEPT   .F     : 1 MEASURED DEPTH
DTCO   .US/F  : DELTA-T COMPRESSIONAL
DTSM   .US/F  : DELTA-T SHEAR
RLA3   .OHMM  : APPARENT RESISTIVITY FROM COMPUTED FOCUSING MODE 3
RLA4   .OHMM  : APPARENT RESISTIVITY FROM COMPUTED FOCUSING MODE 4
RLA5   .OHMM  : APPARENT RESISTIVITY FROM COMPUTED FOCUSING MODE 5
SGRDD  .GAPI  : SPECTROSCOPY GAMMA RAY FROM DENSITY LOG
TNPH_LS.DEC   : THERMAL NEUTRON POROSITY [LIMESTONE]
CALD   .IN    : CALIPER FROM DENSITY LOG
DPHZ_LS.DEC   : HGRD STANDARD RESOLUTION DENSITY POROSITY
PEFZ   .B/E   : HRDD STANDARD RESOLUTION FORMATION PHOTOELECTRIC FACTOR
HDRA   .G/C3  : HRDD SPINE AND RIBS DENSITY CORRECTION
RHOZ   .G/C3  : HRDD STANDARD RESOLUTION FORMATION DENSITY
~Params ----------------------------------------------------
~Other -----------------------------------------------------
~ASCII -----------------------------------------------------
# ...
 3084.00000   87.46810  167.44030    6.02280    6.33700    6.49270   49.96930    0.21160   10.74020    0.26620    2.22630   -0.00370    2.28200
 3084.50000   87.14640  167.33720    5.78190    5.91290    6.11530   50.86150    0.20130   10.72290    0.26900    2.22320   -0.00480    2.27580
 3085.00000   87.87210  166.78280    5.76770    5.87020    6.10450   52.08930    0.20330   10.70550    0.27250    2.21990   -0.00600    2.26830
 3085.50000   88.78050  166.47400    5.39800    5.67820    5.83450   52.86670    0.20490   10.68810    0.27880    2.21670   -0.00700    2.26090
 3086.00000   90.02250  166.30960    5.30290    5.51630    5.63640   51.81500    0.20670   10.66950    0.28290    2.20290   -0.00520    2.25720
 3086.50000   89.78290  166.22000    5.35410    5.53160    5.70520   49.55550    0.20020   10.65070    0.27840    2.17910   -0.00370    2.25600
 3087.00000   90.18170  166.07540    5.42700    5.57930    5.79780   48.46400    0.19140   10.63190    0.27540    2.18210   -0.00260    2.25560
 3087.50000   90.57980  165.73110    5.41110    5.56180    5.82100   48.17440    0.19680   10.61320    0.27930    2.20520   -0.00370    2.25600
 3088.00000   90.93800  165.22060    5.38540    5.54440    5.85540   49.94100    0.19540   10.58220    0.28140    2.21930   -0.00450    2.25710
 3088.50000   91.23710  164.70840    5.43130    5.62090    5.86940   50.77290    0.19060   10.54350    0.27440    2.22690   -0.00290    2.26750
 3089.00000   91.44610  163.83020    5.60390    5.80280    5.97860   50.43120    0.18570   10.50470    0.26120    2.23460   -0.00210    2.28320
 3089.50000   91.15560  163.73220    5.78240    6.00120    6.27630   48.84660    0.18100   10.45620    0.25430    2.24220   -0.00170    2.29780
 3090.00000   90.45670  163.42880    5.86410    5.96640    6.14290   48.51350    0.18080   10.40540    0.25570    2.24980   -0.00270    2.29860
 3090.50000   89.91100  162.99490    5.86730    5.96500    6.06220   49.01990    0.18230   10.35460    0.25890    2.25520   -0.00370    2.29630
 3091.00000   89.58260  162.24270    5.87150    5.97030    6.07300   50.15940    0.18380   10.30390    0.26100    2.25560   -0.00380    2.29320
 3091.50000   88.86930  161.33380    5.87630    5.97950    6.13420   51.18150    0.18490   10.27510    0.26100    2.25610   -0.00380    2.29150
 3092.00000   87.23790  160.36130    6.00950    6.15060    6.34330   51.96000    0.18650   10.25260    0.25790    2.25650   -0.00350    2.29390
 3092.50000   88.38120  158.53630    6.35270    6.53070    6.89760   52.60850    0.17000   10.23000    0.25380    2.25700   -0.00310    2.30180
 3093.00000   86.79850  157.03640    6.65660    6.77470    7.44090   52.52690    0.17060   10.20740    0.25070    2.25750   -0.00310    2.30700
 3093.50000   87.27880  156.22190    6.51460    6.71140    7.10320   51.43380    0.16670   10.19170    0.24960    2.25790   -0.00440    2.30820
 3094.00000   87.44920  156.70750    6.47690    6.76350    7.19950   51.03770    0.16770   10.17350    0.25060    2.25840   -0.00570    2.30820
 3094.50000   87.49300  155.82210    6.60610    6.86790    7.37820   51.26370    0.16370   10.14860    0.25050    2.25550   -0.00580    2.30820
 3095.00000   87.63980  155.53230    6.69180    6.94210    7.51380   51.40270    0.16990   10.14520    0.25020    2.25050   -0.00510    2.30790
 3095.50000   87.90120  155.10560    6.70570    6.96700    7.49250   51.60080    0.17240   10.14180    0.25260    2.24560   -0.00420    2.30240
 3096.00000   88.41410  154.81970    6.71960    6.93920    7.41160   51.92690    0.17190   10.13850    0.25820    2.24060   -0.00290    2.29300
 3096.50000   88.66280  154.70110    6.73070    6.94640    7.39010   52.25290    0.16600   10.13510    0.25990    2.23570   -0.00150    2.29300
 3097.00000   88.74250  154.65080    6.89150    7.07270    7.50620   52.29540    0.16030   10.13170    0.25530    2.23070   -0.00130    2.30010
 3097.50000   88.92960  154.60050    7.17210    7.32810    7.60380   51.46490    0.15900   10.12830    0.24920    2.22570   -0.00310    2.30720
 3098.00000   88.97090  154.64160    7.24050    7.47160    7.63690   51.63760    0.16290   10.12490    0.25210    2.22080   -0.00430    2.30720
 3098.50000   88.75960  154.91220    7.14120    7.40000    7.63260   52.10550    0.15520   10.12150    0.25390    2.21580   -0.00520    2.30260
 3099.00000   87.51140  154.84130    7.05720    7.32880    7.58350   52.66860    0.16160   10.11810    0.24980    2.22430   -0.00610    2.30130
 3099.50000   85.37250  153.60130    7.10310    7.39150    7.58440   53.23160    0.17300   10.11470    0.24570    2.24520   -0.00750    2.30270
 3100.00000   83.73770  152.43880    7.56960    7.75050    8.19650   53.32800    0.18400   10.11130    0.24820    2.26610   -0.00790    2.30810
 3100.50000   82.24240  151.86780    7.62430    7.75360    8.11850   52.23080    0.18760   10.10740    0.24970    2.30890   -0.00770    2.32000
 3101.00000   81.38030  151.69020    7.70480    8.23960    8.90410   50.84600    0.16740   10.10170    0.23190    2.38500   -0.00760    2.33450
 3101.50000   81.40240  151.69730    9.91340   11.46720   12.52860   49.71480    0.15210   10.09600    0.20640    2.48470   -0.00440    2.37820
 3102.00000   81.73310  151.86020    9.17630    9.78720   10.17320   49.97420    0.13700   10.10960    0.18010    2.59830   -0.00330    2.42570
 3102.50000   82.53370  152.12620    8.81810    9.19400    9.64710   51.84820    0.12800   10.13910    0.17590    2.63060   -0.00340    2.43460
 3103.00000   83.53670  152.67400    8.71010    9.09310    9.70520   52.57960    0.14670   10.16860    0.20390    2.51300   -0.00370    2.39120
 3103.50000   84.20610  153.32440    8.57270    8.72880    9.01390   54.50670    0.17620   10.19680    0.23870    2.39550   -0.00670    2.33600
 3104.00000   84.87170  154.05900    8.52410    8.66840    8.78260   56.56560    0.20620   10.24850    0.25090    2.32530   -0.00860    2.31200
 3104.50000   85.62940  154.88490    8.47580    8.61940    8.74350   61.14840    0.21420   10.37770    0.24790    2.32220   -0.00920    2.31170
 3105.00000   86.08410  154.95830    8.40530    8.54970    8.75580   67.72400    0.21890   10.51970    0.24370    2.33080   -0.00560    2.31410
 3105.50000   85.55440  154.81480    7.98080    8.26330    8.78380   72.88890    0.22090   10.74380    0.24340    2.36830   -0.00480    2.32150
 3106.00000   84.70910  153.15430    9.07870    9.77080   11.10170   97.38430    0.21980   10.95480    0.22880    2.51500   -0.00420    2.33780
 3106.50000   83.22250  150.34780   13.47420   17.96300   22.90330  124.36990    0.21890   10.28490    0.20350    2.69980   -0.00380    2.37170
 3107.00000   81.20410  147.12520   26.83740   30.69270   41.67630  133.37250    0.22890    9.48300    0.16770    2.89310   -0.00290    2.42510
 3107.50000   79.42590  143.45820   22.63900   24.81410   26.00870  120.96430    0.20590    9.47450    0.15350    2.97780   -0.00230    2.45300
 3108.00000   77.36320  137.73770   19.34840   19.89330   21.19800  100.39540    0.17580    9.47880    0.15060    2.93030   -0.00300    2.46750
 3108.50000   74.63640  132.21810   19.01110   19.33070   19.81310   77.45270    0.14170    9.48260    0.14810    2.86310   -0.00370    2.47060
 3109.00000   73.06100  129.01320   19.21040   19.61190   20.01210   70.81460    0.12610    9.48630    0.13840    2.80350   -0.00440    2.48170
 3109.50000   72.35700  125.37060   20.28460   20.88520   22.11990   68.79300    0.12090    9.49000    0.12900    2.77910   -0.00410    2.50070
 3110.00000   71.61690  122.84870   23.24810   26.43760   40.95910   68.04280    0.11290    9.49380    0.11940    2.80060   -0.00430    2.51940
 3110.50000   71.20690  121.85220   33.24760   42.76440   45.72160   69.12100    0.10310    9.47470    0.10840    2.82500   -0.00450    2.53280
 3111.00000   71.18480  121.13920   35.53580   37.19330   38.55710   75.79710    0.09770    9.45330    0.10140    2.83210   -0.00460    2.54150
 3111.50000   70.38350  120.74040   31.33210   33.38000   35.48410   83.77370    0.11320    9.43180    0.09650    2.83980   -0.00450    2.55030
