~Version ---------------------------------------------------
VERS.   2.0 : CWLS log ASCII Standard -VERSION 2.0
WRAP.    NO : One line per depth step
DLM . SPACE : Column Data Section Delimiter
~Well ------------------------------------------------------
STRT .F                  200.0 : START DEPTH
STOP .F                 9607.0 : STOP DEPTH
STEP .F                    0.5 : STEP
NULL .                -9999.25 : NULL VALUE
COMP .                         : COMPANY
WELL .                         : WELL
FLD  .                         : FIELD
LOC  .                         : LOCATION
PROV .                         : PROVINCE
CNTY .                         : COUNTY
STAT .                         : STATE
CTRY .                         : COUNTRY
SRVC .                         : SERVICE COMPANY
DATE .                         : DATE
UWI  .                         : UNIQUE WELL ID
API  .                         : API NUMBER
SLAT .WGS84 2.2067796976868017 : SURFACE LATITUDE
SLON .WGS84     8.651018502393 : SURFACE LONGITUDE
DATUM.F                    nan : DEPTH DATUM ELEV
~Curve Information -----------------------------------------
DEPT   .F     : 1 MEASURED DEPTH
DTCO   .US/F  : DELTA-T COMPRESSIONAL
DTSM   .US/F  : DELTA-T SHEAR
RLA3   .OHMM  : APPARENT RESISTIVITY FROM COMPUTED FOCUSING MODE 3
RLA4   .OHMM  : APPARENT RESISTIVITY FROM COMPUTED FOCUSING MODE 4
RLA5   .OHMM  : APPARENT RESISTIVITY FROM COMPUTED FOCUSING MODE 5
SGRDD  .GAPI  : SPECTROSCOPY GAMMA RAY FROM DENSITY LOG
TNPH_LS.DEC   : THERMAL NEUTRON POROSITY [LIMESTONE]
CALD   .IN    : CALIPER FROM DENSITY LOG
DPHZ_LS.DEC   : HGRD STANDARD RESOLUTION DENSITY POROSITY
PEFZ   .B/E   : HRDD STANDARD RESOLUTION FORMATION PHOTOELECTRIC FACTOR
HDRA   .G/C3  : HRDD SPINE AND RIBS DENSITY CORRECTION
RHOZ   .G/C3  : HRDD STANDARD RESOLUTION FORMATION DENSITY
~Params ----------------------------------------------------
~Other -----------------------------------------------------
~ASCII -----------------------------------------------------
# ...
 8600.00000   70.22600  116.96970   40.44070   41.84880   48.11480  104.23280    0.13440    8.75450    0.10110    2.91840   -0.00860    2.54720
 8600.50000   69.06830  115.02490   32.57100   36.94100   43.58820  102.76700    0.13400    8.75510    0.10120    2.90210   -0.00840    2.54730
 8601.00000   67.75820  112.49880   19.85390   24.57720   26.59650  107.60760    0.13430    8.75580    0.09190    2.87780   -0.00700    2.56210
 8601.50000   66.59680  110.41350   16.58910   18.01160   19.97340  103.21540    0.13900    8.75640    0.08370    2.93810   -0.00550    2.57610
 8602.00000   64.33420  107.74280   28.72970   34.42440   38.03140   93.11640    0.12960    8.75710    0.06640    3.04590   -0.00400    2.60380
 8602.50000   61.81930  105.40310   38.58540   41.06460   43.31570   75.17060    0.10900    8.75770    0.04840    3.19730   -0.00250    2.63270
 8603.00000   61.62210  103.14210   43.77220   48.52950   55.97110   56.22610    0.07380    8.76000    0.02150    3.41640   -0.00160    2.67680
 8603.50000   61.65540  102.63990   72.49300   81.29050   91.28590   45.70080    0.03410    8.76320    0.00890    3.58020   -0.00180    2.69590
 8604.00000   61.98580  102.90780   89.34630  116.99620  143.22060   38.43870    0.02160    8.76630    0.00580    3.70910   -0.00350    2.70020
 8604.50000   62.64870  103.67560   31.73060   43.24610   52.68260   41.25780    0.01980    8.76950    0.01790    3.75310   -0.00510    2.68000
 8605.00000   64.00030  104.82510   21.19070   24.73240   28.59800   49.74250    0.02520    8.77260    0.04290    3.57550   -0.00480    2.64020
 8605.50000   64.97790  106.15790   19.84220   21.97020   26.34770   70.15840    0.05290    8.77580    0.06880    3.24750   -0.00460    2.59830
 8606.00000   65.97400  107.45280   13.54780   15.89730   19.15770   82.19060    0.08050    8.77890    0.09350    2.93840   -0.00460    2.56360
 8606.50000   68.11500  109.39930   15.12840   15.92040   18.83550   86.79270    0.10790    8.78210    0.09390    2.72670   -0.00480    2.55970
 8607.00000   69.03800  111.50520   14.03470   14.75020   17.22130   86.20340    0.11680    8.78520    0.09180    2.63020   -0.00500    2.56240
 8607.50000   69.79980  112.23890   11.43100   12.46960   14.52890   83.82900    0.11460    8.78830    0.09030    2.59080   -0.00520    2.56460
 8608.00000   70.08060  112.81030    8.74900   10.24970   14.19950   79.63030    0.11250    8.78700    0.09110    2.57090   -0.00540    2.56320
 8608.50000   69.37760  112.90550    6.53490    6.82220    7.78060   72.54650    0.10640    8.78580    0.09380    2.56970   -0.00570    2.55880
 8609.00000   68.43560  112.52820    6.74370    6.97430    8.03250   64.90960    0.10770    8.78450    0.09700    2.62620   -0.00590    2.55370
 8609.50000   66.97500  111.88820    7.60730    8.30870    9.29040   51.27040    0.09850    8.78320    0.09820    2.77920   -0.00610    2.55180
 8610.00000   65.61780  110.21310    9.74980   10.78060   13.08770   47.12270    0.08650    8.78190    0.09780    2.95350   -0.00630    2.55250
 8610.50000   64.57250  109.30520   11.44960   11.97390   14.93360   47.29200    0.08170    8.78060    0.09730    3.09270   -0.00650    2.55320
 8611.00000   63.86760  108.67440   10.19550   10.63320   12.99150   50.67210    0.07720    8.77940    0.09090    3.21840   -0.00720    2.56330
 8611.50000   63.27180  106.97100   10.56330   12.93980   14.32860   51.79110    0.07070    8.77810    0.07520    3.35230   -0.00850    2.58980
 8612.00000   63.09740  105.93070   16.13260   19.28670   21.09150   51.09190    0.06590    8.77680    0.05610    3.62680   -0.00850    2.62440
 8612.50000   63.16780  105.92320   22.94440   27.04970   32.17740   49.04880    0.06510    8.77550    0.04020    3.82570   -0.00730    2.64520
 8613.00000   63.34280  106.08190   27.07580   32.31160   50.99820   52.22380    0.06660    8.77430    0.04210    3.78600   -0.00610    2.64190
 8613.50000   64.12800  107.03800   12.62140   16.24580   20.77580   57.96270    0.07750    8.77540    0.05410    3.38440   -0.00700    2.62240
 8614.00000   65.15030  108.05760    5.92990    6.95390    9.01520   61.40070    0.09150    8.77870    0.06810    3.09200   -0.00720    2.59840
 8614.50000   66.42720  108.58740    5.25130    5.72800    7.88020   61.65090    0.10730    8.78190    0.07770    2.92500   -0.00710    2.58470
 8615.00000   67.54990  109.16940    5.25130    5.49380    7.53730   58.30800    0.10540    8.78520    0.08280    2.86480   -0.00700    2.57650
 8615.50000   68.23270  110.42230    5.36480    5.60970    7.46130   59.05010    0.09910    8.78850    0.09300    2.80430   -0.00720    2.56000
 8616.00000   68.67180  111.56650    6.02840    6.39860    8.75720   58.32890    0.09380    8.79180    0.10180    2.74700   -0.00730    2.54580
 8616.50000   69.13660  112.77750    6.40680    6.76060    9.07580   58.43340    0.09180    8.79510    0.10890    2.68420   -0.00710    2.53460
 8617.00000   69.22690  113.57630    7.33080    7.71150   10.05730   58.52740    0.08980    8.79830    0.11260    2.66270   -0.00750    2.52960
 8617.50000   69.44550  113.81330    7.69870    8.05000   11.03280   62.72990    0.08830    8.80300    0.10740    2.64840   -0.00830    2.53440
 8618.00000   69.61560  114.33480    6.69630    7.18890    9.85940   68.15460    0.08890    8.84560    0.10450    2.63520   -0.00900    2.54170
 8618.50000   69.69040  114.88900    6.02360    6.60210    9.09600   66.66540    0.09570    8.88830    0.10210    2.63590   -0.00860    2.54560
 8619.00000   69.90660  115.42950    5.54110    6.14250    8.26760   65.66240    0.10260    8.93090    0.10710    2.60790   -0.00800    2.53810
 8619.50000   70.13130  115.81900    4.93430    5.22960    7.32120   67.67290    0.10640    8.97360    0.10980    2.57760   -0.00730    2.53570
 8620.00000   70.14640  116.25610    4.61640    4.69900    6.66190   68.45100    0.10890    9.01620    0.11210    2.55300   -0.00750    2.53470
 8620.50000   70.20110  116.40880    4.61510    4.69200    6.56950   68.54500    0.11020    9.03520    0.10980    2.53780   -0.00840    2.53610
 8621.00000   70.24500  115.76080    4.79500    5.03060    6.85170   68.70560    0.11100    9.02550    0.10840    2.53600   -0.00920    2.53630
 8621.50000   70.16640  115.63720    5.77330    6.38330    9.13490   70.89090    0.11040    8.84360    0.11210    2.52330   -0.01010    2.52770
 8622.00000   70.05020  115.34640    7.28600    8.04960   12.30340   65.64270    0.10870    8.83190    0.12070    2.56000   -0.00990    2.51550
 8622.50000   69.91750  114.84130    8.00930    8.59020   13.13970   58.87610    0.10340    8.82020    0.12300    2.57840   -0.00840    2.51340
 8623.00000   69.78470  114.33810    8.16420    9.09260   13.42690   53.27330    0.09340    8.80860    0.11710    2.58200   -0.00700    2.51770
 8623.50000   69.62040  113.83490    8.69530    9.77330   13.33110   55.79860    0.08790    8.80690    0.10940    2.58560   -0.00580    2.53650
 8624.00000   69.38070  113.16980    7.83590    8.19500   12.70170   62.03280    0.09390    8.83490    0.10170    2.59140   -0.00540    2.55530
 8624.50000   69.24090  112.84830    6.78240    7.29490   11.60520   67.49540    0.10230    8.86280    0.09520    2.62430   -0.00570    2.55680
 8625.00000   69.12640  112.64680    5.92850    6.54800   11.05440   71.07320    0.10800    8.89080    0.09280    2.63570   -0.00610    2.56050
 8625.50000   69.00340  112.88610    5.47940    6.00670   10.85870   70.11090    0.10330    8.91880    0.09320    2.63660   -0.00640    2.55990
 8626.00000   68.77260  113.38860    5.46690    6.39670   10.77320   66.18370    0.09640    8.94670    0.09620    2.62060   -0.00680    2.55490
 8626.50000   68.55490  113.19520    5.38540    6.43810   10.16340   62.65840    0.09470    8.97470    0.09990    2.63130   -0.00710    2.54900
 8627.00000   68.37890  112.99770    5.28060    6.09810    8.72130   61.38530    0.09330    9.00270    0.10240    2.64190   -0.00900    2.54510
 8627.50000   68.30650  112.10110    6.12370    7.06630    8.96560   60.16140    0.09190    9.02690    0.10080    2.65800   -0.00710    2.54780
