~Version ---------------------------------------------------
VERS.   2.0 : CWLS log ASCII Standard -VERSION 2.0
WRAP.    NO : One line per depth step
DLM . SPACE : Column Data Section Delimiter
~Well ------------------------------------------------------
STRT .F                  200.0 : START DEPTH
STOP .F                 9607.0 : STOP DEPTH
STEP .F                    0.5 : STEP
NULL .                -9999.25 : NULL VALUE
COMP .                         : COMPANY
WELL .                         : WELL
FLD  .                         : FIELD
LOC  .                         : LOCATION
PROV .                         : PROVINCE
CNTY .                         : COUNTY
STAT .                         : STATE
CTRY .                         : COUNTRY
SRVC .                         : SERVICE COMPANY
DATE .                         : DATE
UWI  .                         : UNIQUE WELL ID
API  .                         : API NUMBER
SLAT .WGS84 2.2067796976868017 : SURFACE LATITUDE
SLON .WGS84     8.651018502393 : SURFACE LONGITUDE
DATUM.F                    nan : DEPTH DATUM ELEV
~Curve Information -----------------------------------------
DEPT   .F     : 1 MEASURED DEPTH
DTCO   .US/F  : DELTA-T COMPRESSIONAL
DTSM   .US/F  : DELTA-T SHEAR
RLA3   .OHMM  : APPARENT RESISTIVITY FROM COMPUTED FOCUSING MODE 3
RLA4   .OHMM  : APPARENT RESISTIVITY FROM COMPUTED FOCUSING MODE 4
RLA5   .OHMM  : APPARENT RESISTIVITY FROM COMPUTED FOCUSING MODE 5
SGRDD  .GAPI  : SPECTROSCOPY GAMMA RAY FROM DENSITY LOG
TNPH_LS.DEC   : THERMAL NEUTRON POROSITY [LIMESTONE]
CALD   .IN    : CALIPER FROM DENSITY LOG
DPHZ_LS.DEC   : HGRD STANDARD RESOLUTION DENSITY POROSITY
PEFZ   .B/E   : HRDD STANDARD RESOLUTION FORMATION PHOTOELECTRIC FACTOR
HDRA   .G/C3  : HRDD SPINE AND RIBS DENSITY CORRECTION
RHOZ   .G/C3  : HRDD STANDARD RESOLUTION FORMATION DENSITY
~Params ----------------------------------------------------
~Other -----------------------------------------------------
~ASCII -----------------------------------------------------
# ...
 3560.00000   83.03150  153.28580    1.81540    2.22570    2.91760   47.52690    0.20270   10.34040    0.23350    2.44960   -0.00370    2.33790
 3560.50000   83.11720  153.20670    1.88030    2.20330    2.86790   48.05180    0.20590   10.35140    0.23040    2.45760   -0.00320    2.33970
 3561.00000   83.27350  153.04050    1.83620    2.11430    2.78320   48.53290    0.21870   10.36250    0.22690    2.47060   -0.00280    2.34530
 3561.50000   83.21130  152.85340    1.76280    1.98510    2.60610   48.94070    0.21840   10.37350    0.22520    2.45240   -0.00250    2.34890
 3562.00000   82.77750  152.39510    1.71160    2.00690    2.56960   47.88770    0.21190   10.38250    0.22610    2.43980   -0.00250    2.34680
 3562.50000   82.34380  151.56550    1.70690    1.95430    2.57910   47.36120    0.20610   10.38250    0.22880    2.45220   -0.00250    2.34130
 3563.00000   81.70490  150.43970    1.68060    1.99700    2.59200   47.15330    0.21230   10.38250    0.22960    2.46810   -0.00250    2.34040
 3563.50000   81.00760  148.43910    1.63830    1.95930    2.59500   50.92110    0.21900   10.38250    0.22590    2.48410   -0.00230    2.34340
 3564.00000   80.15430  146.26290    1.62680    1.96820    2.61290   57.30610    0.21800   10.37330    0.20930    2.53060   -0.00230    2.36840
 3564.50000   79.21010  143.88310    3.10080    4.48610    4.99410   63.10220    0.19920   10.32720    0.19100    2.56800   -0.00240    2.40740
 3565.00000   78.39930  141.63630    6.35520    7.14190    9.55680   67.83740    0.18470   10.28360    0.17340    2.65350   -0.00240    2.43540
 3565.50000   77.93060  139.92890    7.22270    8.61570   11.61730   68.89390    0.17320   10.23990    0.16320    2.67480   -0.00240    2.44650
 3566.00000   76.86970  137.89130    7.71720    9.04870   11.87220   68.97830    0.17110   10.19620    0.16520    2.69390   -0.00240    2.44490
 3566.50000   75.50270  134.95860    8.05520    9.15870   11.97390   69.06650    0.17070   10.15260    0.16560    2.69300   -0.00240    2.44350
 3567.00000   74.71590  132.91520    8.06460    9.01540   11.86450   69.45840    0.17740   10.10890    0.16470    2.67850   -0.00240    2.44450
 3567.50000   74.46850  130.82570    8.01930    8.75090   11.26200   69.08180    0.17530   10.06330    0.16220    2.67480   -0.00250    2.44960
 3568.00000   73.80480  129.15310    8.81620    9.27450   11.96030   67.96400    0.17140   10.01770    0.15710    2.65940   -0.00250    2.45920
 3568.50000   72.91240  127.72420    9.99090   10.84580   13.69590   66.25360    0.17200    9.97210    0.15070    2.68580   -0.00260    2.47000
 3569.00000   72.26460  126.21890   11.62510   13.30310   16.03610   66.14250    0.16250    9.92650    0.14180    2.72030   -0.00260    2.47920
 3569.50000   71.12050  122.82760   14.17770   16.05730   20.06170   70.07760    0.15250    9.87830    0.12900    2.77300   -0.00260    2.50250
 3570.00000   69.52030  121.34130   17.87800   19.53130   22.71380   77.38030    0.13830    9.77460    0.11320    2.82100   -0.00260    2.52980
 3570.50000   67.82130  120.33980   21.88630   23.06970   25.70320   84.81870    0.13700    9.67100    0.10120    2.90250   -0.00260    2.55330
 3571.00000   65.19190  117.10550   24.93350   26.45960   30.01170   92.66610    0.13100    9.56740    0.08810    3.09270   -0.00270    2.57730
 3571.50000   63.01230  113.10830   30.45470   33.44240   39.90650   88.38160    0.11640    9.48280    0.07180    3.40340   -0.00270    2.60770
 3572.00000   60.92980  110.74030   41.76840   49.47210   57.03620   76.36400    0.09280    9.41850    0.05540    3.83530   -0.00280    2.63720
 3572.50000   59.72670  108.28420   68.09540   98.04640  129.52420   57.12440    0.05930    9.35420    0.03290    4.24600   -0.00170    2.66590
 3573.00000   57.91270  105.02330  149.15050  201.40660  217.94970   42.28470    0.03830    9.28980    0.01640    4.50110   -0.00030    2.69460
 3573.50000   57.83770  104.28570  187.26800  235.00360  265.36830   38.72340    0.02580    9.24780    0.00550    4.53790    0.00060    2.70590
 3574.00000   57.60650  103.60380  109.41580  163.71070  274.89420   42.18450    0.03020    9.22020    0.00180    4.44500    0.00060    2.70720
 3574.50000   57.54220  103.04090   86.14940   97.93580  139.39220   46.79060    0.03690    9.22020    0.00220    4.31790    0.00060    2.70570
 3575.00000   57.82220  103.40760   90.87950  107.64520  119.20490   51.77780    0.04400    9.24410    0.00550    4.06490   -0.00060    2.70010
 3575.50000   58.42820  104.28790   66.23230   77.30110  107.56190   60.02120    0.05010    9.27830    0.01250    3.82900   -0.00110    2.68450
 3576.00000   59.43200  105.43500   48.87220   55.05210   57.37450   65.96250    0.05300    9.30060    0.02210    3.55730   -0.00160    2.67300
 3576.50000   59.97670  106.39880   49.58520   55.30100   60.88090   70.53860    0.05560    9.32290    0.02860    3.45350   -0.00210    2.66240
 3577.00000   61.03700  108.12230   58.28670   66.70320   68.61640   73.11450    0.06310    9.34270    0.03230    3.40310   -0.00180    2.65040
 3577.50000   63.02070  111.14020   45.81490   48.68290   58.74330   74.72170    0.07140    9.35160    0.04220    3.32390   -0.00160    2.63750
 3578.00000   65.73680  111.89210   34.30860   40.71420   45.26890   74.80870    0.08030    9.43560    0.05980    3.18530   -0.00110    2.59450
 3578.50000   69.57120  116.09380   21.53280   24.93020   27.92040   74.42940    0.09400    9.65480    0.07780    3.04670    0.00080    2.57440
 3579.00000   72.73000  119.16540   14.43110   16.49940   18.49470   71.71100    0.11310    9.87840    0.09600    2.90850    0.00280    2.55880
 3579.50000   75.39270  122.70320   10.13640   11.83090   12.85650   69.18420    0.13990   10.08030    0.11600    2.77040    0.00270    2.50960
 3580.00000   77.15560  126.24100    5.28010    7.93230   10.48480   65.40760    0.16100   10.27990    0.15270    2.65870    0.00260    2.45300
 3580.50000   80.48970  133.69260    2.76510    3.45110    4.58380   61.36430    0.17650   10.47950    0.18410    2.58660    0.00130    2.40260
 3581.00000   82.97490  144.05400    1.74000    1.94370    3.19170   54.03300    0.19200   10.66870    0.22870    2.51440   -0.00150    2.34200
 3581.50000   84.14890  149.39160    1.37270    1.60440    2.30610   48.44430    0.22240   10.75910    0.25090    2.49270   -0.00440    2.30330
 3582.00000   85.43740  153.81980    1.36240    1.54540    2.19040   43.24590    0.24770   10.82800    0.26200    2.47130   -0.00610    2.28830
 3582.50000   86.48030  158.71610    1.58090    1.83550    2.52970   41.88510    0.25190   10.89700    0.25970    2.45170   -0.00680    2.28760
 3583.00000   87.30100  163.06320    1.65730    1.87940    2.82380   41.32440    0.24420   10.93590    0.25210    2.44340   -0.00600    2.29980
 3583.50000   87.60370  163.66610    1.67120    1.90200    2.64600   41.04200    0.23110   10.96330    0.24840    2.43510   -0.00600    2.32160
 3584.00000   87.70300  166.21440    1.61430    1.84190    2.47940   41.26420    0.22970   10.98780    0.25520    2.42680   -0.00590    2.32110
 3584.50000   87.69010  168.97990    1.54240    1.80520    2.38210   41.48640    0.23870   11.00040    0.26100    2.41850   -0.00560    2.29160
 3585.00000   87.63210  169.88310    1.49740    1.85940    2.41360   41.70860    0.23820   11.01300    0.26270    2.41020   -0.00470    2.28740
 3585.50000   87.53190  170.24460    1.43330    1.89750    2.47120   42.94150    0.22150   11.02560    0.26160    2.40190   -0.00390    2.28720
 3586.00000   87.04630  170.60610    1.34750    1.89620    2.48720   44.26000    0.20910   11.03810    0.25890    2.39610   -0.00390    2.29190
 3586.50000   86.72870  170.87300    1.32230    1.90180    2.55250   45.33130    0.21910   11.04490    0.25640    2.39910   -0.00400    2.30200
 3587.00000   87.07610  170.96090    1.37940    1.94960    2.77840   45.28840    0.23200   11.04920    0.25060    2.40200   -0.00410    2.31170
 3587.50000   86.99950  171.08890    1.41880    1.97990    2.90630   45.04600    0.24150   11.07320    0.24790    2.40490   -0.00410    2.31330
