~Version ---------------------------------------------------
VERS.   2.0 : CWLS log ASCII Standard -VERSION 2.0
WRAP.    NO : One line per depth step
DLM . SPACE : Column Data Section Delimiter
~Well ------------------------------------------------------
STRT .F                  200.0 : START DEPTH
STOP .F                 9607.0 : STOP DEPTH
STEP .F                    0.5 : STEP
NULL .                -9999.25 : NULL VALUE
COMP .                         : COMPANY
WELL .                         : WELL
FLD  .                         : FIELD
LOC  .                         : LOCATION
PROV .                         : PROVINCE
CNTY .                         : COUNTY
STAT .                         : STATE
CTRY .                         : COUNTRY
SRVC .                         : SERVICE COMPANY
DATE .                         : DATE
UWI  .                         : UNIQUE WELL ID
API  .                         : API NUMBER
SLAT .WGS84 2.2067796976868017 : SURFACE LATITUDE
SLON .WGS84     8.651018502393 : SURFACE LONGITUDE
DATUM.F                    nan : DEPTH DATUM ELEV
~Curve Information -----------------------------------------
DEPT   .F     : 1 MEASURED DEPTH
DTCO   .US/F  : DELTA-T COMPRESSIONAL
DTSM   .US/F  : DELTA-T SHEAR
RLA3   .OHMM  : APPARENT RESISTIVITY FROM COMPUTED FOCUSING MODE 3
RLA4   .OHMM  : APPARENT RESISTIVITY FROM COMPUTED FOCUSING MODE 4
RLA5   .OHMM  : APPARENT RESISTIVITY FROM COMPUTED FOCUSING MODE 5
SGRDD  .GAPI  : SPECTROSCOPY GAMMA RAY FROM DENSITY LOG
TNPH_LS.DEC   : THERMAL NEUTRON POROSITY [LIMESTONE]
CALD   .IN    : CALIPER FROM DENSITY LOG
DPHZ_LS.DEC   : HGRD STANDARD RESOLUTION DENSITY POROSITY
PEFZ   .B/E   : HRDD STANDARD RESOLUTION FORMATION PHOTOELECTRIC FACTOR
HDRA   .G/C3  : HRDD SPINE AND RIBS DENSITY CORRECTION
RHOZ   .G/C3  : HRDD STANDARD RESOLUTION FORMATION DENSITY
~Params ----------------------------------------------------
~Other -----------------------------------------------------
~ASCII -----------------------------------------------------
# ...
 5856.00000   62.95120  105.74700    6.29410    7.86380    8.00130   48.60080    0.07020    9.13130    0.08380    2.78700   -0.00110    2.57090
 5856.50000   62.37260  105.79890    5.78990    7.14090    7.55780   50.72720    0.06910    9.13950    0.07520    2.85120   -0.00090    2.58260
 5857.00000   62.44080  105.93570    5.69770    7.57670    9.36660   55.71770    0.06810    9.14070    0.06660    2.93180   -0.00300    2.60250
 5857.50000   63.51950  106.22820   11.94080   14.08850   15.27960   59.65100    0.06860    9.14180    0.06430    3.01240   -0.00520    2.60840
 5858.00000   63.31570  105.98050   14.93470   15.87390   16.70650   65.10860    0.07450    9.14290    0.07270    3.05710   -0.00770    2.59460
 5858.50000   63.29140  105.28100   12.45740   13.92280   15.31040   69.35330    0.08090    9.14410    0.08150    2.94930   -0.00900    2.57690
 5859.00000   63.02210  104.26930   13.88370   14.79010   21.21620   74.08340    0.08180    9.14520    0.08400    2.82180   -0.00810    2.57240
 5859.50000   62.64090  103.63180   16.90530   18.16040   19.93610   74.40540    0.07640    9.14640    0.07870    2.70960   -0.00660    2.57640
 5860.00000   62.38650  103.76230   14.24050   16.37150   19.53750   72.43990    0.06610    9.14750    0.06980    2.70220   -0.00430    2.58800
 5860.50000   62.14040  103.51930   13.81540   14.81180   15.15850   71.53760    0.06770    9.14860    0.06070    2.73220   -0.00210    2.60360
 5861.00000   61.90490  102.76970   14.73010   15.51090   17.31200   68.97960    0.06940    9.14980    0.05090    2.89330   -0.00160    2.62100
 5861.50000   61.74580  103.16420   19.36750   20.88140   23.37700   64.84130    0.06520    9.15090    0.04810    3.14690   -0.00140    2.63140
 5862.00000   61.73650  101.83000   17.04940   20.08720   29.55480   59.88720    0.05850    9.15200    0.05150    3.15740   -0.00150    2.63320
 5862.50000   61.74360  102.96020   13.17020   14.57530   15.98510   60.09310    0.05680    9.15320    0.05650    3.09160   -0.00150    2.62570
 5863.00000   61.83220  102.50320   13.99200   15.03730   15.30630   66.66790    0.06050    9.15430    0.06260    2.93820   -0.00160    2.61050
 5863.50000   61.75690  102.60000   15.04020   15.29290   15.42310   70.79190    0.06600    9.15510    0.06710    2.84570   -0.00320    2.59820
 5864.00000   61.63410  103.41070   14.46710   14.84140   15.48090   68.36990    0.06470    9.15580    0.06600    2.81460   -0.00260    2.60330
 5864.50000   62.94690  103.81560   13.89610   14.15570   15.20310   67.28500    0.06360    9.15660    0.06770    2.81330   -0.00190    2.60330
 5865.00000   63.66480  104.08710   14.04670   14.29820   14.97450   72.08930    0.06720    9.15740    0.06930    2.80890   -0.00130    2.60040
 5865.50000   63.93510  104.51030   14.79580   15.26500   15.68420   78.49510    0.07800    9.16900    0.07230    2.78230   -0.00110    2.59410
 5866.00000   63.60890  105.28620   16.00850   16.61260   16.97490   84.09500    0.08800    9.17660    0.06940    2.75500   -0.00150    2.59420
 5866.50000   62.88480  105.06700   17.57410   18.15740   18.56410   89.23590    0.09310    9.18550    0.06670    2.73500   -0.00170    2.60010
 5867.00000   62.70980  104.33730   18.98060   19.44840   20.26820   89.67140    0.10010    9.18920    0.06850    2.74000   -0.00250    2.60440
 5867.50000   62.83550  103.75360   17.91040   19.11110   20.31000   79.16630    0.10070    9.17460    0.07550    2.74870   -0.00450    2.59660
 5868.00000   62.74620  103.65010   16.24150   16.62930   18.52400   66.79650    0.08110    9.17110    0.08410    2.73480   -0.00570    2.58010
 5868.50000   62.63990  104.04910   15.85700   16.17830   16.67760   55.64650    0.05950    9.16580    0.08200    2.72090   -0.00570    2.57820
 5869.00000   62.34160  104.50190   13.12220   14.46860   15.37500   59.65470    0.05170    9.16040    0.07550    2.70700   -0.00480    2.57770
 5869.50000   62.02030  103.75640   15.87020   16.52360   17.48770   67.03480    0.06390    9.15500    0.06990    2.72490   -0.00440    2.58550
 5870.00000   62.04060  103.33010   17.87390   18.93810   20.07930   74.24810    0.07790    9.14970    0.07170    2.76170   -0.00400    2.59490
 5870.50000   61.92640  103.73280   17.78580   19.17690   20.03080   80.48500    0.08870    9.14430    0.07380    2.79850   -0.00380    2.59650
 5871.00000   61.98690  104.16700   19.69040   20.02500   20.64970   79.83430    0.08960    9.14080    0.07630    2.82730   -0.00410    2.59130
 5871.50000   62.37370  104.26480   16.90660   20.11540   21.24910   77.64940    0.08900    9.14500    0.07770    2.82270   -0.00450    2.58540
 5872.00000   62.48200  103.97670   11.77590   13.38710   14.88020   68.47100    0.08230    9.14910    0.07470    2.81390   -0.00420    2.58590
 5872.50000   62.52330  103.81700    9.86960   10.23320   10.54180   59.29850    0.07120    9.15330    0.07380    2.80480   -0.00320    2.59120
 5873.00000   62.60160  103.87240   10.54860   10.87820   11.22820   54.52990    0.06620    9.15740    0.07310    2.78430   -0.00250    2.59220
 5873.50000   62.51160  104.36220   12.95150   14.64200   15.88590   61.33820    0.07000    9.16160    0.06990    2.78060   -0.00220    2.59380
 5874.00000   62.59250  104.20420   16.41330   17.53870   18.60790   70.72830    0.07550    9.16570    0.06620    2.77190   -0.00180    2.60140
 5874.50000   62.73170  103.35110   16.44890   16.74930   17.28320   77.31060    0.07590    9.16990    0.06290    2.76110   -0.00150    2.60510
 5875.00000   62.81250  103.37570   16.83690   17.81740   19.17850   78.67960    0.07600    9.16090    0.06000    2.75570   -0.00110    2.61090
 5875.50000   62.81350  103.43060   12.32240   14.04750   16.73430   73.69050    0.07240    9.16010    0.05760    2.75880   -0.00130    2.61680
 5876.00000   62.49040  103.83450   10.83520   11.48760   14.07840   68.81880    0.06840    9.15930    0.05820    2.77100   -0.00130    2.61870
 5876.50000   62.02320  104.18740   11.10630   12.54360   14.20040   70.81940    0.06750    9.15850    0.06260    2.78110   -0.00130    2.61140
 5877.00000   61.60510  104.02720   15.78950   16.62130   18.12710   73.95740    0.07070    9.15640    0.06970    2.78080   -0.00160    2.60290
 5877.50000   61.54910  103.93080   13.12060   14.52600   15.52420   71.34070    0.07440    9.15320    0.07020    2.78080   -0.00220    2.59520
 5878.00000   61.50200  103.59770   11.28720   12.17980   13.31250   61.09760    0.06940    9.15000    0.06950    2.81770   -0.00270    2.59350
 5878.50000   61.43770  102.74540   13.07820   13.73880   14.28470   52.73590    0.05110    9.14680    0.06860    2.89020   -0.00260    2.59460
 5879.00000   61.44230  102.29830   15.29070   15.53150   15.77010   55.33720    0.04250    9.14360    0.06190    2.91820   -0.00290    2.60390
 5879.50000   61.50080  103.36020   15.79460   16.70340   17.31370   63.95280    0.05040    9.14040    0.06380    2.88640   -0.00320    2.61130
 5880.00000   61.53830  103.11370   12.89790   15.66250   18.53100   69.94450    0.06650    9.13720    0.06880    2.79730   -0.00360    2.61040
 5880.50000   61.52560  102.96330   10.66000   11.65070   14.78870   71.23080    0.07780    9.13460    0.07590    2.75640   -0.00420    2.59690
 5881.00000   61.80680  103.12600    9.72680   10.52880   11.42980   71.48900    0.08000    9.13330    0.08260    2.75200   -0.00560    2.58230
 5881.50000   62.10720  103.81080   11.08300   11.44810   11.82440   69.23860    0.08050    9.13150    0.08340    2.76770   -0.00490    2.57620
 5882.00000   62.24380  103.69870   13.01520   13.08150   13.68860   65.36350    0.07250    9.12970    0.07940    2.79770   -0.00400    2.57560
 5882.50000   62.37350  103.15810   11.95630   12.69440   13.15010   56.16340    0.06150    9.12790    0.07490    2.82210   -0.00350    2.58180
 5883.00000   62.35930  103.71140   10.41870   11.13150   11.68670   54.05530    0.04880    9.12610    0.07520    2.83690   -0.00340    2.58790
 5883.50000   62.37200  104.28900    9.97930   10.42350   10.92530   55.65800    0.04940    9.12440    0.08110    2.83820   -0.00290    2.58800
