~Version ---------------------------------------------------
VERS.   2.0 : CWLS log ASCII Standard -VERSION 2.0
WRAP.    NO : One line per depth step
DLM . SPACE : Column Data Section Delimiter
~Well ------------------------------------------------------
STRT .F                  200.0 : START DEPTH
STOP .F                 9607.0 : STOP DEPTH
STEP .F                    0.5 : STEP
NULL .                -9999.25 : NULL VALUE
COMP .                         : COMPANY
WELL .                         : WELL
FLD  .                         : FIELD
LOC  .                         : LOCATION
PROV .                         : PROVINCE
CNTY .                         : COUNTY
STAT .                         : STATE
CTRY .                         : COUNTRY
SRVC .                         : SERVICE COMPANY
DATE .                         : DATE
UWI  .                         : UNIQUE WELL ID
API  .                         : API NUMBER
SLAT .WGS84 2.2067796976868017 : SURFACE LATITUDE
SLON .WGS84     8.651018502393 : SURFACE LONGITUDE
DATUM.F                    nan : DEPTH DATUM ELEV
~Curve Information -----------------------------------------
DEPT   .F     : 1 MEASURED DEPTH
DTCO   .US/F  : DELTA-T COMPRESSIONAL
DTSM   .US/F  : DELTA-T SHEAR
RLA3   .OHMM  : APPARENT RESISTIVITY FROM COMPUTED FOCUSING MODE 3
RLA4   .OHMM  : APPARENT RESISTIVITY FROM COMPUTED FOCUSING MODE 4
RLA5   .OHMM  : APPARENT RESISTIVITY FROM COMPUTED FOCUSING MODE 5
SGRDD  .GAPI  : SPECTROSCOPY GAMMA RAY FROM DENSITY LOG
TNPH_LS.DEC   : THERMAL NEUTRON POROSITY [LIMESTONE]
CALD   .IN    : CALIPER FROM DENSITY LOG
DPHZ_LS.DEC   : HGRD STANDARD RESOLUTION DENSITY POROSITY
PEFZ   .B/E   : HRDD STANDARD RESOLUTION FORMATION PHOTOELECTRIC FACTOR
HDRA   .G/C3  : HRDD SPINE AND RIBS DENSITY CORRECTION
RHOZ   .G/C3  : HRDD STANDARD RESOLUTION FORMATION DENSITY
~Params ----------------------------------------------------
~Other -----------------------------------------------------
~ASCII -----------------------------------------------------
# ...
 7228.00000   61.14240  101.19000   45.63990   67.79460   81.82630   54.35350    0.05660    8.80270    0.04370    3.25480   -0.00330    2.63960
 7228.50000   60.83280  101.71210   47.79010   60.48380   75.38070   56.60520    0.05640    8.80630    0.04460    3.15650   -0.00400    2.63790
 7229.00000   59.42560  101.77930   28.71400   31.40900   42.01420   66.92530    0.07050    8.80000    0.06080    2.99860   -0.00420    2.61150
 7229.50000   59.45920  101.21980   26.09220   27.63590   34.21910   77.43530    0.08880    8.79380    0.08350    2.82070   -0.00390    2.57570
 7230.00000   59.44250  100.78320   17.81380   19.62170   25.09900   74.27610    0.09520    8.78790    0.08650    2.80110    0.00210    2.57070
 7230.50000   59.50720  100.78500   19.95430   23.16420   27.31620   64.62340    0.09240    8.78270    0.08410    2.86870    0.01190    2.57620
 7231.00000   60.46400  100.89810   36.65110   45.70860   55.86350   53.74110    0.08390    8.77750    0.01730    3.21560    0.02790    2.68250
 7231.50000   60.91430  101.22900  151.56390  163.01120  234.07140   49.71200    0.07720    8.77240   -0.02290    3.60340    0.02220    2.74730
 7232.00000   61.41410  102.02370  118.71040  143.66720  180.50770   55.28810    0.07680    8.76720   -0.04280    3.79040    0.00980    2.77890
 7232.50000   62.05810  103.02910   56.38290   96.32080  118.90940   61.04110    0.08250    8.76200   -0.00270    3.71500   -0.00200    2.71310
 7233.00000   62.99660  103.32960   10.50060   18.21740   23.93900   69.97630    0.09700    8.77280    0.06310    3.37120   -0.00690    2.60810
 7233.50000   63.27580  103.87350    9.01450    9.33680   11.21280   74.23590    0.11140    8.86180    0.11070    3.07730   -0.00780    2.54340
 7234.00000   63.68390  104.34600    9.21380    9.50160   10.55480   74.78930    0.11730    8.95090    0.11710    2.72230   -0.00690    2.51750
 7234.50000   64.02550  105.33760   11.66240   15.90140   18.22330   77.84960    0.11540    8.96150    0.10320    2.52760   -0.00360    2.54390
 7235.00000   63.81480  107.34860   18.45600   20.08150   24.95110   80.63810    0.10950    8.98450    0.09540    2.52050   -0.00190    2.55640
 7235.50000   63.57680  108.15750   15.31650   17.02670   18.90740   77.46520    0.10640    9.00190    0.10260    2.56870   -0.00290    2.54480
 7236.00000   63.41780  107.11400    8.94220   10.58850   12.76100   71.91990    0.10220    9.00790    0.11060    2.62410   -0.00390    2.53190
 7236.50000   63.08130  106.07570   10.04700   12.97480   15.67010   68.33360    0.10180    9.01310    0.09400    2.67950   -0.00430    2.54840
 7237.00000   62.85860  105.45950   25.08130   29.52890   32.63630   66.27160    0.10290    8.91130    0.06330    2.81960   -0.00030    2.58670
 7237.50000   63.06970  105.09120   36.69960   38.73190   45.33700   58.24370    0.10190    8.80240    0.03110    3.13440    0.00670    2.65940
 7238.00000   63.60270  105.20040   39.87760   40.58150   54.02980   54.57480    0.09060    8.76070    0.00900    3.20470    0.01560    2.69440
 7238.50000   64.19010  105.50200   12.17730   17.10180   24.77360   54.30630    0.08780    8.76830    0.03220    3.16560    0.01930    2.68810
 7239.00000   64.62830  106.91970    8.93970    9.09890   10.62810   59.61800    0.09270    8.75690    0.07190    2.83100    0.00890    2.65830
 7239.50000   64.86770  107.88220    9.18950    9.54890   10.74720   63.76320    0.09800    8.76410    0.11280    2.66660    0.00020    2.60080
 7240.00000   64.97470  108.14740   10.88230   12.59050   13.17790   79.10060    0.10420    8.77240    0.12270    2.56180   -0.00050    2.52120
 7240.50000   64.98800  108.43130   17.37130   22.24290   26.16490   93.87430    0.11310    8.78080    0.11350    2.51390    0.00020    2.51310
 7241.00000   64.69540  108.77880   27.13710   27.57320   34.99580  104.13620    0.11750    8.78860    0.10120    2.50040    0.00140    2.54250
 7241.50000   63.50010  109.24910   11.11900   15.18610   20.28950   90.11020    0.11490    8.78870    0.09900    2.49640    0.00080    2.55050
 7242.00000   63.42610  109.14660    9.92140   10.36080   11.82800   71.05360    0.10160    8.78890    0.09670    2.51550   -0.00010    2.55450
 7242.50000   63.36850  108.76100   11.81580   12.75330   13.53290   59.57930    0.08790    8.78900    0.09040    2.55670   -0.00110    2.56200
 7243.00000   63.06080  108.22150   13.26000   13.52580   15.53040   53.87600    0.08050    8.78910    0.08590    2.65100   -0.00230    2.56960
 7243.50000   62.92470  107.14110   11.34440   11.65160   14.82340   53.43570    0.07940    8.78930    0.08540    2.70520   -0.00190    2.57210
 7244.00000   62.90750  105.81070   10.66240   11.00880   13.36660   53.02930    0.08050    8.78940    0.08960    2.74290   -0.00140    2.56560
 7244.50000   63.05560  105.79140   10.09610   10.26260   12.43140   55.32920    0.08210    8.78950    0.09050    2.75530   -0.00290    2.56420
 7245.00000   64.28790  105.61310   10.18210   10.78060   12.41850   59.13750    0.08370    8.78970    0.08770    2.74210   -0.00560    2.56860
 7245.50000   64.76240  105.40170   14.60690   15.30850   18.18830   62.34040    0.08320    8.78980    0.08040    2.72030   -0.00820    2.58040
 7246.00000   65.21020  105.73300   15.02970   16.96040   20.58920   67.81030    0.08210    8.78990    0.07420    2.69850   -0.00920    2.59030
 7246.50000   65.46540  105.84620   16.94960   19.63560   22.65290   77.34280    0.08700    8.79010    0.07300    2.67550   -0.00870    2.59370
 7247.00000   65.39960  105.77810   23.94390   27.64000   32.21000   92.01890    0.09660    8.78150    0.07670    2.63530   -0.00590    2.59050
 7247.50000   65.11310  105.63380   33.38340   38.32540   47.25120  101.72180    0.10610    8.75190    0.07590    2.62920   -0.00360    2.58720
 7248.00000   64.43350  105.07040   35.57290   39.22240   51.06960  106.23460    0.11350    8.72230    0.07700    2.68320   -0.00170    2.58640
 7248.50000   64.08020  104.28730   35.45380   38.23070   51.23340  104.84500    0.11750    8.74390    0.07330    2.73540   -0.00100    2.59230
 7249.00000   63.43910  103.58670   32.68390   35.71800   47.52680   99.54990    0.11350    8.76040    0.06950    2.77310   -0.00120    2.59770
 7249.50000   62.89680  103.41220   29.96290   30.93400   42.78000   90.30910    0.10230    8.76160    0.06530    2.80290   -0.00140    2.60300
 7250.00000   62.43650  103.17520   22.01000   29.82190   39.84400   79.37110    0.09110    8.77450    0.06310    2.86670   -0.00200    2.60840
 7250.50000   62.05190  102.06700   21.53370   22.76460   37.85360   67.62490    0.07950    8.78730    0.06150    2.91580   -0.00250    2.61100
 7251.00000   61.60360  101.56380   13.68660   15.18850   21.97560   62.47870    0.07740    8.80010    0.06450    2.92750   -0.00310    2.61050
 7251.50000   61.78060  101.58810   11.54980   12.77190   13.48710   64.72560    0.07850    8.80390    0.07410    2.92320   -0.00410    2.59890
 7252.00000   61.95240  101.53560   12.25160   12.89660   14.39620   63.63430    0.07980    8.80390    0.08360    2.89570   -0.00510    2.57890
 7252.50000   61.85290  101.93890   13.30850   14.24970   15.19960   57.46590    0.07780    8.80390    0.08180    2.91850   -0.00610    2.58060
 7253.00000   61.75030  102.60800   20.97390   24.04570   31.40630   53.11800    0.07230    8.82650    0.06950    2.93870   -0.00470    2.59880
 7253.50000   61.83030  102.05880   16.79250   19.15700   21.95010   65.09340    0.07210    8.85120    0.05850    2.94630   -0.00260    2.61660
 7254.00000   61.86050  102.02030   16.40340   19.67650   21.12060   80.31630    0.07780    8.87600    0.05530    2.90680   -0.00170    2.62050
 7254.50000   61.90600  102.11660   20.76010   21.94310   23.75820   91.71320    0.08730    8.90070    0.06390    2.92340   -0.00390    2.60630
 7255.00000   62.04680  103.08420   18.17030   20.63890   22.17390   79.51940    0.08460    8.92540    0.07020    2.98620   -0.00640    2.59680
 7255.50000   62.44600  102.80480   23.25010   23.95550   25.82420   63.32020    0.07150    8.95010    0.06630    3.08240   -0.00670    2.60360
