~Version ---------------------------------------------------
VERS.   2.0 : CWLS log ASCII Standard -VERSION 2.0
WRAP.    NO : One line per depth step
DLM . SPACE : Column Data Section Delimiter
~Well ------------------------------------------------------
STRT .F                  200.0 : START DEPTH
STOP .F                 9607.0 : STOP DEPTH
STEP .F                    0.5 : STEP
NULL .                -9999.25 : NULL VALUE
COMP .                         : COMPANY
WELL .                         : WELL
FLD  .                         : FIELD
LOC  .                         : LOCATION
PROV .                         : PROVINCE
CNTY .                         : COUNTY
STAT .                         : STATE
CTRY .                         : COUNTRY
SRVC .                         : SERVICE COMPANY
DATE .                         : DATE
UWI  .                         : UNIQUE WELL ID
API  .                         : API NUMBER
SLAT .WGS84 2.2067796976868017 : SURFACE LATITUDE
SLON .WGS84     8.651018502393 : SURFACE LONGITUDE
DATUM.F                    nan : DEPTH DATUM ELEV
~Curve Information -----------------------------------------
DEPT   .F     : 1 MEASURED DEPTH
DTCO   .US/F  : DELTA-T COMPRESSIONAL
DTSM   .US/F  : DELTA-T SHEAR
RLA3   .OHMM  : APPARENT RESISTIVITY FROM COMPUTED FOCUSING MODE 3
RLA4   .OHMM  : APPARENT RESISTIVITY FROM COMPUTED FOCUSING MODE 4
RLA5   .OHMM  : APPARENT RESISTIVITY FROM COMPUTED FOCUSING MODE 5
SGRDD  .GAPI  : SPECTROSCOPY GAMMA RAY FROM DENSITY LOG
TNPH_LS.DEC   : THERMAL NEUTRON POROSITY [LIMESTONE]
CALD   .IN    : CALIPER FROM DENSITY LOG
DPHZ_LS.DEC   : HGRD STANDARD RESOLUTION DENSITY POROSITY
PEFZ   .B/E   : HRDD STANDARD RESOLUTION FORMATION PHOTOELECTRIC FACTOR
HDRA   .G/C3  : HRDD SPINE AND RIBS DENSITY CORRECTION
RHOZ   .G/C3  : HRDD STANDARD RESOLUTION FORMATION DENSITY
~Params ----------------------------------------------------
~Other -----------------------------------------------------
~ASCII -----------------------------------------------------
# ...
 7676.00000   61.76270  111.37780   59.77430   67.47840   75.18880   96.40070    0.12870    8.74390    0.11230    3.16870   -0.01300    2.52920
 7676.50000   61.79510  111.00800  124.23280  156.16470  203.94920   62.90910    0.07920    8.73930    0.08430    3.70140   -0.01110    2.57880
 7677.00000   61.89800  110.37600  366.27900  373.06640  569.53640   38.63900    0.03950    8.77030    0.05930    4.27510   -0.00810    2.63530
 7677.50000   61.98480  109.85490  274.50020  311.99560  476.84700   38.52820    0.02260    8.81200    0.03430    4.64770   -0.00480    2.67160
 7678.00000   62.44690  109.50340  181.67980  226.52240  258.78940   62.30990    0.03370    8.81160    0.02190    4.50000   -0.00080    2.67640
 7678.50000   62.94680  109.53020   79.25600  105.10120  127.01530   88.39950    0.06640    8.80970    0.02090    3.88990    0.00270    2.66330
 7679.00000   63.20100  109.27380   57.05920   59.69490   66.09370  112.05050    0.12990    8.80780    0.04110    3.31760    0.00490    2.62020
 7679.50000   63.27850  109.15260   53.95020   55.26220   58.88140  121.40990    0.14230    8.80590    0.06340    3.15110    0.00450    2.57700
 7680.00000   62.98820  108.37680   53.30600   54.24080   58.52270  123.80570    0.12780    8.80400    0.08780    3.15070   -0.00030    2.56690
 7680.50000   61.72930  108.57780   63.17350   76.21050   86.22720  118.43660    0.11470    8.80210    0.09900    3.32530   -0.00510    2.55070
 7681.00000   60.75330  109.20010  105.22070  118.10120  126.94990   98.62200    0.10940    8.80020    0.09330    3.55440   -0.00600    2.56020
 7681.50000   58.95870  109.08810  120.84800  145.02400  148.93200   76.09770    0.08200    8.79840    0.08070    3.78510   -0.00450    2.59220
 7682.00000   56.78480  107.07310  167.02320  184.13740  209.38350   54.84220    0.05260    8.79650    0.06060    4.05920   -0.00250    2.62960
 7682.50000   54.88470  105.38460  196.47920  234.18420  279.60930   39.64940    0.03310    8.79460    0.04280    4.33920   -0.00230    2.64470
 7683.00000   53.24640  104.52020  183.81420  240.82030  265.29000   33.17210    0.02130    8.79270    0.03940    4.51050    0.00100    2.65540
 7683.50000   52.62630  104.01120  212.37010  291.24780  330.93120   29.35780    0.02060    8.79120    0.03360    4.72210    0.00580    2.66630
 7684.00000   52.42820  103.54380  214.52750  306.47670  365.36040   24.89120    0.01920    8.80230    0.01950    4.88020    0.00790    2.67940
 7684.50000   52.32210  103.60230  199.10890  293.49770  351.22000   22.59600    0.01740    8.82690    0.01080    4.99950    0.01010    2.69250
 7685.00000   52.26210  103.68420  260.01250  393.91760  438.80540   23.79340    0.01650    8.85140    0.01670    5.15980    0.01100    2.67020
 7685.50000   52.25780  103.60150  273.65640  386.76670  529.84690   30.24420    0.01690    8.82400    0.02590    5.31940    0.00800    2.66410
 7686.00000   52.25660  103.40730  237.33250  307.47410  445.41280   32.96220    0.01770    8.81270    0.02920    5.49190    0.00490    2.66330
 7686.50000   52.40660  103.19400  223.33690  328.07390  398.50130   32.44990    0.01790    8.81040    0.02470    5.66430    0.00190    2.67040
 7687.00000   53.07060  103.90460  300.17250  425.58390  560.12950   25.51730    0.01600    8.80640    0.02260    5.93230   -0.00100    2.67380
 7687.50000   53.12810  103.00160  280.10780  387.78760  498.96660   20.62950    0.01420    8.80240    0.02260    6.66770   -0.00400    2.67380
 7688.00000   52.99100  102.95890  255.78840  313.88300  446.56550   20.91530    0.01640    8.79850    0.01150    7.28040   -0.00720    2.69230
 7688.50000   52.76640  102.72490  262.31850  393.71730  454.52690   22.03490    0.01980    8.79450    0.00990    7.23040   -0.01400    2.69490
 7689.00000   52.74220  102.65740  267.96050  356.09770  478.95430   25.32100    0.02450    8.79120    0.00870    7.00120   -0.01290    2.69440
 7689.50000   52.79040  102.69670  260.58970  352.86060  460.31410   30.48520    0.02760    8.79120    0.02030    6.81920   -0.01210    2.67700
 7690.00000   52.96450  102.73370  245.32570  299.18790  441.58960   30.32460    0.02540    8.79200    0.02420    6.73100   -0.01110    2.67120
 7690.50000   53.21320  102.92370  224.62250  304.61230  359.57620   27.14220    0.02030    8.79340    0.02050    6.57130   -0.01010    2.67720
 7691.00000   53.51350  103.64460  245.47540  327.62190  382.41610   21.75540    0.01480    8.79330    0.01660    6.25120   -0.00750    2.68330
 7691.50000   53.76320  103.22930  259.71730  342.32800  405.27360   19.26390    0.01550    8.79320    0.01680    6.01530   -0.00340    2.68290
 7692.00000   54.11460  103.35460  254.54210  340.66980  395.30920   19.86040    0.01870    8.80970    0.02050    5.78060   -0.00000    2.67670
 7692.50000   54.26460  103.50190  238.13960  307.26580  359.40490   23.29590    0.02240    8.80940    0.02990    5.51170    0.00250    2.65660
 7693.00000   54.60310  103.68050  224.73530  285.85510  323.97310   29.08580    0.02780    8.80630    0.03930    5.27870    0.00180    2.64010
 7693.50000   54.80940  103.93080  234.68310  304.19940  343.72130   33.86700    0.03330    8.81070    0.04240    5.20430    0.00110    2.64110
 7694.00000   54.73560  104.19020  230.07850  301.63890  332.56520   34.46180    0.03710    8.81090    0.04150    5.32840    0.00190    2.65420
 7694.50000   54.65990  104.17800  221.92280  292.89520  330.76070   33.85940    0.03740    8.81120    0.04000    5.52300    0.00940    2.65420
 7695.00000   54.48710  104.16580  218.28830  285.51920  319.03160   33.35700    0.03590    8.81140    0.03940    5.83620    0.01790    2.63350
 7695.50000   54.21650  104.15360  203.33820  249.66350  304.75680   33.38680    0.03390    8.82880    0.04750    6.30570    0.03120    2.63810
 7696.00000   53.69260  104.08190  220.12320  304.62670  342.99130   30.23310    0.03290    8.84660    0.03830    6.43590    0.04050    2.65970
 7696.50000   53.26090  103.94700  323.21190  461.00270  534.27790   25.06380    0.03110    8.83280    0.01720    6.29420    0.04620    2.68270
 7697.00000   53.14000  103.66180  325.76960  456.89560  548.16150   22.15920    0.02640    8.81910    0.00380    6.01880    0.03640    2.70400
 7697.50000   53.01430  103.43740  324.36610  385.37570  504.39410   23.65720    0.02020    8.80960    0.01280    5.90620    0.02290    2.68920
 7698.00000   52.69980  103.63900  222.51770  305.37050  401.15020   27.39270    0.02080    8.81110    0.02860    5.90520   -0.00020    2.66390
 7698.50000   52.39750  104.08170  237.79660  337.14320  389.05620   27.85240    0.02250    8.81250    0.03210    5.89160   -0.00620    2.65840
 7699.00000   52.27370  104.16100  252.19990  349.67050  405.82100   25.10720    0.02100    8.81400    0.02670    5.82260   -0.00340    2.66720
 7699.50000   52.04570  103.47420  254.96460  364.50680  426.46750   24.59860    0.01870    8.81550    0.02040    5.71500   -0.00000    2.67330
 7700.00000   52.00800  102.97040  259.05400  356.20820  439.55290   26.78520    0.01900    8.81700    0.02210    5.68490    0.00140    2.67460
 7700.50000   52.05450  102.92790  265.32100  365.36360  441.57210   26.64700    0.01940    8.81840    0.02460    5.68530    0.00200    2.67580
 7701.00000   52.13010  103.36500  282.03130  411.01780  480.69520   22.46970    0.01910    8.81990    0.02220    5.72490    0.00270    2.67860
 7701.50000   52.22340  102.36940  356.94620  525.23520  634.56120   18.56370    0.01700    8.81210    0.01860    5.86340    0.00270    2.68240
 7702.00000   52.65210  101.47960  358.54980  530.16030  666.00940   17.83300    0.01440    8.81030    0.01560    6.01590    0.00270    2.68620
 7702.50000   53.18160  101.42940  342.68300  492.61380  642.42860   19.98540    0.01290    8.81120    0.01500    5.98550    0.00190    2.68920
 7703.00000   53.54670  102.00050  306.12460  398.72170  555.94260   24.76600    0.01360    8.81210    0.01730    5.90950    0.00110    2.68440
 7703.50000   53.56590  102.35290  248.00660  335.07950  414.70810   31.50600    0.01830    8.81960    0.02370    5.74190   -0.00250    2.67120
