~Version ---------------------------------------------------
VERS.   2.0 : CWLS log ASCII Standard -VERSION 2.0
WRAP.    NO : One line per depth step
DLM . SPACE : Column Data Section Delimiter
~Well ------------------------------------------------------
STRT .F                  200.0 : START DEPTH
STOP .F                 9607.0 : STOP DEPTH
STEP .F                    0.5 : STEP
NULL .                -9999.25 : NULL VALUE
COMP .                         : COMPANY
WELL .                         : WELL
FLD  .                         : FIELD
LOC  .                         : LOCATION
PROV .                         : PROVINCE
CNTY .                         : COUNTY
STAT .                         : STATE
CTRY .                         : COUNTRY
SRVC .                         : SERVICE COMPANY
DATE .                         : DATE
UWI  .                         : UNIQUE WELL ID
API  .                         : API NUMBER
SLAT .WGS84 2.2067796976868017 : SURFACE LATITUDE
SLON .WGS84     8.651018502393 : SURFACE LONGITUDE
DATUM.F                    nan : DEPTH DATUM ELEV
~Curve Information -----------------------------------------
DEPT   .F     : 1 MEASURED DEPTH
DTCO   .US/F  : DELTA-T COMPRESSIONAL
DTSM   .US/F  : DELTA-T SHEAR
RLA3   .OHMM  : APPARENT RESISTIVITY FROM COMPUTED FOCUSING MODE 3
RLA4   .OHMM  : APPARENT RESISTIVITY FROM COMPUTED FOCUSING MODE 4
RLA5   .OHMM  : APPARENT RESISTIVITY FROM COMPUTED FOCUSING MODE 5
SGRDD  .GAPI  : SPECTROSCOPY GAMMA RAY FROM DENSITY LOG
TNPH_LS.DEC   : THERMAL NEUTRON POROSITY [LIMESTONE]
CALD   .IN    : CALIPER FROM DENSITY LOG
DPHZ_LS.DEC   : HGRD STANDARD RESOLUTION DENSITY POROSITY
PEFZ   .B/E   : HRDD STANDARD RESOLUTION FORMATION PHOTOELECTRIC FACTOR
HDRA   .G/C3  : HRDD SPINE AND RIBS DENSITY CORRECTION
RHOZ   .G/C3  : HRDD STANDARD RESOLUTION FORMATION DENSITY
~Params ----------------------------------------------------
~Other -----------------------------------------------------
~ASCII -----------------------------------------------------
# ...
 4932.00000   69.25360  119.93340    3.27690    3.38970    3.56450   47.98760    0.12100    9.52320    0.15690    2.40190   -0.00620    2.44520
 4932.50000   68.95660  119.79650    3.61830    3.71570    3.81630   48.09470    0.11210    9.51990    0.14900    2.40680   -0.00610    2.46780
 4933.00000   67.93730  118.99440    3.62150    3.70720    3.86260   47.63460    0.11500    9.51770    0.14510    2.41180   -0.00580    2.47590
 4933.50000   67.62550  117.04530    3.53980    3.65600    3.85320   48.43490    0.10910    9.51130    0.14820    2.41670   -0.00470    2.47340
 4934.00000   66.92930  116.33470    3.46480    3.60520    3.86940   48.42670    0.10200    9.50490    0.14590    2.43160   -0.00360    2.47060
 4934.50000   66.81520  115.84730    3.54090    3.95230    4.30310   47.43080    0.08990    9.49850    0.13260    2.47000   -0.00160    2.48670
 4935.00000   66.91560  115.35750    5.05610    6.25900    6.92240   45.92170    0.07860    9.44270    0.11370    2.54120    0.00140    2.51160
 4935.50000   66.96380  114.64980    6.91880    7.54440    8.80320   44.71860    0.07380    9.37900    0.11140    2.59230    0.00390    2.53160
 4936.00000   67.27280  114.63190    3.59010    3.96020    4.69520   45.55630    0.08410    9.37980    0.12130    2.51560    0.00280    2.53640
 4936.50000   67.54360  115.12460    2.96750    3.03420    3.11920   46.65580    0.09810    9.42170    0.13100    2.43560    0.00010    2.53350
 4937.00000   67.49190  115.21010    3.26490    3.32200    3.52700   48.73150    0.10710    9.46370    0.13960    2.40330   -0.00270    2.50310
 4937.50000   67.26130  115.27550    3.23200    3.39490    3.54500   49.33010    0.10650    9.49160    0.14300    2.39930   -0.00420    2.48190
 4938.00000   66.54510  115.43950    3.09950    3.19500    3.32410   48.93740    0.10270    9.49150    0.14140    2.42530   -0.00340    2.47750
 4938.50000   65.77940  115.14890    3.31210    3.61990    3.78890   47.44170    0.09440    9.48520    0.13280    2.44590   -0.00090    2.48560
 4939.00000   65.91140  114.39630    4.09290    4.19440    4.35570   47.49050    0.08600    9.47600    0.11640    2.52640    0.00170    2.50570
 4939.50000   65.94610  113.68070    4.17680    4.40540    5.72480   46.74610    0.07440    9.47250    0.10390    2.61500    0.00180    2.52790
 4940.00000   65.09870  112.93700    6.14440    8.24960   10.29580   45.41810    0.06310    9.46910    0.09000    2.72080    0.00180    2.55000
 4940.50000   65.10470  112.18600   11.81690   17.17760   29.99960   43.36630    0.05340    9.46090    0.08140    2.78500    0.00180    2.59580
 4941.00000   64.80130  111.34170    8.06110    9.48060   11.20390   42.79380    0.04880    9.41800    0.08580    2.76560    0.00080    2.58790
 4941.50000   62.28400  110.52650    3.93810    4.46560    5.11880   46.46850    0.05350    9.43750    0.10970    2.71680   -0.00100    2.56640
 4942.00000   61.92190  110.30390    3.41950    3.60150    3.76030   50.77960    0.07850    9.49060    0.12660    2.61370   -0.00410    2.52800
 4942.50000   63.88690  111.27940    3.12770    3.38910    3.94050   52.19120    0.09210    9.54360    0.12910    2.61680   -0.00410    2.50310
 4943.00000   64.31950  112.58620    4.70330    6.52900    7.28260   48.62870    0.07690    9.58730    0.11340    2.71970   -0.00410    2.51520
 4943.50000   64.18890  112.09960   10.52370   10.99460   12.98820   43.99170    0.06230    9.60440    0.10340    2.87540   -0.00460    2.53910
 4944.00000   63.97640  112.14220    5.82820    8.60400   13.79350   43.43870    0.06070    9.62110    0.10560    2.87290   -0.00460    2.54310
 4944.50000   64.03340  112.28070    3.66650    3.88340    4.52920   46.91080    0.07370    9.67300    0.12020    2.78940   -0.00360    2.51450
 4945.00000   64.75220  112.76750    3.67140    4.69820    4.96200   52.32060    0.09400    9.72970    0.12110    2.59730   -0.00260    2.51770
 4945.50000   66.22400  112.24230    5.68970    5.85960    6.04240   56.83540    0.09620    9.78640    0.11530    2.42850   -0.00230    2.52310
 4946.00000   67.43920  112.78160    5.86420    6.18700    6.41900   57.67490    0.09280    9.82160    0.11580    2.42010   -0.00300    2.52630
 4946.50000   67.67360  112.79220    4.95320    5.47340    6.36830   58.20790    0.09330    9.83800    0.12120    2.44290   -0.00370    2.52430
 4947.00000   66.84560  112.72890    4.24870    4.64700    5.35330   54.93800    0.09820    9.83830    0.13190    2.44640   -0.00410    2.51030
 4947.50000   65.97680  113.22920    3.72140    3.97690    4.30440   51.45010    0.10260    9.81550    0.14350    2.44980   -0.00400    2.48900
 4948.00000   65.25250  112.50680    3.33930    3.60970    3.88030   47.39300    0.10330    9.71730    0.14370    2.45960   -0.00310    2.47590
 4948.50000   65.02170  112.04900    3.31320    3.50530    3.80890   45.48000    0.09300    9.45560    0.13350    2.51090   -0.00220    2.48480
 4949.00000   65.06960  111.96930    3.96870    5.69760    6.48800   43.10600    0.07580    9.31850    0.10620    2.58860    0.00770    2.49880
 4949.50000   65.92670  112.05420    7.55510    9.25820   13.31440   40.96480    0.05870    9.34650    0.08250    2.67430    0.02430    2.50490
 4950.00000   65.84320  112.56130    5.39300    6.19890    8.08990   41.29570    0.05770    9.40080    0.08280    2.67290    0.06020    2.50550
 4950.50000   65.79860  113.15340    3.51130    3.81880    4.23400   44.22200    0.07300    9.45520    0.10320    2.55740    0.03440    2.50510
 4951.00000   66.92740  114.70740    3.57820    3.76380    3.99500   47.79620    0.09260    9.50960    0.13380    2.44190    0.00760    2.49930
 4951.50000   67.43300  115.48520    3.92410    4.04350    4.15700   52.14280    0.10440    9.53880    0.14230    2.41040    0.00230    2.48370
 4952.00000   68.40000  116.26370    3.86070    4.06230    4.21330   53.79900    0.10900    9.56420    0.14130    2.42920    0.00140    2.47290
 4952.50000   68.77220  117.27470    3.52530    3.66970    3.81620   53.41390    0.11310    9.58970    0.13970    2.43910    0.00100    2.46450
 4953.00000   70.08850  118.28380    3.37390    3.43060    3.58460   50.85020    0.11490    9.59650    0.14320    2.48220    0.00090    2.46300
 4953.50000   69.89870  118.23160    3.50360    3.59390    3.68970   47.55740    0.11250    9.59850    0.14710    2.49680    0.00080    2.46710
 4954.00000   69.23950  117.72360    3.70960    3.80780    3.97580   46.17650    0.10950    9.59230    0.14810    2.49830    0.00070    2.46860
 4954.50000   68.51130  116.96690    3.68290    3.82720    4.03910   44.66760    0.10880    9.58040    0.14600    2.49810    0.00080    2.46970
 4955.00000   66.99450  117.15070    3.80370    4.14010    4.40680   43.23560    0.10740    9.48290    0.13080    2.52560    0.00080    2.49010
 4955.50000   67.67230  117.50720    4.85550    5.33860    5.95040   41.82830    0.09240    9.44030    0.11450    2.59640    0.00090    2.51960
 4956.00000   68.14400  117.25590    5.58590    6.68730    8.13730   42.49250    0.07960    9.40690    0.10010    2.64510    0.00090    2.54610
 4956.50000   66.65440  116.71590    3.68690    4.32520    5.37890   43.27170    0.07930    9.39370    0.10910    2.65620    0.00060    2.52940
 4957.00000   66.55630  116.41640    2.60910    2.68760    3.22880   50.76920    0.09770    9.43480    0.13090    2.64580    0.00000    2.50810
 4957.50000   66.45990  115.72810    3.51870    4.06220    4.19150   59.36110    0.11780    9.48110    0.14070    2.59460   -0.00050    2.48690
 4958.00000   66.43060  114.67440    4.27110    5.13480    6.25800   61.35450    0.13220    9.46030    0.13940    2.55050   -0.00110    2.48440
 4958.50000   66.44960  113.23610    3.95400    4.42780    5.15170   59.58060    0.12250    9.40420    0.13170    2.56610   -0.00090    2.49620
 4959.00000   66.55030  112.69590    6.12370    7.44520    8.02130   50.62060    0.09580    9.34800    0.11530    2.63070   -0.00020    2.50880
 4959.50000   66.43010  113.67570   10.03330   11.42400   12.88990   45.82240    0.07190    9.29190    0.10230    2.67590    0.00040    2.53670
