~Version ---------------------------------------------------
VERS.   2.0 : CWLS log ASCII Standard -VERSION 2.0
WRAP.    NO : One line per depth step
DLM . SPACE : Column Data Section Delimiter
~Well ------------------------------------------------------
STRT .F                  200.0 : START DEPTH
STOP .F                 9607.0 : STOP DEPTH
STEP .F                    0.5 : STEP
NULL .                -9999.25 : NULL VALUE
COMP .                         : COMPANY
WELL .                         : WELL
FLD  .                         : FIELD
LOC  .                         : LOCATION
PROV .                         : PROVINCE
CNTY .                         : COUNTY
STAT .                         : STATE
CTRY .                         : COUNTRY
SRVC .                         : SERVICE COMPANY
DATE .                         : DATE
UWI  .                         : UNIQUE WELL ID
API  .                         : API NUMBER
SLAT .WGS84 2.2067796976868017 : SURFACE LATITUDE
SLON .WGS84     8.651018502393 : SURFACE LONGITUDE
DATUM.F                    nan : DEPTH DATUM ELEV
~Curve Information -----------------------------------------
DEPT   .F     : 1 MEASURED DEPTH
DTCO   .US/F  : DELTA-T COMPRESSIONAL
DTSM   .US/F  : DELTA-T SHEAR
RLA3   .OHMM  : APPARENT RESISTIVITY FROM COMPUTED FOCUSING MODE 3
RLA4   .OHMM  : APPARENT RESISTIVITY FROM COMPUTED FOCUSING MODE 4
RLA5   .OHMM  : APPARENT RESISTIVITY FROM COMPUTED FOCUSING MODE 5
SGRDD  .GAPI  : SPECTROSCOPY GAMMA RAY FROM DENSITY LOG
TNPH_LS.DEC   : THERMAL NEUTRON POROSITY [LIMESTONE]
CALD   .IN    : CALIPER FROM DENSITY LOG
DPHZ_LS.DEC   : HGRD STANDARD RESOLUTION DENSITY POROSITY
PEFZ   .B/E   : HRDD STANDARD RESOLUTION FORMATION PHOTOELECTRIC FACTOR
HDRA   .G/C3  : HRDD SPINE AND RIBS DENSITY CORRECTION
RHOZ   .G/C3  : HRDD STANDARD RESOLUTION FORMATION DENSITY
~Params ----------------------------------------------------
~Other -----------------------------------------------------
~ASCII -----------------------------------------------------
# ...
 6780.00000   86.46910  133.37030   36.94610   39.91140   43.16920  176.55910    0.21840    8.80610    0.18910    2.79270   -0.00330    2.40540
 6780.50000   86.68560  133.87660   40.29630   43.15960   45.22910  173.23660    0.23550    8.80630    0.19700    2.82910   -0.00160    2.39290
 6781.00000   87.57290  135.77160   34.94550   36.38220   38.96540  161.81580    0.23670    8.80660    0.20110    2.79650   -0.01030    2.38640
 6781.50000   87.70830  136.11260   39.04480   41.05540   42.88740  154.16800    0.24080    8.80680    0.19800    2.76130   -0.01190    2.39130
 6782.00000   87.43470  135.58130   38.94120   44.66990   47.66330  152.90750    0.24080    8.80700    0.19300    2.72610   -0.01190    2.39940
 6782.50000   86.94150  135.11610   35.02990   39.31990   42.58270  153.26180    0.23390    8.80540    0.18890    2.69070   -0.01190    2.40590
 6783.00000   86.72740  134.72690   37.54430   39.97390   43.98880  152.71330    0.23080    8.79370    0.19270    2.67440   -0.01190    2.39970
 6783.50000   86.29850  133.49500   41.81710   42.56800   44.86510  147.99230    0.23040    8.78190    0.20180    2.66350   -0.01180    2.38500
 6784.00000   86.00970  132.88470   43.43940   43.96380   44.98430  145.15020    0.22720    8.77020    0.20960    2.65920   -0.01160    2.37270
 6784.50000   86.00190  132.78230   47.75470   58.49650   65.35060  138.35760    0.23360    8.75850    0.21010    2.66510   -0.01150    2.37160
 6785.00000   86.00170  132.00890   72.72300   74.81660   85.87980  137.15570    0.22310    8.74670    0.20420    2.69440   -0.01050    2.38090
 6785.50000   85.92530  132.21240  141.23540  169.85030  210.37750  136.48290    0.19400    8.73500    0.19880    2.72370   -0.00160    2.38800
 6786.00000   85.88670  132.92360  183.43360  218.71840  240.01500  136.63390    0.18650    8.73710    0.19480    2.69750   -0.00350    2.38580
 6786.50000   85.80150  133.36820  170.01530  187.99020  264.86030  132.86790    0.18110    8.74200    0.19390    2.67200   -0.00730    2.38110
 6787.00000   85.53620  131.88850  119.85010  134.62950  153.07440  137.63720    0.18080    8.74700    0.19310    2.64910   -0.00310    2.38530
 6787.50000   85.44420  132.33200  128.83770  141.07000  168.11890  148.51780    0.18890    8.75000    0.19880    2.64020   -0.00130    2.38670
 6788.00000   85.40630  132.82930  145.21970  165.47880  189.83400  159.39840    0.21180    8.75250    0.20880    2.76970   -0.00570    2.37380
 6788.50000   85.26260  132.49580  160.58890  193.33510  292.97160  152.16560    0.22970    8.75500    0.21040    2.81710   -0.00790    2.37120
 6789.00000   84.48250  131.68310  104.85940  117.36760  136.05320  135.32680    0.23320    8.75750    0.20700    2.78220   -0.00400    2.37680
 6789.50000   83.60530  130.85100   89.61050   95.19830  117.10440  122.26510    0.21450    8.76000    0.20060    2.66920   -0.00270    2.38720
 6790.00000   82.19790  129.56840   64.65560   76.17500   89.15850  123.04090    0.19770    8.76250    0.19340    2.55630   -0.00260    2.39880
 6790.50000   80.63010  127.86540   53.55380   55.14850   61.36520  122.95480    0.18540    8.75560    0.19060    2.49950   -0.00320    2.40300
 6791.00000   79.38480  124.47950   62.50220   64.67850   67.23500  125.71970    0.18100    8.74190    0.19330    2.49860   -0.00380    2.39880
 6791.50000   78.40180  122.59600   67.28250   68.22750   87.13970  124.85500    0.18340    8.72830    0.18820    2.62560   -0.00410    2.40700
 6792.00000   78.42450  121.58630   71.93440   73.44190   78.89830  111.58820    0.17430    8.71460    0.16720    2.78870   -0.00340    2.44120
 6792.50000   78.58840  122.29240  128.52520  145.39130  162.41000   93.83710    0.14390    8.70100    0.13130    2.98940   -0.00290    2.49740
 6793.00000   79.47750  123.18090  162.89070  180.35880  192.26950   78.93370    0.11940    8.68740    0.11180    3.20280   -0.00300    2.52720
 6793.50000   80.85670  124.14360   59.69750   76.88400  107.32230   94.35280    0.12220    8.67370    0.14190    3.21430   -0.00310    2.51410
 6794.00000   81.45230  125.15850   45.43910   49.83950   52.30170  117.61610    0.16400    8.70020    0.16510    3.07280   -0.00320    2.47270
 6794.50000   82.50360  126.54640   45.50230   47.60520   50.41840  138.02520    0.19600    8.72720    0.16870    2.95890   -0.00310    2.44400
 6795.00000   83.83420  127.41950   51.85070   54.42780   57.67030  149.16440    0.21110    8.75410    0.17070    2.96060   -0.00310    2.43510
 6795.50000   84.43270  129.61760   64.82650   68.23000  109.70550  160.30370    0.21790    8.76390    0.17560    2.99380   -0.00300    2.42730
 6796.00000   84.93400  130.72160   72.95550   78.21050  121.14190  151.72760    0.21990    8.76390    0.17370    2.91490   -0.00300    2.43050
 6796.50000   84.93810  132.36950   64.96930   70.54160   80.00170  140.71130    0.20880    8.76390    0.17030    2.82400   -0.00210    2.43590
 6797.00000   84.88270  133.11030   57.30590   58.94160   65.85260  125.32980    0.19340    8.76390    0.16940    2.68040   -0.00140    2.43730
 6797.50000   84.95250  132.87970   51.40110   52.29940   57.16140  125.70800    0.18500    8.76390    0.17340    2.60780   -0.00150    2.43100
 6798.00000   85.61520  133.13250   46.78450   48.65100   52.15250  131.26690    0.18690    8.76390    0.17670    2.63040   -0.00720    2.42570
 6798.50000   85.76210  133.77590   37.54360   39.57620   46.68560  137.94440    0.19550    8.76390    0.17460    2.67650   -0.00880    2.42900
 6799.00000   86.04860  134.48900   28.92090   30.52690   34.82090  148.21440    0.20500    8.76420    0.17150    2.77110   -0.00990    2.43400
 6799.50000   86.37330  135.24700   26.15680   26.90950   29.55300  168.68960    0.21210    8.76510    0.17220    2.80910   -0.00940    2.43260
 6800.00000   86.87350  136.04930   37.15230   40.86100   45.86340  190.31790    0.22970    8.76610    0.18550    2.84710   -0.00880    2.41150
 6800.50000   87.30280  136.44370   52.04510   52.54360   57.31200  191.53650    0.23910    8.76700    0.19920    2.85670   -0.00830    2.39000
 6801.00000   87.50830  137.05690   48.63240   49.80030   51.87570  179.99890    0.23640    8.76790    0.19920    2.83630   -0.00780    2.38880
 6801.50000   87.66870  137.71010   43.44170   44.53100   46.13100  161.97470    0.21490    8.76880    0.18860    2.75610   -0.00800    2.40650
 6802.00000   87.11460  137.22390   40.60200   41.02620   42.47130  155.79730    0.21430    8.76970    0.18460    2.68110   -0.00800    2.41280
 6802.50000   85.42470  136.48400   40.23070   40.71320   46.19300  154.50450    0.21900    8.77060    0.18500    2.65750   -0.00790    2.41250
 6803.00000   83.63310  135.30400   36.98910   37.50060   40.39950  154.42820    0.23970    8.77160    0.18990    2.66410   -0.00800    2.40470
 6803.50000   82.65100  132.87330   38.42920   39.04390   41.72990  153.50490    0.23320    8.77250    0.19490    2.70110   -0.00910    2.39980
 6804.00000   81.94330  130.93100   46.35260   49.04910   52.84570  149.14790    0.22370    8.77340    0.19470    2.75720   -0.01070    2.39760
 6804.50000   80.17410  128.37890   61.39850   66.05020   70.07330  139.31970    0.20250    8.77430    0.18650    2.96980   -0.01230    2.40880
 6805.00000   75.53280  124.02120   81.66840   84.61590   90.96420  119.78570    0.18250    8.77520    0.17040    3.22830   -0.01270    2.43740
 6805.50000   74.99540  123.25780   93.38310  100.24010  108.90510   99.44930    0.16170    8.77610    0.14950    3.54400   -0.01030    2.46290
 6806.00000   73.63160  123.20510  100.70610  105.06770  111.26860   85.87320    0.14270    8.77710    0.12590    3.76350   -0.00720    2.48860
 6806.50000   72.41810  118.70800  118.94250  124.28940  141.52590   73.03720    0.13050    8.77800    0.10430    3.88710   -0.00590    2.52140
 6807.00000   71.94470  117.07580  169.67060  197.80610  240.00270   65.77930    0.11830    8.77890    0.08760    3.93220   -0.00430    2.55050
 6807.50000   71.83620  116.72550  150.75550  165.01690  182.52620   66.75340    0.11240    8.77870    0.08900    3.88220   -0.00410    2.57200
