~Version ---------------------------------------------------
VERS.   2.0 : CWLS log ASCII Standard -VERSION 2.0
WRAP.    NO : One line per depth step
DLM . SPACE : Column Data Section Delimiter
~Well ------------------------------------------------------
STRT .F                  200.0 : START DEPTH
STOP .F                 9607.0 : STOP DEPTH
STEP .F                    0.5 : STEP
NULL .                -9999.25 : NULL VALUE
COMP .                         : COMPANY
WELL .                         : WELL
FLD  .                         : FIELD
LOC  .                         : LOCATION
PROV .                         : PROVINCE
CNTY .                         : COUNTY
STAT .                         : STATE
CTRY .                         : COUNTRY
SRVC .                         : SERVICE COMPANY
DATE .                         : DATE
UWI  .                         : UNIQUE WELL ID
API  .                         : API NUMBER
SLAT .WGS84 2.2067796976868017 : SURFACE LATITUDE
SLON .WGS84     8.651018502393 : SURFACE LONGITUDE
DATUM.F                    nan : DEPTH DATUM ELEV
~Curve Information -----------------------------------------
DEPT   .F     : 1 MEASURED DEPTH
DTCO   .US/F  : DELTA-T COMPRESSIONAL
DTSM   .US/F  : DELTA-T SHEAR
RLA3   .OHMM  : APPARENT RESISTIVITY FROM COMPUTED FOCUSING MODE 3
RLA4   .OHMM  : APPARENT RESISTIVITY FROM COMPUTED FOCUSING MODE 4
RLA5   .OHMM  : APPARENT RESISTIVITY FROM COMPUTED FOCUSING MODE 5
SGRDD  .GAPI  : SPECTROSCOPY GAMMA RAY FROM DENSITY LOG
TNPH_LS.DEC   : THERMAL NEUTRON POROSITY [LIMESTONE]
CALD   .IN    : CALIPER FROM DENSITY LOG
DPHZ_LS.DEC   : HGRD STANDARD RESOLUTION DENSITY POROSITY
PEFZ   .B/E   : HRDD STANDARD RESOLUTION FORMATION PHOTOELECTRIC FACTOR
HDRA   .G/C3  : HRDD SPINE AND RIBS DENSITY CORRECTION
RHOZ   .G/C3  : HRDD STANDARD RESOLUTION FORMATION DENSITY
~Params ----------------------------------------------------
~Other -----------------------------------------------------
~ASCII -----------------------------------------------------
# ...
 5380.00000   64.59080  106.62730   37.96560   41.44390   44.17960  103.60320    0.10580    9.44480    0.08050    2.66740    0.00010    2.57960
 5380.50000   64.63330  106.86350   42.02180   44.95780   49.52240  111.95480    0.11130    9.45360    0.08030    2.70380    0.00010    2.57980
 5381.00000   65.28800  107.19750   24.28390   28.62820   35.26640  109.80850    0.10920    9.46250    0.08390    2.73150   -0.00060    2.57770
 5381.50000   66.43980  108.48500   15.46780   15.55220   17.90130   97.67230    0.10170    9.47130    0.08850    2.72410   -0.00190    2.56910
 5382.00000   66.87540  110.44780   14.14570   14.35910   14.90100   89.74430    0.09450    9.48980    0.09380    2.68580   -0.00200    2.56200
 5382.50000   67.25620  112.39570   14.21420   14.99850   16.18550   87.74800    0.09280    9.52380    0.09910    2.63420   -0.00150    2.55380
 5383.00000   67.31740  113.93220    8.10700   10.05440   10.70130   84.67450    0.09500    9.58350    0.10990    2.57560   -0.00030    2.54740
 5383.50000   67.12120  115.24420    3.08770    3.29840    4.03370   73.33170    0.10830    9.65990    0.12660    2.51480    0.00050    2.51070
 5384.00000   67.72780  116.54170    2.32020    2.42020    2.64400   60.66260    0.11410    9.73620    0.14190    2.48700   -0.00030    2.49810
 5384.50000   68.43540  117.76590    2.22070    2.26560    2.38930   51.26940    0.11570    9.81260    0.14680    2.46170   -0.00080    2.48550
 5385.00000   68.57810  119.23970    2.45280    2.81890    3.03500   47.78400    0.09660    9.84190    0.13560    2.50410   -0.00070    2.47290
 5385.50000   69.00770  120.74720    3.91480    4.27300    4.84620   44.00260    0.07930    9.85470    0.12370    2.55620    0.00170    2.46660
 5386.00000   69.99800  121.88380    3.35290    4.43380    5.25640   43.24710    0.07750    9.86750    0.12400    2.57060    0.00490    2.46610
 5386.50000   69.86090  123.10100    2.09450    2.19050    2.33880   43.55270    0.09100    9.90780    0.13910    2.51510    0.00680    2.46550
 5387.00000   70.03670  124.29240    1.79690    1.83150    1.96250   44.93850    0.10750   10.01840    0.15400    2.44420    0.00380    2.46090
 5387.50000   70.54120  124.87340    1.77010    1.80150    1.93810   46.94100    0.12470   10.06850    0.16740    2.35760    0.00060    2.44690
 5388.00000   71.48160  125.48490    1.60760    1.67530    1.71930   47.65050    0.12790   10.11850    0.17760    2.37330   -0.00140    2.43290
 5388.50000   71.70650  126.12420    1.47740    1.52960    1.58280   47.84330    0.12870   10.13870    0.18140    2.38910   -0.00070    2.42100
 5389.00000   72.75890  127.74360    1.44430    1.52290    1.62220   47.65600    0.12820   10.14380    0.17960    2.38100   -0.00150    2.41730
 5389.50000   73.30740  128.51460    2.14180    2.39720    2.58520   46.82340    0.12160   10.14090    0.17040    2.36180   -0.00120    2.41740
 5390.00000   73.67420  128.85430    2.11370    2.31360    2.43830   45.96100    0.12290   10.08560    0.17030    2.34900   -0.00140    2.42080
 5390.50000   73.96310  129.10350    1.62490    1.72200    1.88380   45.30860    0.12910   10.03030    0.17260    2.33690   -0.00170    2.42620
 5391.00000   74.11540  129.03960    1.55390    1.58630    1.68180   45.88810    0.14410    9.97500    0.17890    2.34860   -0.00080    2.42750
 5391.50000   74.14650  129.10890    1.60350    1.63200    1.69900   45.96730    0.15530   10.06900    0.18230    2.37950    0.00110    2.41780
 5392.00000   74.53930  129.39020    1.62630    1.65600    1.77370   45.33910    0.14340   10.15940    0.18530    2.43260    0.00090    2.41090
 5392.50000   75.00890  129.96070    1.61810    1.72050    1.84430   44.00460    0.14670   10.15980    0.18680    2.47320   -0.00150    2.40970
 5393.00000   75.83680  130.64850    1.54160    1.84670    1.99520   43.00880    0.14090   10.24120    0.18680    2.49620   -0.00480    2.40860
 5393.50000   76.01730  131.25020    1.62770    1.83620    2.01460   42.44380    0.13980   10.30130    0.18810    2.48640   -0.00800    2.40850
 5394.00000   75.47370  131.34470    1.68920    1.94290    2.01990   43.41390    0.13120   10.31330    0.19150    2.44980   -0.00910    2.40720
 5394.50000   73.29880  131.44460    1.58640    1.66080    1.80630   45.69350    0.13240   10.32860    0.19430    2.41450   -0.00730    2.40110
 5395.00000   73.72630  131.75660    1.46090    1.49090    1.55430   48.54400    0.14330   10.39200    0.19720    2.38900   -0.00460    2.39500
 5395.50000   74.35330  132.03820    1.38730    1.52060    1.57090   50.58570    0.15460   10.39720    0.19920    2.37860   -0.00190    2.39160
 5396.00000   74.99890  132.28410    1.38110    1.47920    1.52370   51.11260    0.16330   10.40700    0.20100    2.35540   -0.00150    2.38870
 5396.50000   75.18740  132.51030    1.38890    1.42650    1.46760   50.00070    0.16370   10.41880    0.19610    2.33850   -0.00150    2.38760
 5397.00000   75.14950  132.63810    1.42670    1.51230    1.61680   47.30610    0.16130   10.41780    0.18920    2.34970   -0.00140    2.39740
 5397.50000   75.54850  132.36080    1.62240    1.71800    1.81710   44.62880    0.13890   10.40740    0.18330    2.39980   -0.00150    2.41210
 5398.00000   75.09680  132.24030    1.70520    1.81990    1.89460   43.41920    0.12020   10.39000    0.18920    2.42880   -0.00150    2.41720
 5398.50000   73.87620  131.96920    1.54030    1.61060    1.68390   43.98470    0.12100   10.37500    0.19410    2.43640   -0.00140    2.41710
 5399.00000   73.85230  131.16900    1.50510    1.53390    1.55610   45.04080    0.12800   10.35560    0.19400    2.43030   -0.00170    2.41870
 5399.50000   73.98390  131.06050    1.62320    1.69030    1.74940   46.71000    0.13470   10.32490    0.18540    2.42070   -0.00170    2.42540
 5400.00000   73.97490  131.05210    1.68560    1.74890    1.87100   46.32760    0.12810   10.24370    0.17880    2.41100   -0.00060    2.42840
 5400.50000   74.10850  131.11330    1.54300    1.62260    1.69580   45.82340    0.13110   10.16720    0.17710    2.39780    0.00030    2.42790
 5401.00000   73.99770  131.13750    1.53210    1.61160    1.67510   45.57780    0.13980   10.16170    0.18210    2.37830   -0.00060    2.41980
 5401.50000   74.11200  131.04700    1.54650    1.60900    1.67830   44.96560    0.14400   10.13750    0.18980    2.36450   -0.00150    2.40960
 5402.00000   73.87360  130.67570    1.55390    1.58770    1.63630   43.94190    0.14360   10.10980    0.20030    2.34690   -0.00220    2.39940
 5402.50000   73.36290  130.44160    1.56130    1.58770    1.63410   43.20280    0.14300   10.08200    0.20030    2.33950   -0.00160    2.39180
 5403.00000   73.08210  130.42430    1.65510    1.74860    1.83940   43.57070    0.13910   10.05340    0.19990    2.35360   -0.00080    2.38740
 5403.50000   72.69850  130.40710    1.82990    1.96890    2.01640   44.70150    0.13410   10.02250    0.19980    2.36780   -0.00080    2.38580
 5404.00000   72.63360  130.12840    1.62730    1.73710    1.89820   45.55990    0.13200    9.99150    0.19960    2.37750   -0.00080    2.38650
 5404.50000   72.42760  130.00080    1.59960    1.66250    1.69460   45.32910    0.13960    9.99150    0.19450    2.37590   -0.00090    2.38990
 5405.00000   71.37640  129.82000    1.67140    1.71510    1.78490   45.09840    0.13590    9.99440    0.18750    2.35950   -0.00090    2.40750
 5405.50000   71.47950  129.03320    1.56560    1.66830    1.69600   44.93350    0.12980    9.99720    0.18390    2.36710   -0.00100    2.42640
 5406.00000   71.76630  128.64250    1.58600    1.64580    1.71900   45.14080    0.12360   10.00010    0.18230    2.37790   -0.00090    2.42260
 5406.50000   72.00420  128.40650    1.65930    1.76170    1.81900   45.34810    0.12330   10.00290    0.17710    2.40580   -0.00130    2.41750
 5407.00000   72.43550  127.90260    1.74410    1.81690    1.95990   45.55540    0.12160    9.96450    0.16300    2.43370   -0.00180    2.43340
 5407.50000   72.69260  127.51970    2.19020    2.48420    2.81900   45.94900    0.11880    9.90070    0.14540    2.47430   -0.00150    2.45900
