~Version ---------------------------------------------------
VERS.   2.0 : CWLS log ASCII Standard -VERSION 2.0
WRAP.    NO : One line per depth step
DLM . SPACE : Column Data Section Delimiter
~Well ------------------------------------------------------
STRT .F                  200.0 : START DEPTH
STOP .F                 9607.0 : STOP DEPTH
STEP .F                    0.5 : STEP
NULL .                -9999.25 : NULL VALUE
COMP .                         : COMPANY
WELL .                         : WELL
FLD  .                         : FIELD
LOC  .                         : LOCATION
PROV .                         : PROVINCE
CNTY .                         : COUNTY
STAT .                         : STATE
CTRY .                         : COUNTRY
SRVC .                         : SERVICE COMPANY
DATE .                         : DATE
UWI  .                         : UNIQUE WELL ID
API  .                         : API NUMBER
SLAT .WGS84 2.2067796976868017 : SURFACE LATITUDE
SLON .WGS84     8.651018502393 : SURFACE LONGITUDE
DATUM.F                    nan : DEPTH DATUM ELEV
~Curve Information -----------------------------------------
DEPT   .F     : 1 MEASURED DEPTH
DTCO   .US/F  : DELTA-T COMPRESSIONAL
DTSM   .US/F  : DELTA-T SHEAR
RLA3   .OHMM  : APPARENT RESISTIVITY FROM COMPUTED FOCUSING MODE 3
RLA4   .OHMM  : APPARENT RESISTIVITY FROM COMPUTED FOCUSING MODE 4
RLA5   .OHMM  : APPARENT RESISTIVITY FROM COMPUTED FOCUSING MODE 5
SGRDD  .GAPI  : SPECTROSCOPY GAMMA RAY FROM DENSITY LOG
TNPH_LS.DEC   : THERMAL NEUTRON POROSITY [LIMESTONE]
CALD   .IN    : CALIPER FROM DENSITY LOG
DPHZ_LS.DEC   : HGRD STANDARD RESOLUTION DENSITY POROSITY
PEFZ   .B/E   : HRDD STANDARD RESOLUTION FORMATION PHOTOELECTRIC FACTOR
HDRA   .G/C3  : HRDD SPINE AND RIBS DENSITY CORRECTION
RHOZ   .G/C3  : HRDD STANDARD RESOLUTION FORMATION DENSITY
~Params ----------------------------------------------------
~Other -----------------------------------------------------
~ASCII -----------------------------------------------------
# ...
 9076.00000   71.33570  117.80700    6.21250    6.42740    6.72400   84.20040    0.11030    8.66830    0.08950    2.65660   -0.00150    2.56610
 9076.50000   71.86110  119.38460    5.92360    6.27200    6.57660   84.21420    0.11670    8.67640    0.09360    2.67950   -0.00300    2.55960
 9077.00000   72.20260  119.76340    5.85500    6.12540    6.33320   83.78720    0.12140    8.68850    0.09000    2.68420   -0.00440    2.56540
 9077.50000   72.05550  120.13420    5.97090    6.39890    6.59940   84.70870    0.12320    8.69670    0.08390    2.72850   -0.00500    2.57500
 9078.00000   71.74860  120.24740    6.04940    6.98130    7.39800   85.29780    0.12180    8.69290    0.07790    2.76770   -0.00760    2.58460
 9078.50000   71.39220  120.12020    6.40640    7.89200    8.51420   82.32170    0.12020    8.67700    0.07680    2.81250   -0.00930    2.58640
 9079.00000   71.19130  120.10790    7.84810    9.53760   10.35660   79.51000    0.11870    8.66290    0.07850    2.86050   -0.00710    2.58370
 9079.50000   71.24850  119.47310    9.56670    9.89770   10.81220   77.37080    0.11680    8.65160    0.07910    2.93430   -0.00440    2.58270
 9080.00000   71.16120  119.61520    7.22780    8.66380   10.30610   75.55550    0.11470    8.67120    0.07330    2.91390   -0.00150    2.59210
 9080.50000   71.04540  119.36040    7.12570    8.00400    9.76230   72.22250    0.11440    8.67610    0.06710    2.86700    0.00060    2.60220
 9081.00000   71.03900  119.17150    5.78390    7.02670    8.03970   70.64060    0.11420    8.70290    0.06340    2.78520   -0.00020    2.60800
 9081.50000   71.37830  119.72250    5.48280    6.40470    7.12080   73.18940    0.11620    8.69730    0.06800    2.72240   -0.00100    2.60000
 9082.00000   71.60560  119.05700    5.85500    6.67800    7.74480   78.38030    0.11950    8.69160    0.07280    2.66500   -0.00180    2.58790
 9082.50000   71.61390  119.28790    6.50990    7.66030    8.51530   78.49120    0.11940    8.68600    0.07880    2.73190   -0.00260    2.58500
 9083.00000   71.40350  120.04980    7.47200    8.78670   10.09640   76.02020    0.10820    8.68030    0.07730    2.68800   -0.00330    2.58550
 9083.50000   71.36230  119.48580    7.79630    8.72540    9.86100   71.60980    0.09640    8.67460    0.07720    2.64670   -0.00400    2.58620
 9084.00000   71.40140  119.13170    6.72260    7.43110    8.67490   72.52550    0.08870    8.66900    0.07660    2.63700   -0.00460    2.58680
 9084.50000   71.49240  119.12960    6.99890    7.21500    7.76100   74.52040    0.08930    8.66330    0.07610    2.62370   -0.00530    2.58750
 9085.00000   71.70010  119.77950    7.10170    7.17020    7.80330   75.46050    0.09900    8.67160    0.07600    2.61030   -0.00600    2.58670
 9085.50000   72.13230  119.92850    7.91420    8.61430    9.32590   76.03880    0.10880    8.68110    0.07770    2.60420   -0.00660    2.58390
 9086.00000   72.59270  120.40560    8.79800    9.11340   10.50780   77.47470    0.10960    8.69070    0.08090    2.65430   -0.00730    2.57970
 9086.50000   72.83790  121.04180    7.74760    7.90410    8.80420   80.12900    0.10970    8.70020    0.08440    2.69300   -0.00800    2.57410
 9087.00000   72.76890  121.23840    7.12810    7.26630    7.93810   84.28280    0.12040    8.70970    0.09280    2.74750   -0.00870    2.56070
 9087.50000   72.62730  121.28890    6.50590    6.71490    7.64990   86.60560    0.12950    8.71930    0.09850    2.76250   -0.00950    2.55140
 9088.00000   71.75910  120.70540    5.38540    5.60720    6.04000   85.13840    0.13420    8.72880    0.10300    2.75380   -0.01020    2.54420
 9088.50000   70.31520  120.04260    4.70570    4.81780    5.12450   83.13090    0.13280    8.72090    0.10380    2.72230   -0.01060    2.54290
 9089.00000   69.34490  119.36490    4.56940    4.61420    4.78840   79.51120    0.12810    8.70750    0.10410    2.68780   -0.01060    2.54250
 9089.50000   67.24480  118.42390    4.70810    4.77420    5.28270   70.87650    0.11950    8.69450    0.10430    2.68370   -0.01000    2.54210
 9090.00000   66.53180  115.99760    5.93540    6.66170    8.44010   61.20080    0.10430    8.68150    0.10010    2.73910   -0.00650    2.54920
 9090.50000   66.12420  112.66110   10.95650   12.58000   19.28530   51.77640    0.08710    8.66850    0.06860    2.86360   -0.00300    2.61910
 9091.00000   65.72970  112.33820   27.34370   31.94280   41.82500   44.37470    0.07440    8.65550    0.03100    3.13650    0.00470    2.67510
 9091.50000   65.72390  112.07220   30.02600   36.43640   40.12810   39.83920    0.07330    8.64250   -0.00390    3.29730    0.01910    2.71660
 9092.00000   66.08150  111.58520   17.43420   20.51890   25.31780   43.64850    0.07290    8.63470   -0.01750    3.34690    0.02040    2.73820
 9092.50000   66.45530  111.49280   11.41580   12.50430   14.17400   57.74720    0.07380    8.64940    0.00580    3.31770    0.01150    2.70030
 9093.00000   68.84870  112.99320    7.97640    8.82050   10.09990   67.45180    0.07910    8.66410    0.04880    3.19120   -0.00280    2.63220
 9093.50000   69.89330  117.75450    7.45640    7.88960    8.41270   73.58380    0.08470    8.67890    0.07410    3.03850   -0.01060    2.59120
 9094.00000   70.17510  118.55010    6.40170    7.22170    8.08390   74.12440    0.09590    8.69360    0.07970    2.86230   -0.00120    2.58170
 9094.50000   70.47650  117.07070    8.09790    9.06690    9.75920   74.02680    0.11070    8.70300    0.08410    2.76240    0.01470    2.56240
 9095.00000   70.88520  119.00600   10.79120   11.12600   11.59570   78.31700    0.11320    8.68740    0.09040    2.78250    0.02160    2.57180
 9095.50000   71.11450  119.97640   10.18890   10.61580   10.89130   77.91090    0.10740    8.69050    0.07940    2.84860    0.02010    2.58420
 9096.00000   71.23220  120.26110    9.91070   10.83680   11.43720   76.59060    0.10570    8.69550    0.07010    2.93230    0.01840    2.60720
 9096.50000   71.21810  120.10050   12.36320   13.48190   14.04120   75.68700    0.10590    8.70060    0.06380    3.00410    0.01160    2.60180
 9097.00000   71.14790  119.76250   16.29210   17.36530   18.39230   76.41580    0.10900    8.70560    0.07300    3.04980    0.00080    2.59150
 9097.50000   71.06940  119.44210   20.30290   20.63090   22.33850   77.14450    0.10950    8.69710    0.07740    3.14820   -0.00320    2.58310
 9098.00000   70.60310  119.05850   19.91020   20.66020   21.72810   77.87330    0.10990    8.70940    0.07890    3.24320   -0.00600    2.58090
 9098.50000   70.41430  118.83470   16.65280   17.55040   20.11990   78.60200    0.10920    8.69840    0.07460    3.33810   -0.00550    2.58870
 9099.00000   70.36270  119.06160   19.01890   20.46490   21.54900   78.59350    0.10290    8.67960    0.06800    3.31310   -0.00450    2.59820
 9099.50000   70.21110  118.92010   23.75570   24.41090   26.43250   77.34140    0.09540    8.65640    0.06510    3.28230   -0.00460    2.60520
 9100.00000   70.09320  117.69040   18.63040   22.71080   27.61530   75.31260    0.09680    8.63240    0.06590    3.26990   -0.00550    2.60380
 9100.50000   70.06210  117.64790   13.56380   16.93590   21.39450   73.74260    0.10080    8.64040    0.06880    3.28220   -0.00640    2.59910
 9101.00000   70.05700  117.66340   14.15270   16.68730   18.65750   73.72300    0.10560    8.65030    0.06740    3.27350   -0.00730    2.60160
 9101.50000   69.99560  117.48860   11.88350   12.35330   14.20800   74.84990    0.10530    8.65150    0.05930    3.20960   -0.00710    2.61480
 9102.00000   69.32220  116.89480   11.86620   12.05580   13.10780   75.84270    0.10390    8.65270    0.05190    3.16920   -0.00510    2.62660
 9102.50000   68.89550  116.05910   14.32360   15.94800   20.01700   75.25700    0.10060    8.64510    0.04850    3.14150   -0.00290    2.63210
 9103.00000   68.96090  116.02160   18.47170   18.66200   20.18390   73.37550    0.09730    8.65290    0.04750    3.14440   -0.00330    2.62640
 9103.50000   69.16490  115.98420   18.20370   18.63050   19.46240   70.78920    0.09680    8.65210    0.05470    3.20630   -0.00330    2.62190
