~Version ---------------------------------------------------
VERS.   2.0 : CWLS log ASCII Standard -VERSION 2.0
WRAP.    NO : One line per depth step
DLM . SPACE : Column Data Section Delimiter
~Well ------------------------------------------------------
STRT .F                  334.0 : START DEPTH
STOP .F                 6432.0 : STOP DEPTH
STEP .F                    0.5 : STEP
NULL .                -9999.25 : NULL VALUE
COMP .                         : COMPANY
WELL .                         : WELL
FLD  .                         : FIELD
LOC  .                         : LOCATION
PROV .                         : PROVINCE
CNTY .                         : COUNTY
STAT .                         : STATE
CTRY .                         : COUNTRY
SRVC .                         : SERVICE COMPANY
DATE .                         : DATE
UWI  .                         : UNIQUE WELL ID
API  .                         : API NUMBER
SLAT .WGS84 3.9338107089458987 : SURFACE LATITUDE
SLON .WGS84  4.685115191420991 : SURFACE LONGITUDE
DATUM.F                1639.13 : DEPTH DATUM ELEV
~Curve Information -----------------------------------------
DEPT.F     : 1 MEASURED DEPTH
GRS .GAPI  : GAMMA RAY FROM SONIC LOG
DTCO.US/F  : DELTA-T COMPRESSIONAL
DTSM.US/F  : DELTA-T SHEAR
~Params ----------------------------------------------------
~Other -----------------------------------------------------
~ASCII -----------------------------------------------------
# ...
 2737.00000   64.60190   85.89150  179.80860
 2737.50000   58.19900   91.08720  169.21320
 2738.00000   56.86690  105.80090  170.01550
 2738.50000   56.76710  114.93400  172.64280
 2739.00000   58.04330  114.78790  171.92830
 2739.50000   58.64040  111.09790  170.08470
 2740.00000   58.20170  107.80180  167.06920
 2740.50000   57.39710  102.64720  152.63100
 2741.00000   57.60440   92.33220  126.02540
 2741.50000   59.65680   82.89060  104.94170
 2742.00000   62.21640   80.37880  102.05940
 2742.50000   64.17970   85.12000  102.29950
 2743.00000   63.72540   95.52970  102.42030
 2743.50000   62.14510  114.50550  102.52190
 2744.00000   61.30000  129.15410  102.47240
 2744.50000   62.10190  130.61690  102.09650
 2745.00000   64.07950  127.70190  102.09650
 2745.50000   65.14480  118.89540  102.32070
 2746.00000   65.95120  103.86770  103.59970
 2746.50000   67.61740   88.63670  110.19300
 2747.00000   67.55660   79.07390  141.93680
 2747.50000   64.81170   77.62740  181.38370
 2748.00000   59.89010   78.09470  208.27940
 2748.50000   57.12050   77.32490  215.59390
 2749.00000   57.41910   77.45250  211.74550
 2749.50000   59.77280   84.08890  196.43230
 2750.00000   61.95300   95.61380  180.72170
 2750.50000   63.45540  104.10900  176.45010
 2751.00000   63.20430  108.92090  174.99200
 2751.50000   61.62100  113.27460  174.38240
 2752.00000   61.42200  117.70650  175.22000
 2752.50000   62.30600  120.08160  189.96670
 2753.00000   62.71800  118.96040  226.15410
 2753.50000   61.57750  116.12620  247.41660
 2754.00000   60.34080  113.99500  250.86440
 2754.50000   59.39550  113.40690  232.55120
 2755.00000   59.21810  112.37590  192.86490
 2755.50000   59.01480  106.64190  171.29460
 2756.00000   57.49620   98.25750  170.87580
 2756.50000   56.61210   93.13540  173.05520
 2757.00000   57.18200   99.51740  181.59810
 2757.50000   59.09550  106.55350  199.36140
 2758.00000   59.12130  102.93000  212.30300
 2758.50000   57.74390   89.62230  179.66170
 2759.00000   52.86200   79.06280  137.11960
 2759.50000   45.36660   69.89960  106.51380
 2760.00000   38.28740   68.22460   94.72000
 2760.50000   33.94100   67.26850  104.78570
 2761.00000   34.61440   69.25520  123.43240
 2761.50000   37.03020   73.69050  137.55490
 2762.00000   39.68410   72.72480  138.09090
 2762.50000   41.05080   66.02680  134.40790
 2763.00000   41.36380   59.01640  135.12500
 2763.50000   41.48180   56.39910  140.72510
 2764.00000   42.46400   56.68630  143.60370
 2764.50000   43.53880   62.77600  146.48230
 2765.00000   44.83250   76.69090  148.96080
 2765.50000   45.22140   84.61020  145.19260
 2766.00000   46.09810   87.63390  140.60890
 2766.50000   48.41720   91.01600  137.38680
 2767.00000   52.48590   94.12760  135.01460
 2767.50000   55.53560   94.57350  134.10120
 2768.00000   55.23110   98.91360  133.18770
 2768.50000   52.34560  120.47910  132.81820
 2769.00000   47.28080  132.48350  132.59630
 2769.50000   41.74810  128.89760  131.95820
 2770.00000   38.79750  119.93650  130.06080
 2770.50000   37.79690  110.06540  127.82320
 2771.00000   40.11580  108.50340  118.15830
 2771.50000   44.73740  108.46650  109.80640
 2772.00000   50.36260  104.92260  109.03680
 2772.50000   55.71790   96.92990  108.92470
 2773.00000   60.02740   84.47680  115.79090
 2773.50000   63.39760   83.68810  132.49240
 2774.00000   64.99150   88.80740  143.77160
 2774.50000   66.03420   89.85120  144.78040
 2775.00000   65.74330   90.22560  144.61290
 2775.50000   64.35680   93.65420  146.80790
 2776.00000   63.06370   94.92280  154.51800
 2776.50000   63.13740   92.02970  164.87590
 2777.00000   66.66070   87.70530  169.33040
 2777.50000   72.19900   85.03570  169.86710
 2778.00000   76.64860   83.15790  168.58120
 2778.50000   78.88480   81.26640  167.16380
 2779.00000   78.86760   79.71020  165.41370
 2779.50000   77.58010   79.94210  165.26490
 2780.00000   75.03070   82.08430  163.51480
 2780.50000   71.93990   83.31790  159.26480
 2781.00000   67.51800   83.06130  156.16800
 2781.50000   63.13930   82.43390  154.09910
 2782.00000   60.39920   81.15490  153.22120
 2782.50000   59.73770   79.92430  152.88530
 2783.00000   59.05600   79.03120  152.53210
 2783.50000   56.98240   79.09070  151.81640
 2784.00000   56.26250   79.52070  149.66410
 2784.50000   56.63990   80.01920  148.01080
 2785.00000   59.82300   80.25670  147.19390
 2785.50000   63.65140   79.97180  146.58590
 2786.00000   65.17580   79.53370  145.57920
 2786.50000   66.62840   79.45010  145.05400
 2787.00000   67.12290   79.80660  145.46100
 2787.50000   65.17070   80.63600  146.14530
 2788.00000   60.92750   80.82020  146.65940
 2788.50000   59.26430   77.92530  146.97050
 2789.00000   61.75260   76.29010  148.51940
 2789.50000   69.92190   80.60820  153.42880
 2790.00000   78.24660   84.01010  157.15600
 2790.50000   84.24030   84.96750  158.94180
 2791.00000   84.16580   86.61660  160.81370
 2791.50000   81.71710   87.77600  164.88460
 2792.00000   79.62240   87.09030  166.49450
 2792.50000   75.81550   86.00500  162.31810
 2793.00000   67.53260   83.93170  151.90920
 2793.50000   55.24470   82.26100  145.49280
 2794.00000   46.64840   82.46310  144.71670
 2794.50000   42.70660   83.39830  143.13090
 2795.00000   42.22650   82.85440  139.61020
 2795.50000   42.20820   80.29760  134.49450
 2796.00000   42.22340   76.96290  129.22390
 2796.50000   42.23830   73.25080  127.74620
 2797.00000   42.44380   67.59050  127.82350
 2797.50000   42.51540   61.15850  129.02400
 2798.00000   41.39200   57.53530  132.16070
 2798.50000   38.36150   57.67670  134.99890
 2799.00000   35.05920   68.92260  140.54720
 2799.50000   32.95600   85.96540  150.44710
 2800.00000   33.31180   97.37150  156.48150
 2800.50000   34.40270  101.09030  164.85420
 2801.00000   35.62830  101.08490  164.74220
 2801.50000   36.69620   99.98750  162.96110
 2802.00000   38.55850   98.21830  160.80900
 2802.50000   42.06250   93.78850  160.77490
 2803.00000   45.73060   90.74780  161.34410
 2803.50000   48.82300   88.96660  164.70160
 2804.00000   50.69220   86.76910  169.03870
 2804.50000   51.90020   84.55240  165.40460
 2805.00000   53.21280   82.76350  158.01260
 2805.50000   54.38040   81.77150  153.66240
 2806.00000   54.43590   81.00610  153.79330
 2806.50000   53.99610   77.89410  154.73610
 2807.00000   52.42100   72.23900  160.55670
 2807.50000   50.50570   69.18420  167.76000
 2808.00000   50.24470   70.95360  173.86280
 2808.50000   52.25790   77.82520  176.28680
 2809.00000   56.58040   84.16950  174.38990
 2809.50000   60.63360   82.28640  172.17160
 2810.00000   62.87690   80.06560  169.56290
 2810.50000   64.32300   80.99050  173.06900
 2811.00000   64.46270   84.10860  177.63900
 2811.50000   64.73870   87.29090  179.99290
 2812.00000   65.74280   90.01230  181.70670
 2812.50000   67.38090   91.74930  182.44430
 2813.00000   69.22030   92.33130  180.70910
 2813.50000   70.38020   91.69030  178.12330
 2814.00000   70.82650   89.75190  176.06590
 2814.50000   71.37740   87.99950  171.73480
 2815.00000   72.67230   86.61880  164.61150
 2815.50000   73.97760   84.82700  157.31780
 2816.00000   74.19310   83.73010  150.90640
 2816.50000   70.33060   85.80430  148.57280
 2817.00000   63.45530   91.55310  154.35280
 2817.50000   58.34820   95.42350  168.80190
 2818.00000   60.05770   98.72530  187.35310
 2818.50000   67.66560  100.29360  197.35360
 2819.00000   75.50320  101.03820  200.36320
 2819.50000   79.99070  100.60760  199.87670
 2820.00000   84.61080   99.44580  194.75800
 2820.50000   90.11310   99.35470  188.34520
 2821.00000   96.97990   99.44820  184.82610
 2821.50000   99.57520   96.51240  183.01840
 2822.00000   96.27350   88.82390  179.48190
 2822.50000   89.17550   87.20210  175.69300
 2823.00000   82.85030   96.77460  176.80240
 2823.50000   79.21470  104.81840  178.14260
 2824.00000   77.35020  108.66140  173.58730
 2824.50000   75.60770  108.99320  167.60200
 2825.00000   73.72070  108.80410  165.39520
 2825.50000   69.92670  110.27030  167.38420
