~Version ---------------------------------------------------
VERS.   2.0 : CWLS log ASCII Standard -VERSION 2.0
WRAP.    NO : One line per depth step
DLM . SPACE : Column Data Section Delimiter
~Well ------------------------------------------------------
STRT .F                  334.0 : START DEPTH
STOP .F                 6432.0 : STOP DEPTH
STEP .F                    0.5 : STEP
NULL .                -9999.25 : NULL VALUE
COMP .                         : COMPANY
WELL .                         : WELL
FLD  .                         : FIELD
LOC  .                         : LOCATION
PROV .                         : PROVINCE
CNTY .                         : COUNTY
STAT .                         : STATE
CTRY .                         : COUNTRY
SRVC .                         : SERVICE COMPANY
DATE .                         : DATE
UWI  .                         : UNIQUE WELL ID
API  .                         : API NUMBER
SLAT .WGS84 3.9338107089458987 : SURFACE LATITUDE
SLON .WGS84  4.685115191420991 : SURFACE LONGITUDE
DATUM.F                1639.13 : DEPTH DATUM ELEV
~Curve Information -----------------------------------------
DEPT.F     : 1 MEASURED DEPTH
GRS .GAPI  : GAMMA RAY FROM SONIC LOG
DTCO.US/F  : DELTA-T COMPRESSIONAL
DTSM.US/F  : DELTA-T SHEAR
~Params ----------------------------------------------------
~Other -----------------------------------------------------
~ASCII -----------------------------------------------------
# ...
 6386.00000   -9999.25   50.06890   93.16630
 6386.50000   -9999.25   50.16640   92.71200
 6387.00000   -9999.25   50.49320   91.68220
 6387.50000   -9999.25   50.61790   91.71430
 6388.00000   -9999.25   50.80880   92.46030
 6388.50000   -9999.25   51.52860   92.66010
 6389.00000   -9999.25   52.76200   92.66730
 6389.50000   -9999.25   54.19470   92.92060
 6390.00000   -9999.25   55.27160   94.06770
 6390.50000   -9999.25   56.03350   95.67600
 6391.00000   -9999.25   56.52850   97.11270
 6391.50000   -9999.25   56.86190   98.28080
 6392.00000   -9999.25   57.29670  100.54030
 6392.50000   -9999.25   57.88280  102.64860
 6393.00000   -9999.25   58.62120  104.15090
 6393.50000   -9999.25   59.37340  105.87630
 6394.00000   -9999.25   60.12660  108.44890
 6394.50000   -9999.25   60.81710  109.80810
 6395.00000   -9999.25   61.02410  110.27830
 6395.50000   -9999.25   61.00700  110.74850
 6396.00000   -9999.25   59.83830  109.63830
 6396.50000   -9999.25   57.91790  106.44520
 6397.00000   -9999.25   55.66460  101.45080
 6397.50000   -9999.25   54.00840   98.40090
 6398.00000   -9999.25   53.32930   97.77450
 6398.50000   -9999.25   52.94900   97.14510
 6399.00000   -9999.25   52.42830   96.23310
 6399.50000   -9999.25   51.99920   96.20570
 6400.00000   -9999.25   51.81450   96.24660
 6400.50000   -9999.25   51.63130   95.75240
 6401.00000   -9999.25   51.47800   95.90550
 6401.50000   -9999.25   50.76560   96.19350
 6402.00000   -9999.25   49.78700   96.48150
 6402.50000   -9999.25   49.22280   96.76950
 6403.00000   -9999.25   49.21520   97.05230
 6403.50000   -9999.25   49.65210   97.26460
 6404.00000   -9999.25   50.39190   97.21300
 6404.50000   -9999.25   51.62240   97.16140
 6405.00000   -9999.25   52.90610   97.10980
 6405.50000   -9999.25   53.14670   97.05810
 6406.00000   -9999.25   52.88650   97.02160
 6406.50000   -9999.25   52.63920   97.06530
 6407.00000   -9999.25   52.72870   97.11520
 6407.50000   -9999.25   52.56940   97.13980
 6408.00000   -9999.25   52.15210   97.27130
 6408.50000   -9999.25   51.58520   97.47110
 6409.00000   -9999.25   50.79290   97.11620
 6409.50000   -9999.25   50.07430   97.09640
 6410.00000   -9999.25   49.95290   97.06170
 6410.50000   -9999.25   49.70360   97.00810
 6411.00000   -9999.25   49.33340   96.95440
 6411.50000   -9999.25   49.11590   96.90080
 6412.00000   -9999.25   48.94210   97.01190
 6412.50000   -9999.25   48.78460   97.09060
 6413.00000   -9999.25   48.79280   96.95210
 6413.50000   -9999.25   49.10560   97.02430
 6414.00000   -9999.25   49.58660   97.10020
 6414.50000   -9999.25   49.78560   97.10580
 6415.00000   -9999.25   49.76610   97.11830
 6415.50000   -9999.25   49.72440   97.13580
 6416.00000   -9999.25   49.66980   97.16000
 6416.50000   -9999.25   49.63850   97.18410
 6417.00000   -9999.25   49.64130   97.20820
 6417.50000   -9999.25   49.64410   97.23240
 6418.00000   -9999.25   49.66120   97.25650
 6418.50000   -9999.25   49.65160   97.28070
 6419.00000   -9999.25   49.59270   97.24610
 6419.50000   -9999.25   49.58270   97.20420
 6420.00000   -9999.25   49.58120   97.12760
 6420.50000   -9999.25   49.58210   97.13300
 6421.00000   -9999.25   49.58450   97.14500
 6421.50000   -9999.25   49.58890   97.22100
 6422.00000   -9999.25   49.61540   97.33420
 6422.50000   -9999.25   49.64490   97.49720
 6423.00000   -9999.25   49.69400   97.17140
 6423.50000   -9999.25   49.75210   97.07080
 6424.00000   -9999.25   49.79900   97.00970
 6424.50000   -9999.25   49.82300   96.94860
 6425.00000   -9999.25   49.82350   96.93440
 6425.50000   -9999.25   49.82390   96.94540
 6426.00000   -9999.25   49.82380   96.99540
 6426.50000   -9999.25   49.82330   97.04540
 6427.00000   -9999.25   49.82430   97.09540
 6427.50000   -9999.25   49.82530   97.12260
 6428.00000   -9999.25   49.82480   97.14410
 6428.50000   -9999.25   49.82250   97.17940
 6429.00000   -9999.25   49.82190   97.14220
 6429.50000   -9999.25   49.82130   97.00510
 6430.00000   -9999.25   49.82070   96.97290
 6430.50000   -9999.25   49.82010   97.06870
 6431.00000   -9999.25   49.81950   97.10470
 6431.50000   -9999.25   49.81890   97.10560
 6432.00000   -9999.25   49.80350   97.10610
