~Version ---------------------------------------------------
VERS.   2.0 : CWLS log ASCII Standard -VERSION 2.0
WRAP.    NO : One line per depth step
DLM . SPACE : Column Data Section Delimiter
~Well ------------------------------------------------------
STRT .F                  334.0 : START DEPTH
STOP .F                 6432.0 : STOP DEPTH
STEP .F                    0.5 : STEP
NULL .                -9999.25 : NULL VALUE
COMP .                         : COMPANY
WELL .                         : WELL
FLD  .                         : FIELD
LOC  .                         : LOCATION
PROV .                         : PROVINCE
CNTY .                         : COUNTY
STAT .                         : STATE
CTRY .                         : COUNTRY
SRVC .                         : SERVICE COMPANY
DATE .                         : DATE
UWI  .                         : UNIQUE WELL ID
API  .                         : API NUMBER
SLAT .WGS84 3.9338107089458987 : SURFACE LATITUDE
SLON .WGS84  4.685115191420991 : SURFACE LONGITUDE
DATUM.F                1639.13 : DEPTH DATUM ELEV
~Curve Information -----------------------------------------
DEPT.F     : 1 MEASURED DEPTH
GRS .GAPI  : GAMMA RAY FROM SONIC LOG
DTCO.US/F  : DELTA-T COMPRESSIONAL
DTSM.US/F  : DELTA-T SHEAR
~Params ----------------------------------------------------
~Other -----------------------------------------------------
~ASCII -----------------------------------------------------
  334.00000   58.64600   -9999.25   -9999.25
  334.50000   58.34240   -9999.25   -9999.25
  335.00000   57.82420   -9999.25   -9999.25
  335.50000   57.26820   -9999.25   -9999.25
  336.00000   57.04640   -9999.25   -9999.25
  336.50000   57.19700   -9999.25   -9999.25
  337.00000   59.65730   -9999.25   -9999.25
  337.50000   64.47110   -9999.25   -9999.25
  338.00000   69.58980   -9999.25   -9999.25
  338.50000   72.64220   -9999.25   -9999.25
  339.00000   73.27930   -9999.25   -9999.25
  339.50000   72.31960   -9999.25   -9999.25
  340.00000   71.83050   -9999.25   -9999.25
  340.50000   71.44170   -9999.25   -9999.25
  341.00000   71.09900   -9999.25   -9999.25
  341.50000   70.65350   -9999.25   -9999.25
  342.00000   68.99300   -9999.25   -9999.25
  342.50000   67.00110   -9999.25   -9999.25
  343.00000   62.73210   -9999.25   -9999.25
  343.50000   57.16560   -9999.25   -9999.25
  344.00000   51.82540   -9999.25   -9999.25
  344.50000   48.44920   -9999.25   -9999.25
  345.00000   49.52600  103.93900  218.73200
  345.50000   55.44790  104.42650  213.37000
  346.00000   63.82570  105.15170  209.93210
  346.50000   73.59280  106.49080  212.52720
  347.00000   79.09270  108.38100  220.71940
  347.50000   82.88260  111.02250  229.10280
  348.00000   86.12750  115.00860  239.54150
  348.50000   86.91030  119.00250  261.22070
  349.00000   85.77160  120.99250  275.40810
  349.50000   84.90870  120.13700  288.67890
  350.00000   85.04360  116.16780  283.81470
  350.50000   85.60140  111.64670  267.65080
  351.00000   85.88580  108.16170  256.79390
  351.50000   86.54600  107.28080  246.20660
  352.00000   87.12470  107.73720  243.57320
  352.50000   87.23840  109.22830  243.72110
  353.00000   87.00040  110.30410  243.86910
  353.50000   87.56350  111.27650  245.23870
  354.00000   89.90470  112.64940  250.54350
  354.50000   92.58400  114.42350  256.91050
  355.00000   94.69810  115.97230  264.22160
  355.50000   96.69500  116.23280  272.95510
  356.00000   99.41110  116.26280  275.25030
  356.50000  101.18170  116.29900  271.57850
  357.00000  100.08150  114.96170  260.19080
  357.50000   94.19290  112.46650  249.84410
  358.00000   85.28260  108.72910  239.64480
  358.50000   76.27160  106.33570  237.03720
  359.00000   71.36030  106.93320  241.45530
  359.50000   72.80880  110.03780  245.87340
  360.00000   78.36100  112.15910  249.61520
  360.50000   85.91920  113.07770  250.49380
  361.00000   94.74380  112.70230  242.07710
  361.50000  104.00130  109.91130  222.28890
  362.00000  108.86560  105.72590  210.22050
  362.50000  104.61200  100.38760  199.38670
  363.00000   94.09750   94.73250  193.81480
  363.50000   79.71560   92.09390  191.59790
  364.00000   68.57850   92.02070  196.16650
  364.50000   66.01980   93.56430  204.78160
  365.00000   68.23570   95.86490  213.85390
  365.50000   74.88700   98.20550  220.63360
  366.00000   83.83170  101.39930  223.92410
  366.50000   89.81770  103.54660  226.48570
  367.00000   92.67160  104.21400  226.71200
  367.50000   92.38550  104.55630  227.73790
  368.00000   91.19040  105.17170  231.30270
  368.50000   92.72590  105.94760  234.02140
  369.00000   98.19400  107.08740  235.67610
  369.50000  104.33980  108.24020  236.75680
  370.00000  106.84620  108.54930  236.24100
  370.50000  107.02530  107.97220  234.62970
  371.00000  106.41790  106.36780  233.56600
  371.50000  107.26180  105.48560  233.15680
  372.00000  109.51460  105.99580  233.19230
  372.50000  111.26690  106.73150  233.73120
  373.00000  111.34750  107.31770  234.27020
  373.50000  109.94720  107.89490  235.11210
  374.00000  109.16240  108.22740  236.37670
  374.50000  110.87280  108.55670  237.79490
  375.00000  113.64040  109.01060  241.21900
  375.50000  116.20910  109.68150  243.03200
  376.00000  117.38460  111.17380  245.12350
  376.50000  117.99840  112.40260  246.15690
  377.00000  119.63410  113.20380  247.19030
  377.50000  122.33340  113.23740  248.08360
  378.00000  123.73900  113.32010  248.77930
  378.50000  123.56000  113.73820  249.38480
  379.00000  121.95780  114.04050  250.14970
  379.50000  119.47990  114.37700  250.80870
  380.00000  116.07620  114.27070  251.35950
  380.50000  113.07330  113.69950  251.07320
  381.00000  112.92990  112.78880  249.60710
  381.50000  114.60760  112.45020  247.65400
  382.00000  116.42630  112.26490  245.93550
  382.50000  118.25440  112.07950  245.08020
  383.00000  121.34480  111.89930  244.85460
  383.50000  125.32340  111.89950  244.51760
  384.00000  127.52100  111.71990  243.53910
  384.50000  127.89640  110.92480  239.81430
  385.00000  125.29020  109.28470  237.02160
  385.50000  119.43880  107.52090  233.41920
  386.00000  112.21120  106.00630  229.86190
  386.50000  104.80000  104.89590  224.31230
  387.00000  100.49560  104.02480  220.93050
  387.50000   98.75340  103.28170  219.30770
  388.00000   96.96210  101.61080  216.56000
  388.50000   94.33200   99.29310  212.20390
  389.00000   93.07840   97.44130  206.19730
  389.50000   92.67450   95.64040  202.89160
  390.00000   90.34150   93.93800  203.80870
  390.50000   85.60820   92.73880  208.37250
  391.00000   82.74770   93.92220  212.67340
  391.50000   83.92940   97.94300  214.89320
  392.00000   89.10540  102.04090  220.68410
  392.50000   95.02150  104.24340  230.02620
  393.00000  103.46950  106.92350  235.88260
  393.50000  111.62960  109.32080  240.71180
  394.00000  117.47070  111.30560  244.23880
  394.50000  120.24260  112.56060  247.95440
  395.00000  121.58200  113.23140  251.02690
  395.50000  121.34510  113.37360  253.67890
  396.00000  121.08990  113.73570  256.82530
  396.50000  121.40230  114.45250  256.63780
  397.00000  122.19690  115.21360  255.39590
  397.50000  122.87270  116.15490  254.17070
  398.00000  122.62190  116.32290  253.45520
  398.50000  121.58070  115.97960  253.14990
  399.00000  120.36420  115.23520  252.84460
  399.50000  119.75510  113.61760  251.61880
  400.00000  119.25380  111.26110  246.20060
  400.50000  118.42540  109.22530  237.04940
  401.00000  115.19190  107.45870  230.95760
  401.50000  109.70740  105.50250  224.25180
  402.00000  102.49600  103.90780  219.73630
  402.50000   96.93200  103.72170  218.52810
  403.00000   93.07720  103.71430  220.77350
  403.50000   93.94870  103.73720  223.75350
  404.00000   98.43180  104.61600  226.15860
  404.50000  102.06570  106.04510  226.03710
  405.00000  104.23500  106.67970  221.48310
  405.50000  105.80570  105.93340  213.91910
  406.00000  105.69750  104.13150  207.39280
  406.50000  103.04050  100.26620  199.49510
  407.00000   94.49410   92.43060  188.57610
  407.50000   83.10410   87.73500  178.37390
  408.00000   73.75220   83.64110  173.72470
  408.50000   66.62070   79.54720  169.48090
  409.00000   62.99320   79.42040  169.69630
  409.50000   61.80340   84.71720  173.73570
  410.00000   62.58860   92.52970  186.19770
  410.50000   67.76510   97.49620  206.53690
  411.00000   80.25770  102.92730  226.68700
  411.50000   95.62230  106.31230  233.00740
  412.00000  109.70560  108.34710  242.21310
  412.50000  114.49210  110.51460  249.31600
  413.00000  114.28470  110.93490  252.14220
  413.50000  113.23210  110.05620  251.63430
  414.00000  113.90720  109.59850  249.87200
  414.50000  115.95940  110.26070  247.83230
  415.00000  118.40810  111.09500  246.46550
  415.50000  119.66360  111.33910  245.31860
  416.00000  120.43090  111.48900  244.89760
  416.50000  120.10230  111.60300  245.14610
  417.00000  119.43350  111.71690  246.79360
  417.50000  118.74600  111.69360  247.45110
  418.00000  118.23500  111.30840  245.43190
  418.50000  117.28850  110.78080  239.48650
  419.00000  115.77210  110.46690  236.38050
  419.50000  114.48800  110.38780  234.54330
  420.00000  112.94390  110.50190  231.91290
  420.50000  110.22370  109.71270  228.10140
  421.00000  106.62520  106.99350  226.15240
  421.50000  103.38990  105.17930  224.17210
  422.00000  101.02210  104.16820  221.87940
  422.50000   98.20740  103.76650  219.65970
