~Version ---------------------------------------------------
VERS.   2.0 : CWLS log ASCII Standard -VERSION 2.0
WRAP.    NO : One line per depth step
DLM . SPACE : Column Data Section Delimiter
~Well ------------------------------------------------------
STRT .F                  334.0 : START DEPTH
STOP .F                 6432.0 : STOP DEPTH
STEP .F                    0.5 : STEP
NULL .                -9999.25 : NULL VALUE
COMP .                         : COMPANY
WELL .                         : WELL
FLD  .                         : FIELD
LOC  .                         : LOCATION
PROV .                         : PROVINCE
CNTY .                         : COUNTY
STAT .                         : STATE
CTRY .                         : COUNTRY
SRVC .                         : SERVICE COMPANY
DATE .                         : DATE
UWI  .                         : UNIQUE WELL ID
API  .                         : API NUMBER
SLAT .WGS84 3.9338107089458987 : SURFACE LATITUDE
SLON .WGS84  4.685115191420991 : SURFACE LONGITUDE
DATUM.F                1639.13 : DEPTH DATUM ELEV
~Curve Information -----------------------------------------
DEPT.F     : 1 MEASURED DEPTH
GRS .GAPI  : GAMMA RAY FROM SONIC LOG
DTCO.US/F  : DELTA-T COMPRESSIONAL
DTSM.US/F  : DELTA-T SHEAR
~Params ----------------------------------------------------
~Other -----------------------------------------------------
~ASCII -----------------------------------------------------
# ...
  779.00000   83.19980  119.76350  279.43030
  779.50000   77.67830  118.00190  279.95260
  780.00000   79.17880  112.69640  270.84250
  780.50000   86.89200  105.04120  255.72480
  781.00000   97.97770   99.28820  243.35520
  781.50000  108.67290   96.39660  230.98550
  782.00000  111.88440   93.33200  219.02790
  782.50000  111.38090   89.99830  205.68930
  783.00000  103.68250   88.61690  188.19280
  783.50000   93.32790   89.43400  176.60530
  784.00000   85.03220   92.48080  189.92620
  784.50000   81.30190   96.61360  212.60040
  785.00000   82.61410  105.41610  229.34300
  785.50000   85.29030  114.22510  225.86740
  786.00000   86.88840  121.71140  215.30150
  786.50000   86.84980  129.00770  223.42310
  787.00000   84.46810  136.05630  246.87630
  787.50000   81.05920  140.10220  259.98020
  788.00000   81.21960  142.60700  265.13170
  788.50000   82.80870  143.62380  270.16660
  789.00000   82.55290  144.05920  277.85060
  789.50000   78.94680  144.25500  282.39010
  790.00000   72.97900  144.11000  283.20210
  790.50000   67.39560  143.72630  283.84960
  791.00000   64.53400  141.80760  286.52560
  791.50000   65.87600  136.30520  287.59460
  792.00000   70.57470  127.85510  286.52720
  792.50000   76.28950  111.12800  278.68260
  793.00000   80.37560  107.19880  270.91760
  793.50000   82.32590  111.43060  268.74170
  794.00000   82.04650  115.89380  266.66780
  794.50000   80.50460  111.97780  260.90270
  795.00000   79.66060  104.67600  237.23800
  795.50000   81.32810  106.97810  201.12040
  796.00000   86.49680  114.74510  188.29610
  796.50000   92.90690  120.92890  187.31390
  797.00000   97.82830  125.67290  191.69020
  797.50000   98.52760  126.26370  190.20840
  798.00000   97.00710  124.92840  201.33160
  798.50000   93.77640  125.57770  221.44920
  799.00000   87.25110  126.02720  262.38230
  799.50000   79.89970  126.03740  276.41050
  800.00000   74.13350  130.21360  272.98720
  800.50000   72.51490  135.46110  269.36540
  801.00000   73.91130  137.57040  266.68720
  801.50000   73.82350  138.02560  261.65410
  802.00000   72.93640  136.60520  258.98490
  802.50000   72.97800  132.41480  256.93680
  803.00000   76.05410  123.85070  253.81600
  803.50000   81.73250  113.31100  248.85180
  804.00000   88.14330  103.02160  241.69400
  804.50000   91.12440   93.41270  228.34850
  805.00000   93.41260   93.38910  204.05350
  805.50000   93.24030   93.27870  191.99080
  806.00000   89.54730   89.85440  187.57140
  806.50000   81.12400   86.68120  188.34940
  807.00000   73.20360   89.00880  195.11980
  807.50000   72.28080   96.81090  203.77650
  808.00000   78.44480  102.98880  220.56160
  808.50000   86.02000  103.51610  228.78790
  809.00000   88.92090  100.42070  228.19710
  809.50000   88.13990  102.85870  224.36880
  810.00000   89.48500  106.40660  220.24230
  810.50000   93.87340  108.13090  218.48700
  811.00000   97.96020  108.66150  220.61230
  811.50000   96.78680  109.85120  226.48140
  812.00000   91.57470  114.70930  235.44220
  812.50000   90.12890  118.92540  251.74790
  813.00000   93.52140  119.32840  251.84320
  813.50000   98.99870  118.27170  243.40150
  814.00000  101.33270  117.66510  232.60320
  814.50000   99.82490  116.11740  227.19550
  815.00000   96.14190  114.51470  230.73090
  815.50000   91.89350  116.15500  238.80080
  816.00000   86.24440  118.72290  253.90530
  816.50000   80.08460  118.89560  259.48670
  817.00000   77.02040  115.07520  259.56820
  817.50000   76.63180  110.60700  254.82350
  818.00000   78.34380  106.16770  247.57250
  818.50000   82.54990   98.70550  242.58840
  819.00000   87.66950   90.63210  244.00130
  819.50000   92.70660   83.32630  246.55060
  820.00000   94.50310   85.78960  238.60510
  820.50000   92.70270   93.97130  225.85550
  821.00000   90.11210  106.97210  219.26180
  821.50000   89.56400  120.46800  229.05030
  822.00000   89.25320  122.10310  237.52430
  822.50000   87.78790  115.52470  246.73770
  823.00000   83.63360  109.03480  246.39830
  823.50000   80.59360  104.67220  243.51730
  824.00000   79.60570   97.02550  216.29490
  824.50000   78.86460   92.26220  175.10880
  825.00000   76.10220   86.79610  155.03760
  825.50000   72.37140   81.13580  157.53180
  826.00000   68.41620   80.10630  169.79210
  826.50000   66.48930   87.84430  181.38170
  827.00000   65.69140  103.34340  192.67920
  827.50000   64.16000  114.78440  221.23050
  828.00000   59.08530  116.78190  247.28410
  828.50000   55.33470  116.45320  257.99420
  829.00000   54.65850  114.05070  263.73660
  829.50000   57.86560  111.25820  263.90440
  830.00000   62.74850  108.39460  253.37500
  830.50000   67.71510  105.18380  237.61000
  831.00000   71.80020  102.92800  198.78750
  831.50000   75.07490  102.50310  172.87110
  832.00000   78.23010  103.40680  167.39280
  832.50000   81.42370  101.30920  163.53570
  833.00000   83.03650   98.70320  164.69420
  833.50000   81.57110   99.02290  166.98610
  834.00000   78.55790  108.43390  160.76280
  834.50000   74.90310  119.43990  145.83580
  835.00000   70.54470  130.58570  140.17720
  835.50000   63.54030  131.07390  140.20450
  836.00000   56.97750  128.73970  140.94040
  836.50000   54.27810  119.72570  142.41420
  837.00000   57.53610  116.65770  157.23370
  837.50000   63.27490  115.81840  180.82130
  838.00000   67.49650  112.33310  199.72970
  838.50000   70.98500  109.19390  217.38060
  839.00000   72.87830  106.81130  227.34270
  839.50000   73.92180  105.51860  233.31320
  840.00000   72.81920  105.16320  237.50070
  840.50000   67.62230  105.32340  243.20680
  841.00000   58.77980  106.45430  251.31870
  841.50000   50.59600  107.15910  255.49130
  842.00000   48.23960  107.32930  257.38470
  842.50000   47.95760  107.67810  255.54800
  843.00000   50.24070  110.72650  245.54200
  843.50000   53.33740  114.65260  239.14300
  844.00000   56.80650  119.30190  238.49140
  844.50000   61.13470  124.75300  239.14880
  845.00000   65.87220  130.72240  239.28330
  845.50000   71.44330  134.07680  236.95220
  846.00000   78.50130  135.75690  234.91980
  846.50000   86.96990  139.30000  243.71720
  847.00000   95.60410  145.18950  253.00070
  847.50000   98.40230  145.46420  255.27070
  848.00000   91.87220  138.93410  241.83460
  848.50000   76.33470  127.35320  189.58580
  849.00000   64.55840  105.10210  147.62980
  849.50000   61.21090   84.57150  138.99750
  850.00000   65.56930   82.06260  139.07050
  850.50000   72.91360   84.78030  140.28830
  851.00000   78.49800   85.76880  135.74100
  851.50000   82.35090   86.14580  145.32050
  852.00000   87.87280   89.89970  184.85320
  852.50000   93.39450   99.20050  225.16480
  853.00000   98.56390  108.29850  263.42800
  853.50000  101.57270  113.38960  276.74400
  854.00000  102.09790  119.64590  276.66940
  854.50000   98.50420  132.41810  275.04090
  855.00000   87.46530  141.93800  271.28350
  855.50000   76.35500  142.25230  266.95180
  856.00000   72.97600  139.60720  256.48790
  856.50000   73.22480  135.52120  245.62020
  857.00000   77.02160  130.33620  242.45130
  857.50000   82.27020  127.46050  241.09540
  858.00000   88.34200  123.71710  236.73250
  858.50000   91.04810  118.93940  226.15760
  859.00000   89.48950  115.14750  213.73220
  859.50000   83.90480  113.65860  204.53210
  860.00000   78.12850  112.62220  203.54900
  860.50000   75.41570  111.08070  212.47480
  861.00000   77.00770  108.31640  220.47340
  861.50000   82.27920  107.17070  221.85400
  862.00000   90.54430  106.26320  218.25900
  862.50000   99.39270  103.12480  201.11900
  863.00000  108.48430  100.37940  180.27330
  863.50000  115.72120  100.34560  174.60530
  864.00000  120.16150  101.94080  177.89760
  864.50000  120.95260  111.76950  188.52970
  865.00000  114.91880  127.10940  202.90520
  865.50000  102.17310  141.24850  230.83070
  866.00000   87.88860  147.79560  270.69430
  866.50000   79.65000  149.53450  299.40600
  867.00000   75.86240  150.49740  291.83120
  867.50000   74.45350  146.95290  237.53100
