~Version ---------------------------------------------------
VERS.   2.0 : CWLS log ASCII Standard -VERSION 2.0
WRAP.    NO : One line per depth step
DLM . SPACE : Column Data Section Delimiter
~Well ------------------------------------------------------
STRT .F                  334.0 : START DEPTH
STOP .F                 6432.0 : STOP DEPTH
STEP .F                    0.5 : STEP
NULL .                -9999.25 : NULL VALUE
COMP .                         : COMPANY
WELL .                         : WELL
FLD  .                         : FIELD
LOC  .                         : LOCATION
PROV .                         : PROVINCE
CNTY .                         : COUNTY
STAT .                         : STATE
CTRY .                         : COUNTRY
SRVC .                         : SERVICE COMPANY
DATE .                         : DATE
UWI  .                         : UNIQUE WELL ID
API  .                         : API NUMBER
SLAT .WGS84 3.9338107089458987 : SURFACE LATITUDE
SLON .WGS84  4.685115191420991 : SURFACE LONGITUDE
DATUM.F                1639.13 : DEPTH DATUM ELEV
~Curve Information -----------------------------------------
DEPT.F     : 1 MEASURED DEPTH
GRS .GAPI  : GAMMA RAY FROM SONIC LOG
DTCO.US/F  : DELTA-T COMPRESSIONAL
DTSM.US/F  : DELTA-T SHEAR
~Params ----------------------------------------------------
~Other -----------------------------------------------------
~ASCII -----------------------------------------------------
# ...
 3538.00000   96.92680   78.95700  143.68870
 3538.50000   91.93050   78.88340  143.55910
 3539.00000   89.37510   79.27840  143.42950
 3539.50000   89.47980   79.73080  143.22990
 3540.00000   89.89590   79.83670  142.33780
 3540.50000   86.83840   79.81640  140.89210
 3541.00000   80.55280   79.78690  140.57630
 3541.50000   75.85640   79.21900  139.50550
 3542.00000   74.97370   78.32780  138.16020
 3542.50000   74.73760   77.72440  136.82560
 3543.00000   73.92610   76.99620  136.10150
 3543.50000   70.45780   76.15370  136.25840
 3544.00000   65.45140   75.97900  136.50850
 3544.50000   60.34730   76.49760  137.05880
 3545.00000   58.02070   77.66310  138.14640
 3545.50000   58.52940   79.39080  143.05740
 3546.00000   63.17930   80.70560  150.37330
 3546.50000   71.39080   81.22880  154.94010
 3547.00000   83.55090   81.79470  155.58220
 3547.50000   94.27020   82.40220  155.70890
 3548.00000   98.40390   82.91160  156.06820
 3548.50000   97.79880   82.92550  156.55130
 3549.00000   97.52320   82.22070  156.07700
 3549.50000  101.30170   81.76100  152.36470
 3550.00000  104.99210   81.46830  146.71760
 3550.50000  105.29590   81.11330  141.66000
 3551.00000   99.63060   80.84440  141.27750
 3551.50000   94.71370   80.81130  140.92540
 3552.00000   95.43390   80.73660  140.57320
 3552.50000   98.64360   80.62600  140.04010
 3553.00000   99.38640   80.66280  139.47630
 3553.50000   95.25590   81.01430  139.50010
 3554.00000   85.52870   80.91550  142.09290
 3554.50000   74.37980   80.63490  152.78400
 3555.00000   67.94750   80.43300  159.54830
 3555.50000   73.84850   78.40500  165.73230
 3556.00000   81.57340   75.88940  172.42610
 3556.50000   93.46070   77.19430  175.22370
 3557.00000   99.34820   82.17640  174.54110
 3557.50000  100.34020   85.48110  169.87190
 3558.00000  100.79030   87.49070  168.72920
 3558.50000  101.83820   88.78330  171.44540
 3559.00000  104.65780   88.55800  175.79610
 3559.50000  109.22030   85.16570  176.63860
 3560.00000  111.73680   82.97490  179.04130
 3560.50000  112.85180   83.31090  181.31360
 3561.00000  112.00340   85.38070  183.06720
 3561.50000  110.70890   86.08740  183.19940
 3562.00000  109.82840   86.27260  181.87640
 3562.50000  109.09100   86.41420  180.35040
 3563.00000  109.10360   87.18440  180.06940
 3563.50000  110.68240   88.25680  179.78850
 3564.00000  113.05890   88.48080  178.70580
 3564.50000  115.34710   88.24190  178.36770
 3565.00000  116.74090   87.94650  177.74720
 3565.50000  114.38690   87.91430  175.83590
 3566.00000  111.04060   88.44400  175.89140
 3566.50000  109.21450   89.55960  176.30180
 3567.00000  111.44410   91.48660  175.97780
 3567.50000  116.55420   93.56130  173.80980
 3568.00000  121.41730   94.46620  172.08070
 3568.50000  125.12690   94.79100  170.46600
 3569.00000  126.23220   92.73450  167.84860
 3569.50000  124.44900   89.93460  160.94030
 3570.00000  120.12080   87.73640  157.68200
 3570.50000  117.01380   86.19800  156.68830
 3571.00000  115.66630   85.68070  156.72720
 3571.50000  115.24450   85.18220  156.76170
 3572.00000  116.12090   84.67340  156.86210
 3572.50000  117.06950   84.08330  157.40400
 3573.00000  117.29570   84.15920  161.13070
 3573.50000  118.08160   86.03910  168.15370
 3574.00000  119.48940   88.44870  171.94530
 3574.50000  120.42960   91.25040  174.60770
 3575.00000  117.07440   93.94280  180.27110
 3575.50000  111.79520   95.59440  185.14350
 3576.00000  104.94300   95.63480  186.19380
 3576.50000   99.62020   92.18340  185.66460
 3577.00000   95.32650   82.89770  183.71860
 3577.50000   94.82820   79.47220  181.66270
 3578.00000   96.10620   80.79540  179.41940
 3578.50000   97.86730   81.89020  176.95730
 3579.00000   99.95950   81.78410  174.91610
 3579.50000  104.74780   80.56550  174.29770
 3580.00000  110.60560   79.34680  169.27010
 3580.50000  113.91360   79.70780  162.02800
 3581.00000  112.94630   81.75720  158.99260
 3581.50000  110.15620   82.46460  159.41820
 3582.00000  110.16580   82.74660  160.62030
 3582.50000  112.18740   83.83180  161.49620
 3583.00000  115.94740   85.33970  162.72510
 3583.50000  119.30280   86.96070  168.32830
 3584.00000  121.20120   88.98890  169.81640
 3584.50000  118.60800   90.34770  170.04360
 3585.00000  112.43310   89.45220  170.27090
 3585.50000  106.08390   87.80890  172.77850
 3586.00000  105.46490   86.57280  174.51240
 3586.50000  107.10570   85.87420  175.59680
 3587.00000  108.64370   85.75160  175.83250
 3587.50000  109.60590   86.70930  174.84340
 3588.00000  108.56210   88.74550  173.26950
 3588.50000  107.06950   89.73220  168.92810
 3589.00000  106.74240   88.40460  168.07410
 3589.50000  108.31520   86.48250  166.50500
 3590.00000  111.42700   85.92070  164.43420
 3590.50000  115.34290   85.14780  163.50770
 3591.00000  117.88830   84.28800  164.28750
 3591.50000  117.92510   84.66060  165.10050
 3592.00000  117.10460   85.51980  167.50340
 3592.50000  116.61240   79.33150  170.23470
 3593.00000  116.59680   74.00460  171.96890
 3593.50000  113.82190   82.88990  171.58760
 3594.00000  105.70870   94.20530  171.00860
 3594.50000   97.92410  109.13220  170.59940
 3595.00000   96.00470  116.07240  171.15910
 3595.50000   98.88450  112.32520  172.58380
 3596.00000  102.97730   99.40620  173.25650
 3596.50000  101.98720   89.37170  173.11960
 3597.00000   96.60670   80.97770  172.82040
 3597.50000   91.72190   76.71490  172.25060
 3598.00000   90.98030   68.60300  168.96330
 3598.50000   94.66430   64.89210  159.54650
 3599.00000   99.06440   65.71950  148.61710
 3599.50000  100.87780   70.20600  141.80970
 3600.00000  100.20440   75.15020  139.42650
 3600.50000   99.25440   79.47290  140.51060
 3601.00000  100.58970   81.78310  142.35030
 3601.50000  101.83030   83.26920  144.28690
 3602.00000  101.06900   83.78490  146.63370
 3602.50000   99.70960   83.04880  149.65930
 3603.00000   99.29630   78.62550  155.44310
 3603.50000  100.12960   76.21230  160.83650
 3604.00000  100.92030   79.43370  165.58010
 3604.50000  101.94380   89.90430  169.57330
 3605.00000  101.96430   99.42540  173.87410
 3605.50000  101.78140  103.20520  176.94310
 3606.00000  101.52240   97.41430  176.39860
 3606.50000  100.61690   90.73570  174.77430
 3607.00000   96.94730   89.97750  174.20430
 3607.50000   90.20050   92.16340  171.87860
 3608.00000   84.73520   91.97940  172.38540
 3608.50000   83.28200   85.61680  181.09280
 3609.00000   87.96960   81.03000  183.63940
 3609.50000   96.10120   80.66240  180.78160
 3610.00000  100.79330   84.32180  176.88780
 3610.50000   99.15180   85.06500  176.26450
 3611.00000   91.54710   77.49380  179.24880
 3611.50000   85.19540   73.31110  184.76060
 3612.00000   81.62120   71.65890  189.12870
 3612.50000   83.38670   69.69710  188.94630
 3613.00000   90.93330   65.79980  186.06250
 3613.50000  106.58690   63.40220  172.30070
 3614.00000  130.62130   64.50540  148.78760
 3614.50000  154.19460   63.93760  140.89900
 3615.00000  175.23810   59.84060  136.85520
 3615.50000  194.06890   55.83960  124.57460
 3616.00000  195.80220   58.27950  116.27590
 3616.50000  172.50860   59.89620  108.48750
 3617.00000  125.96150   57.47250  100.67360
 3617.50000   78.97560   51.64620   94.40980
 3618.00000   48.46320   46.78910   88.89050
 3618.50000   34.44680   45.56380   83.02650
 3619.00000   34.14810   46.07200   83.72700
 3619.50000   39.20650   47.58420   89.36440
 3620.00000   48.90820   54.67580  113.03780
 3620.50000   57.55890   64.59320  126.67820
 3621.00000   62.14160   74.18640  124.28510
 3621.50000   61.68130   80.40160  119.31470
 3622.00000   58.80000   81.79610  123.99720
 3622.50000   56.45700   85.27280  132.36770
 3623.00000   55.49870   92.76890  135.76360
 3623.50000   55.37320  101.60080  158.94120
 3624.00000   56.02620  107.21480  201.92250
 3624.50000   57.63670  108.10220  231.06740
 3625.00000   59.38190  106.30290  222.48810
 3625.50000   61.62300  101.87440  191.90290
 3626.00000   66.06360   93.73300  153.76320
 3626.50000   71.08110   79.01900  136.03210
