~Version ---------------------------------------------------
VERS.   2.0 : CWLS log ASCII Standard -VERSION 2.0
WRAP.    NO : One line per depth step
DLM . SPACE : Column Data Section Delimiter
~Well ------------------------------------------------------
STRT .F                  334.0 : START DEPTH
STOP .F                 6432.0 : STOP DEPTH
STEP .F                    0.5 : STEP
NULL .                -9999.25 : NULL VALUE
COMP .                         : COMPANY
WELL .                         : WELL
FLD  .                         : FIELD
LOC  .                         : LOCATION
PROV .                         : PROVINCE
CNTY .                         : COUNTY
STAT .                         : STATE
CTRY .                         : COUNTRY
SRVC .                         : SERVICE COMPANY
DATE .                         : DATE
UWI  .                         : UNIQUE WELL ID
API  .                         : API NUMBER
SLAT .WGS84 3.9338107089458987 : SURFACE LATITUDE
SLON .WGS84  4.685115191420991 : SURFACE LONGITUDE
DATUM.F                1639.13 : DEPTH DATUM ELEV
~Curve Information -----------------------------------------
DEPT.F     : 1 MEASURED DEPTH
GRS .GAPI  : GAMMA RAY FROM SONIC LOG
DTCO.US/F  : DELTA-T COMPRESSIONAL
DTSM.US/F  : DELTA-T SHEAR
~Params ----------------------------------------------------
~Other -----------------------------------------------------
~ASCII -----------------------------------------------------
# ...
 5140.00000   92.68450   77.51850  140.75150
 5140.50000  105.66980   79.22110  143.83810
 5141.00000  115.59160   79.89550  145.85130
 5141.50000  120.17190   79.94860  147.22820
 5142.00000  119.62050   79.88900  147.14720
 5142.50000  117.11960   79.87600  145.90500
 5143.00000  114.49970   79.30810  143.33600
 5143.50000  112.07830   77.40270  139.31070
 5144.00000  109.99710   74.49010  134.58050
 5144.50000  107.89030   70.20120  129.15280
 5145.00000  104.21810   66.44650  122.77840
 5145.50000   96.17970   62.69010  115.62050
 5146.00000   86.48360   59.24000  111.29260
 5146.50000   78.81990   58.19370  108.73990
 5147.00000   74.59100   58.41170  106.55910
 5147.50000   72.28750   58.62440  104.52160
 5148.00000   70.47650   57.75340  103.17610
 5148.50000   65.51420   56.09810  102.31770
 5149.00000   56.95290   54.71040  101.61150
 5149.50000   44.17630   54.10000  101.37810
 5150.00000   35.18290   54.73650  101.14470
 5150.50000   30.31060   56.15060  101.64380
 5151.00000   33.02050   58.30290  102.97080
 5151.50000   40.47270   59.05690  104.58500
 5152.00000   51.38060   59.81090  106.08070
 5152.50000   54.85300   60.21580  106.73990
 5153.00000   53.14880   60.54080  107.39920
 5153.50000   49.15510   60.91520  108.05840
 5154.00000   48.68610   61.17680  108.25790
 5154.50000   51.37210   61.56640  107.70390
 5155.00000   55.46320   61.98050  107.04790
 5155.50000   58.47590   61.86930  106.57990
 5156.00000   58.62340   61.38810  106.57530
 5156.50000   58.75000   60.96930  106.61320
 5157.00000   59.26430   60.78470  106.06610
 5157.50000   60.65620   60.45160  105.87070
 5158.00000   62.47470   60.22590  106.35960
 5158.50000   63.60190   60.14940  106.91530
 5159.00000   63.13190   60.10450  106.77360
 5159.50000   61.58080   60.06980  106.63180
 5160.00000   60.96170   60.07590  106.49000
 5160.50000   60.98310   60.12530  106.73270
 5161.00000   61.15750   60.26930  107.17770
 5161.50000   60.62830   60.77270  107.62270
 5162.00000   59.63030   61.47930  107.88900
 5162.50000   58.76050   62.13870  107.95610
 5163.00000   59.94100   62.33930  108.12100
 5163.50000   62.15080   62.20460  109.11710
 5164.00000   62.99820   62.06900  109.27240
 5164.50000   62.69120   62.02210  109.17640
 5165.00000   62.11470   61.99250  108.43680
 5165.50000   63.81430   61.66890  107.79180
 5166.00000   65.76740   61.19000  107.14690
 5166.50000   66.15380   60.91970  106.73040
 5167.00000   64.56740   60.69160  106.36390
 5167.50000   62.66440   60.30010  106.10590
 5168.00000   61.25560   60.05100  105.30790
 5168.50000   61.50950   59.93300  104.83530
 5169.00000   63.15080   59.90850  104.65990
 5169.50000   64.59680   59.87450  104.12070
 5170.00000   63.22210   59.67960  103.61540
 5170.50000   61.18690   59.50350  103.76860
 5171.00000   60.56240   59.32390  103.94460
 5171.50000   61.23500   59.02760  104.04540
 5172.00000   62.41990   58.86680  103.85680
 5172.50000   63.48590   58.84060  103.66830
 5173.00000   64.46050   58.94740  103.61230
 5173.50000   64.55080   58.90520  103.61230
 5174.00000   63.18560   58.83710  103.85720
 5174.50000   62.03660   58.77660  104.29710
 5175.00000   61.30920   58.74440  103.97910
 5175.50000   60.60860   58.70660  103.61900
 5176.00000   59.96360   58.73200  102.87220
 5176.50000   59.61490   58.78270  102.66820
 5177.00000   59.51620   58.85190  102.91220
 5177.50000   59.19170   59.08070  103.20410
 5178.00000   60.25960   59.40750  103.49600
 5178.50000   64.64000   59.68520  103.71330
 5179.00000   68.79130   59.71430  103.40980
 5179.50000   71.92410   59.57960  103.47930
 5180.00000   72.68040   59.17020  103.12940
 5180.50000   71.97680   58.58590  102.47880
 5181.00000   68.81700   58.00160  101.82820
 5181.50000   65.22270   57.91100  101.28460
 5182.00000   63.78000   57.78280  100.63670
 5182.50000   63.90300   57.77510  100.15530
 5183.00000   65.64820   57.80730   99.82380
 5183.50000   66.24610   57.79340   99.82380
 5184.00000   65.35400   57.54690  100.19830
 5184.50000   63.48040   57.05550  100.62150
 5185.00000   62.26230   56.90160  100.50540
 5185.50000   63.37630   57.13490   99.83720
 5186.00000   67.15030   57.13800   99.43930
 5186.50000   70.05610   56.93050   99.34510
 5187.00000   70.44970   56.75070   98.86100
 5187.50000   66.07220   56.75750   98.32450
 5188.00000   57.99210   56.77490   98.65260
 5188.50000   53.21690   56.85470   99.86940
 5189.00000   51.00850   57.80070  100.60630
 5189.50000   49.99800   59.19440  101.32640
 5190.00000   46.82660   60.52960  102.04650
 5190.50000   44.98900   61.53220  102.76660
 5191.00000   48.78170   62.14930  103.59920
 5191.50000   56.34200   62.50540  103.87500
 5192.00000   60.23180   62.34340  104.02270
 5192.50000   61.30810   61.91290  104.39760
 5193.00000   60.06160   61.38010  105.13290
 5193.50000   57.90020   61.23650  104.74030
 5194.00000   54.96230   61.02860  102.96570
 5194.50000   53.17260   60.45780  101.43490
 5195.00000   54.10630   59.78360  101.54520
 5195.50000   54.93760   58.92050  101.88030
 5196.00000   51.65790   58.01610  101.27640
 5196.50000   44.81450   57.13530  100.57120
 5197.00000   37.47650   56.89990  100.41070
 5197.50000   35.70850   57.84200  100.67310
 5198.00000   40.35310   59.10340  101.42770
 5198.50000   49.30920   60.24110  102.80670
 5199.00000   58.85500   61.36070  104.58850
 5199.50000   63.26710   62.25070  105.55200
 5200.00000   61.19150   62.45450  105.00970
 5200.50000   58.45290   62.46580  104.59350
 5201.00000   57.81260   62.50350  105.19350
 5201.50000   57.54150   62.63150  105.21890
 5202.00000   55.97230   62.55330  105.35560
 5202.50000   55.04980   62.43660  106.45630
 5203.00000   54.85480   62.53820  107.58930
 5203.50000   54.69060   62.83890  107.82860
 5204.00000   55.22040   63.20160  107.98360
 5204.50000   58.87240   63.61660  108.16540
 5205.00000   62.74150   63.94460  108.04330
 5205.50000   68.29750   63.99380  107.85560
 5206.00000   74.17570   63.39500  107.04150
 5206.50000   76.51640   62.25060  105.18620
 5207.00000   70.67480   60.59260  103.54150
 5207.50000   62.09840   59.89290  103.83230
 5208.00000   56.56300   59.60550  103.76480
 5208.50000   56.57540   59.40130  103.41040
 5209.00000   56.91210   58.84310  103.05610
 5209.50000   55.71970   58.32660  102.95560
 5210.00000   52.58620   58.30140  104.33880
 5210.50000   50.06280   58.25390  107.08400
 5211.00000   51.35460   57.54110  111.04590
 5211.50000   61.13730   58.64780  117.75070
 5212.00000   78.95470   63.30730  126.44110
 5212.50000  100.74910   66.69980  135.13160
 5213.00000  122.91690   69.56330  138.42780
 5213.50000  129.56050   69.57530  138.23050
 5214.00000  115.66000   67.91860  134.80080
 5214.50000   93.66710   66.33390  129.61950
 5215.00000   77.09730   65.29610  122.79080
 5215.50000   71.88490   65.54690  117.36980
 5216.00000   71.66920   65.82600  114.33250
 5216.50000   72.50500   65.88910  114.45750
 5217.00000   75.68830   65.59550  115.49760
 5217.50000   79.75720   65.29970  114.38030
 5218.00000   79.11180   64.16330  112.12510
 5218.50000   73.63470   61.29690  108.48940
 5219.00000   66.01320   58.03660  106.31650
 5219.50000   57.31170   55.65390  103.70440
 5220.00000   45.86220   54.01600  100.52090
 5220.50000   36.17510   52.44810   98.96940
 5221.00000   28.80340   52.78810  100.09870
 5221.50000   25.85410   54.63500  102.65910
 5222.00000   27.66140   56.79020  104.34580
 5222.50000   34.60560   58.84970  106.03200
 5223.00000   45.91890   59.65300  107.35100
 5223.50000   53.78500   59.33970  107.72280
 5224.00000   55.06970   58.15640  107.14780
 5224.50000   50.88900   56.59870  106.48700
 5225.00000   44.62990   55.24760  105.90670
 5225.50000   41.29260   54.71570  105.94380
 5226.00000   41.68820   55.55310  107.99500
 5226.50000   42.67570   62.99980  112.80030
 5227.00000   44.96400   74.63940  118.28370
 5227.50000   51.19330   73.85630  123.31170
 5228.00000   65.45660   71.29400  126.93900
 5228.50000   77.85090   69.70580  128.58310
