~Version ---------------------------------------------------
VERS.   2.0 : CWLS log ASCII Standard -VERSION 2.0
WRAP.    NO : One line per depth step
DLM . SPACE : Column Data Section Delimiter
~Well ------------------------------------------------------
STRT .F                  334.0 : START DEPTH
STOP .F                 6432.0 : STOP DEPTH
STEP .F                    0.5 : STEP
NULL .                -9999.25 : NULL VALUE
COMP .                         : COMPANY
WELL .                         : WELL
FLD  .                         : FIELD
LOC  .                         : LOCATION
PROV .                         : PROVINCE
CNTY .                         : COUNTY
STAT .                         : STATE
CTRY .                         : COUNTRY
SRVC .                         : SERVICE COMPANY
DATE .                         : DATE
UWI  .                         : UNIQUE WELL ID
API  .                         : API NUMBER
SLAT .WGS84 3.9338107089458987 : SURFACE LATITUDE
SLON .WGS84  4.685115191420991 : SURFACE LONGITUDE
DATUM.F                1639.13 : DEPTH DATUM ELEV
~Curve Information -----------------------------------------
DEPT.F     : 1 MEASURED DEPTH
GRS .GAPI  : GAMMA RAY FROM SONIC LOG
DTCO.US/F  : DELTA-T COMPRESSIONAL
DTSM.US/F  : DELTA-T SHEAR
~Params ----------------------------------------------------
~Other -----------------------------------------------------
~ASCII -----------------------------------------------------
# ...
 1135.00000   60.11610  131.78700  231.74370
 1135.50000   58.06060  133.95170  230.03910
 1136.00000   55.91550  135.67370  229.29360
 1136.50000   54.05880  136.59070  228.87320
 1137.00000   51.87830  136.52960  228.45290
 1137.50000   50.00730  136.22710  228.40280
 1138.00000   47.87160  136.87510  228.42610
 1138.50000   45.60530  137.88750  228.41240
 1139.00000   43.02930  139.32390  228.41600
 1139.50000   41.75340  141.33270  228.41950
 1140.00000   41.46740  141.97920  228.65960
 1140.50000   41.44710  141.88880  229.18940
 1141.00000   42.96630  141.22910  230.09100
 1141.50000   47.36320  139.78740  231.06060
 1142.00000   54.75910  136.00310  232.02500
 1142.50000   62.71510  129.00630  232.98600
 1143.00000   70.03320  121.95190  233.97840
 1143.50000   74.04460  118.42400  234.77110
 1144.00000   75.40010  115.66010  235.41860
 1144.50000   74.55100  112.74980  235.91210
 1145.00000   69.68100  110.30270  235.70550
 1145.50000   62.63580  108.01460  234.73670
 1146.00000   56.23320  105.98340  233.88280
 1146.50000   53.13080  105.22650  233.62860
 1147.00000   52.19750  110.74730  233.63490
 1147.50000   52.52100  119.06560  233.44340
 1148.00000   52.45840  126.44530  233.03930
 1148.50000   50.96820  132.12850  232.64460
 1149.00000   49.31340  137.91510  232.02700
 1149.50000   50.02660  136.87740  231.85370
 1150.00000   53.87700  134.94170  232.74370
 1150.50000   58.86480  132.72560  234.20080
 1151.00000   64.99630  130.08450  235.59970
 1151.50000   68.98000  127.41370  236.62670
 1152.00000   73.23110  123.16980  237.44730
 1152.50000   77.13430  118.32210  237.99000
 1153.00000   80.91530  114.64020  238.19680
 1153.50000   82.64270  110.51710  238.40350
 1154.00000   82.24560  108.61920  238.59720
 1154.50000   81.09660  109.29610  238.28590
 1155.00000   79.44690  109.42700  230.54900
 1155.50000   76.77370  105.70270  200.04000
 1156.00000   74.87820   98.65710  175.45570
 1156.50000   75.17890   91.77170  168.15030
 1157.00000   76.67610   88.64520  166.43600
 1157.50000   78.51780   87.22040  168.54640
 1158.00000   78.56570   85.94990  175.56750
 1158.50000   76.40790   82.38200  178.65440
 1159.00000   75.33860   79.12620  187.17010
 1159.50000   75.60330   81.04590  212.23620
 1160.00000   76.97800   91.35180  226.51050
 1160.50000   78.58360   99.46780  224.86750
 1161.00000   82.33330  101.13130  211.60120
 1161.50000   87.35750   99.42770  199.24000
 1162.00000   90.60270   97.46880  200.15860
 1162.50000   92.54130   94.31530  208.49400
 1163.00000   91.40310   92.12010  216.20000
 1163.50000   88.07120   91.99610  225.30470
 1164.00000   84.95500   93.90670  235.22070
 1164.50000   84.49900   95.87440  244.62330
 1165.00000   88.97600   97.41690  246.30520
 1165.50000   96.40020   98.17820  243.33260
 1166.00000  104.04140   98.14020  243.25760
 1166.50000  104.29650   99.49760  253.25420
 1167.00000   97.53090  107.83500  256.36370
 1167.50000   82.60260  115.49380  254.62490
 1168.00000   68.74940  116.62450  250.37580
 1168.50000   57.74320  121.32540  248.72450
 1169.00000   53.43820  126.27190  236.75800
 1169.50000   56.44620  128.11300  209.02760
 1170.00000   63.88210  127.78390  194.10760
 1170.50000   72.94010  127.23420  196.03710
 1171.00000   77.97620  128.29100  198.98810
 1171.50000   77.79770  131.58410  202.34630
 1172.00000   74.34390  133.63920  201.84630
 1172.50000   70.21160  129.64700  197.37940
 1173.00000   66.20770  118.61990  180.19700
 1173.50000   65.16820  104.51420  155.13600
 1174.00000   65.56240   90.40850  134.35380
 1174.50000   65.79230   87.36930  131.10310
 1175.00000   64.75970   80.07570  142.93310
 1175.50000   64.07450   78.66540  176.61850
 1176.00000   67.00580   79.15170  221.73910
 1176.50000   74.43600   79.55080  249.71720
 1177.00000   83.76160   86.85510  245.29890
 1177.50000   89.98970  104.16840  235.69480
 1178.00000   88.38870  118.80540  222.50690
 1178.50000   80.68610  131.79440  212.25610
 1179.00000   70.43860  141.55530  211.79150
 1179.50000   65.97860  145.37590  215.30970
 1180.00000   65.52820  147.51310  220.19210
 1180.50000   64.98380  147.57410  228.71860
 1181.00000   61.12430  144.83650  246.95640
 1181.50000   57.69950  135.28740  254.94570
 1182.00000   57.75700  122.17060  252.18240
 1182.50000   61.48880  115.41940  244.93230
 1183.00000   67.22980  119.14380  238.36640
 1183.50000   71.58400  121.79960  238.14900
 1184.00000   73.28350  121.31000  241.12670
 1184.50000   73.06710  119.82180  245.93680
 1185.00000   71.11580  119.13820  253.01620
 1185.50000   70.42970  117.61330  252.72530
 1186.00000   72.23070  106.14810  231.47160
 1186.50000   74.12030   86.49240  210.21790
 1187.00000   74.06120   79.14820  183.95390
 1187.50000   73.93210   82.36020  169.31950
 1188.00000   73.92370   90.81360  179.65200
 1188.50000   75.00160   99.12300  195.48220
 1189.00000   77.37450  102.87350  212.67570
 1189.50000   84.88500  109.14850  229.46490
 1190.00000   92.74590  118.34610  242.08930
 1190.50000   98.32190  125.22890  243.03510
 1191.00000   95.68220  126.56630  236.27410
 1191.50000   87.47400  122.85210  229.51320
 1192.00000   77.87030  118.61030  224.64430
 1192.50000   69.53710  114.77400  254.84110
 1193.00000   63.89170  112.45220  282.38310
 1193.50000   62.09580  111.43500  283.99770
 1194.00000   64.75080  106.75110  276.66770
 1194.50000   69.70870  100.63820  269.77840
 1195.00000   71.58180   97.71850  264.77510
 1195.50000   69.71510   96.24120  236.12100
 1196.00000   64.59760   87.77760  172.14760
 1196.50000   59.83440   80.75200  134.03880
 1197.00000   59.55000   75.10730  129.56520
 1197.50000   62.65150   82.04140  145.31830
 1198.00000   66.60410   98.97500  163.11060
 1198.50000   67.34460  111.48140  185.03980
 1199.00000   60.81900  111.87990  203.92930
 1199.50000   51.36500  105.60750  224.94600
 1200.00000   47.21980  101.12550  233.02320
 1200.50000   51.57920   96.64350  234.53760
 1201.00000   63.58220   93.27500  232.07620
 1201.50000   79.04760   92.06310  226.08510
 1202.00000   90.94870   94.31760  220.15120
 1202.50000   99.14640   97.76940  214.58350
 1203.00000  103.07530  100.27820  209.24520
 1203.50000  103.31870  102.88800  203.41310
 1204.00000  101.50070  102.79150  195.81350
 1204.50000   99.91250  103.30080  201.41870
 1205.00000   99.41410  107.26610  224.83740
 1205.50000   96.24570  110.53850  245.33370
 1206.00000   89.39140  112.45980  242.20430
 1206.50000   80.55570  113.29270  219.09570
 1207.00000   78.11950  113.16720  203.77300
 1207.50000   80.73770  111.43510  204.30310
 1208.00000   82.76200  107.46820  212.40160
 1208.50000   80.98340  103.63290  224.26950
 1209.00000   79.83760  103.49960  229.63640
 1209.50000   84.53370  109.79860  223.69510
 1210.00000   95.13580  122.09810  211.82990
 1210.50000  105.38850  130.01490  203.34150
 1211.00000  107.52770  128.43140  194.92740
 1211.50000  102.41780  122.30960  178.20920
 1212.00000   92.23990  118.02140  159.02770
 1212.50000   81.23010  111.55040  149.39740
 1213.00000   72.07780  101.31200  148.24220
 1213.50000   67.38230   91.07360  153.54800
 1214.00000   68.17750   88.69160  168.91270
 1214.50000   73.29110   90.50290  183.06420
 1215.00000   77.68680   92.92100  194.32380
 1215.50000   76.00970   98.13820  199.20290
 1216.00000   67.41070  109.39260  225.10540
 1216.50000   57.64370  111.89940  258.31130
 1217.00000   53.46660  111.59460  293.18860
 1217.50000   56.08830  113.43830  308.08950
 1218.00000   60.90290  117.30050  306.98240
 1218.50000   65.44540  118.98890  302.82340
 1219.00000   70.06780  116.62520  288.86660
 1219.50000   72.81030  111.33900  267.10140
 1220.00000   74.49030  106.05280  257.22690
 1220.50000   75.99400  106.13000  249.92280
 1221.00000   76.91620  112.69410  239.34540
 1221.50000   76.79110  118.12010  237.98900
 1222.00000   76.02550  124.80090  240.63350
 1222.50000   75.63260  130.28760  251.20770
 1223.00000   75.37760  132.18880  266.33430
 1223.50000   76.65040  131.55490  275.37500
