~Version ---------------------------------------------------
VERS.   2.0 : CWLS log ASCII Standard -VERSION 2.0
WRAP.    NO : One line per depth step
DLM . SPACE : Column Data Section Delimiter
~Well ------------------------------------------------------
STRT .F                  334.0 : START DEPTH
STOP .F                 6432.0 : STOP DEPTH
STEP .F                    0.5 : STEP
NULL .                -9999.25 : NULL VALUE
COMP .                         : COMPANY
WELL .                         : WELL
FLD  .                         : FIELD
LOC  .                         : LOCATION
PROV .                         : PROVINCE
CNTY .                         : COUNTY
STAT .                         : STATE
CTRY .                         : COUNTRY
SRVC .                         : SERVICE COMPANY
DATE .                         : DATE
UWI  .                         : UNIQUE WELL ID
API  .                         : API NUMBER
SLAT .WGS84 3.9338107089458987 : SURFACE LATITUDE
SLON .WGS84  4.685115191420991 : SURFACE LONGITUDE
DATUM.F                1639.13 : DEPTH DATUM ELEV
~Curve Information -----------------------------------------
DEPT.F     : 1 MEASURED DEPTH
GRS .GAPI  : GAMMA RAY FROM SONIC LOG
DTCO.US/F  : DELTA-T COMPRESSIONAL
DTSM.US/F  : DELTA-T SHEAR
~Params ----------------------------------------------------
~Other -----------------------------------------------------
~ASCII -----------------------------------------------------
# ...
 3182.00000   29.54380   53.99250   91.62060
 3182.50000   30.09780   54.78140   97.51760
 3183.00000   40.31850   54.53890  102.09390
 3183.50000   59.08670   53.97270  101.48080
 3184.00000   75.62340   53.26290   92.58550
 3184.50000   85.75370   53.41480   85.60430
 3185.00000  100.40580   54.68490   81.64530
 3185.50000  137.71290   56.05130   85.95230
 3186.00000  180.97740   57.53860   95.30520
 3186.50000  194.34770   58.67880  103.91930
 3187.00000  165.89890   58.00210  105.26230
 3187.50000  104.14000   54.22510  106.51010
 3188.00000   71.40990   51.72810  104.10620
 3188.50000   45.03910   49.40870   96.96350
 3189.00000   31.04710   48.20740   92.98790
 3189.50000   23.59570   48.83500   94.15100
 3190.00000   21.81970   49.79070   95.75840
 3190.50000   21.61410   50.63530   96.55850
 3191.00000   20.94020   50.79680   96.58450
 3191.50000   20.23750   50.46170   96.20280
 3192.00000   21.35330   49.54500   93.06770
 3192.50000   23.78690   48.33400   89.02990
 3193.00000   26.73920   47.42950   85.24760
 3193.50000   29.14220   48.78510   83.37120
 3194.00000   31.50140   54.55450   88.14390
 3194.50000   35.12970   60.24030  106.11610
 3195.00000   41.44500   62.68520  131.70410
 3195.50000   48.74140   59.56910  154.12150
 3196.00000   55.85170   54.15340  158.31010
 3196.50000   56.97910   51.67390  152.59830
 3197.00000   51.90930   52.04620  135.42360
 3197.50000   41.55490   51.36930  125.72070
 3198.00000   31.13330   50.94880  124.52040
 3198.50000   26.62870   51.66540  125.47930
 3199.00000   27.30070   52.92780  129.18640
 3199.50000   31.31370   53.33730  132.62000
 3200.00000   33.35520   52.79320  132.53750
 3200.50000   30.99800   51.63750  127.84980
 3201.00000   24.75220   50.16270  115.33310
 3201.50000   20.45320   49.85870  101.62490
 3202.00000   20.51200   49.85550   94.56200
 3202.50000   22.40220   49.88670   94.37540
 3203.00000   24.48050   50.01530   94.63390
 3203.50000   29.38140   50.21810   94.62580
 3204.00000   38.05170   50.40280   93.86790
 3204.50000   46.29050   50.53870   92.86750
 3205.00000   50.16710   50.52920   92.49000
 3205.50000   50.09960   52.04670   92.48550
 3206.00000   46.33390   54.49890   92.52890
 3206.50000   40.98370   57.54850   92.57230
 3207.00000   36.04430   58.80850   92.83470
 3207.50000   34.33150   57.26290   93.23070
 3208.00000   34.61060   56.72680   94.78630
 3208.50000   36.13640   57.16800   96.56480
 3209.00000   37.58980   57.27390   99.77440
 3209.50000   39.25620   56.60810  100.84370
 3210.00000   42.94940   55.82660  101.59280
 3210.50000   46.42430   54.80190  101.58810
 3211.00000   47.99610   53.33730  100.93770
 3211.50000   49.17750   52.03560   99.24790
 3212.00000   49.51330   51.25300   97.22350
 3212.50000   49.42980   50.89760   96.17670
 3213.00000   47.53730   51.29290   94.47770
 3213.50000   46.38110   52.37960   94.09350
 3214.00000   47.95970   53.44730   95.13020
 3214.50000   51.79770   53.80600   96.65010
 3215.00000   55.58710   53.79210   98.56080
 3215.50000   58.60820   53.23580  100.47280
 3216.00000   60.49400   52.13500  101.92800
 3216.50000   62.23590   51.04640  102.11590
 3217.00000   62.66230   50.32320  101.93460
 3217.50000   58.74200   49.50570  100.33150
 3218.00000   49.31950   49.22160   99.16670
 3218.50000   38.98380   48.92460   98.01660
 3219.00000   32.69940   48.63590   96.81070
 3219.50000   33.05800   49.05630   95.85790
 3220.00000   39.38560   51.22530   96.72800
 3220.50000   51.79720   54.58880   99.27070
 3221.00000   66.16210   57.46850  101.75760
 3221.50000   78.30750   59.20640  103.29860
 3222.00000   82.69390   59.09330  104.83960
 3222.50000   91.95420   57.96190  104.97240
 3223.00000   94.91750   55.63900  103.30790
 3223.50000   87.13410   52.68860  100.53310
 3224.00000   68.41080   50.03310   97.99270
 3224.50000   52.97090   49.04270   94.64360
 3225.00000   41.21160   48.44410   92.61830
 3225.50000   33.27010   48.19290   92.34010
 3226.00000   29.38050   48.65840   92.30310
 3226.50000   27.76460   49.56180   89.15960
 3227.00000   28.80690   51.12150   87.91720
 3227.50000   31.03550   52.43220   90.32560
 3228.00000   35.10760   53.29000   93.89540
 3228.50000   39.50800   53.78540   95.64500
 3229.00000   42.29520   53.89650   97.67030
 3229.50000   40.70460   53.30760   97.80470
 3230.00000   35.65150   52.79400   97.18550
 3230.50000   34.37420   52.66820   96.53380
 3231.00000   40.40460   53.01350   95.89560
 3231.50000   48.77000   53.56020   94.76310
 3232.00000   52.67040   54.00750   90.52900
 3232.50000   51.41100   54.67590   85.00080
 3233.00000   45.88150   56.00930   80.49070
 3233.50000   39.02100   57.38530   79.70230
 3234.00000   35.55140   57.77930   90.84890
 3234.50000   35.46490   58.13800  109.15670
 3235.00000   41.31800   59.69050  123.30320
 3235.50000   52.47030   67.19620  136.27020
 3236.00000   62.82460   78.32430  146.14470
 3236.50000   66.39150   88.38040  144.61960
 3237.00000   64.41590   96.10600  143.09450
 3237.50000   59.74640   99.72380  152.92850
 3238.00000   56.04260   99.76760  176.22070
 3238.50000   53.35480   99.74680  203.72780
 3239.00000   52.42540   99.66640  192.03520
 3239.50000   52.71130   97.28350  169.15990
 3240.00000   54.35240   88.52200  160.59710
 3240.50000   56.35220   78.79720  155.21200
 3241.00000   57.19350   69.89790  148.33820
 3241.50000   52.58800   62.87520  135.68250
 3242.00000   41.16060   58.04140  120.15750
 3242.50000   30.24380   55.42520  107.16940
 3243.00000   24.52770   54.60080  102.47060
 3243.50000   20.89990   54.80180  100.61670
 3244.00000   18.94170   54.51000  101.18750
 3244.50000   18.34050   54.59150  102.78550
 3245.00000   19.61070   55.79220  104.76140
 3245.50000   22.93300   58.31530  107.58190
 3246.00000   27.58320   62.50690  108.66600
 3246.50000   33.07880   67.94330  111.07400
 3247.00000   38.46320   72.09370  119.98820
 3247.50000   43.59060   75.56540  125.15010
 3248.00000   46.92000   79.25810  126.09790
 3248.50000   47.51040   80.43540  126.19120
 3249.00000   44.01980   79.46410  122.18600
 3249.50000   37.90240   78.70450  127.15640
 3250.00000   35.26070   78.99420  146.25080
 3250.50000   36.06350   79.17410  168.39760
 3251.00000   41.92620   78.12750  180.59360
 3251.50000   49.16260   74.84840  182.77170
 3252.00000   55.50510   73.55930  180.09120
 3252.50000   59.21420   73.26740  174.23900
 3253.00000   60.64550   72.82420  169.07940
 3253.50000   61.79840   76.30200  172.37170
 3254.00000   65.63210   81.69270  173.17560
 3254.50000   72.52420   83.88440  170.29190
 3255.00000   79.05670   82.22090  168.05000
 3255.50000   85.06350   77.58900  165.06040
 3256.00000   90.19760   74.09170  157.32460
 3256.50000   95.24240   70.18480  149.22950
 3257.00000   96.89330   65.76170  141.74270
 3257.50000   92.74430   62.60270  135.76050
 3258.00000   81.16190   61.24840  130.29580
 3258.50000   68.08450   60.26920  122.24620
 3259.00000   57.75590   59.55730  116.14330
 3259.50000   54.44170   59.12170  112.58360
 3260.00000   54.98920   59.18560  111.80260
 3260.50000   55.46620   59.88650  112.31990
 3261.00000   55.57920   60.60530  117.34470
 3261.50000   59.44600   61.69960  123.12660
 3262.00000   66.08490   65.08450  127.13540
 3262.50000   73.08340   68.40150  131.20220
 3263.00000   76.17980   71.48590  134.35230
 3263.50000   77.27230   73.80900  137.55900
 3264.00000   76.37740   74.59580  145.78620
 3264.50000   74.34750   76.23300  156.02700
 3265.00000   72.50880   80.94190  170.34450
 3265.50000   72.56510   85.13150  177.65590
 3266.00000   74.44530   86.81240  179.20050
 3266.50000   76.32210   87.06400  183.79030
 3267.00000   75.25750   86.99310  188.81460
 3267.50000   73.10350   87.40530  188.29790
 3268.00000   71.32720   88.22900  187.28430
 3268.50000   70.69080   89.34830  186.40790
 3269.00000   72.57040   90.76940  186.90990
 3269.50000   74.54030   91.22940  189.48840
 3270.00000   76.13710   87.20290  192.79010
 3270.50000   75.51130   81.88060  196.64500
