~Version ---------------------------------------------------
VERS.   2.0 : CWLS log ASCII Standard -VERSION 2.0
WRAP.    NO : One line per depth step
DLM . SPACE : Column Data Section Delimiter
~Well ------------------------------------------------------
STRT .F                  334.0 : START DEPTH
STOP .F                 6432.0 : STOP DEPTH
STEP .F                    0.5 : STEP
NULL .                -9999.25 : NULL VALUE
COMP .                         : COMPANY
WELL .                         : WELL
FLD  .                         : FIELD
LOC  .                         : LOCATION
PROV .                         : PROVINCE
CNTY .                         : COUNTY
STAT .                         : STATE
CTRY .                         : COUNTRY
SRVC .                         : SERVICE COMPANY
DATE .                         : DATE
UWI  .                         : UNIQUE WELL ID
API  .                         : API NUMBER
SLAT .WGS84 3.9338107089458987 : SURFACE LATITUDE
SLON .WGS84  4.685115191420991 : SURFACE LONGITUDE
DATUM.F                1639.13 : DEPTH DATUM ELEV
~Curve Information -----------------------------------------
DEPT.F     : 1 MEASURED DEPTH
GRS .GAPI  : GAMMA RAY FROM SONIC LOG
DTCO.US/F  : DELTA-T COMPRESSIONAL
DTSM.US/F  : DELTA-T SHEAR
~Params ----------------------------------------------------
~Other -----------------------------------------------------
~ASCII -----------------------------------------------------
# ...
 2381.00000   35.42220   56.76910  106.21940
 2381.50000   33.16400   58.08890  103.91840
 2382.00000   31.27760   59.24320  102.74790
 2382.50000   30.08750   60.59880  101.45450
 2383.00000   29.78630   61.55790   97.15900
 2383.50000   29.19150   61.75560   94.30560
 2384.00000   27.45400   61.04950   91.60890
 2384.50000   25.87320   59.62800   89.15750
 2385.00000   25.56100   57.77470   88.50820
 2385.50000   26.00720   56.07240   89.20880
 2386.00000   26.90330   54.88500   98.23390
 2386.50000   28.99890   60.98100  122.78030
 2387.00000   31.83450   77.76450  151.85960
 2387.50000   36.04540   90.40710  180.68770
 2388.00000   42.86560   93.69890  196.27950
 2388.50000   50.64290   93.49920  207.23120
 2389.00000   58.60270   91.79710  218.73900
 2389.50000   63.42340   89.52380  230.28160
 2390.00000   65.23800   88.26350  243.16240
 2390.50000   65.31300   89.87130  249.08420
 2391.00000   64.63740   93.84650  251.02870
 2391.50000   64.34280   96.74240  244.30640
 2392.00000   63.87930   96.87760  227.43490
 2392.50000   63.41790   96.94790  216.30980
 2393.00000   63.77560   98.04210  215.95540
 2393.50000   64.56360  100.57310  227.67120
 2394.00000   65.18720  103.10410  249.11690
 2394.50000   63.79220  106.26420  267.56130
 2395.00000   60.93230  108.93140  271.65580
 2395.50000   57.05610  111.57240  251.00280
 2396.00000   53.82870  111.99940  191.37420
 2396.50000   52.05040  108.28320  171.11150
 2397.00000   51.40340   95.84930  167.56530
 2397.50000   50.92550   83.35930  171.49970
 2398.00000   47.65220   76.03420  160.05780
 2398.50000   42.49270   75.25290  150.29710
 2399.00000   34.83750   81.45030  143.68630
 2399.50000   29.02390   82.01460  140.99960
 2400.00000   29.58820   76.55020  137.37440
 2400.50000   33.17160   70.77280  134.50460
 2401.00000   36.41780   67.68490  132.76730
 2401.50000   34.20540   64.60170  130.84800
 2402.00000   27.16190   61.04780  126.75830
 2402.50000   21.58880   58.60680  116.45600
 2403.00000   19.86940   58.46790  110.09250
 2403.50000   20.34240   58.68460  109.15400
 2404.00000   21.67130   58.70800  109.14080
 2404.50000   22.66020   58.45040  108.87970
 2405.00000   22.64850   58.44550  107.75150
 2405.50000   21.64280   58.66720  106.75230
 2406.00000   21.25280   58.57230  106.75920
 2406.50000   21.41550   58.25380  106.56130
 2407.00000   22.34400   57.28730  105.73540
 2407.50000   22.64570   55.89590  103.91780
 2408.00000   23.03450   55.77440  104.78560
 2408.50000   24.70810   56.98600  106.26870
 2409.00000   29.47810   58.54970  107.70990
 2409.50000   35.36020   60.84180  110.31040
 2410.00000   44.28510   62.91430  113.20940
 2410.50000   52.37570   64.20930  116.11130
 2411.00000   54.57740   65.09760  118.07210
 2411.50000   50.30990   66.05210  119.64430
 2412.00000   44.49510   67.02150  121.12380
 2412.50000   42.60440   67.75910  123.66090
 2413.00000   43.13160   68.85190  126.14730
 2413.50000   42.88720   69.58910  128.10530
 2414.00000   41.81410   70.32040  129.97220
 2414.50000   40.13410   71.18830  131.53310
 2415.00000   39.50470   71.45920  132.88680
 2415.50000   39.29340   71.36250  134.49610
 2416.00000   38.92680   71.56940  135.37940
 2416.50000   37.91000   71.85710  135.47980
 2417.00000   36.74830   71.82890  134.97660
 2417.50000   36.74110   71.48330  134.25050
 2418.00000   37.51410   71.03560  133.46680
 2418.50000   38.27290   70.73130  132.62480
 2419.00000   39.08650   70.65430  131.69380
 2419.50000   40.11820   70.30900  131.02710
 2420.00000   42.15860   69.60440  130.14570
 2420.50000   44.11730   68.70250  129.33850
 2421.00000   45.37620   68.35790  128.53120
 2421.50000   45.43160   68.15100  127.89390
 2422.00000   43.73210   67.48790  126.97190
 2422.50000   41.34090   66.50320  125.77620
 2423.00000   39.64170   65.76820  124.58050
 2423.50000   40.18310   65.35180  123.38470
 2424.00000   44.21340   64.93540  122.79220
 2424.50000   51.98270   64.62160  122.26420
 2425.00000   56.99960   64.82670  121.77320
 2425.50000   54.63920   65.24110  121.50240
 2426.00000   46.04830   65.52690  121.23150
 2426.50000   36.71950   65.54550  120.25960
 2427.00000   31.83750   64.37900  119.15990
 2427.50000   30.78170   62.63560  118.06010
 2428.00000   31.85200   61.34780  116.79720
 2428.50000   33.05210   60.77940  115.43800
 2429.00000   33.59680   61.17380  114.73850
 2429.50000   34.12050   61.87220  116.32100
 2430.00000   35.41160   63.67890  117.94020
 2430.50000   36.67280   65.77200  119.55020
 2431.00000   36.69810   67.47780  122.27590
 2431.50000   36.07670   68.79040  125.64880
 2432.00000   35.44090   69.90620  128.10760
 2432.50000   34.57900   70.58660  130.36980
 2433.00000   33.48210   70.88030  131.27210
 2433.50000   32.53330   71.02790  132.07650
 2434.00000   30.30050   71.20210  132.58870
 2434.50000   28.33360   71.38220  132.97020
 2435.00000   27.93990   71.54630  133.12700
 2435.50000   28.34260   71.84260  133.26750
 2436.00000   27.53150   72.13950  133.55080
 2436.50000   25.91640   72.25240  133.75490
 2437.00000   24.53080   72.12020  133.76010
 2437.50000   23.61570   71.54040  132.97780
 2438.00000   23.34920   70.66220  132.16420
 2438.50000   23.59730   69.60350  130.52280
 2439.00000   23.94080   68.86380  128.73920
 2439.50000   23.76160   68.46450  127.58370
 2440.00000   23.79540   68.22070  127.02170
 2440.50000   24.09710   68.27690  127.12060
 2441.00000   24.21710   68.84240  127.45260
 2441.50000   23.44440   69.53180  127.92130
 2442.00000   22.54240   70.09210  128.91890
 2442.50000   24.11280   70.61950  130.02070
 2443.00000   26.61390   71.17670  131.10550
 2443.50000   28.42910   71.76860  131.73540
 2444.00000   28.87010   72.09470  131.93140
 2444.50000   29.60700   72.16770  131.97130
 2445.00000   31.01840   72.05820  131.93930
 2445.50000   32.70400   71.91750  131.61350
 2446.00000   33.55450   71.61780  131.36610
 2446.50000   33.26300   71.30940  131.12450
 2447.00000   32.97450   70.96300  130.55180
 2447.50000   33.34150   70.68230  129.74400
 2448.00000   34.45180   70.63960  128.91070
 2448.50000   35.37300   70.66480  128.50020
 2449.00000   35.81970   70.67180  128.36740
 2449.50000   35.65660   70.44690  128.31030
 2450.00000   34.74690   69.97100  128.16690
 2450.50000   33.20460   69.39030  127.86540
 2451.00000   30.21770   68.59570  127.16430
 2451.50000   26.91250   68.05590  126.49470
 2452.00000   24.73170   68.00830  125.88450
 2452.50000   24.09540   68.13350  125.46370
 2453.00000   26.61950   68.34950  125.52920
 2453.50000   27.90230   68.50120  125.98310
 2454.00000   27.04100   68.80500  126.43700
 2454.50000   24.50410   69.14580  126.74650
 2455.00000   22.74340   69.45830  127.12240
 2455.50000   22.36000   70.03660  127.82110
 2456.00000   22.18210   70.67850  129.02190
 2456.50000   21.62480   71.26550  130.86760
 2457.00000   20.83000   71.30500  131.91280
 2457.50000   21.48750   71.16040  131.93450
 2458.00000   24.81130   70.90830  131.18800
 2458.50000   28.97990   70.39350  130.17870
 2459.00000   31.67460   69.98400  129.16430
 2459.50000   32.05050   69.73610  127.93160
 2460.00000   32.23890   69.95780  127.64270
 2460.50000   33.04020   70.33650  127.73490
 2461.00000   35.16770   70.62150  129.21530
 2461.50000   36.83500   70.85990  130.51260
 2462.00000   37.71670   70.90510  130.73930
 2462.50000   39.26340   70.63860  130.13920
 2463.00000   41.46960   70.19970  129.10680
 2463.50000   42.41590   69.81150  128.13510
 2464.00000   42.08660   69.72470  127.16330
 2464.50000   39.70600   69.68800  126.50000
 2465.00000   36.00900   69.28750  126.18500
 2465.50000   30.71320   68.74480  126.17230
 2466.00000   27.64920   68.32460  126.17000
 2466.50000   26.67990   68.27750  126.20910
 2467.00000   28.29740   68.88150  127.01620
 2467.50000   29.46770   70.08930  128.75010
 2468.00000   27.91450   71.40380  131.12740
 2468.50000   25.79430   72.90270  132.72030
 2469.00000   22.44690   73.61820  133.82020
 2469.50000   19.40410   73.66350  133.73530
