~Version ---------------------------------------------------
VERS.   2.0 : CWLS log ASCII Standard -VERSION 2.0
WRAP.    NO : One line per depth step
DLM . SPACE : Column Data Section Delimiter
~Well ------------------------------------------------------
STRT .F                  334.0 : START DEPTH
STOP .F                 6432.0 : STOP DEPTH
STEP .F                    0.5 : STEP
NULL .                -9999.25 : NULL VALUE
COMP .                         : COMPANY
WELL .                         : WELL
FLD  .                         : FIELD
LOC  .                         : LOCATION
PROV .                         : PROVINCE
CNTY .                         : COUNTY
STAT .                         : STATE
CTRY .                         : COUNTRY
SRVC .                         : SERVICE COMPANY
DATE .                         : DATE
UWI  .                         : UNIQUE WELL ID
API  .                         : API NUMBER
SLAT .WGS84 3.9338107089458987 : SURFACE LATITUDE
SLON .WGS84  4.685115191420991 : SURFACE LONGITUDE
DATUM.F                1639.13 : DEPTH DATUM ELEV
~Curve Information -----------------------------------------
DEPT.F     : 1 MEASURED DEPTH
GRS .GAPI  : GAMMA RAY FROM SONIC LOG
DTCO.US/F  : DELTA-T COMPRESSIONAL
DTSM.US/F  : DELTA-T SHEAR
~Params ----------------------------------------------------
~Other -----------------------------------------------------
~ASCII -----------------------------------------------------
# ...
 1580.00000   62.94460   59.88590  155.00280
 1580.50000   62.76720   59.36820  146.30150
 1581.00000   56.80680   59.99390  143.06040
 1581.50000   48.29490   61.08150  142.20970
 1582.00000   38.34530   61.91840  144.29960
 1582.50000   34.62180   62.13800  151.11780
 1583.00000   40.95590   63.97260  163.76370
 1583.50000   56.29220   67.85640  172.46050
 1584.00000   73.08840   66.51820  173.22260
 1584.50000   76.04510   63.46620  164.91760
 1585.00000   68.01020   62.48300  154.90690
 1585.50000   52.28050   61.57610  141.72240
 1586.00000   39.43750   60.62010  129.61110
 1586.50000   35.22120   59.98760  120.91950
 1587.00000   34.15050   60.52670  114.51710
 1587.50000   33.07690   61.92490  113.21650
 1588.00000   31.86370   63.23560  112.84820
 1588.50000   32.96300   64.73970  119.62690
 1589.00000   42.39320   66.26410  126.65480
 1589.50000   54.38840   67.65360  131.41400
 1590.00000   55.83500   67.78900  135.94200
 1590.50000   51.23470   66.79190  138.88470
 1591.00000   46.71540   66.15750  139.01460
 1591.50000   47.71870   67.24850  138.02630
 1592.00000   53.29910   69.09410  136.87510
 1592.50000   56.08740   70.92680  136.56810
 1593.00000   55.17480   71.69530  139.07380
 1593.50000   53.09120   72.19600  142.16660
 1594.00000   53.56130   72.69660  145.23400
 1594.50000   57.82280   73.19720  146.18590
 1595.00000   58.18820   73.29010  144.88910
 1595.50000   54.41740   70.40620  138.61960
 1596.00000   48.36680   64.43150  130.48200
 1596.50000   44.50960   59.89040  121.02280
 1597.00000   41.69880   55.65980  112.25430
 1597.50000   38.53980   52.98580  104.82760
 1598.00000   33.56790   51.45260  100.87040
 1598.50000   28.62730   51.66520  101.20900
 1599.00000   25.18900   56.27310  106.34040
 1599.50000   28.65450   61.62290  111.93420
 1600.00000   38.70140   64.36520  117.52800
 1600.50000   48.65560   65.65260  118.44170
 1601.00000   53.61720   65.26620  117.43730
 1601.50000   52.87650   62.99820  114.38910
 1602.00000   48.48760   60.28890  110.67930
 1602.50000   43.50240   58.37200  105.54160
 1603.00000   36.40920   57.04310  102.02870
 1603.50000   31.23180   55.89600  100.11070
 1604.00000   29.10610   55.12420   99.66920
 1604.50000   28.20240   54.79200  100.09870
 1605.00000   27.00500   54.88320  100.51910
 1605.50000   24.59640   54.89130  101.53970
 1606.00000   23.06840   54.80600  102.85700
 1606.50000   23.12570   55.29210  103.75230
 1607.00000   24.52200   56.45520  104.64760
 1607.50000   26.51350   57.13690  104.85300
 1608.00000   29.50950   57.76080  105.14620
 1608.50000   32.40840   59.14220  107.35810
 1609.00000   35.88760   59.88280  114.88650
 1609.50000   41.34620   59.08000  123.82060
 1610.00000   50.14060   59.10300  132.88280
 1610.50000   57.08800   59.19720  134.49950
 1611.00000   58.17520   58.85180  130.87750
 1611.50000   53.00950   58.60640  124.76970
 1612.00000   46.49900   58.43140  113.92400
 1612.50000   41.88230   57.41610  104.72410
 1613.00000   37.26630   55.11700   99.99080
 1613.50000   31.16880   53.43380   98.95350
 1614.00000   26.17070   53.56230  101.08180
 1614.50000   25.54260   55.54330  104.99290
 1615.00000   30.77120   58.38800  105.39050
 1615.50000   38.16050   59.75340  104.50230
 1616.00000   44.78790   60.57920  101.11380
 1616.50000   44.89390   61.04040   94.84140
 1617.00000   39.70300   61.00890   93.17300
 1617.50000   31.60300   60.75610   97.91230
 1618.00000   28.85760   61.17740  107.22740
 1618.50000   33.32410   65.02860  117.08230
 1619.00000   43.57290   73.14270  125.98920
 1619.50000   49.54890   78.30470  130.80180
 1620.00000   47.13150   79.04500  143.66160
 1620.50000   41.01910   78.83990  163.94160
 1621.00000   41.96810   77.57870  179.80720
 1621.50000   51.41400   73.03870  163.09810
 1622.00000   64.32270   66.00960  119.33130
 1622.50000   69.91450   60.06600   91.89430
 1623.00000   65.88670   56.05010   94.81000
 1623.50000   52.61210   54.10250   99.25680
 1624.00000   34.97740   54.33940   98.93620
 1624.50000   25.41430   55.77690   98.61550
 1625.00000   23.55600   56.69470  101.01040
 1625.50000   28.33940   56.24020  104.44030
 1626.00000   34.52990   55.29120  106.18490
 1626.50000   35.15060   63.94480  107.78230
 1627.00000   31.41190   77.61130  119.97850
 1627.50000   26.93770   89.48380  129.89820
 1628.00000   25.42540   92.62600  137.25200
 1628.50000   28.07710   91.46200  146.73730
 1629.00000   36.34080   88.24210  158.10050
 1629.50000   45.83530   83.59440  166.44180
 1630.00000   49.30780   77.46590  167.62910
 1630.50000   49.65550   69.75010  164.09680
 1631.00000   46.48660   66.03260  148.69190
 1631.50000   42.18690   64.48610  136.43520
 1632.00000   38.34990   65.97390  125.55060
 1632.50000   35.45000   68.06760  120.65030
 1633.00000   30.51470   66.64490  116.95000
 1633.50000   25.50290   64.03230  115.36170
 1634.00000   24.54850   61.98440  113.40930
 1634.50000   28.63460   60.16990  111.17080
 1635.00000   32.55880   58.43770  107.78160
 1635.50000   29.42040   55.81370  103.02710
 1636.00000   21.90210   51.07720  101.48620
 1636.50000   15.65190   49.05700   99.96510
 1637.00000   12.89370   50.36910   98.15600
 1637.50000   15.26400   52.09840   96.40190
 1638.00000   20.41850   53.10970   96.95200
 1638.50000   26.80370   54.20330   96.95200
 1639.00000   32.89840   57.68900   98.50080
 1639.50000   35.85650   61.53200  100.69460
 1640.00000   36.22550   61.52730  106.47520
 1640.50000   36.94120   61.41800  112.74730
 1641.00000   39.35550   62.85350  119.01930
 1641.50000   42.16750   64.24170  120.14510
 1642.00000   43.85520   63.84520  116.66270
 1642.50000   45.20680   61.82550  113.18030
 1643.00000   41.50580   59.69090  109.69790
 1643.50000   32.73410   57.83610  106.26130
 1644.00000   25.74570   55.36850  103.22520
 1644.50000   26.47560   53.86270  102.18900
 1645.00000   34.44630   53.77960   99.76500
 1645.50000   39.41920   53.96730   97.76920
 1646.00000   38.66530   53.51540   96.79930
 1646.50000   34.86210   52.98670   96.22330
 1647.00000   31.59790   53.60700   97.62200
 1647.50000   30.48970   55.26750  101.29170
 1648.00000   30.02720   56.61570  103.56050
 1648.50000   29.44970   57.69320  106.93520
 1649.00000   29.47120   59.77980  110.85190
 1649.50000   30.83560   62.04660  116.03360
 1650.00000   34.47830   63.14380  117.86040
 1650.50000   37.98400   63.14430  119.68010
 1651.00000   40.92230   62.55580  122.61590
 1651.50000   42.84060   62.40640  123.04830
 1652.00000   43.81340   62.49140  121.75010
 1652.50000   44.32040   62.00440  119.98740
 1653.00000   42.31360   61.14100  118.81170
 1653.50000   37.76070   60.57960  119.05830
 1654.00000   32.26530   60.86950  124.83950
 1654.50000   30.31520   64.17350  135.32030
 1655.00000   34.46140   67.77980  146.38790
 1655.50000   46.11150   64.32290  154.30040
 1656.00000   56.31220   56.51890  154.28520
 1656.50000   56.22530   51.24950  151.60800
 1657.00000   47.07140   51.65110  147.04810
 1657.50000   33.24040   50.62580  128.68620
 1658.00000   24.65930   50.09110  111.07810
 1658.50000   20.10620   51.35130   98.25320
 1659.00000   21.65540   52.93270   97.03790
 1659.50000   25.09880   54.13390   96.87210
 1660.00000   27.56050   54.05850   96.83530
 1660.50000   28.16670   53.44320   96.83780
 1661.00000   26.93920   52.72560   96.66340
 1661.50000   25.26420   52.30690   96.41560
 1662.00000   25.13790   52.24780   96.61240
 1662.50000   27.12310   52.58880  101.47450
 1663.00000   31.06430   55.80240  113.89740
 1663.50000   37.17930   61.98490  128.61330
 1664.00000   48.21670   68.14790  139.67080
 1664.50000   61.96150   73.45510  140.16630
 1665.00000   69.77700   74.48650  137.55390
 1665.50000   66.39180   73.82050  131.78180
 1666.00000   50.95800   72.14270  129.30180
 1666.50000   36.97470   69.48240  127.12570
 1667.00000   34.79090   66.76450  125.72360
 1667.50000   43.52480   63.92900  124.32140
 1668.00000   50.23050   61.00580  123.30300
 1668.50000   47.10720   59.67790  121.71180
