~Version ---------------------------------------------------
VERS.   2.0 : CWLS log ASCII Standard -VERSION 2.0
WRAP.    NO : One line per depth step
DLM . SPACE : Column Data Section Delimiter
~Well ------------------------------------------------------
STRT .F                  334.0 : START DEPTH
STOP .F                 6432.0 : STOP DEPTH
STEP .F                    0.5 : STEP
NULL .                -9999.25 : NULL VALUE
COMP .                         : COMPANY
WELL .                         : WELL
FLD  .                         : FIELD
LOC  .                         : LOCATION
PROV .                         : PROVINCE
CNTY .                         : COUNTY
STAT .                         : STATE
CTRY .                         : COUNTRY
SRVC .                         : SERVICE COMPANY
DATE .                         : DATE
UWI  .                         : UNIQUE WELL ID
API  .                         : API NUMBER
SLAT .WGS84 3.9338107089458987 : SURFACE LATITUDE
SLON .WGS84  4.685115191420991 : SURFACE LONGITUDE
DATUM.F                1639.13 : DEPTH DATUM ELEV
~Curve Information -----------------------------------------
DEPT.F     : 1 MEASURED DEPTH
GRS .GAPI  : GAMMA RAY FROM SONIC LOG
DTCO.US/F  : DELTA-T COMPRESSIONAL
DTSM.US/F  : DELTA-T SHEAR
~Params ----------------------------------------------------
~Other -----------------------------------------------------
~ASCII -----------------------------------------------------
# ...
 4784.00000   45.09030   74.45630  123.11600
 4784.50000   53.29160   73.99390  123.24390
 4785.00000   64.42850   73.26310  123.01400
 4785.50000   68.54900   72.58050  122.70110
 4786.00000   63.98980   72.23380  122.76370
 4786.50000   54.09290   72.20730  123.15060
 4787.00000   46.23410   72.43960  123.68310
 4787.50000   46.02230   72.80880  124.31440
 4788.00000   53.28380   73.10220  125.45040
 4788.50000   62.00940   73.48410  126.82810
 4789.00000   66.41900   73.88540  128.66460
 4789.50000   64.64350   74.73810  131.43990
 4790.00000   63.11360   76.12560  137.05490
 4790.50000   66.73210   78.89680  141.72390
 4791.00000   79.00420   81.04960  146.13590
 4791.50000   96.03840   81.86780  147.95870
 4792.00000  110.12360   81.84350  147.90630
 4792.50000  121.59090   81.28900  147.25010
 4793.00000  125.02730   80.12990  144.24470
 4793.50000  124.12820   77.90410  140.48430
 4794.00000  120.36220   75.48740  137.30020
 4794.50000  116.56320   73.28990  134.36980
 4795.00000  113.45180   72.77900  131.56310
 4795.50000  110.22710   73.05860  129.33360
 4796.00000  102.83920   73.24900  126.20380
 4796.50000   90.52870   72.74360  123.23190
 4797.00000   74.04700   71.82920  119.52330
 4797.50000   61.74330   70.87710  117.55090
 4798.00000   54.45680   69.71710  116.54920
 4798.50000   51.97800   69.30950  115.53140
 4799.00000   49.09500   69.50590  114.76820
 4799.50000   42.82570   70.25070  114.65780
 4800.00000   36.61480   71.72510  115.70930
 4800.50000   34.00930   73.15130  116.77610
 4801.00000   36.42370   73.54600  117.80260
 4801.50000   39.49390   73.22570  118.98610
 4802.00000   39.21190   73.20700  120.66770
 4802.50000   36.83000   73.51900  121.77570
 4803.00000   35.54010   73.94210  122.84770
 4803.50000   42.91380   74.37960  124.33370
 4804.00000   59.43000   74.38040  125.50870
 4804.50000   77.57300   74.24490  126.13090
 4805.00000   89.61190   73.64660  126.75310
 4805.50000   91.36870   72.47640  126.75280
 4806.00000   85.82310   71.99630  126.92780
 4806.50000   78.36870   72.42120  127.26380
 4807.00000   75.73230   73.61760  129.09060
 4807.50000   83.12420   74.84610  131.60620
 4808.00000   98.19710   75.78710  133.26830
 4808.50000  112.48390   75.88980  134.56890
 4809.00000  115.32870   75.38750  135.08490
 4809.50000  113.16480   74.15200  134.40510
 4810.00000  110.33510   73.27460  132.90480
 4810.50000  107.66620   72.95790  131.72100
 4811.00000  104.37240   73.65300  131.50380
 4811.50000  101.82520   74.39890  132.28850
 4812.00000  102.34800   75.05740  133.20950
 4812.50000  104.90010   75.81130  134.08270
 4813.00000  108.52040   76.41940  134.66320
 4813.50000  110.88070   76.42000  134.61470
 4814.00000  112.01860   75.88420  134.56620
 4814.50000  111.70930   75.04580  134.31340
 4815.00000  108.94770   74.24310  133.77270
 4815.50000  104.77760   73.71680  133.59670
 4816.00000   98.74670   74.12880  133.81760
 4816.50000   96.85370   75.75080  134.45630
 4817.00000  100.33700   76.68320  137.63210
 4817.50000  106.90570   77.22390  141.58610
 4818.00000  111.08120   78.00110  144.38420
 4818.50000  114.59160   78.88500  145.31490
 4819.00000  118.07620   80.08900  144.03250
 4819.50000  118.14320   80.14990  140.89520
 4820.00000  107.69770   77.36100  136.87640
 4820.50000   90.02830   74.45280  132.40770
 4821.00000   69.20150   72.15090  128.46040
 4821.50000   52.38150   71.55010  123.25370
 4822.00000   43.67540   71.61520  121.26290
 4822.50000   39.61580   71.65610  120.24460
 4823.00000   38.88030   71.51770  119.22490
 4823.50000   40.77340   71.12530  118.08050
 4824.00000   43.19910   70.55450  116.85630
 4824.50000   43.81780   69.53730  115.25310
 4825.00000   38.54080   68.50090  112.42200
 4825.50000   30.82340   67.86100  110.48550
 4826.00000   24.78370   67.75570  109.57220
 4826.50000   22.25680   67.85090  110.16650
 4827.00000   22.82060   69.02800  111.45180
 4827.50000   24.48080   70.67310  112.96720
 4828.00000   27.66100   72.01650  116.57880
 4828.50000   33.32640   72.32770  121.21620
 4829.00000   45.42360   71.60730  126.59320
 4829.50000   62.43760   71.09900  129.98160
 4830.00000   81.11430   72.03950  132.21570
 4830.50000   93.03440   74.59370  134.82150
 4831.00000   99.28400   77.39910  139.66630
 4831.50000  104.24880   79.08010  142.76640
 4832.00000  108.63590   80.40460  145.03330
 4832.50000  112.70560   81.41120  147.21210
 4833.00000  117.19670   81.72820  150.08240
 4833.50000  121.09180   81.54940  152.40640
 4834.00000  123.60550   81.67380  152.89800
 4834.50000  123.03910   82.10390  152.74170
 4835.00000  120.52440   82.61520  153.40690
 4835.50000  119.46000   82.82340  154.07210
 4836.00000  120.07920   82.17820  153.19580
 4836.50000  123.34130   81.09630  151.87490
 4837.00000  125.23170   80.19500  152.24410
 4837.50000  125.49410   79.37390  154.44370
 4838.00000  125.75890   79.37980  154.73950
 4838.50000  127.12170   79.61650  153.53380
 4839.00000  128.31600   79.61110  151.61790
 4839.50000  126.58190   79.93350  149.86110
 4840.00000  122.19590   80.60210  148.84440
 4840.50000  118.05380   81.01470  148.22660
 4841.00000  115.21500   80.87190  147.80050
 4841.50000  113.20080   80.83490  148.91360
 4842.00000  113.00030   81.81840  152.66670
 4842.50000  115.26860   83.09650  156.04830
 4843.00000  119.75020   83.49330  156.92700
 4843.50000  123.88060   83.10220  158.03490
 4844.00000  125.24030   82.93140  159.59340
 4844.50000  124.57870   82.90640  161.36740
 4845.00000  122.18860   83.49540  163.45350
 4845.50000  119.89560   84.30490  165.78370
 4846.00000  118.04470   85.37780  167.30020
 4846.50000  117.57380   86.84420  169.24630
 4847.00000  120.43000   88.51380  171.66530
 4847.50000  125.67270   90.04680  172.91890
 4848.00000  130.38530   91.14940  172.28700
 4848.50000  132.72200   91.68950  170.64140
 4849.00000  132.27660   90.47440  169.02470
 4849.50000  128.55860   88.68210  167.58870
 4850.00000  124.88500   87.06480  164.81620
 4850.50000  120.09150   85.79190  161.96700
 4851.00000  119.52490   82.86800  159.91600
 4851.50000  119.33750   78.61910  158.42600
 4852.00000  116.86850   76.40380  158.09730
 4852.50000  110.45000   76.67720  158.11240
 4853.00000  101.36160   78.28450  160.57160
 4853.50000   97.44050   81.65090  164.28720
 4854.00000  103.62630   85.28270  166.25800
 4854.50000  113.15010   88.74010  163.40350
 4855.00000  120.63680   91.00230  159.25070
 4855.50000  122.29320   89.22410  152.49010
 4856.00000  115.28140   82.28960  142.24270
 4856.50000   97.93940   74.60800  133.48210
 4857.00000   77.73740   70.06680  133.06040
 4857.50000   66.12140   71.89000  137.75560
 4858.00000   67.97940   77.25070  145.09130
 4858.50000   90.11130   81.40960  153.47620
 4859.00000  108.96020   84.46830  162.01430
 4859.50000  121.00460   86.61710  166.41680
 4860.00000  125.51230   86.95870  167.74510
 4860.50000  127.91780   86.67580  168.37210
 4861.00000  129.70250   86.49030  167.16890
 4861.50000  130.47690   86.07990  164.26240
 4862.00000  129.89000   84.87080  161.01260
 4862.50000  127.56280   83.96870  158.93780
 4863.00000  125.50990   82.89270  158.22100
 4863.50000  124.77510   81.21950  157.34950
 4864.00000  124.21730   80.35200  156.99550
 4864.50000  119.95770   80.42420  156.72040
 4865.00000  114.11340   80.79940  156.73490
 4865.50000  109.05450   81.10980  156.86870
 4866.00000  109.36300   81.08800  156.87690
 4866.50000  114.10090   81.05870  156.83780
 4867.00000  119.01180   81.50600  156.80790
 4867.50000  120.63790   81.46270  156.63200
 4868.00000  119.40100   80.93390  156.11660
 4868.50000  117.63290   80.40690  155.22110
 4869.00000  115.80730   80.21350  153.70080
 4869.50000  114.22410   79.81600  152.46410
 4870.00000  113.48840   79.37470  151.27030
 4870.50000  113.41720   79.17010  150.49320
 4871.00000  114.10190   79.19640  150.63160
 4871.50000  114.54650   79.40360  151.93800
 4872.00000  113.99130   79.72980  152.59070
 4872.50000  111.20340   80.25050  152.83100
