~Version ---------------------------------------------------
VERS.   2.0 : CWLS log ASCII Standard -VERSION 2.0
WRAP.    NO : One line per depth step
DLM . SPACE : Column Data Section Delimiter
~Well ------------------------------------------------------
STRT .F                  334.0 : START DEPTH
STOP .F                 6432.0 : STOP DEPTH
STEP .F                    0.5 : STEP
NULL .                -9999.25 : NULL VALUE
COMP .                         : COMPANY
WELL .                         : WELL
FLD  .                         : FIELD
LOC  .                         : LOCATION
PROV .                         : PROVINCE
CNTY .                         : COUNTY
STAT .                         : STATE
CTRY .                         : COUNTRY
SRVC .                         : SERVICE COMPANY
DATE .                         : DATE
UWI  .                         : UNIQUE WELL ID
API  .                         : API NUMBER
SLAT .WGS84 3.9338107089458987 : SURFACE LATITUDE
SLON .WGS84  4.685115191420991 : SURFACE LONGITUDE
DATUM.F                1639.13 : DEPTH DATUM ELEV
~Curve Information -----------------------------------------
DEPT.F     : 1 MEASURED DEPTH
GRS .GAPI  : GAMMA RAY FROM SONIC LOG
DTCO.US/F  : DELTA-T COMPRESSIONAL
DTSM.US/F  : DELTA-T SHEAR
~Params ----------------------------------------------------
~Other -----------------------------------------------------
~ASCII -----------------------------------------------------
# ...
 5941.00000   31.43430   55.19060  107.32270
 5941.50000   29.73990   55.08430  107.28570
 5942.00000   28.03190   55.15430  107.44110
 5942.50000   27.11470   55.35470  107.74540
 5943.00000   26.36450   55.59880  108.07320
 5943.50000   25.84450   55.81160  107.90300
 5944.00000   25.56610   55.85700  107.67240
 5944.50000   25.43720   55.81060  107.76450
 5945.00000   25.25240   55.54070  107.74010
 5945.50000   25.27630   55.36200  107.07300
 5946.00000   26.06060   55.16010  106.23550
 5946.50000   26.82450   54.75320  105.41610
 5947.00000   26.73400   53.84310  103.26820
 5947.50000   26.57120   52.59540  100.63390
 5948.00000   27.04510   51.65580   99.88120
 5948.50000   27.66780   51.26660   99.76510
 5949.00000   26.64060   51.46660  100.23680
 5949.50000   25.13580   52.23170  100.72960
 5950.00000   26.56080   53.26060  101.22230
 5950.50000   30.71010   54.02950  101.38350
 5951.00000   34.11640   54.15570  101.06000
 5951.50000   33.81660   53.78840  100.71970
 5952.00000   28.27520   53.02200   99.92510
 5952.50000   20.90370   52.17380   98.64450
 5953.00000   14.25600   51.48210   97.34150
 5953.50000   11.73750   50.62200   97.29270
 5954.00000   11.10150   50.10840   98.35950
 5954.50000   11.18060   50.03750   99.55970
 5955.00000   11.81780   50.35430  100.89520
 5955.50000   13.95600   52.94800  103.21260
 5956.00000   21.82610   59.84880  107.80840
 5956.50000   36.09380   67.23720  113.40250
 5957.00000   58.30480   69.76270  119.25160
 5957.50000   76.81390   70.12730  125.79540
 5958.00000   83.08680   69.47110  131.83290
 5958.50000   79.03940   68.16170  136.40940
 5959.00000   70.54940   67.81420  136.36620
 5959.50000   65.28010   69.94600  137.67750
 5960.00000   65.53090   73.29590  145.01100
 5960.50000   70.08080   76.47130  151.81480
 5961.00000   75.77820   80.27120  155.14760
 5961.50000   81.80270   83.25720  158.68610
 5962.00000   86.77330   81.56600  160.03450
 5962.50000   90.63040   72.09790  153.98020
 5963.00000   93.01240   62.14580  145.11570
 5963.50000   87.69850   54.35600  136.25120
 5964.00000   74.58180   52.01720  127.35980
 5964.50000   54.58140   51.64220  118.76050
 5965.00000   40.19930   50.90180  111.67300
 5965.50000   33.77120   50.68140  105.92190
 5966.00000   30.71730   52.09930  103.21680
 5966.50000   28.19700   53.43540  105.10340
 5967.00000   28.08280   53.98960  109.06510
 5967.50000   31.87480   56.01690  115.64240
 5968.00000   37.59180   59.19390  124.91620
 5968.50000   44.68620   61.08980  134.27410
 5969.00000   58.30030   62.81790  138.28530
 5969.50000   72.46360   64.72760  137.94120
 5970.00000   79.77070   65.40540  134.31180
 5970.50000   77.89530   65.15790  130.15480
 5971.00000   70.69570   64.28340  123.73830
 5971.50000   65.06570   63.20470  118.30520
 5972.00000   65.10900   61.86420  113.96910
 5972.50000   66.77460   60.03080  111.51550
 5973.00000   63.87000   57.78860  109.01540
 5973.50000   53.70620   55.44730  106.28490
 5974.00000   40.54760   53.66540  104.04300
 5974.50000   33.04980   52.85820  102.39000
 5975.00000   29.00010   52.56760  100.71630
 5975.50000   25.83480   52.10810   98.99020
 5976.00000   23.37580   51.38290   97.64350
 5976.50000   21.68040   50.98160   96.72420
 5977.00000   19.67380   50.89600   96.18290
 5977.50000   18.05160   50.99160   95.95270
 5978.00000   19.72350   51.22140   95.72240
 5978.50000   26.98050   51.12500   95.52080
 5979.00000   32.23300   50.61800   94.66320
 5979.50000   32.14350   49.98900   94.73730
 5980.00000   27.65530   49.77940   95.75450
 5980.50000   23.46340   50.35460   97.16260
 5981.00000   22.67010   52.21450   99.35940
 5981.50000   25.62920   54.44030  101.68370
 5982.00000   33.41720   56.61970  104.00800
 5982.50000   42.04380   58.00690  105.56500
 5983.00000   52.66210   57.78980  106.45110
 5983.50000   61.31520   56.63720  105.88380
 5984.00000   63.21650   54.90060  103.84880
 5984.50000   58.14650   53.08120  101.27710
 5985.00000   47.06310   51.19980   98.60840
 5985.50000   38.12810   49.53020   95.57090
 5986.00000   36.15620   49.32460   93.43800
 5986.50000   36.01090   49.35260   92.04770
 5987.00000   34.91600   49.41570   91.93600
 5987.50000   31.37560   49.45720   92.03710
 5988.00000   26.72250   49.61170   91.85050
 5988.50000   22.68330   49.81200   91.90090
 5989.00000   20.19670   49.96130   92.65620
 5989.50000   20.40860   50.14730   94.42490
 5990.00000   22.42390   50.59080   95.76860
 5990.50000   24.23000   51.23080   96.93040
 5991.00000   25.75470   51.96360   97.98990
 5991.50000   28.12180   52.62620   99.31240
 5992.00000   31.21880   53.08470  100.63480
 5992.50000   32.40730   53.57430  102.90660
 5993.00000   31.45540   54.40030  104.67360
 5993.50000   29.11280   55.55310  106.05880
 5994.00000   28.58930   57.12170  107.43840
 5994.50000   34.03900   58.64890  109.70030
 5995.00000   45.80770   60.16150  111.53050
 5995.50000   56.38650   61.11140  112.64000
 5996.00000   62.99780   61.04110  112.53760
 5996.50000   64.33460   59.63570  110.62190
 5997.00000   61.87290   57.97260  108.49180
 5997.50000   57.68580   56.01080  105.21810
 5998.00000   49.73520   53.63000  102.34060
 5998.50000   39.04210   51.63930   99.91340
 5999.00000   28.30040   50.02120   98.34830
 5999.50000   20.23460   49.60060   96.82410
 6000.00000   16.97630   50.36840   96.40670
 6000.50000   17.35740   51.78780   96.82960
 6001.00000   19.36890   53.12820   97.47760
 6001.50000   21.12480   54.19550   99.23570
 6002.00000   20.58690   55.04190  101.72260
 6002.50000   18.20100   55.74260  102.96610
 6003.00000   15.77140   55.88810  103.70080
 6003.50000   13.93930   55.85780  104.07470
 6004.00000   13.07090   55.93960  104.16740
 6004.50000   13.33510   56.11480  104.15500
 6005.00000   14.28350   56.03650  103.90380
 6005.50000   15.11180   55.70060  103.71390
 6006.00000   15.14930   55.41000  103.31590
 6006.50000   14.73690   55.10800  102.79980
 6007.00000   13.96190   54.55130  102.15420
 6007.50000   13.66120   53.89530  101.65870
 6008.00000   13.17910   53.09330  101.21530
 6008.50000   13.23640   52.54740  100.75920
 6009.00000   12.71890   52.00750   99.78560
 6009.50000   11.80390   51.58370   98.74380
 6010.00000   11.20210   51.12040   98.11630
 6010.50000   11.34110   50.65900   97.65930
 6011.00000   12.76230   50.37430   97.11140
 6011.50000   16.19130   50.33290   96.19740
 6012.00000   21.61970   50.48320   95.47670
 6012.50000   27.54560   50.80510   95.13760
 6013.00000   33.68960   51.13690   95.06840
 6013.50000   37.28670   51.49220   94.72090
 6014.00000   38.06170   51.72100   94.45210
 6014.50000   38.27410   51.75350   94.52580
 6015.00000   40.27510   51.36560   94.69820
 6015.50000   41.59310   50.70790   94.55500
 6016.00000   38.11050   49.94940   94.22360
 6016.50000   31.06460   49.32700   93.76560
 6017.00000   24.07460   49.10470   93.27110
 6017.50000   19.97390   49.09990   93.12540
 6018.00000   20.00340   49.36650   93.33670
 6018.50000   22.70200   49.65010   93.54800
 6019.00000   25.84530   49.84870   93.80840
 6019.50000   27.96890   49.99740   94.06870
 6020.00000   27.70540   50.15890   93.84880
 6020.50000   26.17520   50.33560   93.67020
 6021.00000   24.76280   50.51610   93.72500
 6021.50000   24.64950   50.74200   94.06690
 6022.00000   27.20850   50.78590   95.02500
 6022.50000   31.63120   50.71440   95.21320
 6023.00000   34.88480   50.52700   94.69920
 6023.50000   35.60620   50.26660   94.08130
 6024.00000   34.88320   49.89490   93.66480
 6024.50000   34.25680   49.52350   93.64750
 6025.00000   35.59600   49.33190   93.43100
 6025.50000   38.09500   49.20190   93.60390
 6026.00000   39.69130   49.26540   94.14680
 6026.50000   39.68170   49.53830   94.46030
 6027.00000   38.00670   49.89450   94.56940
 6027.50000   36.46190   50.29530   94.93110
 6028.00000   36.30380   50.96470   94.59390
 6028.50000   36.89640   51.46890   94.17840
 6029.00000   37.22150   51.56590   94.16450
 6029.50000   36.51400   51.40970   94.15050
