~Version ---------------------------------------------------
VERS.   2.0 : CWLS log ASCII Standard -VERSION 2.0
WRAP.    NO : One line per depth step
DLM . SPACE : Column Data Section Delimiter
~Well ------------------------------------------------------
STRT .F                  334.0 : START DEPTH
STOP .F                 6432.0 : STOP DEPTH
STEP .F                    0.5 : STEP
NULL .                -9999.25 : NULL VALUE
COMP .                         : COMPANY
WELL .                         : WELL
FLD  .                         : FIELD
LOC  .                         : LOCATION
PROV .                         : PROVINCE
CNTY .                         : COUNTY
STAT .                         : STATE
CTRY .                         : COUNTRY
SRVC .                         : SERVICE COMPANY
DATE .                         : DATE
UWI  .                         : UNIQUE WELL ID
API  .                         : API NUMBER
SLAT .WGS84 3.9338107089458987 : SURFACE LATITUDE
SLON .WGS84  4.685115191420991 : SURFACE LONGITUDE
DATUM.F                1639.13 : DEPTH DATUM ELEV
~Curve Information -----------------------------------------
DEPT.F     : 1 MEASURED DEPTH
GRS .GAPI  : GAMMA RAY FROM SONIC LOG
DTCO.US/F  : DELTA-T COMPRESSIONAL
DTSM.US/F  : DELTA-T SHEAR
~Params ----------------------------------------------------
~Other -----------------------------------------------------
~ASCII -----------------------------------------------------
# ...
 4339.00000   22.09680   50.08500   99.18980
 4339.50000   20.15160   49.75160   98.35460
 4340.00000   18.50860   49.00530   97.65110
 4340.50000   17.44290   47.97650   98.36770
 4341.00000   16.70700   47.18020  100.08480
 4341.50000   15.95750   46.86060  102.78820
 4342.00000   15.29570   46.91900  105.43090
 4342.50000   14.71800   47.34460  106.09900
 4343.00000   13.80850   48.67490  103.71260
 4343.50000   12.04190   49.89110  100.77710
 4344.00000   10.37090   50.18570   98.01570
 4344.50000   10.40230   50.16260   95.72230
 4345.00000   11.21480   50.05450   93.53290
 4345.50000   11.70400   50.09120   91.70990
 4346.00000   11.90840   50.00300   91.11860
 4346.50000   11.95910   49.76400   90.74250
 4347.00000   11.96310   49.59220   90.36650
 4347.50000   11.96710   49.67110   89.99050
 4348.00000   11.87900   50.11940   89.96800
 4348.50000   11.52670   50.40530   90.33760
 4349.00000   11.21050   50.50080   90.85580
 4349.50000   11.22130   50.99480   91.19890
 4350.00000   11.81150   52.43960   91.37590
 4350.50000   12.39290   53.20630   91.55180
 4351.00000   12.62990   52.86770   91.64500
 4351.50000   12.22860   51.98030   92.06490
 4352.00000   11.27460   50.99720   91.93620
 4352.50000   10.02300   49.86860   91.42690
 4353.00000    8.88010   49.11480   91.04710
 4353.50000    8.12270   49.16140   90.73600
 4354.00000    8.18310   49.66010   90.42490
 4354.50000    9.25240   50.17010   90.52380
 4355.00000   10.87760   50.24180   90.67330
 4355.50000   12.43700   49.81890   90.90380
 4356.00000   13.37760   49.43520   91.13300
 4356.50000   14.14770   49.31600   91.35790
 4357.00000   14.18140   49.36550   91.57560
 4357.50000   13.39000   49.49530   91.85510
 4358.00000   13.20070   49.59670   92.23880
 4358.50000   14.00810   49.64160   92.92730
 4359.00000   16.01540   49.64190   93.57190
 4359.50000   18.78640   49.63010   93.68270
 4360.00000   20.47250   49.74490   93.62830
 4360.50000   21.48190   49.90710   93.46070
 4361.00000   22.10250   49.53110   93.06710
 4361.50000   22.84820   48.73060   92.66270
 4362.00000   23.38760   48.16920   92.25830
 4362.50000   23.67940   48.27240   92.09760
 4363.00000   24.21000   48.23600   92.54090
 4363.50000   26.47370   47.90690   93.91030
 4364.00000   30.29430   47.90070   96.40050
 4364.50000   34.03040   47.97760   97.95140
 4365.00000   36.80910   48.32120   98.31490
 4365.50000   39.21720   49.08350   97.66780
 4366.00000   41.60060   49.72220   96.70110
 4366.50000   43.06370   50.32810   95.47540
 4367.00000   41.44830   50.48320   93.13350
 4367.50000   38.00530   50.45430   91.54160
 4368.00000   34.27030   50.18850   90.96240
 4368.50000   31.92330   49.65940   90.39650
 4369.00000   30.17010   49.33940   89.95680
 4369.50000   27.90900   49.53000   89.56700
 4370.00000   25.80510   50.16060   89.17720
 4370.50000   24.59330   50.43060   88.91400
 4371.00000   25.49680   50.34630   88.77190
 4371.50000   28.27510   50.32080   88.52350
 4372.00000   32.49340   50.28860   88.39490
 4372.50000   35.33490   50.21630   88.53990
 4373.00000   34.71010   50.18060   89.23630
 4373.50000   31.88040   50.23010   89.65330
 4374.00000   30.64140   50.05950   89.75500
 4374.50000   31.55690   49.72320   89.09300
 4375.00000   34.15460   49.56660   88.26980
 4375.50000   36.67130   49.84610   87.44670
 4376.00000   36.74000   50.58520   86.73470
 4376.50000   34.41520   51.30040   87.22190
 4377.00000   30.64570   51.33510   89.37120
 4377.50000   27.90860   50.82230   91.25840
 4378.00000   27.00410   50.20890   92.39060
 4378.50000   26.62230   49.75720   92.95500
 4379.00000   26.45090   49.57210   93.38640
 4379.50000   26.35420   49.64750   93.16790
 4380.00000   26.59030   50.20290   93.29680
 4380.50000   26.91770   51.40230   93.30550
 4381.00000   27.08700   52.89290   92.35590
 4381.50000   27.70490   53.39350   92.07420
 4382.00000   28.50030   53.53140   92.53490
 4382.50000   29.09340   53.63900   92.84650
 4383.00000   29.13540   53.57090   92.35020
 4383.50000   28.53590   53.10170   91.58180
 4384.00000   28.24090   51.94410   90.78600
 4384.50000   28.11500   50.85200   90.07000
 4385.00000   28.03030   50.70630   91.02660
 4385.50000   27.42780   51.14270   92.30500
 4386.00000   26.30890   51.53050   93.36760
 4386.50000   25.78650   51.77620   93.73100
 4387.00000   25.90940   52.30820   93.50540
 4387.50000   27.62990   53.18980   93.72710
 4388.00000   30.08960   53.59650   93.79410
 4388.50000   32.92720   53.41790   93.45370
 4389.00000   33.69430   52.85650   92.84200
 4389.50000   33.21040   52.27050   92.28630
 4390.00000   32.67480   51.57000   91.74540
 4390.50000   32.37010   50.79230   91.45890
 4391.00000   31.89640   49.69030   91.48910
 4391.50000   30.33560   49.24570   92.54620
 4392.00000   28.58150   49.82160   95.83110
 4392.50000   27.55240   50.80390   99.16700
 4393.00000   26.89500   52.20470  101.29240
 4393.50000   25.87080   53.39130  102.00560
 4394.00000   24.12290   53.44830  102.66510
 4394.50000   22.28910   53.13410  103.36060
 4395.00000   20.83160   52.78820  103.12700
 4395.50000   20.98880   52.18310  101.58380
 4396.00000   22.84530   51.05070   99.08510
 4396.50000   25.27040   50.15840   97.02730
 4397.00000   28.08610   50.04580   96.95850
 4397.50000   28.97260   51.02790   98.24270
 4398.00000   28.36370   52.01320   99.48900
 4398.50000   27.29700   52.99840   99.81110
 4399.00000   26.76940   53.98370   98.64370
 4399.50000   26.42990   53.33000   96.38550
 4400.00000   25.93010   52.10600   94.79060
 4400.50000   25.51340   51.22460   93.47960
 4401.00000   25.95660   51.03690   94.43940
 4401.50000   27.57800   51.08080   95.39700
 4402.00000   28.45590   50.81110   95.60370
 4402.50000   29.02550   50.13550   95.67780
 4403.00000   29.06270   49.33070   95.69590
 4403.50000   28.92030   49.28260   95.53940
 4404.00000   28.46800   49.64270   95.06830
 4404.50000   28.20810   49.67020   93.97630
 4405.00000   28.65800   49.14300   92.58910
 4405.50000   28.59310   48.50030   91.79630
 4406.00000   27.55090   47.69080   91.89960
 4406.50000   25.09000   47.31480   91.93030
 4407.00000   23.33150   47.34010   90.01950
 4407.50000   22.34290   47.63040   87.02350
 4408.00000   19.70680   48.29540   84.03890
 4408.50000   16.91420   49.24840   80.66650
 4409.00000   15.30470   49.73650   79.66660
 4409.50000   15.27740   49.24500   78.70070
 4410.00000   15.21940   48.70600   77.47600
 4410.50000   15.09710   48.44330   76.19560
 4411.00000   15.47260   48.67540   80.53520
 4411.50000   17.64420   48.92500   85.89680
 4412.00000   22.49700   49.19060   86.86930
 4412.50000   26.60770   49.64250   87.54500
 4413.00000   28.90860   50.24590   88.08270
 4413.50000   27.82030   50.34140   89.95320
 4414.00000   23.17550   49.88340   94.22670
 4414.50000   19.75020   49.37200   96.78770
 4415.00000   17.11380   48.93460   94.65440
 4415.50000   15.79660   48.43650   92.91840
 4416.00000   15.41830   48.05450   91.92560
 4416.50000   15.56460   47.96750   91.88180
 4417.00000   15.90740   48.17980   92.03250
 4417.50000   15.67890   48.69190   93.79050
 4418.00000   15.13410   48.97330   94.78600
 4418.50000   14.58940   49.08250   95.16360
 4419.00000   14.67760   49.10440   95.55050
 4419.50000   15.38380   49.10980   96.42700
 4420.00000   16.17370   49.23530   98.26210
 4420.50000   16.87990   49.54930   99.44990
 4421.00000   16.31340   49.93590   97.41680
 4421.50000   15.34160   50.32690   94.16770
 4422.00000   14.41130   50.59710   92.73920
 4422.50000   13.58790   50.69850   92.83670
 4423.00000   12.83880   50.17050   92.65770
 4423.50000   12.14320   49.36310   92.49610
 4424.00000   12.02570   49.01370   92.66620
 4424.50000   11.77840   48.42410   93.21760
 4425.00000   11.69750   47.90500   94.50470
 4425.50000   12.07540   47.33440   96.13340
 4426.00000   12.47200   47.17210   96.85810
 4426.50000   12.34240   47.67970   97.79720
 4427.00000   11.47330   48.46240   96.48500
 4427.50000   11.11070   48.87520   94.42910
