~Version ---------------------------------------------------
VERS.   2.0 : CWLS log ASCII Standard -VERSION 2.0
WRAP.    NO : One line per depth step
DLM . SPACE : Column Data Section Delimiter
~Well ------------------------------------------------------
STRT .F                  334.0 : START DEPTH
STOP .F                 6432.0 : STOP DEPTH
STEP .F                    0.5 : STEP
NULL .                -9999.25 : NULL VALUE
COMP .                         : COMPANY
WELL .                         : WELL
FLD  .                         : FIELD
LOC  .                         : LOCATION
PROV .                         : PROVINCE
CNTY .                         : COUNTY
STAT .                         : STATE
CTRY .                         : COUNTRY
SRVC .                         : SERVICE COMPANY
DATE .                         : DATE
UWI  .                         : UNIQUE WELL ID
API  .                         : API NUMBER
SLAT .WGS84 3.9338107089458987 : SURFACE LATITUDE
SLON .WGS84  4.685115191420991 : SURFACE LONGITUDE
DATUM.F                1639.13 : DEPTH DATUM ELEV
~Curve Information -----------------------------------------
DEPT.F     : 1 MEASURED DEPTH
GRS .GAPI  : GAMMA RAY FROM SONIC LOG
DTCO.US/F  : DELTA-T COMPRESSIONAL
DTSM.US/F  : DELTA-T SHEAR
~Params ----------------------------------------------------
~Other -----------------------------------------------------
~ASCII -----------------------------------------------------
# ...
 3983.00000  117.51260   81.38830  153.24170
 3983.50000  114.19420   80.86430  151.98870
 3984.00000  111.37990   80.54770  151.91310
 3984.50000  110.63760   80.56190  152.25840
 3985.00000  111.94420   81.31250  153.32250
 3985.50000  113.42250   82.10310  154.78580
 3986.00000  113.29990   82.82210  155.87890
 3986.50000  112.84580   83.36270  156.43180
 3987.00000  113.54850   83.67240  156.75040
 3987.50000  115.62020   83.93250  157.28750
 3988.00000  118.06450   84.39060  157.31930
 3988.50000  118.98940   84.91870  156.90090
 3989.00000  118.25470   84.77660  156.56470
 3989.50000  115.40140   84.30110  156.49730
 3990.00000  113.80360   83.72010  156.33610
 3990.50000  112.94980   83.14450  156.33570
 3991.00000  111.97060   81.64870  156.48060
 3991.50000  109.93380   80.40710  156.58350
 3992.00000  109.39900   80.50660  156.36300
 3992.50000  110.15010   81.27020  156.00720
 3993.00000  112.57360   82.21250  155.01390
 3993.50000  115.45650   82.91250  154.80130
 3994.00000  116.74790   83.11860  154.68900
 3994.50000  117.40990   83.31690  154.49880
 3995.00000  116.75930   83.74750  154.06240
 3995.50000  114.45440   83.89070  153.75710
 3996.00000  112.45120   83.48600  153.43720
 3996.50000  111.50110   82.96450  152.92730
 3997.00000  111.91480   82.70470  152.41740
 3997.50000  111.16850   82.34680  152.36880
 3998.00000  110.14950   81.83790  152.58510
 3998.50000  109.35660   81.19280  152.57830
 3999.00000  109.34280   80.93480  152.12320
 3999.50000  109.69420   81.04290  151.05530
 4000.00000  110.87120   81.28170  150.52920
 4000.50000  112.42950   81.29650  150.80360
 4001.00000  112.71370   80.61920  151.71500
 4001.50000  111.16250   80.69090  152.77990
 4002.00000  110.09120   81.76330  153.86120
 4002.50000  110.03980   82.75340  154.78800
 4003.00000  111.55360   83.09920  155.22140
 4003.50000  113.33490   82.90300  155.55590
 4004.00000  114.20950   82.18100  155.06960
 4004.50000  114.65430   81.48530  152.66580
 4005.00000  113.32260   81.30090  149.93870
 4005.50000  110.64210   81.63320  148.12430
 4006.00000  109.77160   81.68660  147.35310
 4006.50000  110.86370   81.50700  147.13320
 4007.00000  112.52470   81.70150  146.91620
 4007.50000  111.90880   81.83060  146.45890
 4008.00000  109.25190   80.72190  145.96180
 4008.50000  106.76610   79.58900  145.25820
 4009.00000  105.86890   78.44510  144.54130
 4009.50000  104.91760   77.40480  144.05980
 4010.00000  100.26780   76.73360  144.87410
 4010.50000   94.16860   76.76250  146.46430
 4011.00000   93.07470   78.43620  151.02520
 4011.50000   99.34160   81.89040  154.83310
 4012.00000  108.40250   84.73800  156.86960
 4012.50000  111.69110   85.79110  159.14120
 4013.00000  112.57040   86.16290  161.05180
 4013.50000  112.91010   86.31170  161.62450
 4014.00000  112.61210   85.78310  160.46150
 4014.50000  111.76310   84.89000  158.83280
 4015.00000  110.08520   83.11090  157.13230
 4015.50000  108.90720   80.82360  154.78090
 4016.00000  106.88670   79.34420  150.78730
 4016.50000  104.47770   79.11320  147.86500
 4017.00000  100.83010   79.57710  146.70630
 4017.50000   99.99350   80.26820  146.32180
 4018.00000  102.20570   80.73040  146.77010
 4018.50000  106.27130   80.83250  147.26840
 4019.00000  107.76750   80.41640  147.21580
 4019.50000  107.59080   79.94000  147.23170
 4020.00000  108.42710   79.76450  147.54560
 4020.50000  111.34190   79.70630  148.01770
 4021.00000  114.25960   80.07080  148.48190
 4021.50000  114.60380   80.76240  149.04040
 4022.00000  114.39320   81.46250  150.13840
 4022.50000  114.68260   81.82990  150.62500
 4023.00000  115.26650   81.87380  151.01670
 4023.50000  113.63460   81.43370  151.60100
 4024.00000  110.56740   81.39490  152.23440
 4024.50000  109.10920   81.46390  152.07010
 4025.00000  110.94530   81.56600  151.98680
 4025.50000  112.92740   82.12390  154.06420
 4026.00000  113.25380   82.85230  156.66920
 4026.50000  112.87010   83.35680  158.33890
 4027.00000  113.22760   84.57640  160.93750
 4027.50000  113.74000   85.95190  162.91850
 4028.00000  113.98170   85.98670  161.84270
 4028.50000  114.04540   85.93090  159.03860
 4029.00000  113.92560   86.17410  157.68080
 4029.50000  114.27730   85.84950  158.05740
 4030.00000  115.21280   84.85650  159.49400
 4030.50000  116.68730   84.38080  161.27120
 4031.00000  117.50860   84.96130  162.66320
 4031.50000  117.10130   85.76910  162.09500
 4032.00000  116.49470   86.17130  161.61940
 4032.50000  117.32930   86.36460  161.35450
 4033.00000  119.15330   86.49580  160.15390
 4033.50000  120.38280   86.25600  158.96370
 4034.00000  120.50350   85.78800  158.14300
 4034.50000  119.77930   85.44940  157.36950
 4035.00000  118.93170   85.04930  156.58520
 4035.50000  119.10760   84.46550  156.04900
 4036.00000  119.97240   83.57720  156.16940
 4036.50000  119.42500   83.12560  156.70650
 4037.00000  117.47020   84.30940  157.12250
 4037.50000  114.68910   85.54580  157.72390
 4038.00000  111.83920   85.69130  157.90140
 4038.50000  110.95180   85.58800  157.73740
 4039.00000  111.10260   85.72500  157.87930
 4039.50000  112.64080   86.09450  158.87900
 4040.00000  114.36960   85.75950  159.42120
 4040.50000  114.85420   85.19320  159.89450
 4041.00000  114.90380   84.67130  159.64800
 4041.50000  116.01460   84.27410  158.40640
 4042.00000  118.66600   83.50730  157.61890
 4042.50000  118.84040   82.76680  157.12530
 4043.00000  115.51300   82.45530  156.18280
 4043.50000  110.91860   82.24680  154.92870
 4044.00000  108.06750   81.78300  152.06070
 4044.50000  106.78710   81.21400  149.40140
 4045.00000  107.19920   80.98830  148.83230
 4045.50000  108.38430   81.58570  148.89890
 4046.00000  108.02530   82.59050  148.08820
 4046.50000  106.10490   82.36190  146.91460
 4047.00000  105.46220   81.02030  146.67500
 4047.50000  106.22770   81.08610  147.72870
 4048.00000  107.42810   82.73990  149.37440
 4048.50000  107.55350   83.09470  150.06260
 4049.00000  107.47900   81.95240  150.75070
 4049.50000  110.74860   81.05770  152.17970
 4050.00000  114.58470   81.81260  153.92990
 4050.50000  116.93530   83.76250  155.47460
 4051.00000  115.69610   84.45330  156.34210
 4051.50000  115.00270   84.71840  157.09300
 4052.00000  116.91280   85.29730  158.14980
 4052.50000  119.93240   86.09040  159.19320
 4053.00000  122.05490   86.47280  162.08110
 4053.50000  122.25630   87.10810  165.47080
 4054.00000  122.28960   88.14790  166.92700
 4054.50000  121.65190   88.83740  168.15390
 4055.00000  120.82280   89.08870  168.55980
 4055.50000  120.65250   89.16320  168.39720
 4056.00000  122.87060   89.01960  168.27060
 4056.50000  125.93110   88.47790  168.14380
 4057.00000  128.40870   87.90290  167.21590
 4057.50000  127.82500   87.36880  165.01940
 4058.00000  124.86150   86.54450  162.12570
 4058.50000  121.11520   85.56420  160.18570
 4059.00000  118.27690   84.75370  158.61620
 4059.50000  117.68760   83.85170  157.21220
 4060.00000  118.99570   83.17680  156.28980
 4060.50000  121.05130   82.78050  155.89540
 4061.00000  120.93750   82.73280  155.62710
 4061.50000  118.83700   82.39240  154.53140
 4062.00000  116.34560   82.51010  154.74850
 4062.50000  115.56530   83.15370  155.33140
 4063.00000  115.65050   84.33850  155.18730
 4063.50000  116.30820   84.54920  154.55660
 4064.00000  117.20060   84.14720  154.19230
 4064.50000  117.50390   83.91860  155.10670
 4065.00000  117.12310   84.01520  156.06650
 4065.50000  116.21120   83.75160  156.32750
 4066.00000  115.76560   83.34660  156.40230
 4066.50000  116.00850   83.41870  156.46460
 4067.00000  116.13830   83.86780  156.34330
 4067.50000  115.29480   84.20060  156.30310
 4068.00000  115.22430   84.49940  156.36570
 4068.50000  116.54120   84.62050  156.60630
 4069.00000  118.76980   84.58630  156.49150
 4069.50000  119.50050   84.77980  156.33980
 4070.00000  119.39470   85.04490  156.41530
 4070.50000  119.02690   85.24900  156.57270
 4071.00000  117.80380   84.97820  156.73010
 4071.50000  116.17350   84.69970  156.70670
