~Version ---------------------------------------------------
VERS.   2.0 : CWLS log ASCII Standard -VERSION 2.0
WRAP.    NO : One line per depth step
DLM . SPACE : Column Data Section Delimiter
~Well ------------------------------------------------------
STRT .F                  334.0 : START DEPTH
STOP .F                 6432.0 : STOP DEPTH
STEP .F                    0.5 : STEP
NULL .                -9999.25 : NULL VALUE
COMP .                         : COMPANY
WELL .                         : WELL
FLD  .                         : FIELD
LOC  .                         : LOCATION
PROV .                         : PROVINCE
CNTY .                         : COUNTY
STAT .                         : STATE
CTRY .                         : COUNTRY
SRVC .                         : SERVICE COMPANY
DATE .                         : DATE
UWI  .                         : UNIQUE WELL ID
API  .                         : API NUMBER
SLAT .WGS84 3.9338107089458987 : SURFACE LATITUDE
SLON .WGS84  4.685115191420991 : SURFACE LONGITUDE
DATUM.F                1639.13 : DEPTH DATUM ELEV
~Curve Information -----------------------------------------
DEPT.F     : 1 MEASURED DEPTH
GRS .GAPI  : GAMMA RAY FROM SONIC LOG
DTCO.US/F  : DELTA-T COMPRESSIONAL
DTSM.US/F  : DELTA-T SHEAR
~Params ----------------------------------------------------
~Other -----------------------------------------------------
~ASCII -----------------------------------------------------
# ...
 1936.00000   26.13880   59.59970  105.92020
 1936.50000   27.66310   59.75170  105.70670
 1937.00000   28.39510   58.90200  104.39090
 1937.50000   27.75880   56.96330  102.89830
 1938.00000   26.68470   54.38900  102.16970
 1938.50000   25.15090   53.52990  101.69160
 1939.00000   23.30560   54.25450  101.37300
 1939.50000   20.53970   55.14280  102.23330
 1940.00000   19.17260   56.05250  103.64390
 1940.50000   20.99400   57.34750  105.54040
 1941.00000   25.71910   58.66400  106.42570
 1941.50000   28.69190   59.22370  105.90120
 1942.00000   28.18010   59.13880  105.85700
 1942.50000   25.59630   58.94190  106.47320
 1943.00000   23.86230   59.05240  107.63530
 1943.50000   24.09440   59.87980  109.00320
 1944.00000   25.55110   61.39640  110.50180
 1944.50000   27.75000   63.30710  111.95410
 1945.00000   30.22430   63.66300  113.22670
 1945.50000   32.89350   62.73520  114.23120
 1946.00000   33.69550   61.64760  113.04470
 1946.50000   32.99790   60.97970  110.85250
 1947.00000   29.81220   60.61930  109.76760
 1947.50000   25.92760   60.84170  110.23230
 1948.00000   22.46890   61.60890  110.34690
 1948.50000   20.23770   62.12330  109.53610
 1949.00000   19.79680   60.52000  108.19490
 1949.50000   21.78850   58.78000  107.30450
 1950.00000   25.67610   56.88580  105.67970
 1950.50000   27.43710   55.44930  102.70970
 1951.00000   27.35140   54.08270  100.44690
 1951.50000   26.83330   53.12590   99.91470
 1952.00000   27.50630   53.85700  101.73940
 1952.50000   30.28300   57.24870  108.20060
 1953.00000   35.37720   61.10180  112.68140
 1953.50000   42.15220   64.84380  116.85860
 1954.00000   47.07520   65.82840  121.03590
 1954.50000   48.29030   65.00400  122.63950
 1955.00000   43.23330   62.70170  121.95740
 1955.50000   35.14370   59.14340  117.84860
 1956.00000   26.33960   57.38440  111.09880
 1956.50000   22.37200   57.37870  106.75000
 1957.00000   21.66440   57.91060  106.40200
 1957.50000   24.59190   58.57760  108.88860
 1958.00000   28.05830   59.01500  109.80880
 1958.50000   30.48840   59.30530  109.55900
 1959.00000   32.83480   59.58170  108.87580
 1959.50000   35.85350   60.54400  108.30430
 1960.00000   38.01200   62.53170  109.18340
 1960.50000   38.91870   65.46590  111.52030
 1961.00000   38.40120   66.80620  113.57560
 1961.50000   38.80650   66.29300  115.03720
 1962.00000   39.34600   64.33490  115.45080
 1962.50000   38.48650   61.19560  113.97740
 1963.00000   33.50450   58.03380  112.07720
 1963.50000   27.35970   56.54760  108.27220
 1964.00000   23.93910   57.32120  104.62080
 1964.50000   23.89940   59.53230  106.93470
 1965.00000   28.73070   62.65880  110.34780
 1965.50000   34.65090   66.24790  114.59430
 1966.00000   41.78500   67.81080  115.94470
 1966.50000   48.64920   66.79410  117.08940
 1967.00000   51.89110   64.46690  115.58530
 1967.50000   47.96750   62.31770  112.97340
 1968.00000   38.51470   61.20910  111.11780
 1968.50000   28.64400   60.38980  111.04310
 1969.00000   25.06620   60.76700  111.81250
 1969.50000   26.06740   63.05660  113.65460
 1970.00000   28.04300   67.32450  116.24400
 1970.50000   29.80170   71.40420  122.33300
 1971.00000   32.24860   72.09960  127.92840
 1971.50000   37.55500   71.42270  131.18850
 1972.00000   43.24220   69.97550  130.92390
 1972.50000   42.34940   68.19900  125.98310
 1973.00000   35.55890   64.81800  119.50320
 1973.50000   28.72000   61.11150  114.95610
 1974.00000   26.67850   59.84820  112.01700
 1974.50000   26.58110   59.31430  109.07790
 1975.00000   26.61860   59.82220  109.28250
 1975.50000   26.60020   60.93380  110.25510
 1976.00000   29.76210   62.00070  111.22770
 1976.50000   34.82140   62.66950  111.52050
 1977.00000   39.61460   62.52220  111.29080
 1977.50000   40.35570   61.88290  110.92280
 1978.00000   37.07820   61.36100  110.32530
 1978.50000   31.23510   60.71170  109.98520
 1979.00000   27.99260   59.96300  109.95300
 1979.50000   26.50000   59.70640  109.85730
 1980.00000   25.88220   59.91250  109.80470
 1980.50000   25.18720   61.01210  110.17410
 1981.00000   24.45880   62.44340  111.42720
 1981.50000   26.31840   63.50920  113.82940
 1982.00000   31.85410   64.25830  115.72310
 1982.50000   38.55960   65.04690  117.25470
 1983.00000   42.99600   65.34610  117.65020
 1983.50000   43.23660   63.65000  118.08950
 1984.00000   44.40430   61.85770  121.49440
 1984.50000   50.90950   61.22470  130.82140
 1985.00000   67.82890   61.48850  138.81270
 1985.50000   84.61690   62.57580  141.12850
 1986.00000   83.82960   63.42400  137.93340
 1986.50000   65.55890   62.00800  130.41630
 1987.00000   39.04910   59.71830  122.64700
 1987.50000   25.03540   59.24280  117.48860
 1988.00000   25.54120   61.69540  118.48760
 1988.50000   29.41190   65.10570  121.34470
 1989.00000   35.13290   67.93290  126.16860
 1989.50000   42.77640   68.91760  129.23770
 1990.00000   54.24450   69.18040  128.28600
 1990.50000   61.58720   69.72190  127.21390
 1991.00000   60.01140   70.41140  132.49260
 1991.50000   52.93480   70.32370  138.82900
 1992.00000   46.92010   68.07890  143.38010
 1992.50000   47.43910   65.53480  145.50570
 1993.00000   48.23210   64.41260  142.55270
 1993.50000   43.75470   63.08970  130.64650
 1994.00000   35.37350   60.82820  116.04090
 1994.50000   31.18020   59.60340  110.73820
 1995.00000   30.71190   59.86910  110.82770
 1995.50000   30.47530   60.71510  110.98980
 1996.00000   29.62310   62.06950  112.49080
 1996.50000   27.64310   63.31030  114.60170
 1997.00000   25.57180   64.83430  116.81450
 1997.50000   24.59960   65.68230  116.67000
 1998.00000   24.87150   65.23680  114.87680
 1998.50000   25.70470   63.04620  114.24330
 1999.00000   26.20540   61.28780  114.11900
 1999.50000   25.71530   60.23520  113.23380
 2000.00000   26.14690   61.76740  112.36790
 2000.50000   30.07750   66.68100  113.69870
 2001.00000   40.77350   67.05370  115.77710
 2001.50000   52.22540   65.49170  115.55580
 2002.00000   57.63500   63.56060  116.23410
 2002.50000   53.89530   61.08150  118.09750
 2003.00000   43.84390   59.15350  120.89280
 2003.50000   36.95430   58.23900  119.58330
 2004.00000   47.97880   58.05060  114.99320
 2004.50000   69.71780   59.54240  111.16150
 2005.00000   80.89090   61.57990  114.63840
 2005.50000   71.46260   62.91520  119.97850
 2006.00000   48.88840   63.55770  127.18950
 2006.50000   37.23610   64.23910  134.20650
 2007.00000   41.77740   66.88450  135.96530
 2007.50000   58.02710   69.30250  137.69070
 2008.00000   77.39340   71.14770  139.41610
 2008.50000   87.61010   71.78390  138.45850
 2009.00000   88.90660   71.57700  136.54830
 2009.50000   85.42860   71.34490  134.54040
 2010.00000   82.87870   70.63740  132.53250
 2010.50000   80.49150   69.63900  130.52450
 2011.00000   75.34190   66.73800  126.24690
 2011.50000   65.72310   63.69860  121.10870
 2012.00000   51.35920   60.51700  115.97060
 2012.50000   39.38620   58.62850  110.96750
 2013.00000   33.63290   57.10320  108.75540
 2013.50000   36.14550   56.55760  109.86640
 2014.00000   44.38580   57.35830  111.08060
 2014.50000   49.74720   59.80630  112.88900
 2015.00000   53.19630   63.19270  117.04940
 2015.50000   60.88930   65.75620  121.20990
 2016.00000   71.95800   68.61870  125.37040
 2016.50000   77.79590   71.37660  127.34840
 2017.00000   74.31310   71.76220  127.03750
 2017.50000   63.96700   70.01680  125.20580
 2018.00000   54.55190   66.82930  118.63590
 2018.50000   47.82400   62.55610  111.56460
 2019.00000   45.58650   58.49810  107.95770
 2019.50000   43.60350   54.92720  102.78240
 2020.00000   38.36880   52.89360   98.21630
 2020.50000   30.17910   51.49910   94.62180
 2021.00000   22.74700   51.34000   93.96600
 2021.50000   19.41550   52.97770   95.56360
 2022.00000   22.16720   56.16000  100.91350
 2022.50000   29.91760   59.41850  104.56110
 2023.00000   40.58330   62.07720  108.20870
 2023.50000   48.94110   62.71430  111.16340
 2024.00000   51.66810   62.03210  111.39500
 2024.50000   49.20090   61.11770  111.56430
