~Version ---------------------------------------------------
VERS.   2.0 : CWLS log ASCII Standard -VERSION 2.0
WRAP.    NO : One line per depth step
DLM . SPACE : Column Data Section Delimiter
~Well ------------------------------------------------------
STRT .F                  334.0 : START DEPTH
STOP .F                 6432.0 : STOP DEPTH
STEP .F                    0.5 : STEP
NULL .                -9999.25 : NULL VALUE
COMP .                         : COMPANY
WELL .                         : WELL
FLD  .                         : FIELD
LOC  .                         : LOCATION
PROV .                         : PROVINCE
CNTY .                         : COUNTY
STAT .                         : STATE
CTRY .                         : COUNTRY
SRVC .                         : SERVICE COMPANY
DATE .                         : DATE
UWI  .                         : UNIQUE WELL ID
API  .                         : API NUMBER
SLAT .WGS84 3.9338107089458987 : SURFACE LATITUDE
SLON .WGS84  4.685115191420991 : SURFACE LONGITUDE
DATUM.F                1639.13 : DEPTH DATUM ELEV
~Curve Information -----------------------------------------
DEPT.F     : 1 MEASURED DEPTH
GRS .GAPI  : GAMMA RAY FROM SONIC LOG
DTCO.US/F  : DELTA-T COMPRESSIONAL
DTSM.US/F  : DELTA-T SHEAR
~Params ----------------------------------------------------
~Other -----------------------------------------------------
~ASCII -----------------------------------------------------
# ...
 5585.00000   44.22800   57.06020  105.68920
 5585.50000   49.83270   58.99950  107.49170
 5586.00000   58.37740   59.76000  109.24980
 5586.50000   66.17370   59.69380  108.75000
 5587.00000   69.84830   58.66390  107.42740
 5587.50000   67.10650   57.11110  105.62240
 5588.00000   59.62040   55.44190  103.61170
 5588.50000   51.94680   53.99160  102.12170
 5589.00000   45.01300   52.77750   99.72060
 5589.50000   39.29290   52.10180   97.55610
 5590.00000   33.68900   51.89400   97.40020
 5590.50000   30.19420   51.94340   97.80750
 5591.00000   30.03200   52.71370   98.56010
 5591.50000   32.31940   53.71520   99.30660
 5592.00000   35.92920   54.59590   99.36420
 5592.50000   37.80410   55.21330   99.33930
 5593.00000   37.39910   55.11670   98.57950
 5593.50000   36.57390   54.56390   97.97850
 5594.00000   35.70060   54.06550   97.37300
 5594.50000   34.56960   53.84580   96.50490
 5595.00000   34.41810   53.63110   96.04220
 5595.50000   35.40920   53.44760   95.80660
 5596.00000   35.38640   53.38680   95.64730
 5596.50000   34.36260   53.20660   95.79610
 5597.00000   32.35750   52.74170   95.94490
 5597.50000   31.34550   52.66580   96.07530
 5598.00000   30.99120   52.80300   96.14070
 5598.50000   30.85740   52.95440   96.07170
 5599.00000   30.94200   53.38100   96.74130
 5599.50000   31.16370   54.19050   98.42650
 5600.00000   32.19580   54.71130   99.54070
 5600.50000   33.77980   55.08250   99.89870
 5601.00000   36.68230   55.33540   99.95070
 5601.50000   39.70560   55.46260   99.69340
 5602.00000   40.78790   55.53040   99.58920
 5602.50000   39.66300   55.62690   99.51210
 5603.00000   37.39250   55.80810   99.43500
 5603.50000   37.04410   55.88540   99.35800
 5604.00000   38.81630   55.79780   99.28640
 5604.50000   41.61900   55.79020   99.34700
 5605.00000   42.62960   56.12110   99.45950
 5605.50000   41.30470   56.49060   99.56850
 5606.00000   38.11810   56.57810   99.82480
 5606.50000   35.48380   56.75990  100.15450
 5607.00000   34.53620   57.26400  100.79310
 5607.50000   35.60820   57.41450  101.59470
 5608.00000   38.75260   57.27370  102.39630
 5608.50000   42.09690   57.05970  102.63620
 5609.00000   44.07250   56.87020  101.68390
 5609.50000   45.39740   56.73830  101.19530
 5610.00000   46.85500   56.94030  101.67140
 5610.50000   48.13110   57.18390  102.12180
 5611.00000   47.42100   57.01830  101.38280
 5611.50000   45.76890   56.36700  100.54000
 5612.00000   45.09620   55.83510  100.01300
 5612.50000   44.21840   55.44950   99.25150
 5613.00000   41.38330   54.98070   98.52980
 5613.50000   37.74100   54.37810   97.80820
 5614.00000   35.40150   53.85610   96.97540
 5614.50000   34.91230   53.41000   96.27050
 5615.00000   35.24550   53.38270   96.37720
 5615.50000   35.08650   53.82960   97.46350
 5616.00000   35.09840   54.01510   98.88990
 5616.50000   35.86320   54.00840  100.45930
 5617.00000   38.52280   53.85050  100.93770
 5617.50000   40.08880   53.81190  100.94450
 5618.00000   38.04170   53.67640  100.38450
 5618.50000   34.45860   53.21630   99.82460
 5619.00000   32.50500   52.54960   99.13390
 5619.50000   32.65730   51.78070   98.19710
 5620.00000   32.83000   51.31350   96.81990
 5620.50000   32.67090   50.67260   95.91010
 5621.00000   31.28230   49.86890   95.65600
 5621.50000   28.31610   49.92020   96.03510
 5622.00000   23.80930   51.19140   96.81330
 5622.50000   19.57330   52.58740   97.74480
 5623.00000   18.99680   53.55860   98.70140
 5623.50000   21.37460   53.71400   98.96330
 5624.00000   23.64450   53.23930   99.22530
 5624.50000   23.65980   52.30960   99.16260
 5625.00000   20.93250   51.27190   98.43880
 5625.50000   17.81870   50.64330   97.50030
 5626.00000   17.20840   50.53470   96.66470
 5626.50000   19.31170   50.98170   95.82440
 5627.00000   25.00390   51.79280   95.27490
 5627.50000   32.31200   52.10000   94.20320
 5628.00000   37.26270   52.55570   93.37880
 5628.50000   39.31670   53.16130   93.08730
 5629.00000   40.40530   53.23460   92.94840
 5629.50000   42.28230   53.00660   92.80950
 5630.00000   43.46910   52.83850   92.50070
 5630.50000   43.81210   52.78650   92.38280
 5631.00000   43.15980   52.72410   92.59280
 5631.50000   41.77210   52.41520   92.69110
 5632.00000   39.25720   52.27550   92.92810
 5632.50000   37.59280   52.21670   93.35700
 5633.00000   37.56540   51.93090   93.93930
 5633.50000   36.89540   51.38050   94.26120
 5634.00000   33.23690   50.83900   94.22550
 5634.50000   29.78980   50.58940   94.11970
 5635.00000   29.35600   50.38000   93.83050
 5635.50000   31.58850   49.89870   93.56000
 5636.00000   34.50680   49.62740   93.36680
 5636.50000   36.53420   50.02440   93.20880
 5637.00000   36.65410   50.34600   92.95610
 5637.50000   35.67990   50.26190   92.47460
 5638.00000   34.80270   50.03320   92.13360
 5638.50000   34.02630   49.86520   91.78310
 5639.00000   33.92430   49.89180   91.91960
 5639.50000   31.99740   50.15150   92.11050
 5640.00000   28.91030   50.48420   92.42400
 5640.50000   26.10500   50.81730   92.82400
 5641.00000   25.82050   51.23610   93.22390
 5641.50000   26.81140   51.51780   93.70980
 5642.00000   28.68880   51.76300   94.22420
 5642.50000   30.97150   52.10440   94.64410
 5643.00000   33.21270   52.56920   94.39540
 5643.50000   33.60550   52.48980   94.06960
 5644.00000   31.02470   52.06530   94.29770
 5644.50000   28.10880   51.86590   94.72110
 5645.00000   26.69810   51.92100   95.21740
 5645.50000   27.81180   52.18940   95.51000
 5646.00000   30.89430   52.60340   95.64340
 5646.50000   32.88580   52.97860   95.70970
 5647.00000   32.14660   53.35000   95.95240
 5647.50000   29.68020   53.74830   96.47950
 5648.00000   28.14740   54.05090   97.42560
 5648.50000   28.02020   54.04190   98.02450
 5649.00000   29.08550   53.73610   97.76630
 5649.50000   30.99480   53.52250   97.56220
 5650.00000   32.68050   53.35430   97.44240
 5650.50000   33.63970   53.14520   97.26960
 5651.00000   33.64900   52.89360   96.22130
 5651.50000   34.21640   52.97630   95.88460
 5652.00000   35.23390   53.51830   96.13430
 5652.50000   35.21660   54.11580   96.28180
 5653.00000   33.31530   54.31200   96.03930
 5653.50000   32.74720   54.25050   96.28490
 5654.00000   33.26880   54.15490   96.67000
 5654.50000   33.69390   54.00280   97.22760
 5655.00000   33.23370   53.98140   97.27870
 5655.50000   34.06340   54.07260   97.09650
 5656.00000   36.84720   54.29450   96.53440
 5656.50000   39.92120   54.41260   95.43300
 5657.00000   41.00910   54.52740   94.75090
 5657.50000   40.40650   54.74350   94.86130
 5658.00000   39.83730   54.38690   94.97170
 5658.50000   39.97280   53.74950   95.15030
 5659.00000   42.65040   52.69190   95.37730
 5659.50000   44.60110   51.91420   95.39210
 5660.00000   43.00270   51.38370   95.20380
 5660.50000   39.38630   50.92160   94.89750
 5661.00000   36.93660   50.76010   95.28070
 5661.50000   38.35090   50.85830   95.81090
 5662.00000   44.05540   51.11800   95.94500
 5662.50000   47.40440   51.48450   95.81110
 5663.00000   46.38780   51.48360   96.04800
 5663.50000   43.00140   51.34140   96.28490
 5664.00000   40.77050   51.21170   96.41100
 5664.50000   41.76150   51.17580   96.50020
 5665.00000   46.83850   51.30530   96.67990
 5665.50000   53.83420   51.73800   97.39490
 5666.00000   58.68700   52.44310   98.19960
 5666.50000   56.59080   52.97420   98.74410
 5667.00000   50.64240   53.42490   98.98490
 5667.50000   44.65750   53.99840   99.12840
 5668.00000   41.72380   54.64480   99.47650
 5668.50000   39.62100   54.85420   99.66870
 5669.00000   37.73030   54.75260   99.65200
 5669.50000   36.01100   54.33430   99.63540
 5670.00000   34.90010   53.65740   99.03520
 5670.50000   34.28620   52.74290   98.15920
 5671.00000   35.74440   51.86620   97.54910
 5671.50000   39.54780   51.16550   96.87520
 5672.00000   45.20630   50.83360   96.45380
 5672.50000   50.41620   50.76900   96.42810
 5673.00000   52.48700   51.41850   96.90210
 5673.50000   51.14630   52.29880   97.77410
