~Version ---------------------------------------------------
VERS.   2.0 : CWLS log ASCII Standard -VERSION 2.0
WRAP.    NO : One line per depth step
DLM . SPACE : Column Data Section Delimiter
~Well ------------------------------------------------------
STRT .F                 3418.5 : START DEPTH
STOP .F                12997.0 : STOP DEPTH
STEP .F                    0.5 : STEP
NULL .                -9999.25 : NULL VALUE
COMP .                         : COMPANY
WELL .                         : WELL
FLD  .                         : FIELD
LOC  .                         : LOCATION
PROV .                         : PROVINCE
CNTY .                         : COUNTY
STAT .                         : STATE
CTRY .                         : COUNTRY
SRVC .                         : SERVICE COMPANY
DATE .                         : DATE
UWI  .                         : UNIQUE WELL ID
API  .                         : API NUMBER
SLAT .WGS84 5.9280925372982125 : SURFACE LATITUDE
SLON .WGS84  4.006364565975076 : SURFACE LONGITUDE
DATUM.F                1821.12 : DEPTH DATUM ELEV
~Curve Information -----------------------------------------
DEPT.F     : 
DPHI.DEC   : DENSITY POROSITY LIMESTONE
NPHI.DEC   : NEUTRON POROSITY LIMESTONE
DRHO.G/C3  : DENSITY CORRECTION
CALD.IN    : CALIPER FDC LOG
RHOB.G/C3  : BULK DENSITY
PEF .B/E   : PHOTOELECTRIC FACTOR
GRR .GAPI  : GAMMA RAY FROM RES. LOG.
ILD .OHMM  : INDUCTION LOG DEEP
SPR .MV    : SPONTANEOUS POTENTIAL FROM RES.
SFLU.OHMM  : SPHERICALLY FOCUSED LOG UNAVERAGED RESISTIVITY
ILM .OHMM  : INDUCTION LOG MEDIUM
DTCO.US/F  : COMPRESSIONAL-WAVE INTERVAL TRANSIT TIME ACOUSTIC SLOWNESS
DTSM.US/F  : SHEAR-WAVE INTERVAL TRANSIT TIME DELTA-T
~Params ----------------------------------------------------
~Other -----------------------------------------------------
~ASCII -----------------------------------------------------
# ...
 12960.50000    0.04630    0.16570   -0.05010    4.62030    2.63280   -9999.25  124.89860    9.97570   -8.35180   13.75450    9.96530   -9999.25   -9999.25
 12961.00000    0.04220    0.16210   -0.04960    4.62070    2.63960   -9999.25  130.43010    9.91350   -8.22870   13.36190    9.82800   -9999.25   -9999.25
 12961.50000    0.03750    0.15720   -0.04910    4.62120    2.64810   -9999.25  128.52480    9.85170   -8.18920   12.99510    9.67930   -9999.25   -9999.25
 12962.00000    0.03490    0.15230   -0.04860    4.62160    2.65170   -9999.25  124.26300    9.79030   -8.14960   12.70340    9.62230   -9999.25   -9999.25
 12962.50000    0.03580    0.15120   -0.04910    4.62200    2.65220   -9999.25  124.94850    9.72920   -8.11010   12.55590    9.61170   -9999.25   -9999.25
 12963.00000    0.03760    0.15550   -0.05010    4.62250    2.65050   -9999.25  128.47730    9.66860   -8.07060   12.55100    9.63840   -9999.25   -9999.25
 12963.50000    0.04060    0.16080   -0.05080    4.62290    2.64510   -9999.25  128.15570    9.52200   -8.03110   12.58700    9.66510   -9999.25   -9999.25
 12964.00000    0.04480    0.16490   -0.05430    4.62340    2.63580   -9999.25  124.07780    9.37150   -7.99150   12.91590    9.55090   -9999.25   -9999.25
 12964.50000    0.05120    0.16790   -0.05950    4.62380    2.62450   -9999.25  120.52740    9.22330   -8.04300   13.24860    9.39760   -9999.25   -9999.25
 12965.00000    0.05750    0.16480   -0.05900    4.62430    2.61480   -9999.25  122.30250    9.07750   -8.11410   13.01970    9.24670   -9999.25   -9999.25
 12965.50000    0.05740    0.15910   -0.05840    4.62470    2.61300   -9999.25  125.10670    8.93400   -8.18520   12.29560    9.17800   -9999.25   -9999.25
 12966.00000    0.05550    0.15270   -0.05790    4.62510    2.61640   -9999.25  126.80430    9.06230   -8.25630   11.43410    9.28310   -9999.25   -9999.25
 12966.50000    0.05390    0.14490   -0.05740    4.62560    2.62100   -9999.25  127.17040    9.21640   -8.32750   11.02690    9.41840   -9999.25   -9999.25
 12967.00000    0.05060    0.14060   -0.05680    4.62600    2.62670   -9999.25  125.24940    9.37320   -8.39860   11.05650    9.55570   -9999.25   -9999.25
 12967.50000    0.04350    0.13740   -0.05630    4.62560    2.63560   -9999.25  122.36280    9.53270   -8.53270   11.67090    9.69490   -9999.25   -9999.25
 12968.00000    0.04000    0.13350   -0.05570    4.62270    2.64340   -9999.25  120.08720    9.68110   -8.78070   12.64670    9.81250   -9999.25   -9999.25
 12968.50000    0.04040    0.13050   -0.05460    4.61980    2.64300   -9999.25  119.88060    9.82200   -9.02900   13.65430    9.96220   -9999.25   -9999.25
 12969.00000    0.04160    0.13030   -0.05350    4.61690    2.64290   -9999.25  120.18260   10.13620   -9.22570   14.02990   10.13760   -9999.25   -9999.25
 12969.50000    0.03850    0.13060   -0.05240    4.61400    2.64570   -9999.25  119.98580   10.22770   -9.17680   14.24760   10.31600   -9999.25   -9999.25
 12970.00000    0.03520    0.13460   -0.05130    4.61110    2.65300   -9999.25  118.03530   10.35620   -9.08620   14.24260   10.49760   -9999.25   -9999.25
 12970.50000    0.03750    0.13970   -0.05020    4.60820    2.65100   -9999.25  112.31260   10.50410   -9.08370   14.05440   10.62150   -9999.25   -9999.25
 12971.00000    0.03920    0.14140   -0.04930    4.60530    2.64460   -9999.25  108.30340   10.60060   -9.08120   13.82960   10.70870   -9999.25   -9999.25
 12971.50000    0.03910    0.14190   -0.04850    4.60240    2.64470   -9999.25  106.35970   10.61760   -9.07870   13.72630   10.77260   -9999.25   -9999.25
 12972.00000    0.02910    0.14230   -0.04810    4.59950    2.65850   -9999.25  104.22760   10.54370   -9.07620   13.81270   10.72020   -9999.25   -9999.25
 12972.50000    0.02970    0.14290   -0.04810    4.59660    2.66650   -9999.25  103.11570   10.49390   -9.17870   14.13120   10.66800   -9999.25   -9999.25
 12973.00000    0.03460    0.14400   -0.05060    4.59370    2.65780   -9999.25  103.63260   10.49080   -9.42710   14.00980   10.61600   -9999.25   -9999.25
 12973.50000    0.04520    0.14510   -0.05300    4.59080    2.64270   -9999.25  109.04570   10.41860   -9.60460   13.67670   10.56430   -9999.25   -9999.25
 12974.00000    0.04720    0.14510   -0.05440    4.58790    2.63180   -9999.25  114.04890   10.34690   -9.52330   13.35610   10.52990   -9999.25   -9999.25
 12974.50000    0.04800    0.14330   -0.05580    4.58500    2.63030   -9999.25  119.25320   10.32440   -9.40100   13.11460   10.51570   -9999.25   -9999.25
 12975.00000    0.04790    0.14120   -0.05710    4.58210    2.63070   -9999.25  123.37210   10.33560   -9.27880   13.10190   10.50160   -9999.25   -9999.25
 12975.50000    0.04620    0.14060   -0.05850    4.57920    2.63220   -9999.25  124.86580   10.34680   -9.21070   13.10850   10.48740   -9999.25   -9999.25
 12976.00000    0.04280    0.14080   -0.05980    4.57630    2.63990   -9999.25  123.73900   10.35070   -9.40930   13.13320   10.47330   -9999.25   -9999.25
 12976.50000    0.03520    0.14160   -0.06060    4.57340    2.65110   -9999.25  119.73620   10.33660   -9.66270   13.20290   10.45920   -9999.25   -9999.25
 12977.00000    0.03120    0.14240   -0.06030    4.57050    2.65880   -9999.25  115.78720   10.32250   -9.66000   13.56820   10.44520   -9999.25   -9999.25
 12977.50000    0.03070    0.14310   -0.06000    4.56760    2.66070   -9999.25  114.22580   10.30840   -9.65720   13.89710   10.43110   -9999.25   -9999.25
 12978.00000    0.03380    0.14360   -0.05080    4.56470    2.65710   -9999.25  113.35080   10.26710   -9.65450   14.03760   10.35880   -9999.25   -9999.25
 12978.50000    0.04100    0.14400   -0.04960    4.56180    2.64390   -9999.25  110.17670   10.19010   -9.65180   13.54870   10.24550   -9999.25   -9999.25
 12979.00000    0.04200    0.14410   -0.05250    4.55890    2.63960   -9999.25  106.30180   10.05070   -9.64900   12.95010   10.13350   -9999.25   -9999.25
 12979.50000    0.04030    0.14390   -0.05580    4.55600    2.64280   -9999.25  103.24510    9.98930   -9.64710   12.67300   10.02280   -9999.25   -9999.25
 12980.00000    0.03900    0.14370   -0.05910    4.55310    2.64780   -9999.25  101.34720    9.83570   -9.66680   12.56210    9.91320   -9999.25   -9999.25
 12980.50000    0.04150    0.14410   -0.06100    4.55020    2.64100   -9999.25  103.59500    9.68460   -9.68660   12.55030    9.80490   -9999.25   -9999.25
 12981.00000    0.04660    0.14580   -0.06140    4.54730    2.63260   -9999.25  106.69720    9.53570   -9.70640   12.40050    9.69630   -9999.25   -9999.25
 12981.50000    0.04690    0.14820   -0.05740    4.54740    2.63260   -9999.25  109.48010    9.38960   -9.72620   12.39140    9.58790   -9999.25   -9999.25
 12982.00000    0.04240    0.14830   -0.05350    4.55150    2.63960   -9999.25  112.26300    9.25430   -9.74590   12.72160    9.48080   -9999.25   -9999.25
 12982.50000    0.03740    0.14710   -0.05070    4.55570    2.64780   -9999.25   -9999.25    9.12110   -9.76570   12.90330    9.38010   -9999.25   -9999.25
 12983.00000    0.03260    0.14660   -0.04980    4.55980    2.65660   -9999.25   -9999.25    8.98980   -9.78550   12.59970    9.29140   -9999.25   -9999.25
 12983.50000    0.02840    0.14610   -0.05010    4.56390    2.66360   -9999.25   -9999.25    8.89560   -9.80530   11.72930    9.20350   -9999.25   -9999.25
 12984.00000    0.02830    0.14530   -0.05070    4.56800    2.66630   -9999.25   -9999.25    8.81860   -9.82500   11.02480    9.11740   -9999.25   -9999.25
 12984.50000    0.03060    0.14430   -0.05130    4.57220    2.66060   -9999.25   -9999.25    8.74220   -9.84480   11.77590    9.03690   -9999.25   -9999.25
 12985.00000    0.03310    0.14350   -0.05190    4.57630    2.65500   -9999.25   -9999.25    8.66640   -9.86460   12.81270    8.95700   -9999.25   -9999.25
 12985.50000    0.03500    0.14330   -0.05200    4.58040    2.65190   -9999.25   -9999.25    8.57690   -9.88440   13.69730    8.84380   -9999.25   -9999.25
 12986.00000    0.03670    0.14320   -0.05210    4.58310    2.65000   -9999.25   -9999.25    8.40950   -9.90420   12.25270    8.70860   -9999.25   -9999.25
