~Version ---------------------------------------------------
VERS.   2.0 : CWLS log ASCII Standard -VERSION 2.0
WRAP.    NO : One line per depth step
DLM . SPACE : Column Data Section Delimiter
~Well ------------------------------------------------------
STRT .F                 3418.5 : START DEPTH
STOP .F                12997.0 : STOP DEPTH
STEP .F                    0.5 : STEP
NULL .                -9999.25 : NULL VALUE
COMP .                         : COMPANY
WELL .                         : WELL
FLD  .                         : FIELD
LOC  .                         : LOCATION
PROV .                         : PROVINCE
CNTY .                         : COUNTY
STAT .                         : STATE
CTRY .                         : COUNTRY
SRVC .                         : SERVICE COMPANY
DATE .                         : DATE
UWI  .                         : UNIQUE WELL ID
API  .                         : API NUMBER
SLAT .WGS84 5.9280925372982125 : SURFACE LATITUDE
SLON .WGS84  4.006364565975076 : SURFACE LONGITUDE
DATUM.F                1821.12 : DEPTH DATUM ELEV
~Curve Information -----------------------------------------
DEPT.F     : 
DPHI.DEC   : DENSITY POROSITY LIMESTONE
NPHI.DEC   : NEUTRON POROSITY LIMESTONE
DRHO.G/C3  : DENSITY CORRECTION
CALD.IN    : CALIPER FDC LOG
RHOB.G/C3  : BULK DENSITY
PEF .B/E   : PHOTOELECTRIC FACTOR
GRR .GAPI  : GAMMA RAY FROM RES. LOG.
ILD .OHMM  : INDUCTION LOG DEEP
SPR .MV    : SPONTANEOUS POTENTIAL FROM RES.
SFLU.OHMM  : SPHERICALLY FOCUSED LOG UNAVERAGED RESISTIVITY
ILM .OHMM  : INDUCTION LOG MEDIUM
DTCO.US/F  : COMPRESSIONAL-WAVE INTERVAL TRANSIT TIME ACOUSTIC SLOWNESS
DTSM.US/F  : SHEAR-WAVE INTERVAL TRANSIT TIME DELTA-T
~Params ----------------------------------------------------
~Other -----------------------------------------------------
~ASCII -----------------------------------------------------
# ...
 8332.50000    0.04870    0.10570   -0.00720    6.73940    2.62900    2.97120   90.70430   11.51130  -15.33910   12.38490   11.92220   -9999.25   -9999.25
 8333.00000    0.04700    0.10650   -0.00900    6.75860    2.63140    3.02550   89.29540   11.46350  -15.34390   12.40220   11.87270   -9999.25   -9999.25
 8333.50000    0.04600    0.10550   -0.01090    6.78230    2.63150    3.06970   84.71940   11.41590  -15.39790   12.41650   11.82340   -9999.25   -9999.25
 8334.00000    0.04900    0.10240   -0.01220    6.80600    2.62950    3.00190   83.80980   11.36850  -15.45180   12.49130   11.77430   -9999.25   -9999.25
 8334.50000    0.05130    0.09950   -0.01330    6.81870    2.62410    2.93370   83.21660   11.32120  -15.50570   12.54720   11.72540   -9999.25   -9999.25
 8335.00000    0.05200    0.09930   -0.01450    6.81890    2.62450    2.86380   82.46400   11.29520  -15.55960   12.57930   11.69720   -9999.25   -9999.25
 8335.50000    0.05110    0.10480   -0.01460    6.81920    2.62490    2.85360   81.22240   11.27570  -15.61360   12.61140   11.67700   -9999.25   -9999.25
 8336.00000    0.04720    0.11130   -0.01420    6.82320    2.62900    2.88010   82.17360   11.25630  -15.66750   12.37900   11.65690   -9999.25   -9999.25
 8336.50000    0.04500    0.11220   -0.01300    6.83190    2.63440    2.91680   85.67700   11.23690  -15.72140   12.24300   11.63680   -9999.25   -9999.25
 8337.00000    0.04190    0.11250   -0.01180    6.84060    2.63940    2.97600   89.78830   11.21750  -15.77540   12.20490   11.61670   -9999.25   -9999.25
 8337.50000    0.04020    0.11280   -0.01050    6.84930    2.64260    3.04570   93.62600   11.11570  -15.82930   12.25390   11.51850   -9999.25   -9999.25
 8338.00000    0.03890    0.11360   -0.00930    6.83800    2.64290    3.11540   95.29960   11.01410  -15.88320   12.26510   11.41320   -9999.25   -9999.25
 8338.50000    0.04050    0.11620   -0.00800    6.82610    2.64120    3.15260   92.52920   10.91330  -15.89600   12.06830   11.30880   -9999.25   -9999.25
 8339.00000    0.04140    0.11880   -0.00680    6.83410    2.63870    3.15310   85.41450   10.82720  -15.77870   11.85140   11.21310   -9999.25   -9999.25
 8339.50000    0.04500    0.12090   -0.00550    6.83980    2.63550    3.11960   78.33480   10.85840  -15.66140   11.90470   11.24540   -9999.25   -9999.25
 8340.00000    0.04690    0.12100   -0.00430    6.83720    2.63200    3.13140   77.83080   10.88960  -15.54410   12.03080   11.27770   -9999.25   -9999.25
 8340.50000    0.04690    0.11840   -0.00290    6.83460    2.63220    3.16800   79.58290   10.92090  -15.42680   12.12050   11.31020   -9999.25   -9999.25
 8341.00000    0.04600    0.11580   -0.00190    6.82840    2.63350    3.22520   79.11080   10.93700  -15.30950   12.18770   11.32610   -9999.25   -9999.25
 8341.50000    0.04580    0.11320   -0.00190    6.81130    2.63310    3.25120   78.14710   10.94200  -15.19210   12.19610   11.33120   -9999.25   -9999.25
 8342.00000    0.04980    0.11210   -0.00410    6.81210    2.62690    3.17460   79.07690   10.94700  -15.07480   12.20170   11.33640   -9999.25   -9999.25
 8342.50000    0.05530    0.11370   -0.00770    6.82490    2.61950    3.06980   82.35600   10.95200  -14.95750   12.16260   11.34150   -9999.25   -9999.25
 8343.00000    0.05720    0.11600   -0.00990    6.84540    2.61460    2.95350   86.36430   10.88510  -14.84020   12.11440   11.27700   -9999.25   -9999.25
 8343.50000    0.05670    0.11820   -0.01130    6.86590    2.61900    2.86280   91.41080   10.80450  -14.72290   12.07750   11.19360   -9999.25   -9999.25
 8344.00000    0.04820    0.12050   -0.01210    6.88640    2.63310    2.86380   89.77510   10.68260  -14.60560   12.07420   11.08100   -9999.25   -9999.25
 8344.50000    0.03800    0.12280   -0.01120    6.90690    2.64880    2.87660   86.81490   10.52480  -14.48830   11.92060   10.91710   -9999.25   -9999.25
 8345.00000    0.03720    0.12500   -0.00870    6.97050    2.65030    2.90150   86.73560   10.36930  -14.41850   11.55300   10.75570   -9999.25   -9999.25
 8345.50000    0.04010    0.12730   -0.00570    7.03040    2.64340    2.92780   88.85120   10.21610  -14.47160   11.13700   10.59670   -9999.25   -9999.25
 8346.00000    0.04630    0.12960   -0.00620    7.07040    2.63530    2.93340   88.75220   10.08270  -14.52460   10.91330   10.45410   -9999.25   -9999.25
 8346.50000    0.04740    0.13190   -0.00780    7.10380    2.63260    2.92700   88.38980    9.95310  -14.57760   10.80500   10.31970   -9999.25   -9999.25
 8347.00000    0.04410    0.13420   -0.00930    7.11610    2.63690    2.89420   89.16020    9.82520  -14.63060   10.81060   10.18710   -9999.25   -9999.25
 8347.50000    0.04220    0.13570   -0.01090    7.12840    2.63870    2.87890   90.28790    9.69890  -14.61970   10.98100   10.05620   -9999.25   -9999.25
 8348.00000    0.04140    0.13640   -0.01240    7.14070    2.63860    2.94060   89.06640    9.67580  -14.60540   11.11470   10.02130   -9999.25   -9999.25
 8348.50000    0.04360    0.13970   -0.01370    7.14880    2.63720    3.09150   83.64860    9.70480  -14.59120   11.25070   10.05130   -9999.25   -9999.25
 8349.00000    0.04660    0.14340   -0.01460    7.14980    2.63120    3.22580   81.81440    9.73380  -14.57690   11.39090   10.08140   -9999.25   -9999.25
 8349.50000    0.05000    0.14710   -0.01420    7.15090    2.62730    3.28890   82.11110    9.69970  -14.56270   11.29960   10.04710   -9999.25   -9999.25
 8350.00000    0.05300    0.15080   -0.01350    7.15200    2.62330    3.25310   84.13100    9.64460  -14.54840   11.05170    9.99000   -9999.25   -9999.25
 8350.50000    0.05290    0.15450   -0.01170    7.15530    2.62160    3.20350   87.06620    9.58980  -14.55290   10.77870    9.93320   -9999.25   -9999.25
 8351.00000    0.05290    0.15700   -0.00990    7.16920    2.62090    3.15390   87.81610    9.53530  -14.57880   10.50990    9.87680   -9999.25   -9999.25
 8351.50000    0.05440    0.15460   -0.00890    7.17040    2.61830    3.10470   85.10930    9.48230  -14.60480   10.25650    9.82070   -9999.25   -9999.25
 8352.00000    0.05750    0.14590   -0.00820    7.17590    2.61410    3.07970   82.05650    9.48230  -14.63070   10.21950    9.81990   -9999.25   -9999.25
 8352.50000    0.06060    0.14510   -0.01050    7.18990    2.61030    3.05480   83.17670    9.48230  -14.65660   10.31580    9.81990   -9999.25   -9999.25
 8353.00000    0.05980    0.15090   -0.01160    7.20390    2.61040    3.02980   87.49820    9.48230  -14.68250   10.43930    9.81990   -9999.25   -9999.25
 8353.50000    0.05810    0.15550   -0.01140    7.21790    2.61170    3.01180   91.58790    9.48230  -14.70840   10.54630    9.81990   -9999.25   -9999.25
 8354.00000    0.05360    0.15330   -0.01110    7.22150    2.61660    3.04080   92.52640    9.48230  -14.73430   10.53300    9.81990   -9999.25   -9999.25
 8354.50000    0.05050    0.14930   -0.01090    7.22190    2.62460    3.06680   90.49870    9.35570  -14.76020   10.35990    9.70330   -9999.25   -9999.25
 8355.00000    0.04870    0.15100   -0.01070    7.22030    2.62770    3.04550   85.80380    9.21710  -14.78610   10.18510    9.55950   -9999.25   -9999.25
 8355.50000    0.04600    0.16030   -0.01050    7.21140    2.63620    2.95000   80.41880    9.08050  -14.81200    9.99670    9.41800   -9999.25   -9999.25
 8356.00000    0.03530    0.16570   -0.01020    7.21420    2.64920    2.86850   78.66440    8.96170  -14.80380    9.83840    9.28420   -9999.25   -9999.25
 8356.50000    0.02990    0.16820   -0.00980    7.21700    2.65930    2.90230   83.57190    8.89440  -14.77520    9.76960    9.21450   -9999.25   -9999.25
 8357.00000    0.02790    0.17070   -0.00950    7.22840    2.66320    2.96940   91.05940    8.82760  -14.74660    9.70120    9.12090   -9999.25   -9999.25
 8357.50000    0.02790    0.17300   -0.00920    7.23570    2.66230    3.03620   98.81450    8.76130  -14.71800    9.65960    9.01760   -9999.25   -9999.25
 8358.00000    0.03180    0.17490   -0.00890    7.23920    2.65720    3.09950  102.76230    8.69550  -14.68940    9.63580    8.91550   -9999.25   -9999.25
