~Version ---------------------------------------------------
VERS.   2.0 : CWLS log ASCII Standard -VERSION 2.0
WRAP.    NO : One line per depth step
DLM . SPACE : Column Data Section Delimiter
~Well ------------------------------------------------------
STRT .F                 3418.5 : START DEPTH
STOP .F                12997.0 : STOP DEPTH
STEP .F                    0.5 : STEP
NULL .                -9999.25 : NULL VALUE
COMP .                         : COMPANY
WELL .                         : WELL
FLD  .                         : FIELD
LOC  .                         : LOCATION
PROV .                         : PROVINCE
CNTY .                         : COUNTY
STAT .                         : STATE
CTRY .                         : COUNTRY
SRVC .                         : SERVICE COMPANY
DATE .                         : DATE
UWI  .                         : UNIQUE WELL ID
API  .                         : API NUMBER
SLAT .WGS84 5.9280925372982125 : SURFACE LATITUDE
SLON .WGS84  4.006364565975076 : SURFACE LONGITUDE
DATUM.F                1821.12 : DEPTH DATUM ELEV
~Curve Information -----------------------------------------
DEPT.F     : 
DPHI.DEC   : DENSITY POROSITY LIMESTONE
NPHI.DEC   : NEUTRON POROSITY LIMESTONE
DRHO.G/C3  : DENSITY CORRECTION
CALD.IN    : CALIPER FDC LOG
RHOB.G/C3  : BULK DENSITY
PEF .B/E   : PHOTOELECTRIC FACTOR
GRR .GAPI  : GAMMA RAY FROM RES. LOG.
ILD .OHMM  : INDUCTION LOG DEEP
SPR .MV    : SPONTANEOUS POTENTIAL FROM RES.
SFLU.OHMM  : SPHERICALLY FOCUSED LOG UNAVERAGED RESISTIVITY
ILM .OHMM  : INDUCTION LOG MEDIUM
DTCO.US/F  : COMPRESSIONAL-WAVE INTERVAL TRANSIT TIME ACOUSTIC SLOWNESS
DTSM.US/F  : SHEAR-WAVE INTERVAL TRANSIT TIME DELTA-T
~Params ----------------------------------------------------
~Other -----------------------------------------------------
~ASCII -----------------------------------------------------
# ...
 8982.50000    0.14660    0.24040    0.04330    5.94050    2.46560    3.35650  112.69480    6.93910  -12.21740    8.62580    7.18780   -9999.25   -9999.25
 8983.00000    0.13500    0.24320    0.04330    5.93560    2.47740    3.32970  112.95450    6.90830  -12.21740    8.61730    7.15460   -9999.25   -9999.25
 8983.50000    0.13500    0.24850    0.03850    5.87830    2.48130    3.29510  114.80500    6.91040  -12.21740    8.57660    7.15660   -9999.25   -9999.25
 8984.00000    0.14880    0.26290    0.03210    5.82270    2.46200    3.26060  119.47890    6.91240  -12.21740    8.28830    7.15870   -9999.25   -9999.25
 8984.50000    0.16600    0.27070    0.02620    5.80420    2.43630    3.21010  119.75630    6.88700  -12.21740    8.01150    7.13450   -9999.25   -9999.25
 8985.00000    0.16630    0.26550    0.02480    5.82340    2.43100    3.19320  116.64200    6.84610  -12.21740    7.95410    7.09180   -9999.25   -9999.25
 8985.50000    0.15230    0.26020    0.02470    5.88240    2.44550    3.19070  111.62680    6.80710  -12.21740    7.94430    7.05150   -9999.25   -9999.25
 8986.00000    0.13860    0.25870    0.02510    5.93610    2.46910    3.19080  110.72420    6.72410  -12.21740    7.97310    6.97360   -9999.25   -9999.25
 8986.50000    0.12960    0.26780    0.02570    5.94810    2.49030    3.19770  120.39940    6.63500  -12.21740    7.99210    6.88130   -9999.25   -9999.25
 8987.00000    0.13170    0.27130    0.02600    5.93470    2.48850    3.27520  128.33990    6.59370  -12.21740    7.99780    6.83030   -9999.25   -9999.25
 8987.50000    0.13800    0.27060    0.02660    5.92130    2.47700    3.37290  129.28380    6.55680  -12.21740    7.81320    6.79210   -9999.25   -9999.25
 8988.00000    0.14790    0.26050    0.02800    5.90790    2.45950    3.56390  124.12650    6.55130  -12.21740    7.64810    6.78450   -9999.25   -9999.25
 8988.50000    0.15950    0.25720    0.02940    5.90260    2.44180    3.67450  119.81920    6.55590  -12.21740    7.58210    6.78940   -9999.25   -9999.25
 8989.00000    0.16970    0.26440    0.03250    5.89380    2.42290    3.66710  119.26430    6.56060  -12.21740    7.58750    6.79420   -9999.25   -9999.25
 8989.50000    0.17810    0.27100    0.03660    5.88730    2.40760    3.61380  117.32990    6.56530  -12.21740    7.59300    6.79910   -9999.25   -9999.25
 8990.00000    0.18110    0.26570    0.05010    5.88090    2.39920    3.57740  113.63580    6.57690  -12.19350    7.60250    6.81130   -9999.25   -9999.25
 8990.50000    0.17700    0.25180    0.05410    5.82800    2.40660    3.56160  112.20260    6.59030  -12.16560    7.67840    6.82530   -9999.25   -9999.25
 8991.00000    0.16880    0.24240    0.05800    5.75960    2.42280    3.56170  117.10020    6.60320  -12.13780    7.79280    6.83860   -9999.25   -9999.25
 8991.50000    0.16170    0.24930    0.05760    5.72980    2.43640    3.54910  121.52820    6.61460  -12.10990    7.88680    6.85040   -9999.25   -9999.25
 8992.00000    0.16090    0.25790    0.05640    5.72180    2.43450    3.52340  125.42590    6.62610  -12.08200    7.90570    6.86230   -9999.25   -9999.25
 8992.50000    0.16630    0.26080    0.05940    5.74290    2.42580    3.43030  126.20490    6.65440  -12.05420    7.92460    6.89340   -9999.25   -9999.25
 8993.00000    0.16760    0.25160    0.06390    5.77120    2.42430    3.33800  125.98250    6.69220  -12.02630    7.92450    6.93250   -9999.25   -9999.25
 8993.50000    0.16790    0.24410    0.06820    5.78670    2.42400    3.29550  126.64270    6.72140  -12.02300    7.90690    6.96070   -9999.25   -9999.25
 8994.00000    0.16790    0.24360    0.06910    5.74280    2.42410    3.32110  127.48700    6.72140  -12.03420    7.88940    6.96070   -9999.25   -9999.25
 8994.50000    0.16720    0.25530    0.06990    5.67430    2.42680    3.35800  126.05960    6.71420  -12.04530    7.88490    6.95410   -9999.25   -9999.25
 8995.00000    0.16420    0.26220    0.07070    5.59640    2.43060    3.37540  119.66210    6.68480  -12.05650    7.88490    6.92360   -9999.25   -9999.25
 8995.50000    0.16370    0.25300    0.07160    5.51840    2.43060    3.39140  115.52710    6.66040  -12.06770    7.88490    6.89760   -9999.25   -9999.25
 8996.00000    0.16680    0.24170    0.07240    5.47490    2.42320    3.43230  115.01190    6.66040  -12.07880    7.88490    6.89760   -9999.25   -9999.25
 8996.50000    0.17250    0.23270    0.07320    5.50690    2.41680    3.48630  119.22750    6.66040  -12.08820    7.89870    6.89760   -9999.25   -9999.25
 8997.00000    0.16940    0.23880    0.07690    5.58980    2.42740    3.54040  118.45420    6.64450  -12.05660    8.00700    6.88170   -9999.25   -9999.25
 8997.50000    0.15680    0.24720    0.08440    5.67270    2.44540    3.59440  113.95250    6.61730  -12.02500    8.11970    6.85350   -9999.25   -9999.25
 8998.00000    0.13750    0.25250    0.09440    5.74420    2.47550    3.55420  113.46470    6.59490  -11.99340    8.01240    6.82980   -9999.25   -9999.25
 8998.50000    0.12750    0.24850    0.09770    5.80920    2.49080    3.48490  119.94970    6.58090  -11.96180    7.78240    6.81530   -9999.25   -9999.25
 8999.00000    0.13220    0.24910    0.09780    5.87430    2.48700    3.42680  126.34960    6.55910  -11.93010    7.64430    6.79520   -9999.25   -9999.25
 8999.50000    0.13150    0.25560    0.09020    5.93710    2.48700    3.47830  131.26990    6.50970  -11.89850    7.57000    6.77100   -9999.25   -9999.25
 9000.00000    0.12800    0.26110    0.07650    5.93710    2.48970    3.52900  132.25880    6.46060  -11.87020    7.50570    6.77990   -9999.25   -9999.25
 9000.50000    0.13310    0.25630    0.06520    5.93370    2.48430    3.52590  127.77030    6.42270  -11.84290    7.50940    6.78880   -9999.25   -9999.25
 9001.00000    0.14910    0.25140    0.05390    5.91030    2.45690    3.52280  120.02920    6.41540  -11.81560    7.56410    6.79770   -9999.25   -9999.25
 9001.50000    0.15410    0.24170    0.04800    5.80590    2.45010    3.51690  111.53540    6.40810  -11.78820    7.68020    6.80660   -9999.25   -9999.25
 9002.00000    0.13910    0.23770    0.05120    5.78490    2.47690    3.50600  103.69310    6.41650  -11.76090    7.98240    6.81550   -9999.25   -9999.25
 9002.50000    0.14080    0.24380    0.06580    5.79410    2.46510    3.49520  104.69620    6.43730  -11.73350    8.20240    6.78290   -9999.25   -9999.25
 9003.00000    0.18200    0.25880    0.06770    5.82020    2.40370    3.48440  106.93380    6.45830  -11.70620    7.97230    6.74410   -9999.25   -9999.25
 9003.50000    0.20510    0.27540    0.06830    5.80050    2.35060    3.47350  107.38410    6.47930  -11.67890    7.74470    6.71240   -9999.25   -9999.25
 9004.00000    0.21300    0.26990    0.06830    5.78090    2.34510    3.46270  107.73730    6.50040  -11.65150    7.63080    6.73320   -9999.25   -9999.25
 9004.50000    0.18840    0.26070    0.06550    5.76460    2.38930    3.45210  110.33510    6.53060  -11.62420    7.63820    6.76520   -9999.25   -9999.25
 9005.00000    0.16800    0.24350    0.05890    5.75280    2.43290    3.46310  116.31690    6.56570  -11.59690    7.70610    6.80160   -9999.25   -9999.25
 9005.50000    0.16180    0.23220    0.04940    5.75290    2.43450    3.47940  121.46710    6.59730  -11.56950    7.80100    6.83250   -9999.25   -9999.25
 9006.00000    0.16990    0.22790    0.04200    5.74450    2.41160    3.49370  119.88310    6.59730  -11.54220    7.89080    6.83250   -9999.25   -9999.25
 9006.50000    0.17480    0.23810    0.05170    5.72020    2.41050    3.50800  112.87270    6.59730  -11.51490    8.09050    6.83410   -9999.25   -9999.25
 9007.00000    0.15990    0.24890    0.06850    5.69580    2.44000    3.50800  116.08050    6.63450  -11.48750    8.34990    6.87310   -9999.25   -9999.25
 9007.50000    0.15370    0.25870    0.08020    5.67150    2.44740    3.41530  122.68830    6.66280  -11.46020    8.61750    6.90060   -9999.25   -9999.25
 9008.00000    0.17250    0.26680    0.07920    5.68870    2.40630    3.28700  125.60130    6.67580  -11.43290    8.10070    6.91410   -9999.25   -9999.25
