~Version ---------------------------------------------------
VERS.   2.0 : CWLS log ASCII Standard -VERSION 2.0
WRAP.    NO : One line per depth step
DLM . SPACE : Column Data Section Delimiter
~Well ------------------------------------------------------
STRT .F                 3418.5 : START DEPTH
STOP .F                12997.0 : STOP DEPTH
STEP .F                    0.5 : STEP
NULL .                -9999.25 : NULL VALUE
COMP .                         : COMPANY
WELL .                         : WELL
FLD  .                         : FIELD
LOC  .                         : LOCATION
PROV .                         : PROVINCE
CNTY .                         : COUNTY
STAT .                         : STATE
CTRY .                         : COUNTRY
SRVC .                         : SERVICE COMPANY
DATE .                         : DATE
UWI  .                         : UNIQUE WELL ID
API  .                         : API NUMBER
SLAT .WGS84 5.9280925372982125 : SURFACE LATITUDE
SLON .WGS84  4.006364565975076 : SURFACE LONGITUDE
DATUM.F                1821.12 : DEPTH DATUM ELEV
~Curve Information -----------------------------------------
DEPT.F     : 
DPHI.DEC   : DENSITY POROSITY LIMESTONE
NPHI.DEC   : NEUTRON POROSITY LIMESTONE
DRHO.G/C3  : DENSITY CORRECTION
CALD.IN    : CALIPER FDC LOG
RHOB.G/C3  : BULK DENSITY
PEF .B/E   : PHOTOELECTRIC FACTOR
GRR .GAPI  : GAMMA RAY FROM RES. LOG.
ILD .OHMM  : INDUCTION LOG DEEP
SPR .MV    : SPONTANEOUS POTENTIAL FROM RES.
SFLU.OHMM  : SPHERICALLY FOCUSED LOG UNAVERAGED RESISTIVITY
ILM .OHMM  : INDUCTION LOG MEDIUM
DTCO.US/F  : COMPRESSIONAL-WAVE INTERVAL TRANSIT TIME ACOUSTIC SLOWNESS
DTSM.US/F  : SHEAR-WAVE INTERVAL TRANSIT TIME DELTA-T
~Params ----------------------------------------------------
~Other -----------------------------------------------------
~ASCII -----------------------------------------------------
# ...
 8644.50000    0.05340    0.17250    0.00120    3.91630    2.62170    3.30710  113.04010   17.07180  -19.92210   23.60110   17.68730   -9999.25   -9999.25
 8645.00000    0.05870    0.17680    0.00120    3.91030    2.61550    3.50390  113.22660   16.83850  -19.89310   24.94580   17.51680   -9999.25   -9999.25
 8645.50000    0.06130    0.18760    0.00100    3.90430    2.60850    3.71540  112.05110   16.67680  -19.86410   25.15910   17.27060   -9999.25   -9999.25
 8646.00000    0.06140    0.20250    0.00700    3.89450    2.60720    3.73560  112.70270   16.67680  -19.83500   23.74430   17.27060   -9999.25   -9999.25
 8646.50000    0.06140    0.19970    0.01140    3.87050    2.60790    3.61060  113.31040   16.78710  -19.80600   21.91630   17.42480   -9999.25   -9999.25
 8647.00000    0.05930    0.18800    0.01150    3.81280    2.60980    3.44810  110.13170   17.31580  -19.77700   21.19330   18.13920   -9999.25   -9999.25
 8647.50000    0.05460    0.17090    0.01090    3.76300    2.61660    3.28560  104.96070   18.09680  -19.74790   21.82120   19.02580   -9999.25   -9999.25
 8648.00000    0.04530    0.15150    0.01020    3.74330    2.62950    3.11400   92.37560   19.20140  -19.71890   24.43570   20.51440   -9999.25   -9999.25
 8648.50000    0.04050    0.14080    0.00860    3.74570    2.64190    2.93840   83.88980   20.70370  -19.68990   28.88080   22.73630   -9999.25   -9999.25
 8649.00000    0.04090    0.13560    0.00690    3.75080    2.64240    2.77230   81.73890   23.35330  -19.66090   31.06810   25.85300   -9999.25   -9999.25
 8649.50000    0.04830    0.12460    0.00520    3.75480    2.63300    2.75000   79.79130   26.55620  -19.63180   34.72150   29.35620   -9999.25   -9999.25
 8650.00000    0.05970    0.09940    0.00350    3.75490    2.61700    2.76200   72.58700   30.04860  -19.60280   45.35200   32.59740   -9999.25   -9999.25
 8650.50000    0.05780    0.08840    0.00200    3.75760    2.60990    2.90830   64.72900   32.72780  -19.57380   61.22260   33.89310   -9999.25   -9999.25
 8651.00000    0.04830    0.10290    0.00050    3.76030    2.62830    3.06700   64.82550   32.72780  -19.54470   71.16760   33.89310   -9999.25   -9999.25
 8651.50000    0.04040    0.12090   -0.00100    3.77500    2.64130    3.07170   77.58960   29.64550  -19.51570   65.25020   32.92090   -9999.25   -9999.25
 8652.00000    0.04690    0.17130    0.00010    3.83120    2.63570    3.02990  101.97360   24.28670  -19.50530   44.73510   26.22400   -9999.25   -9999.25
 8652.50000    0.05860    0.19190    0.00550    3.92160    2.61210    3.28820  119.49700   19.21320  -19.50530   29.98790   20.50910   -9999.25   -9999.25
 8653.00000    0.06800    0.20860    0.01100    4.01610    2.59680    3.62100  127.48210   15.88260  -19.50530   22.51550   16.03960   -9999.25   -9999.25
 8653.50000    0.11900    0.25360    0.01190    4.13230    2.48890    3.77930  128.69040   13.91890  -19.50530   17.74250   12.54420   -9999.25   -9999.25
 8654.00000    0.22240    0.28430    0.00840    4.59830    2.31580    3.64230  117.62000   13.28330  -19.50530   15.00290    9.81040   -9999.25   -9999.25
 8654.50000    0.29960    0.31640   -0.01710    4.81920    2.05400    3.42010  104.27420   13.04000  -19.50530   14.32990    8.66750   -9999.25   -9999.25
 8655.00000    0.29960    0.27820   -0.01890    4.70100    1.99760    3.19790   94.11290   13.42490  -19.50530   15.14500   14.21830   -9999.25   -9999.25
 8655.50000    0.29960    0.16120   -0.01590    4.40240    2.08280    2.97630   83.64410   14.61870  -19.50530   17.75340   25.24340   -9999.25   -9999.25
 8656.00000    0.29140    0.09650   -0.00430    4.02370    2.23650    2.82650   70.74010   16.61610  -19.50530   35.23470   36.31940   -9999.25   -9999.25
 8656.50000    0.18500    0.07540    0.00820    3.96220    2.41090    2.70290   58.45020   18.67260  -19.50530   57.26010   35.79540   -9999.25   -9999.25
 8657.00000    0.10880    0.08170    0.01980    3.91840    2.50980    2.67590   55.51420   23.87850  -19.50530   84.21770   35.44380   -9999.25   -9999.25
 8657.50000    0.08660    0.10130    0.02150    3.89130    2.56130    2.71580   61.32310   32.47440  -19.85790   88.55120   36.75210   -9999.25   -9999.25
 8658.00000    0.08350    0.11110    0.01740    3.86420    2.56760    2.77800   66.23650   65.41430  -20.31260   82.27590   43.59140   -9999.25   -9999.25
 8658.50000    0.08260    0.10510    0.00880    3.84230    2.56820    2.84030   63.49840  112.67430  -20.76730   63.08670   53.80820   -9999.25   -9999.25
 8659.00000    0.07530    0.08580    0.00120    3.83570    2.58530    2.90250   58.69690  128.91170  -21.22200   64.10410   69.00000   -9999.25   -9999.25
 8659.50000    0.05780    0.06620    0.00020    3.82920    2.60770    2.94160   52.75090  111.63400  -21.67670   95.13420   82.31380   -9999.25   -9999.25
 8660.00000    0.04130    0.07500    0.00030    3.82260    2.63600    2.84080   48.57990   70.27530  -22.13150  141.18460   76.36550   -9999.25   -9999.25
 8660.50000    0.04370    0.08830    0.00070    3.81050    2.63730    2.73680   53.29950   64.22010  -22.68950  139.57430   68.40600   -9999.25   -9999.25
 8661.00000    0.05450    0.10380    0.00110    3.80400    2.62400    2.63270   61.02960   61.49110  -23.31280  110.83120   64.42120   -9999.25   -9999.25
 8661.50000    0.06160    0.11010    0.00040    3.80330    2.60910    2.52870   64.55820   60.78940  -23.93610   84.83010   62.98620   -9999.25   -9999.25
 8662.00000    0.06850    0.09930   -0.00060    3.80340    2.59490    2.47110   61.12840   60.25920  -24.55930   64.76980   62.40480   -9999.25   -9999.25
 8662.50000    0.07550    0.09230   -0.00120    3.80550    2.58450    2.47320   59.11210   60.25920  -25.18260   63.23040   62.40480   -9999.25   -9999.25
 8663.00000    0.08250    0.09270   -0.00130    3.80760    2.57330    2.51630   61.60490   60.25920  -25.48420   63.29480   62.40480   -9999.25   -9999.25
 8663.50000    0.08710    0.09300   -0.00150    3.80960    2.56210    2.57360   64.23300   60.63900  -25.62580   64.48820   62.83120   -9999.25   -9999.25
 8664.00000    0.08550    0.08660   -0.00160    3.80630    2.56310    2.62190   59.16590   61.64370  -25.76750   73.29450   68.98640   -9999.25   -9999.25
 8664.50000    0.07430    0.07650   -0.00170    3.79820    2.57510    2.64600   52.87070   63.00460  -25.90910   89.47650   74.79730   -9999.25   -9999.25
 8665.00000    0.07320    0.07470   -0.00190    3.79540    2.58360    2.57890   50.70930   64.39550  -26.05080  109.95150   75.70140   -9999.25   -9999.25
 8665.50000    0.07670    0.08090   -0.00150    3.79910    2.58130    2.50900   57.76440   65.68940  -26.19250  124.81290   76.00260   -9999.25   -9999.25
 8666.00000    0.08100    0.09580   -0.00090    3.80280    2.57460    2.53380   70.49330   66.72720  -26.33410  119.75060   73.86960   -9999.25   -9999.25
 8666.50000    0.08120    0.10500   -0.00030    3.80260    2.57180    2.59380   72.10350   67.83380  -26.47580  103.35850   70.83480   -9999.25   -9999.25
 8667.00000    0.08110    0.09820    0.00270    3.79360    2.57220    2.60480   68.59160   66.08340  -26.55040   97.76230   67.90620   -9999.25   -9999.25
 8667.50000    0.08030    0.08580    0.00660    3.78910    2.57350    2.61590   65.07980   62.32470  -26.60350   96.00870   63.88560   -9999.25   -9999.25
 8668.00000    0.07620    0.07760    0.01110    3.80920    2.58060    2.67040   68.25790   57.71670  -26.65650   88.40680   51.89440   -9999.25   -9999.25
 8668.50000    0.07050    0.12690    0.01920    3.82670    2.59890    2.86260   78.74150   55.61290  -26.70960   72.89820   45.66640   -9999.25   -9999.25
 8669.00000    0.06720    0.15290    0.02500    3.84410    2.60060    2.94960   80.72360   53.46610  -26.76260   59.07290   45.74160   -9999.25   -9999.25
 8669.50000    0.08120    0.16360    0.03050    3.86160    2.57300    2.89250   77.33520   50.94810  -26.88120   58.17470   47.25080   -9999.25   -9999.25
 8670.00000    0.12010    0.15810    0.03590    3.85550    2.52240    2.80660   74.97880   48.54870  -27.07290   65.89690   48.90070   -9999.25   -9999.25
