~Version ---------------------------------------------------
VERS.   2.0 : CWLS log ASCII Standard -VERSION 2.0
WRAP.    NO : One line per depth step
DLM . SPACE : Column Data Section Delimiter
~Well ------------------------------------------------------
STRT .F                 3418.5 : START DEPTH
STOP .F                12997.0 : STOP DEPTH
STEP .F                    0.5 : STEP
NULL .                -9999.25 : NULL VALUE
COMP .                         : COMPANY
WELL .                         : WELL
FLD  .                         : FIELD
LOC  .                         : LOCATION
PROV .                         : PROVINCE
CNTY .                         : COUNTY
STAT .                         : STATE
CTRY .                         : COUNTRY
SRVC .                         : SERVICE COMPANY
DATE .                         : DATE
UWI  .                         : UNIQUE WELL ID
API  .                         : API NUMBER
SLAT .WGS84 5.9280925372982125 : SURFACE LATITUDE
SLON .WGS84  4.006364565975076 : SURFACE LONGITUDE
DATUM.F                1821.12 : DEPTH DATUM ELEV
~Curve Information -----------------------------------------
DEPT.F     : 
DPHI.DEC   : DENSITY POROSITY LIMESTONE
NPHI.DEC   : NEUTRON POROSITY LIMESTONE
DRHO.G/C3  : DENSITY CORRECTION
CALD.IN    : CALIPER FDC LOG
RHOB.G/C3  : BULK DENSITY
PEF .B/E   : PHOTOELECTRIC FACTOR
GRR .GAPI  : GAMMA RAY FROM RES. LOG.
ILD .OHMM  : INDUCTION LOG DEEP
SPR .MV    : SPONTANEOUS POTENTIAL FROM RES.
SFLU.OHMM  : SPHERICALLY FOCUSED LOG UNAVERAGED RESISTIVITY
ILM .OHMM  : INDUCTION LOG MEDIUM
DTCO.US/F  : COMPRESSIONAL-WAVE INTERVAL TRANSIT TIME ACOUSTIC SLOWNESS
DTSM.US/F  : SHEAR-WAVE INTERVAL TRANSIT TIME DELTA-T
~Params ----------------------------------------------------
~Other -----------------------------------------------------
~ASCII -----------------------------------------------------
# ...
 11296.50000    0.09500    0.25430    0.05120    3.56420    2.55100    3.67440  109.88210    3.66670  -22.33790    5.86110    3.82120   -9999.25   -9999.25
 11297.00000    0.08860    0.24860    0.06530    3.59980    2.56060    3.75710  111.52890    3.55890  -22.52480    5.78060    3.70880   -9999.25   -9999.25
 11297.50000    0.08960    0.24400    0.07350    3.63550    2.55180    3.78400  112.17940    3.47160  -22.71170    5.08410    3.59980   -9999.25   -9999.25
 11298.00000    0.11070    0.25140    0.06140    3.67110    2.52420    3.64230  112.95910    3.43130  -22.89850    4.19480    3.55690   -9999.25   -9999.25
 11298.50000    0.13060    0.26520    0.03570    3.71240    2.49060    3.48420  119.29020    3.39140  -23.05470    3.80220    3.51560   -9999.25   -9999.25
 11299.00000    0.12390    0.27210    0.01960    3.76250    2.49770    3.48420  128.79240    3.32370  -23.19050    3.95740    3.45270   -9999.25   -9999.25
 11299.50000    0.11390    0.26550    0.00500    3.79440    2.51800    3.51180  136.26510    3.25550  -23.32630    4.49010    3.38180   -9999.25   -9999.25
 11300.00000    0.11270    0.25680   -0.00810    3.80110    2.51430    3.66880  133.64860    3.20260  -23.46210    4.90450    3.31750   -9999.25   -9999.25
 11300.50000    0.12160    0.24950   -0.02050    3.73570    2.50200    3.82360  128.86230    3.18260  -23.59790    4.52430    3.29680   -9999.25   -9999.25
 11301.00000    0.13090    0.24510   -0.01690    3.56360    2.48960    3.81670  119.66060    3.13910  -23.73380    4.15940    3.25670   -9999.25   -9999.25
 11301.50000    0.14080    0.24130    0.00080    3.51400    2.47670    3.77610  111.95050    3.09000  -23.86960    3.96470    3.20580   -9999.25   -9999.25
 11302.00000    0.15080    0.24090    0.02080    3.53050    2.45980    3.73560  109.16430    3.04180  -24.00540    3.83070    3.15570   -9999.25   -9999.25
 11302.50000    0.16130    0.25690    0.04620    3.55750    2.41870    3.69850  109.85820    3.02700  -24.10060    3.67980    3.13510   -9999.25   -9999.25
 11303.00000    0.19100    0.26870    0.07180    3.58450    2.38850    3.66760  112.32600    3.01520  -24.10060    3.63950    3.12280   -9999.25   -9999.25
 11303.50000    0.20780    0.27320    0.08450    3.61460    2.36220    3.63670  114.00710    3.00300  -24.10060    3.74410    3.11030   -9999.25   -9999.25
 11304.00000    0.20120    0.26920    0.09730    3.56180    2.35970    3.60580  117.93450    2.99070  -24.10060    3.91810    3.09750   -9999.25   -9999.25
 11304.50000    0.16140    0.26140    0.10240    3.49420    2.43560    3.57680  119.64630    2.97840  -24.10060    3.99760    3.08480   -9999.25   -9999.25
 11305.00000    0.11710    0.25470    0.10740    3.47040    2.53150    3.56390  120.06470    2.96620  -24.10060    3.99390    3.07210   -9999.25   -9999.25
 11305.50000    0.08060    0.25150    0.11240    3.44970    2.57320    3.57020  120.29090    3.00360  -24.02010    3.94550    3.11620   -9999.25   -9999.25
 11306.00000    0.08160    0.24940    0.11640    3.42900    2.56850    3.63620  120.08370    3.04870  -23.63510    3.91900    3.21780   -9999.25   -9999.25
 11306.50000    0.08440    0.24720    0.11490    3.39640    2.56840    3.71910  118.92950    3.10300  -23.25010    4.07110    3.33020   -9999.25   -9999.25
 11307.00000    0.07290    0.23890    0.11100    3.34480    2.59250    3.75130  117.78660    3.16830  -22.86510    4.47770    3.44660   -9999.25   -9999.25
 11307.50000    0.05520    0.22860    0.10010    3.31060    2.61920    3.73940  117.31060    3.23290  -22.48010    4.91210    3.51750   -9999.25   -9999.25
 11308.00000    0.04150    0.21780    0.06740    3.30210    2.64400    3.65020  119.39090    3.28780  -22.09510    5.10560    3.51550   -9999.25   -9999.25
 11308.50000    0.03360    0.21410    0.04400    3.30440    2.65530    3.57160  120.18380    3.33370  -21.71010    5.07400    3.51350   -9999.25   -9999.25
 11309.00000    0.03350    0.21700    0.02290    3.30670    2.65240    3.55480  121.75700    3.38480  -21.33520    4.95230    3.51410   -9999.25   -9999.25
 11309.50000    0.04890    0.22590    0.01650    3.30900    2.62400    3.59110  127.36920    3.44970  -20.96640    4.72600    3.59160   -9999.25   -9999.25
 11310.00000    0.08100    0.23760    0.01940    3.30930    2.57980    3.59810  131.43420    3.55390  -20.59770    4.46950    3.75560   -9999.25   -9999.25
 11310.50000    0.10330    0.24470    0.03670    3.30540    2.53960    3.59970  130.93350    3.76830  -20.22890    4.45630    3.99810   -9999.25   -9999.25
 11311.00000    0.11150    0.24440    0.05260    3.29780    2.52150    3.60140  128.30440    4.01800  -20.15400    4.90930    4.32270   -9999.25   -9999.25
 11311.50000    0.10170    0.23660    0.06210    3.29770    2.53960    3.77180  125.57510    4.38570  -20.15400    6.19790    4.72920   -9999.25   -9999.25
 11312.00000    0.08180    0.22890    0.05840    3.29760    2.58260    4.05570  121.76180    4.79820  -20.15400    7.82430    5.22610   -9999.25   -9999.25
 11312.50000    0.05650    0.20500    0.03630    3.29750    2.61510    4.22270  119.37220    5.33250  -20.15400    8.97400    5.84030   -9999.25   -9999.25
 11313.00000    0.04150    0.19750    0.01740    3.30300    2.64360    4.09040  115.55590    5.97990  -20.15400    9.49620    6.56810   -9999.25   -9999.25
 11313.50000    0.03270    0.18720    0.00110    3.31240    2.65410    3.87530  105.43570    6.72460  -20.19630    9.87020    7.31260   -9999.25   -9999.25
 11314.00000    0.02650    0.17090   -0.00650    3.31830    2.66400    3.70840   94.53450    7.33390  -20.27120   11.75900    8.08870   -9999.25   -9999.25
 11314.50000    0.02040    0.14610   -0.01130    3.31620    2.67600    3.76850   90.76120    7.73010  -20.34610   14.45020    8.80000   -9999.25   -9999.25
 11315.00000    0.01420    0.13230   -0.01420    3.30660    2.68870    3.89600   97.11240    7.82540  -20.42100   15.05760    8.90330   -9999.25   -9999.25
 11315.50000    0.00790    0.12790   -0.01630    3.29690    2.69990    4.00910  103.08460    7.77560  -20.49600   14.51900    8.86750   -9999.25   -9999.25
 11316.00000    0.00640    0.12900   -0.01660    3.31010    2.69020    3.76110  107.45730    7.40310  -20.57090   13.41040    8.31410   -9999.25   -9999.25
 11316.50000    0.02070    0.15480   -0.01570    3.32300    2.68010    3.43790  113.71780    6.64920  -20.64580   12.36840    7.31420   -9999.25   -9999.25
 11317.00000    0.01890    0.17360   -0.01460    3.32880    2.68000    3.35380  120.40360    6.08510  -20.73440   10.84770    6.51550   -9999.25   -9999.25
 11317.50000    0.01240    0.18580   -0.01250    3.33050    2.68990    3.37200  120.84030    5.60330  -21.15940    9.28760    6.04810   -9999.25   -9999.25
 11318.00000    0.02650    0.19920   -0.00610    3.33040    2.66900    3.43280  115.19970    5.02430  -21.58430    7.09110    5.45610   -9999.25   -9999.25
 11318.50000    0.06140    0.21050    0.00110    3.33040    2.61540    3.49360  109.76040    4.78250  -22.00930    6.02540    5.00910   -9999.25   -9999.25
 11319.00000    0.10530    0.21360    0.00870    3.33030    2.53540    3.55440  110.37500    4.72910  -22.43430    5.70560    4.89760   -9999.25   -9999.25
 11319.50000    0.13270    0.21710    0.01630    3.32560    2.48020    3.61520  112.31040    4.72730  -22.85930    5.76800    4.89530   -9999.25   -9999.25
 11320.00000    0.11740    0.22050    0.04700    3.32050    2.49330    3.67600  114.37500    4.78660  -22.67880    6.31430    4.96720   -9999.25   -9999.25
 11320.50000    0.09090    0.21820    0.05970    3.31720    2.55570    3.73680  115.13680    4.89650  -22.27710    7.28470    5.09760   -9999.25   -9999.25
 11321.00000    0.07060    0.21380    0.05590    3.31530    2.58430    3.80090  110.56170    5.03030  -21.87550    8.22910    5.23710   -9999.25   -9999.25
 11321.50000    0.05160    0.20750    0.04550    3.31370    2.61620    3.85700  103.06720    5.17260  -21.47380    9.11150    5.38980   -9999.25   -9999.25
 11322.00000    0.04370    0.19490    0.03400    3.31200    2.63910    4.00330  103.38760    5.32610  -21.07210    9.87590    5.53700   -9999.25   -9999.25
