~Version ---------------------------------------------------
VERS.   2.0 : CWLS log ASCII Standard -VERSION 2.0
WRAP.    NO : One line per depth step
DLM . SPACE : Column Data Section Delimiter
~Well ------------------------------------------------------
STRT .F                 3418.5 : START DEPTH
STOP .F                12997.0 : STOP DEPTH
STEP .F                    0.5 : STEP
NULL .                -9999.25 : NULL VALUE
COMP .                         : COMPANY
WELL .                         : WELL
FLD  .                         : FIELD
LOC  .                         : LOCATION
PROV .                         : PROVINCE
CNTY .                         : COUNTY
STAT .                         : STATE
CTRY .                         : COUNTRY
SRVC .                         : SERVICE COMPANY
DATE .                         : DATE
UWI  .                         : UNIQUE WELL ID
API  .                         : API NUMBER
SLAT .WGS84 5.9280925372982125 : SURFACE LATITUDE
SLON .WGS84  4.006364565975076 : SURFACE LONGITUDE
DATUM.F                1821.12 : DEPTH DATUM ELEV
~Curve Information -----------------------------------------
DEPT.F     : 
DPHI.DEC   : DENSITY POROSITY LIMESTONE
NPHI.DEC   : NEUTRON POROSITY LIMESTONE
DRHO.G/C3  : DENSITY CORRECTION
CALD.IN    : CALIPER FDC LOG
RHOB.G/C3  : BULK DENSITY
PEF .B/E   : PHOTOELECTRIC FACTOR
GRR .GAPI  : GAMMA RAY FROM RES. LOG.
ILD .OHMM  : INDUCTION LOG DEEP
SPR .MV    : SPONTANEOUS POTENTIAL FROM RES.
SFLU.OHMM  : SPHERICALLY FOCUSED LOG UNAVERAGED RESISTIVITY
ILM .OHMM  : INDUCTION LOG MEDIUM
DTCO.US/F  : COMPRESSIONAL-WAVE INTERVAL TRANSIT TIME ACOUSTIC SLOWNESS
DTSM.US/F  : SHEAR-WAVE INTERVAL TRANSIT TIME DELTA-T
~Params ----------------------------------------------------
~Other -----------------------------------------------------
~ASCII -----------------------------------------------------
# ...
 10984.50000    0.01510    0.09690   -0.00530    3.66580    2.68610    3.91550   70.43490   17.15170  -27.34590   23.87610   17.79550   -9999.25   -9999.25
 10985.00000    0.01590    0.09630   -0.00980    3.66050    2.68470    3.87820   72.47700   17.43210  -27.34990   23.83120   18.14490   -9999.25   -9999.25
 10985.50000    0.01890    0.09600   -0.01440    3.65510    2.67900    3.84290   75.76660   17.88300  -27.30590   23.96670   18.61530   -9999.25   -9999.25
 10986.00000    0.02390    0.09570   -0.01430    3.66130    2.66950    3.82330   80.84130   18.34560  -27.22670   24.61380   19.09780   -9999.25   -9999.25
 10986.50000    0.02880    0.09550   -0.01340    3.68110    2.65980    3.95120   83.83690   18.75400  -27.14750   25.27690   19.48440   -9999.25   -9999.25
 10987.00000    0.03290    0.09620   -0.01250    3.70410    2.65570    4.08510   84.57370   19.09140  -27.06830   25.92190   19.79130   -9999.25   -9999.25
 10987.50000    0.03320    0.09710   -0.01170    3.73160    2.65370    4.22070   84.67840   19.33140  -26.98900   26.48970   20.07140   -9999.25   -9999.25
 10988.00000    0.03370    0.09750   -0.01080    3.76310    2.65190    4.32490   84.02600   19.64250  -26.90980   26.72250   20.38460   -9999.25   -9999.25
 10988.50000    0.03400    0.09560   -0.00770    3.78530    2.65000    4.29810   83.20180   19.86210  -26.83060   26.72250   20.58340   -9999.25   -9999.25
 10989.00000    0.03680    0.09400   -0.00390    3.79890    2.64760    4.25940   82.89370   19.97890  -26.75140   26.72250   20.69420   -9999.25   -9999.25
 10989.50000    0.03790    0.09230   -0.00020    3.81250    2.64740    4.24450   81.46360   20.03650  -26.67220   27.03310   20.75130   -9999.25   -9999.25
 10990.00000    0.03390    0.09070    0.00350    3.82610    2.65730    4.22410   76.33130   20.03680  -26.59290   27.69690   20.75160   -9999.25   -9999.25
 10990.50000    0.02700    0.08900    0.00350    3.81730    2.66530    4.12800   71.44290   19.95740  -26.51370   28.26470   20.67650   -9999.25   -9999.25
 10991.00000    0.02400    0.08740    0.00200    3.79900    2.66880    3.98310   71.53770   19.81300  -26.43450   28.48840   20.52690   -9999.25   -9999.25
 10991.50000    0.02380    0.08570   -0.00160    3.77190    2.66970    3.84020   74.24330   19.67670  -26.37300   27.95360   20.37860   -9999.25   -9999.25
 10992.00000    0.02400    0.08660   -0.00640    3.74170    2.66980    3.69730   76.85680   19.67760  -26.31550   24.54020   20.37960   -9999.25   -9999.25
 10992.50000    0.02410    0.09490   -0.01090    3.70940    2.66980    3.55440   78.29110   19.67850  -26.25810   24.28580   20.38050   -9999.25   -9999.25
 10993.00000    0.02160    0.09850   -0.01400    3.68370    2.67190    3.50190   79.10980   19.67940  -26.20060   24.87520   20.38140   -9999.25   -9999.25
 10993.50000    0.01620    0.09860   -0.01510    3.67390    2.68360    3.72060   80.65170   19.68030  -26.14320   26.50070   20.38230   -9999.25   -9999.25
 10994.00000    0.00890    0.09910   -0.01530    3.68090    2.69620    3.91870   80.34150   19.68640  -26.08570   28.15710   20.38330   -9999.25   -9999.25
 10994.50000    0.00490    0.09970   -0.01480    3.66970    2.70250    3.99440   75.06480   19.71080  -26.05600   28.27180   20.41520   -9999.25   -9999.25
 10995.00000    0.00510    0.10020   -0.00970    3.65850    2.70170    3.99720   70.44440   19.73530  -26.04410   27.79990   20.47560   -9999.25   -9999.25
 10995.50000    0.00670    0.10080   -0.00460    3.63930    2.69900    3.99490   70.16830   19.75980  -26.03220   27.34340   20.30680   -9999.25   -9999.25
 10996.00000    0.01160    0.10080   -0.00100    3.61850    2.69330    4.00730   72.78150   19.78430  -26.02030   26.91450   19.79540   -9999.25   -9999.25
 10996.50000    0.01720    0.10060   -0.00040    3.58510    2.68320    4.03940   75.51460   19.80880  -26.00840   26.49230   19.29690   -9999.25   -9999.25
 10997.00000    0.01910    0.10060   -0.00030    3.52630    2.67830    4.08290   75.74340   19.83330  -25.99650   26.07680   18.81100   -9999.25   -9999.25
 10997.50000    0.01900    0.10060   -0.00070    3.48840    2.67850    4.13390   75.57000   19.85790  -25.98460   25.68780   18.33730   -9999.25   -9999.25
 10998.00000    0.02070    0.10050   -0.00160    3.45590    2.67550    4.19480   74.82600   19.69620  -25.97530   25.21180   18.00230   -9999.25   -9999.25
 10998.50000    0.02470    0.10050   -0.00270    3.43320    2.66930    4.13500   73.80790   19.47440  -25.96700   25.08050   17.69960   -9999.25   -9999.25
 10999.00000    0.02840    0.10200   -0.00440    3.43250    2.66290    4.03760   70.32880   19.02790  -25.95870   25.08050   17.40210   -9999.25   -9999.25
 10999.50000    0.02980    0.10420   -0.00600    3.43170    2.66160    4.00560   65.58860   18.62970  -25.95040   25.08050   17.10440   -9999.25   -9999.25
 11000.00000    0.02930    0.10050   -0.00690    3.41630    2.66390    4.11210   56.90410   18.23970  -25.94210   25.08050   16.81130   -9999.25   -9999.25
 11000.50000    0.02590    0.09780   -0.00690    3.39660    2.66690    4.28190   55.87360   17.85790  -25.93380   25.05700   16.52330   -9999.25   -9999.25
 11001.00000    0.02560    0.09640   -0.00690    3.37690    2.66870    4.32600   61.39190   17.48420  -25.92550   24.77460   16.24120   -9999.25   -9999.25
 11001.50000    0.02750    0.09500   -0.00690    3.35730    2.66540    4.28980   68.34740   17.11820  -25.92520   23.86560   15.96410   -9999.25   -9999.25
 11002.00000    0.03120    0.09730   -0.00630    3.35360    2.66030    4.12410   73.97600   16.75990  -25.92520   22.06940   15.69160   -9999.25   -9999.25
 11002.50000    0.03100    0.10230   -0.00310    3.35670    2.65790    4.00840   74.80070   16.40910  -25.92520   21.09930   15.42380   -9999.25   -9999.25
 11003.00000    0.03080    0.10730    0.00260    3.35520    2.65890    4.10620   73.32410   16.06560  -25.92520   21.10970   15.15920   -9999.25   -9999.25
 11003.50000    0.03050    0.11080    0.00840    3.35640    2.65880    4.20400   73.00750   15.78450  -25.89880   21.74980   14.89830   -9999.25   -9999.25
 11004.00000    0.03030    0.11010    0.01190    3.35750    2.65870    4.26120   73.49900   15.55080  -25.85050   22.58100   14.64200   -9999.25   -9999.25
 11004.50000    0.03040    0.10930    0.01190    3.35840    2.65860    4.17060   75.90160   15.32070  -25.80220   22.20420   14.39000   -9999.25   -9999.25
 11005.00000    0.03090    0.10850    0.01090    3.34520    2.65850    4.08020   78.59350   15.09390  -25.75390   21.52910   14.14240   -9999.25   -9999.25
 11005.50000    0.03070    0.10770    0.00920    3.34770    2.65850    4.03190   80.51800   14.87050  -25.70560   21.15980   13.89900   -9999.25   -9999.25
 11006.00000    0.02860    0.10740    0.00740    3.37280    2.66090    3.98360   80.58240   14.65040  -25.65730   21.02820   13.65990   -9999.25   -9999.25
 11006.50000    0.02660    0.10930    0.00570    3.39790    2.66590    3.96260   78.33450   14.43350  -25.60900   20.77350   13.42480   -9999.25   -9999.25
 11007.00000    0.02610    0.11190    0.00400    3.42290    2.66620    3.99820   76.34100   14.21990  -25.56070   19.95610   13.19380   -9999.25   -9999.25
 11007.50000    0.02660    0.11360    0.00220    3.44800    2.66630    4.14730   76.47760   13.99610  -25.51240   18.18070   12.96670   -9999.25   -9999.25
 11008.00000    0.02590    0.11260   -0.00010    3.47310    2.66750    4.31420   79.47070   13.75410  -25.46410   17.46760   12.74360   -9999.25   -9999.25
 11008.50000    0.02460    0.11110   -0.00270    3.49810    2.66970    4.28450   84.84570   13.64470  -25.41580   17.40800   12.52430   -9999.25   -9999.25
 11009.00000    0.02350    0.11160   -0.00550    3.51260    2.67140    4.17950   86.97340   13.61700  -25.36750   17.44350   12.42050   -9999.25   -9999.25
 11009.50000    0.02320    0.11460   -0.00940    3.51550    2.67180    4.14270   86.47660   13.61700  -25.31920   17.48620   12.38020   -9999.25   -9999.25
 11010.00000    0.02500    0.11810   -0.01320    3.51590    2.66910    4.21280   83.44040   13.66550  -25.27090   17.52970   12.36110   -9999.25   -9999.25
