~Version ---------------------------------------------------
VERS.   2.0 : CWLS log ASCII Standard -VERSION 2.0
WRAP.    NO : One line per depth step
DLM . SPACE : Column Data Section Delimiter
~Well ------------------------------------------------------
STRT .F                 3418.5 : START DEPTH
STOP .F                12997.0 : STOP DEPTH
STEP .F                    0.5 : STEP
NULL .                -9999.25 : NULL VALUE
COMP .                         : COMPANY
WELL .                         : WELL
FLD  .                         : FIELD
LOC  .                         : LOCATION
PROV .                         : PROVINCE
CNTY .                         : COUNTY
STAT .                         : STATE
CTRY .                         : COUNTRY
SRVC .                         : SERVICE COMPANY
DATE .                         : DATE
UWI  .                         : UNIQUE WELL ID
API  .                         : API NUMBER
SLAT .WGS84 5.9280925372982125 : SURFACE LATITUDE
SLON .WGS84  4.006364565975076 : SURFACE LONGITUDE
DATUM.F                1821.12 : DEPTH DATUM ELEV
~Curve Information -----------------------------------------
DEPT.F     : 
DPHI.DEC   : DENSITY POROSITY LIMESTONE
NPHI.DEC   : NEUTRON POROSITY LIMESTONE
DRHO.G/C3  : DENSITY CORRECTION
CALD.IN    : CALIPER FDC LOG
RHOB.G/C3  : BULK DENSITY
PEF .B/E   : PHOTOELECTRIC FACTOR
GRR .GAPI  : GAMMA RAY FROM RES. LOG.
ILD .OHMM  : INDUCTION LOG DEEP
SPR .MV    : SPONTANEOUS POTENTIAL FROM RES.
SFLU.OHMM  : SPHERICALLY FOCUSED LOG UNAVERAGED RESISTIVITY
ILM .OHMM  : INDUCTION LOG MEDIUM
DTCO.US/F  : COMPRESSIONAL-WAVE INTERVAL TRANSIT TIME ACOUSTIC SLOWNESS
DTSM.US/F  : SHEAR-WAVE INTERVAL TRANSIT TIME DELTA-T
~Params ----------------------------------------------------
~Other -----------------------------------------------------
~ASCII -----------------------------------------------------
# ...
 9970.50000    0.04020    0.27270    0.07700    5.81850    2.63380    3.42180  114.46540    4.65820   -4.82400    5.90230    4.82520   -9999.25   -9999.25
 9971.00000    0.03860    0.27340    0.06070    5.83760    2.64880    3.61910  115.19310    4.67500   -4.83010    5.85720    4.84260   -9999.25   -9999.25
 9971.50000    0.04610    0.26650    0.04190    5.84290    2.63520    3.81640  116.46950    4.70390   -4.83610    5.81110    4.87370   -9999.25   -9999.25
 9972.00000    0.06410    0.24990    0.02780    5.84210    2.60810    3.96240  118.38390    4.72450   -4.84220    5.72110    4.89350   -9999.25   -9999.25
 9972.50000    0.08370    0.23730    0.02530    5.84120    2.58000    3.87460  119.36320    4.73540   -4.84830    5.64480    4.90490   -9999.25   -9999.25
 9973.00000    0.09530    0.24100    0.03120    5.83970    2.55250    3.67210  119.35830    4.75080   -4.85450    5.62650    4.92100   -9999.25   -9999.25
 9973.50000    0.09850    0.24860    0.04620    5.83830    2.54700    3.54580  119.30460    4.76780   -4.86110    5.63950    4.93840   -9999.25   -9999.25
 9974.00000    0.08950    0.25240    0.06430    5.83680    2.56060    3.41950  118.35830    4.78510   -4.86770    5.80290    4.95630   -9999.25   -9999.25
 9974.50000    0.08230    0.25330    0.07600    5.83530    2.57010    3.35810  116.45760    4.80390   -4.87430    5.97340    4.97570   -9999.25   -9999.25
 9975.00000    0.08120    0.25410    0.07450    5.83560    2.57350    3.38920  115.69580    4.82270   -4.88080    6.06920    4.99510   -9999.25   -9999.25
 9975.50000    0.08040    0.25500    0.06210    5.83600    2.57570    3.47580  116.11570    4.83460   -4.88740    6.13720    5.00710   -9999.25   -9999.25
 9976.00000    0.07950    0.25550    0.05150    5.83590    2.57790    3.58560  122.16140    4.83740   -4.74500    6.14940    5.00990   -9999.25   -9999.25
 9976.50000    0.07770    0.25260    0.04860    5.83540    2.58010    3.72010  123.33060    4.81020   -4.56680    6.14620    4.98520   -9999.25   -9999.25
 9977.00000    0.07510    0.24820    0.04830    5.83490    2.58250    3.82270  122.81120    4.76750   -4.38860    6.06680    4.94090   -9999.25   -9999.25
 9977.50000    0.06270    0.24790    0.05790    5.83430    2.59980    3.90350  121.78380    4.72510   -4.21040    5.92420    4.89700   -9999.25   -9999.25
 9978.00000    0.05130    0.25260    0.07700    5.80140    2.61960    3.83240  120.83740    4.67300   -4.03220    5.73270    4.84520   -9999.25   -9999.25
 9978.50000    0.05290    0.25780    0.09240    5.77220    2.62100    3.71470  120.50860    4.62460   -3.85400    5.62740    4.79330   -9999.25   -9999.25
 9979.00000    0.05910    0.26170    0.09450    5.76830    2.61040    3.61230  120.40140    4.57420   -3.80300    5.57430    4.74440   -9999.25   -9999.25
 9979.50000    0.06310    0.26540    0.09400    5.76830    2.60070    3.53340  120.33860    4.51310   -3.82290    5.52060    4.68100   -9999.25   -9999.25
 9980.00000    0.06990    0.26980    0.09180    5.78240    2.59650    3.45870  119.17330    4.48310   -3.84270    5.47940    4.64350   -9999.25   -9999.25
 9980.50000    0.08330    0.27480    0.08850    5.81400    2.57230    3.48000  116.32330    4.45460   -3.86260    5.44800    4.61590   -9999.25   -9999.25
 9981.00000    0.09300    0.27570    0.08370    5.84560    2.55100    3.61290  113.56630    4.43000   -3.88250    5.38690    4.58800   -9999.25   -9999.25
 9981.50000    0.09410    0.27130    0.08070    5.88200    2.55470    3.77380  112.78950    4.42720   -3.90230    5.33920    4.58510   -9999.25   -9999.25
 9982.00000    0.08410    0.26830    0.08050    5.91900    2.56880    3.83090  115.84530    4.42310   -3.92220    5.35500    4.58090   -9999.25   -9999.25
 9982.50000    0.08630    0.26560    0.08570    5.95520    2.56220    3.81220  119.72490    4.41540   -3.95480    5.41000    4.57280   -9999.25   -9999.25
 9983.00000    0.09360    0.26330    0.09230    5.99030    2.55210    3.79800  121.65060    4.40770   -3.98770    5.50550    4.56470   -9999.25   -9999.25
 9983.50000    0.09690    0.25900    0.09870    6.02530    2.54550    3.78370  122.41270    4.40000   -4.02070    5.60020    4.55660   -9999.25   -9999.25
 9984.00000    0.09230    0.25150    0.10020    6.03890    2.55910    3.76940  121.43490    4.42130   -4.05360    5.64260    4.58170   -9999.25   -9999.25
 9984.50000    0.07840    0.25140    0.10000    6.04320    2.57940    3.76740  119.35000    4.46200   -4.08650    5.66230    4.62390   -9999.25   -9999.25
 9985.00000    0.06540    0.25630    0.09910    6.05300    2.60370    3.87930  119.07340    4.48810   -4.11940    5.64250    4.64830   -9999.25   -9999.25
 9985.50000    0.06330    0.26130    0.09730    6.08340    2.60510    3.99900  121.73920    4.48530   -4.15230    5.51500    4.65130   -9999.25   -9999.25
 9986.00000    0.06940    0.26870    0.09020    6.11390    2.58760    3.97250  128.11370    4.42670   -4.18530    5.39150    4.59050   -9999.25   -9999.25
 9986.50000    0.08380    0.27310    0.08950    6.10590    2.57190    3.84700  123.97550    4.37390   -4.21820    5.35840    4.53390   -9999.25   -9999.25
 9987.00000    0.08370    0.27530    0.10070    6.11130    2.57210    3.73010  117.07900    4.32610   -4.25110    5.33500    4.48440   -9999.25   -9999.25
 9987.50000    0.08100    0.27680    0.11410    6.12530    2.57440    3.69170  109.48140    4.28070   -4.28400    5.31710    4.43540   -9999.25   -9999.25
 9988.00000    0.07830    0.27780    0.12280    6.13660    2.57740    3.69150  109.57950    4.25660   -4.31010    5.26220    4.41360   -9999.25   -9999.25
 9988.50000    0.07760    0.28010    0.12700    6.14510    2.57800    3.69130  114.77280    4.22490   -4.33530    5.15450    4.37530   -9999.25   -9999.25
 9989.00000    0.08210    0.28440    0.12680    6.15360    2.56680    3.69110  118.42870    4.22540   -4.36000    5.03710    4.37580   -9999.25   -9999.25
 9989.50000    0.09490    0.28810    0.12230    6.16210    2.54780    3.67090  119.15450    4.22590   -4.38150    4.99060    4.37630   -9999.25   -9999.25
 9990.00000    0.11460    0.28280    0.11140    6.18080    2.52860    3.66750  119.20880    4.20790   -4.40300    5.02120    4.35950   -9999.25   -9999.25
 9990.50000    0.11530    0.27430    0.10190    6.19900    2.51930    3.67640  119.10480    4.17740   -4.42460    5.09730    4.32790   -9999.25   -9999.25
 9991.00000    0.10560    0.26930    0.09750    6.17810    2.53480    3.68460  118.69360    4.16900   -4.44610    5.13620    4.31740   -9999.25   -9999.25
 9991.50000    0.09270    0.26550    0.09310    6.16350    2.55420    3.64630  116.67150    4.16900   -4.46680    5.16450    4.31790   -9999.25   -9999.25
 9992.00000    0.08660    0.26180    0.08870    6.16040    2.56690    3.57890  109.74880    4.20850   -4.48660    5.19520    4.36190   -9999.25   -9999.25
 9992.50000    0.08610    0.26410    0.08740    6.15730    2.56630    3.55930  108.95070    4.25140   -4.50630    5.20150    4.40650   -9999.25   -9999.25
 9993.00000    0.08360    0.27260    0.08940    6.15420    2.56760    3.59990  112.71140    4.28740   -4.52600    5.16860    4.44210   -9999.25   -9999.25
 9993.50000    0.07990    0.28270    0.09380    6.14410    2.57600    3.65520  120.15490    4.32100   -4.54580    5.09460    4.47720   -9999.25   -9999.25
 9994.00000    0.07740    0.28670    0.09960    6.14200    2.58410    3.66180  126.98760    4.37540   -4.56550    5.11010    4.54640   -9999.25   -9999.25
 9994.50000    0.08120    0.27650    0.09980    6.12200    2.56970    3.61510  128.61400    4.57370   -4.58520    5.28620    4.64140   -9999.25   -9999.25
 9995.00000    0.08630    0.26410    0.10060    6.09740    2.56560    3.59590  125.84420    4.80910   -4.60500    5.61100    4.69910   -9999.25   -9999.25
 9995.50000    0.08390    0.25900    0.10030    6.07270    2.57390    3.60860  119.90980    4.86780   -4.62470    5.88980    4.74960   -9999.25   -9999.25
 9996.00000    0.07430    0.25900    0.10160    6.04810    2.58910    3.80180  110.64730    4.80140   -4.64440    5.93830    4.79860   -9999.25   -9999.25
