~Version ---------------------------------------------------
VERS.   2.0 : CWLS log ASCII Standard -VERSION 2.0
WRAP.    NO : One line per depth step
DLM . SPACE : Column Data Section Delimiter
~Well ------------------------------------------------------
STRT .F                 3418.5 : START DEPTH
STOP .F                12997.0 : STOP DEPTH
STEP .F                    0.5 : STEP
NULL .                -9999.25 : NULL VALUE
COMP .                         : COMPANY
WELL .                         : WELL
FLD  .                         : FIELD
LOC  .                         : LOCATION
PROV .                         : PROVINCE
CNTY .                         : COUNTY
STAT .                         : STATE
CTRY .                         : COUNTRY
SRVC .                         : SERVICE COMPANY
DATE .                         : DATE
UWI  .                         : UNIQUE WELL ID
API  .                         : API NUMBER
SLAT .WGS84 5.9280925372982125 : SURFACE LATITUDE
SLON .WGS84  4.006364565975076 : SURFACE LONGITUDE
DATUM.F                1821.12 : DEPTH DATUM ELEV
~Curve Information -----------------------------------------
DEPT.F     : 
DPHI.DEC   : DENSITY POROSITY LIMESTONE
NPHI.DEC   : NEUTRON POROSITY LIMESTONE
DRHO.G/C3  : DENSITY CORRECTION
CALD.IN    : CALIPER FDC LOG
RHOB.G/C3  : BULK DENSITY
PEF .B/E   : PHOTOELECTRIC FACTOR
GRR .GAPI  : GAMMA RAY FROM RES. LOG.
ILD .OHMM  : INDUCTION LOG DEEP
SPR .MV    : SPONTANEOUS POTENTIAL FROM RES.
SFLU.OHMM  : SPHERICALLY FOCUSED LOG UNAVERAGED RESISTIVITY
ILM .OHMM  : INDUCTION LOG MEDIUM
DTCO.US/F  : COMPRESSIONAL-WAVE INTERVAL TRANSIT TIME ACOUSTIC SLOWNESS
DTSM.US/F  : SHEAR-WAVE INTERVAL TRANSIT TIME DELTA-T
~Params ----------------------------------------------------
~Other -----------------------------------------------------
~ASCII -----------------------------------------------------
# ...
 9320.50000    0.01290    0.16170   -0.00700    5.28550    2.69100    3.89380   77.46330    9.51940  -12.58940   12.83030    9.85760   -9999.25   -9999.25
 9321.00000    0.01510    0.17100   -0.00680    5.26110    2.68800    3.90860   76.22650    9.50290  -12.54280   12.36460    9.85180   -9999.25   -9999.25
 9321.50000    0.01630    0.18210   -0.00530    5.24290    2.68560    3.90640   75.61760    9.36460  -12.49620   11.72460    9.71870   -9999.25   -9999.25
 9322.00000    0.01440    0.18710   -0.00430    5.22880    2.68530    3.96380   75.50080    9.20730  -12.44950   11.01630    9.54980   -9999.25   -9999.25
 9322.50000    0.01470    0.18390   -0.00290    5.19450    2.68520    3.98860   75.98610    9.09340  -12.40290   10.47020    9.42540   -9999.25   -9999.25
 9323.00000    0.01750    0.18040   -0.00280    5.16030    2.68190    3.97150   77.37180    9.02180  -12.35620   10.06070    9.34650   -9999.25   -9999.25
 9323.50000    0.02020    0.17660   -0.00310    5.12610    2.68080    3.93570   79.30880    8.95570  -12.36320   10.10950    9.27730   -9999.25   -9999.25
 9324.00000    0.01840    0.17280   -0.00500    5.09850    2.68260    4.06020   82.07160    8.89120  -12.39880   10.74310    9.20990   -9999.25   -9999.25
 9324.50000    0.01470    0.17120   -0.00840    5.07250    2.69050    4.30020   84.78050    8.85490  -12.43440   11.32230    9.17040   -9999.25   -9999.25
 9325.00000    0.01340    0.17500   -0.01090    5.04490    2.69030    4.49330   84.92750    8.81880  -12.47000   11.63960    9.13300   -9999.25   -9999.25
 9325.50000    0.01470    0.18270   -0.01310    5.01610    2.68460    4.42940   83.47040    8.75470  -12.50550   11.69150    9.06990   -9999.25   -9999.25
 9326.00000    0.01900    0.19630   -0.01540    4.98700    2.67760    4.23360   80.05180    8.68390  -12.54110   10.99350    8.99650   -9999.25   -9999.25
 9326.50000    0.02230    0.19980   -0.01620    4.95800    2.67440    4.11750   81.00850    8.61370  -12.57670   10.16820    8.92380   -9999.25   -9999.25
 9327.00000    0.02170    0.19700   -0.01570    4.92060    2.67520    4.04750   83.88900    8.57720  -12.61230    9.63760    8.88290   -9999.25   -9999.25
 9327.50000    0.02080    0.18990   -0.01510    4.88250    2.67760    3.98460   84.05200    8.47520  -12.62020    9.50650    8.78620   -9999.25   -9999.25
 9328.00000    0.01800    0.18100   -0.01320    4.84450    2.68260    3.92840   79.74850    8.36580  -12.61680    9.65730    8.67570   -9999.25   -9999.25
 9328.50000    0.01450    0.18280   -0.01000    4.80640    2.68850    3.92100   73.96860    8.23710  -12.61330    9.83410    8.54430   -9999.25   -9999.25
 9329.00000    0.01100    0.18460   -0.00670    4.76830    2.69520    3.92250   72.81040    8.11040  -12.60990   10.01770    8.41290   -9999.25   -9999.25
 9329.50000    0.00950    0.18640   -0.00600    4.72800    2.69690    3.92580   75.31960    7.99370  -12.60640   10.04810    8.28360   -9999.25   -9999.25
 9330.00000    0.01040    0.18900   -0.00590    4.68740    2.69340    3.98330   77.03840    7.91260  -12.60300   10.04860    8.19980   -9999.25   -9999.25
 9330.50000    0.01230    0.18910   -0.00620    4.65850    2.69190    4.16540   78.77120    7.83230  -12.59960   10.01300    8.11680   -9999.25   -9999.25
 9331.00000    0.01300    0.18940   -0.00710    4.64910    2.68970    4.25340   81.63810    7.75280  -12.59610    9.89830    8.03470   -9999.25   -9999.25
 9331.50000    0.01690    0.19510   -0.00770    4.63090    2.68360    4.19810   87.91700    7.66140  -12.59270    9.56320    7.94360   -9999.25   -9999.25
 9332.00000    0.02100    0.20240   -0.00820    4.60710    2.67550    4.14390   94.67120    7.58920  -12.62940    9.11160    7.85890   -9999.25   -9999.25
 9332.50000    0.02160    0.20970   -0.00610    4.56440    2.67510    4.08980   96.97480    7.57360  -12.69060    8.96810    7.84480   -9999.25   -9999.25
 9333.00000    0.02000    0.21400   -0.00380    4.52160    2.67790    4.03570   93.25780    7.55750  -12.75180    9.03150    7.82610   -9999.25   -9999.25
 9333.50000    0.02010    0.20580   -0.00180    4.47880    2.67800    3.97610   87.98130    7.55890  -12.81300    9.13560    7.88950   -9999.25   -9999.25
 9334.00000    0.02100    0.18900    0.00000    4.43210    2.67750    3.83620   82.25420    7.83330  -12.87410    9.37560    8.46420   -9999.25   -9999.25
 9334.50000    0.01920    0.16530   -0.00020    4.38220    2.68010    3.73520   80.51820    8.57780  -12.93530   10.23700    9.31210   -9999.25   -9999.25
 9335.00000    0.01300    0.14280   -0.00050    4.31590    2.68850    3.65650   81.76940    9.46580  -12.99650   11.98080   10.27630   -9999.25   -9999.25
 9335.50000    0.00950    0.12980   -0.00080    4.29400    2.69700    3.58440   83.02550   10.44580  -13.05770   15.23660   11.34040   -9999.25   -9999.25
 9336.00000    0.00930    0.12080   -0.00100    4.27200    2.69600    3.51940   84.82320   11.52720  -13.11890   21.23440   12.54540   -9999.25   -9999.25
 9336.50000    0.01710    0.12850   -0.00130    4.24990    2.68530    3.54530   87.43730   12.77090  -13.16920   22.97020   13.90830   -9999.25   -9999.25
 9337.00000    0.02050    0.13410   -0.00100    4.22510    2.67750    3.58850   90.41910   14.15860  -13.20220   22.97020   15.42780   -9999.25   -9999.25
 9337.50000    0.02150    0.12810   -0.00080    4.17990    2.67560    3.63210   91.75930   15.72350  -13.23530   22.97020   17.16520   -9999.25   -9999.25
 9338.00000    0.01940    0.11460   -0.00050    4.15800    2.68090    3.58820   90.59480   17.49460  -13.26840   23.80580   18.83680   -9999.25   -9999.25
 9338.50000    0.01380    0.09530   -0.00030    4.14110    2.68530    3.49980   86.60510   18.76820  -13.30150   28.62060   19.76520   -9999.25   -9999.25
 9339.00000    0.01320    0.09300   -0.00090    4.12430    2.68610    3.36910   84.65450   19.76640  -13.33460   35.17480   20.85170   -9999.25   -9999.25
 9339.50000    0.01600    0.09300   -0.00140    4.10750    2.68240    3.35120   83.69520   20.94960  -13.42660   40.34070   22.33580   -9999.25   -9999.25
 9340.00000    0.02080    0.09410   -0.00200    4.09060    2.67790    3.54950   83.84740   22.49380  -13.67080   43.67990   23.98340   -9999.25   -9999.25
 9340.50000    0.02110    0.09310   -0.00260    4.07830    2.67990    3.78660   83.95620   24.15190  -13.91500   45.21780   25.69420   -9999.25   -9999.25
 9341.00000    0.01660    0.08950   -0.00370    4.07520    2.68310    4.03270   81.91450   25.75280  -14.15920   46.49260   27.25410   -9999.25   -9999.25
 9341.50000    0.01860    0.08580   -0.00530    4.07210    2.67990    3.97070   76.54300   27.13680  -14.40330   47.43860   28.33560   -9999.25   -9999.25
 9342.00000    0.02950    0.07990   -0.01030    4.06910    2.66760    3.75190   69.89460   27.79300  -14.64750   48.23440   29.05200   -9999.25   -9999.25
 9342.50000    0.03040    0.07360   -0.01560    4.06600    2.66080    3.47310   62.61810   27.80050  -14.77700   49.55640   29.78650   -9999.25   -9999.25
 9343.00000    0.02730    0.06880   -0.01960    4.06590    2.66860    3.20310   57.42370   27.23790  -14.61890   52.29300   30.50570   -9999.25   -9999.25
 9343.50000    0.01970    0.06840   -0.02190    4.09630    2.67780    3.16340   59.59160   25.97210  -14.46080   55.13070   30.38130   -9999.25   -9999.25
 9344.00000    0.01380    0.08320   -0.02270    4.12020    2.68510    3.14230   70.16420   24.31150  -14.30270   48.63020   27.80680   -9999.25   -9999.25
 9344.50000    0.01530    0.10210   -0.02170    4.13330    2.68460    3.11530   84.02210   21.97240  -14.14130   38.97240   24.03310   -9999.25   -9999.25
 9345.00000    0.02020    0.11420   -0.01980    4.15180    2.67840    3.11690   93.88720   19.85470  -13.96790   29.91530   21.60000   -9999.25   -9999.25
 9345.50000    0.02320    0.12360   -0.01800    4.17900    2.67470    3.13100   93.26960   17.92720  -13.79450   24.17210   19.51520   -9999.25   -9999.25
 9346.00000    0.02150    0.12840   -0.01610    4.20050    2.67730    3.15430   90.42500   16.18690  -13.62110   21.49250   17.62210   -9999.25   -9999.25
