~Version ---------------------------------------------------
VERS.   2.0 : CWLS log ASCII Standard -VERSION 2.0
WRAP.    NO : One line per depth step
DLM . SPACE : Column Data Section Delimiter
~Well ------------------------------------------------------
STRT .F                 3418.5 : START DEPTH
STOP .F                12997.0 : STOP DEPTH
STEP .F                    0.5 : STEP
NULL .                -9999.25 : NULL VALUE
COMP .                         : COMPANY
WELL .                         : WELL
FLD  .                         : FIELD
LOC  .                         : LOCATION
PROV .                         : PROVINCE
CNTY .                         : COUNTY
STAT .                         : STATE
CTRY .                         : COUNTRY
SRVC .                         : SERVICE COMPANY
DATE .                         : DATE
UWI  .                         : UNIQUE WELL ID
API  .                         : API NUMBER
SLAT .WGS84 5.9280925372982125 : SURFACE LATITUDE
SLON .WGS84  4.006364565975076 : SURFACE LONGITUDE
DATUM.F                1821.12 : DEPTH DATUM ELEV
~Curve Information -----------------------------------------
DEPT.F     : 
DPHI.DEC   : DENSITY POROSITY LIMESTONE
NPHI.DEC   : NEUTRON POROSITY LIMESTONE
DRHO.G/C3  : DENSITY CORRECTION
CALD.IN    : CALIPER FDC LOG
RHOB.G/C3  : BULK DENSITY
PEF .B/E   : PHOTOELECTRIC FACTOR
GRR .GAPI  : GAMMA RAY FROM RES. LOG.
ILD .OHMM  : INDUCTION LOG DEEP
SPR .MV    : SPONTANEOUS POTENTIAL FROM RES.
SFLU.OHMM  : SPHERICALLY FOCUSED LOG UNAVERAGED RESISTIVITY
ILM .OHMM  : INDUCTION LOG MEDIUM
DTCO.US/F  : COMPRESSIONAL-WAVE INTERVAL TRANSIT TIME ACOUSTIC SLOWNESS
DTSM.US/F  : SHEAR-WAVE INTERVAL TRANSIT TIME DELTA-T
~Params ----------------------------------------------------
~Other -----------------------------------------------------
~ASCII -----------------------------------------------------
# ...
 11634.50000    0.03310    0.18310   -0.00150    3.31240    2.65300    3.39610  120.40030   11.06680  -16.07200   14.15550   11.46090   -9999.25   -9999.25
 11635.00000    0.02910    0.18350   -0.00150    3.31090    2.66200    3.38150  120.86120   11.04760  -16.04110   14.18570   11.44850   -9999.25   -9999.25
 11635.50000    0.02400    0.18180   -0.00160    3.30940    2.67170    3.41750  120.49310   10.94270  -16.03500   14.26010   11.33970   -9999.25   -9999.25
 11636.00000    0.02030    0.18160   -0.00160    3.30790    2.67900    3.39540  120.73020   10.81790  -16.02880   14.16490   11.21490   -9999.25   -9999.25
 11636.50000    0.01600    0.18540   -0.00160    3.30650    2.68600    3.32810  126.61810   10.68780  -16.02260   13.97940   11.08000   -9999.25   -9999.25
 11637.00000    0.01390    0.18920   -0.00170    3.31250    2.68900    3.26300  131.67570   10.59860  -16.01640   13.79290   10.98080   -9999.25   -9999.25
 11637.50000    0.01310    0.18980   -0.00170    3.31530    2.69060    3.24710  133.30460   10.51610  -16.01030   13.59890   10.89540   -9999.25   -9999.25
 11638.00000    0.01310    0.18970   -0.00170    3.31070    2.68900    3.23790  133.56460   10.44720  -16.00410   13.44910   10.82150   -9999.25   -9999.25
 11638.50000    0.01380    0.18950   -0.00180    3.30610    2.68590    3.22870  133.56460   10.38980  -15.99790   13.24310   10.76200   -9999.25   -9999.25
 11639.00000    0.01520    0.18930   -0.00150    3.30160    2.68280    3.22640  131.64080   10.38310  -15.99180   12.88110   10.75290   -9999.25   -9999.25
 11639.50000    0.01930    0.18920   -0.00110    3.30810    2.67900    3.23950  125.42260   10.39980  -15.98560   12.65410   10.77480   -9999.25   -9999.25
 11640.00000    0.02660    0.18900   -0.00060    3.31770    2.66800    3.23680  119.62480   10.47290  -15.97940   13.17050   10.85050   -9999.25   -9999.25
 11640.50000    0.03310    0.18950   -0.00010    3.31950    2.65500    3.24070  120.89820   10.52510  -15.99060   13.83660   10.89990   -9999.25   -9999.25
 11641.00000    0.03300    0.19120    0.00050    3.32030    2.65760    3.29270  130.06300   10.52410  -16.05770   14.45740   10.89890   -9999.25   -9999.25
 11641.50000    0.02910    0.19270    0.00130    3.32110    2.66250    3.34470  137.99390   10.60280  -16.12480   14.58890   10.99530   -9999.25   -9999.25
 11642.00000    0.02600    0.19240    0.00200    3.32180    2.66750    3.36970  137.25770   10.73230  -16.19190   14.17720   11.12180   -9999.25   -9999.25
 11642.50000    0.02330    0.19030    0.00080    3.31770    2.67170    3.36640  129.41780   10.84410  -16.25900   13.53630   11.26680   -9999.25   -9999.25
 11643.00000    0.02200    0.18840   -0.00080    3.31070    2.67540    3.32530  124.15260   11.06840  -16.32610   13.09550   11.49990   -9999.25   -9999.25
 11643.50000    0.02120    0.18810   -0.00300    3.30510    2.67630    3.27180  122.90530   11.29740  -16.39320   13.00250   11.73770   -9999.25   -9999.25
 11644.00000    0.02160    0.18760   -0.00470    3.30040    2.67420    3.21370  121.22010   11.53100  -16.46030   13.75870   12.18910   -9999.25   -9999.25
 11644.50000    0.02510    0.18620   -0.00510    3.30000    2.66830    3.17400  115.61280   11.76950  -16.52740   15.19330   12.88710   -9999.25   -9999.25
 11645.00000    0.02920    0.18470   -0.00500    3.29960    2.66330    3.17720  110.33300   11.90950  -16.59450   17.61640   13.62500   -9999.25   -9999.25
 11645.50000    0.03130    0.18320   -0.00460    3.29920    2.66190    3.21200  109.03850   12.04000  -16.66160   20.20170   13.88950   -9999.25   -9999.25
 11646.00000    0.03010    0.17890   -0.00400    3.29920    2.66400    3.28540  112.82570   12.16390  -16.72870   22.29180   13.77050   -9999.25   -9999.25
 11646.50000    0.02460    0.17820   -0.00350    3.29950    2.67290    3.32000  119.65700   12.24450  -16.79580   20.71520   13.43360   -9999.25   -9999.25
 11647.00000    0.02000    0.18140   -0.00300    3.29980    2.67680    3.32240  121.94610   12.27980  -16.79270   17.76590   13.10350   -9999.25   -9999.25
 11647.50000    0.02050    0.18700   -0.00250    3.30600    2.67560    3.33020  116.65190   12.23100  -16.74880   15.34030   12.78160   -9999.25   -9999.25
 11648.00000    0.02580    0.19240   -0.00200    3.31620    2.66730    3.33530  110.08630   12.00870  -16.70490   14.62170   12.46760   -9999.25   -9999.25
 11648.50000    0.03290    0.19230   -0.00150    3.32640    2.65590    3.32450  108.82120   11.85410  -16.66100   14.29760   12.28660   -9999.25   -9999.25
 11649.00000    0.03750    0.18660   -0.00120    3.32560    2.64790    3.21110  112.85910   11.72530  -16.61720   14.37190   12.15300   -9999.25   -9999.25
 11649.50000    0.03820    0.18030   -0.00100    3.31540    2.64790    3.12140  118.87440   11.58820  -16.57330   14.51480   12.01350   -9999.25   -9999.25
 11650.00000    0.03400    0.17810   -0.00090    3.31860    2.65220    3.07710  121.66270   11.45620  -16.52940   14.83310   11.86820   -9999.25   -9999.25
 11650.50000    0.02790    0.17860   -0.00090    3.32440    2.66310    3.14810  119.78660   11.37420  -16.48560   15.04700   11.78350   -9999.25   -9999.25
 11651.00000    0.02360    0.18010   -0.00110    3.33030    2.67090    3.30560  115.75150   11.32660  -16.44170   14.79790   11.73090   -9999.25   -9999.25
 11651.50000    0.02320    0.18380   -0.00250    3.33610    2.67220    3.46870  113.02580   11.31300  -16.39780   14.56450   11.71580   -9999.25   -9999.25
 11652.00000    0.02740    0.18740   -0.00470    3.34200    2.66710    3.47430  113.20660   11.40830  -16.35390   14.06040   11.82570   -9999.25   -9999.25
 11652.50000    0.03160    0.18930   -0.00730    3.34780    2.66030    3.42630  113.79040   11.52380  -16.31010   13.70770   11.93530   -9999.25   -9999.25
 11653.00000    0.03200    0.18940   -0.00730    3.34100    2.65710    3.34300  114.39820   11.56080  -16.26620   13.73210   11.97370   -9999.25   -9999.25
 11653.50000    0.03210    0.18960   -0.00490    3.34660    2.65780    3.28070  113.53230   11.59800  -16.29750   14.03380   12.01220   -9999.25   -9999.25
 11654.00000    0.03140    0.18970   -0.00170    3.34650    2.65870    3.29530  113.44620   11.64420  -16.34990   14.82420   12.06320   -9999.25   -9999.25
 11654.50000    0.03090    0.18910    0.00090    3.34360    2.65930    3.32940  119.49640   11.71950  -16.40220   15.50380   12.14110   -9999.25   -9999.25
 11655.00000    0.03070    0.18630    0.00090    3.34070    2.65930    3.34800  122.94560   11.83210  -16.45460   15.61360   12.26390   -9999.25   -9999.25
 11655.50000    0.03020    0.18350    0.00070    3.33690    2.65930    3.36010  120.92930   11.94780  -16.50690   15.52810   12.37340   -9999.25   -9999.25
 11656.00000    0.03030    0.18060    0.00040    3.33030    2.65810    3.34580  118.25310   11.92800  -16.55930   15.23050   12.35290   -9999.25   -9999.25
 11656.50000    0.03220    0.17780   -0.00280    3.33550    2.65710    3.26820  115.50610   11.90830  -16.61160   15.10700   12.33240   -9999.25   -9999.25
 11657.00000    0.03190    0.17530   -0.00830    3.34990    2.65920    3.16640  117.48370   11.87730  -16.66400   15.20960   12.30210   -9999.25   -9999.25
 11657.50000    0.02790    0.17450   -0.01370    3.36970    2.66550    3.08950  119.27840   11.81920  -16.71630   15.11780   12.24190   -9999.25   -9999.25
 11658.00000    0.02240    0.17440   -0.01890    3.38940    2.67130    3.10030  117.79900   11.73920  -16.76870   14.69610   12.16440   -9999.25   -9999.25
 11658.50000    0.02350    0.17390   -0.02120    3.40730    2.66950    3.17270  113.72330   11.63070  -16.82040   13.99830   12.05200   -9999.25   -9999.25
 11659.00000    0.02780    0.17340   -0.02180    3.41340    2.66480    3.23920  110.03660   11.52330  -16.82040   13.71890   11.94070   -9999.25   -9999.25
 11659.50000    0.02890    0.17290   -0.01890    3.41830    2.66180    3.29450  107.95310   11.39680  -16.82040   13.65080   11.81290   -9999.25   -9999.25
 11660.00000    0.02700    0.17240   -0.01070    3.42000    2.66550    3.38350  107.76010   11.27130  -16.82040   13.94480   11.68290   -9999.25   -9999.25
