~Version ---------------------------------------------------
VERS.   2.0 : CWLS log ASCII Standard -VERSION 2.0
WRAP.    NO : One line per depth step
DLM . SPACE : Column Data Section Delimiter
~Well ------------------------------------------------------
STRT .F                 3418.5 : START DEPTH
STOP .F                12997.0 : STOP DEPTH
STEP .F                    0.5 : STEP
NULL .                -9999.25 : NULL VALUE
COMP .                         : COMPANY
WELL .                         : WELL
FLD  .                         : FIELD
LOC  .                         : LOCATION
PROV .                         : PROVINCE
CNTY .                         : COUNTY
STAT .                         : STATE
CTRY .                         : COUNTRY
SRVC .                         : SERVICE COMPANY
DATE .                         : DATE
UWI  .                         : UNIQUE WELL ID
API  .                         : API NUMBER
SLAT .WGS84 5.9280925372982125 : SURFACE LATITUDE
SLON .WGS84  4.006364565975076 : SURFACE LONGITUDE
DATUM.F                1821.12 : DEPTH DATUM ELEV
~Curve Information -----------------------------------------
DEPT.F     : 
DPHI.DEC   : DENSITY POROSITY LIMESTONE
NPHI.DEC   : NEUTRON POROSITY LIMESTONE
DRHO.G/C3  : DENSITY CORRECTION
CALD.IN    : CALIPER FDC LOG
RHOB.G/C3  : BULK DENSITY
PEF .B/E   : PHOTOELECTRIC FACTOR
GRR .GAPI  : GAMMA RAY FROM RES. LOG.
ILD .OHMM  : INDUCTION LOG DEEP
SPR .MV    : SPONTANEOUS POTENTIAL FROM RES.
SFLU.OHMM  : SPHERICALLY FOCUSED LOG UNAVERAGED RESISTIVITY
ILM .OHMM  : INDUCTION LOG MEDIUM
DTCO.US/F  : COMPRESSIONAL-WAVE INTERVAL TRANSIT TIME ACOUSTIC SLOWNESS
DTSM.US/F  : SHEAR-WAVE INTERVAL TRANSIT TIME DELTA-T
~Params ----------------------------------------------------
~Other -----------------------------------------------------
~ASCII -----------------------------------------------------
# ...
 12622.50000    0.02000    0.24350   -0.00930    4.60420    2.67730   -9999.25  142.85890    3.67890  -13.20940    4.68690    3.60000   84.81210  119.96980
 12623.00000    0.02100    0.23310   -0.00950    4.60490    2.67660   -9999.25  143.71460    3.68770  -13.01180    4.71410    3.66530   84.13560  119.95210
 12623.50000    0.02410    0.22960   -0.01260    4.60560    2.66960   -9999.25  142.29500    3.69660  -12.81410    4.92460    3.73180   83.12160  119.93450
 12624.00000    0.03080    0.23050   -0.01980    4.60600    2.65990   -9999.25  136.59740    3.72440  -12.66590    5.15680    3.79950   82.07440  119.95230
 12624.50000    0.03620    0.23480   -0.02060    4.60180    2.65030   -9999.25  133.54720    3.77310  -12.53730    5.32880    3.86840   81.02710  119.99820
 12625.00000    0.03720    0.23360   -0.01870    4.59760    2.64870   -9999.25  135.99200    3.83680  -12.40870    5.49830    3.91080   80.58910  120.04410
 12625.50000    0.03830    0.23240   -0.00950    4.57890    2.64720   -9999.25  141.72780    3.90190  -12.28010    5.85540    3.91300   80.56130  120.09000
 12626.00000    0.04500    0.23940   -0.00060    4.54060    2.64080   -9999.25  146.23970    3.88830  -12.15150    6.08030    3.87380   80.57120  120.13590
 12626.50000    0.05230    0.25380    0.00950    4.54220    2.62050   -9999.25  141.33250    3.81610  -12.02300    5.88600    3.81430   80.95260  120.18180
 12627.00000    0.06830    0.26280    0.02330    4.54380    2.59550   -9999.25  133.88750    3.74860  -11.89440    5.65700    3.76240   81.71580  120.22770
 12627.50000    0.07450    0.26650    0.03710    4.54540    2.58690   -9999.25  129.64640    3.65870  -11.76580    5.43690    3.71450   82.89800  121.58390
 12628.00000    0.06510    0.26210    0.06280    4.55010    2.59740   -9999.25  134.47770    3.53420  -11.83450    5.22540    3.59900   84.73790  123.58950
 12628.50000    0.05370    0.25800    0.06850    4.61220    2.61820   -9999.25  138.45180    3.41310  -11.99700    5.02210    3.45830   86.17140  125.74780
 12629.00000    0.05690    0.25530    0.05220    4.65270    2.61530   -9999.25  136.47880    3.29560  -12.15950    4.57770    3.32960   87.21610  127.17150
 12629.50000    0.06400    0.25540    0.03170    4.65080    2.60400   -9999.25  134.01550    3.16110  -12.32200    4.30960    3.21310   87.70970  128.33220
 12630.00000    0.06950    0.26150    0.01070    4.64890    2.59280   -9999.25  137.45600    3.03100  -12.48450    4.27990    3.10470   88.05510  128.68420
 12630.50000    0.07170    0.27050    0.00110    4.64670    2.58720   -9999.25  145.27530    2.95660  -12.64700    4.25910    3.03120   88.17430  128.99030
 12631.00000    0.07090    0.27240   -0.00710    4.64260    2.59050   -9999.25  148.05330    2.93240  -12.66070    4.23840    2.95950   88.11840  129.29450
 12631.50000    0.06540    0.26580   -0.01320    4.63850    2.60000   -9999.25  150.83120    2.93540  -12.65330    4.15710    2.94160   87.67450  129.23760
 12632.00000    0.05280    0.25970   -0.01500    4.63440    2.61650   -9999.25  155.62490    2.94200  -12.64540    3.98890    2.94900   87.02700  128.61080
 12632.50000    0.04340    0.25720   -0.01280    4.63560    2.63670   -9999.25  161.13040    2.93090  -12.63750    3.94290    2.95640   86.37950  127.74410
 12633.00000    0.04390    0.25620   -0.00580    4.67260    2.63460   -9999.25  158.46920    2.92780  -12.62950    3.94500    2.96380   85.57850  130.48220
 12633.50000    0.04790    0.25290    0.00120    4.70960    2.62950   -9999.25  153.39500    2.93100  -12.62160    4.04600    2.98350   84.55170  134.14840
 12634.00000    0.04690    0.24920    0.01780    4.74660    2.63070   -9999.25  147.76570    2.95410  -12.61370    4.34670    3.01480   83.65500  133.92110
 12634.50000    0.04300    0.24810    0.02720    4.75060    2.63820   -9999.25  144.84560    3.02110  -12.55810    4.64120    3.06360   82.96380  131.53360
 12635.00000    0.04360    0.25090    0.02550    4.75200    2.63510   -9999.25  143.89400    3.08050  -12.49490    4.70950    3.12770   82.27250  127.88130
 12635.50000    0.04810    0.25380    0.02420    4.75330    2.62960   -9999.25  141.13880    3.14120  -12.43170    4.75650    3.19320   81.66810  123.92160
 12636.00000    0.05140    0.25490    0.02430    4.75470    2.62460   -9999.25  137.72870    3.20300  -12.36850    4.60090    3.25780   81.62620  120.65430
 12636.50000    0.05240    0.25190    0.02580    4.75600    2.62030   -9999.25  135.08750    3.26600  -12.30530    4.38930    3.32310   81.53550  119.41850
 12637.00000    0.05480    0.24960    0.02720    4.75680    2.61780   -9999.25  133.50950    3.33490  -12.24210    4.30570    3.36720   81.44480  118.81570
 12637.50000    0.05540    0.25110    0.02870    4.75530    2.61640   -9999.25  131.47810    3.39300  -12.17890    4.33110    3.40790   81.35410  118.21290
 12638.00000    0.05420    0.25930    0.03030    4.75370    2.62070   -9999.25  128.61960    3.44390  -12.58620    4.46700    3.44910   81.85000  117.99390
 12638.50000    0.05010    0.26930    0.01910    4.75370    2.62660   -9999.25  129.22070    3.48100  -12.76980    4.63510    3.49080   82.67460  118.66890
 12639.00000    0.05040    0.27530   -0.00200    4.75890    2.62540   -9999.25  130.17160    3.50400  -12.95340    4.77040    3.53300   83.81690  119.89810
 12639.50000    0.05620    0.27390   -0.02740    4.76420    2.61640   -9999.25  133.00400    3.49400  -13.13700    4.83600    3.54710   84.95920  121.84590
 12640.00000    0.06130    0.26430   -0.04320    4.76550    2.60670   -9999.25  136.77960    3.46720  -13.14320    5.25480    3.55460   86.22330  123.79380
 12640.50000    0.05900    0.25220   -0.04370    4.76520    2.61120   -9999.25  138.90570    3.44070  -13.05000    5.68820    3.53610   87.68000  126.00930
 12641.00000    0.05420    0.24580   -0.03560    4.76490    2.61910   -9999.25  136.74820    3.41000  -13.03700    5.72940    3.48880   88.60820  127.92450
 12641.50000    0.05050    0.23960   -0.02750    4.76460    2.62610   -9999.25  135.30610    3.37240  -13.01810    5.38960    3.44220   88.17040  127.53650
 12642.00000    0.04880    0.24080   -0.01940    4.76470    2.62900   -9999.25  139.49770    3.33530  -12.99910    4.96940    3.39620   85.02680  124.63560
 12642.50000    0.04690    0.24940   -0.00510    4.77570    2.63070   -9999.25  146.35900    3.29820  -12.98020    4.79990    3.35090   84.91480  121.93460
 12643.00000    0.04220    0.25610    0.00900    4.78780    2.63900   -9999.25  146.85260    3.25640  -12.70140    4.71540    3.30610   85.10350  125.76460
 12643.50000    0.03540    0.25640    0.01200    4.79990    2.64980   -9999.25  144.90030    3.21520  -12.16720    4.45390    3.26190   86.70630  141.24630
 12644.00000    0.03100    0.25380    0.01150    4.80300    2.65650   -9999.25  141.62860    3.18140  -12.24440    4.15460    3.21830   85.94040  150.33290
 12644.50000    0.03400    0.25450    0.00770    4.79770    2.65270   -9999.25  137.96370    3.15210  -12.32160    3.92830    3.18250   85.25310  151.54910
 12645.00000    0.03930    0.26230    0.00380    4.79770    2.64500   -9999.25  134.21780    3.12310  -12.39880    3.92850    3.14920   87.13270  154.21970
 12645.50000    0.04220    0.26830    0.00070    4.79560    2.63950   -9999.25  130.86180    3.11590  -12.47600    4.16620    3.13960   88.64350  155.25100
 12646.00000    0.04100    0.26850   -0.00060    4.79540    2.64200   -9999.25  128.60310    3.06720  -12.55320    4.45320    3.13770   88.51980  155.65310
 12646.50000    0.03750    0.25600   -0.00550    4.79860    2.64790   -9999.25  132.84860    3.05550  -12.49060    4.77790    3.13570   88.24870  154.44780
 12647.00000    0.03670    0.25440   -0.01250    4.79820    2.64760   -9999.25  137.66360    3.06190  -12.41930    4.68860    3.13370   87.70820  152.48950
 12647.50000    0.03720    0.25380   -0.01820    4.79390    2.64750   -9999.25  142.48830    3.07110  -12.34790    4.60490    3.13170   88.32060  150.22850
 12648.00000    0.03740    0.25320   -0.02040    4.78960    2.64740   -9999.25  143.58960    3.08040  -12.27660    4.51650    3.12980   88.05490  151.56840
