~Version ---------------------------------------------------
VERS.   2.0 : CWLS log ASCII Standard -VERSION 2.0
WRAP.    NO : One line per depth step
DLM . SPACE : Column Data Section Delimiter
~Well ------------------------------------------------------
STRT .F                 3418.5 : START DEPTH
STOP .F                12997.0 : STOP DEPTH
STEP .F                    0.5 : STEP
NULL .                -9999.25 : NULL VALUE
COMP .                         : COMPANY
WELL .                         : WELL
FLD  .                         : FIELD
LOC  .                         : LOCATION
PROV .                         : PROVINCE
CNTY .                         : COUNTY
STAT .                         : STATE
CTRY .                         : COUNTRY
SRVC .                         : SERVICE COMPANY
DATE .                         : DATE
UWI  .                         : UNIQUE WELL ID
API  .                         : API NUMBER
SLAT .WGS84 5.9280925372982125 : SURFACE LATITUDE
SLON .WGS84  4.006364565975076 : SURFACE LONGITUDE
DATUM.F                1821.12 : DEPTH DATUM ELEV
~Curve Information -----------------------------------------
DEPT.F     : 
DPHI.DEC   : DENSITY POROSITY LIMESTONE
NPHI.DEC   : NEUTRON POROSITY LIMESTONE
DRHO.G/C3  : DENSITY CORRECTION
CALD.IN    : CALIPER FDC LOG
RHOB.G/C3  : BULK DENSITY
PEF .B/E   : PHOTOELECTRIC FACTOR
GRR .GAPI  : GAMMA RAY FROM RES. LOG.
ILD .OHMM  : INDUCTION LOG DEEP
SPR .MV    : SPONTANEOUS POTENTIAL FROM RES.
SFLU.OHMM  : SPHERICALLY FOCUSED LOG UNAVERAGED RESISTIVITY
ILM .OHMM  : INDUCTION LOG MEDIUM
DTCO.US/F  : COMPRESSIONAL-WAVE INTERVAL TRANSIT TIME ACOUSTIC SLOWNESS
DTSM.US/F  : SHEAR-WAVE INTERVAL TRANSIT TIME DELTA-T
~Params ----------------------------------------------------
~Other -----------------------------------------------------
~ASCII -----------------------------------------------------
# ...
 7994.50000   -0.00180    0.16320    0.00330    6.92630    2.69500    3.86690   83.22050   11.16460   -8.39040   12.88250   10.42230   -9999.25   -9999.25
 7995.00000    0.01050    0.16620    0.00940    7.05070    2.67550    3.79260   87.61590   10.76720   -8.54090   11.60540    9.73470   -9999.25   -9999.25
 7995.50000    0.01640    0.17810    0.02770    7.29280    2.64460    3.72560   93.87760   10.20270   -8.69150   10.91150    9.09240   -9999.25   -9999.25
 7996.00000    0.04310    0.20450    0.04740    7.54260    2.60180    3.78260   98.99550    9.63650   -8.84200   10.53690    8.57470   -9999.25   -9999.25
 7996.50000    0.06660    0.22010    0.08060    7.72120    2.60420    3.90440  102.12240    9.23560   -9.30240   10.22130    8.24360   -9999.25   -9999.25
 7997.00000    0.06710    0.22220    0.11710    7.83600    2.61150    4.00280   98.09550    8.93350   -9.77760    9.93410    8.07390   -9999.25   -9999.25
 7997.50000    0.05850    0.22430    0.15370    7.95070    2.61810    4.04650   92.70070    8.66190  -10.25390    9.55800    7.92670   -9999.25   -9999.25
 7998.00000    0.05370    0.22530    0.19020    8.07180    2.60950    4.05670   91.75400    8.42510  -10.94050    9.13960    7.91340   -9999.25   -9999.25
 7998.50000    0.06990    0.23860    0.20340    8.21060    2.58490    4.06540   94.09640    8.19470  -11.62710    8.73940    7.76440   -9999.25   -9999.25
 7999.00000    0.08510    0.24210    0.20300    8.34940    2.56160    4.07160   93.93410    7.96170  -12.21420    8.45850    7.50850   -9999.25   -9999.25
 7999.50000    0.09500    0.24050    0.19770    8.48810    2.55090    4.03080   91.86720    7.73340  -12.44370    8.20770    7.11390   -9999.25   -9999.25
 8000.00000    0.10370    0.23890    0.19040    8.66160    2.52760    3.97740   90.07860    7.45720  -12.67320    7.93590    6.70930   -9999.25   -9999.25
 8000.50000    0.15490    0.25090    0.17920    8.87280    2.43450    3.74070   98.27150    7.16170  -12.90270    7.64740    6.40350   -9999.25   -9999.25
 8001.00000    0.20060    0.26950    0.15710    9.08390    2.34140    3.57100  110.02930    6.87790  -13.13220    7.06900    6.21000   -9999.25   -9999.25
 8001.50000    0.28570    0.28530    0.13140    9.43800    2.24820    3.49410  110.32130    6.61660  -13.27900    6.90610    6.11650   -9999.25   -9999.25
 8002.00000    0.29900    0.28000    0.12030    9.80090    2.15510    3.57220  106.15370    6.36880  -13.34230    6.85820    6.02690   -9999.25   -9999.25
 8002.50000    0.29900    0.28560    0.11280    9.86500    2.14410    3.73970   97.17650    6.24270  -13.40570    6.72460    5.94460   -9999.25   -9999.25
 8003.00000    0.29900    0.30180    0.10520    9.83180    2.15430    3.74880   94.64590    6.16400  -13.46900    6.33450    5.86340   -9999.25   -9999.25
 8003.50000    0.29900    0.35670    0.09780    9.66950    2.12700    3.69210   92.72080    6.09040  -13.52350    5.91720    5.78310   -9999.25   -9999.25
 8004.00000    0.29900    0.38530    0.09470    9.38250    2.10410    3.65850   90.79560    6.02100  -13.47430    5.03840    5.70240   -9999.25   -9999.25
 8004.50000    0.29900    0.36460    0.09960    9.15340    2.12310    3.70130   88.83780    5.95350  -13.42510    4.87340    5.62290   -9999.25   -9999.25
 8005.00000    0.28770    0.32310    0.11940    9.15010    2.23590    3.74410   86.57460    5.88690  -13.37590    5.40990    5.58580   -9999.25   -9999.25
 8005.50000    0.21180    0.28880    0.14190    9.37770    2.34840    3.73730   85.21660    5.82090  -13.32670    6.08260    5.58480   -9999.25   -9999.25
 8006.00000    0.20000    0.28530    0.14560    9.63400    2.29240    3.58340   85.31590    5.75570  -13.27750    6.83880    5.58370   -9999.25   -9999.25
 8006.50000    0.30010    0.28830    0.09650   10.00790    2.13160    3.50010   88.08060    5.79780  -13.22830    6.94470    5.61570   -9999.25   -9999.25
 8007.00000    0.30010    0.29000    0.08590   10.19790    2.09210    3.46550   91.40690    5.87040  -13.17910    6.91970    5.58390   -9999.25   -9999.25
 8007.50000    0.30010    0.27430    0.08240   10.17570    2.05200    3.51280   93.52710    5.94400  -13.12990    6.78020    5.48340   -9999.25   -9999.25
 8008.00000    0.30000    0.25890    0.08920   10.01940    2.11370    3.63840   94.90180    6.00560  -13.08070    6.34700    5.38480   -9999.25   -9999.25
 8008.50000    0.28210    0.26410    0.10360    9.95520    2.22410    3.68190   96.76800    6.00450  -13.05510    5.77050    5.32970   -9999.25   -9999.25
 8009.00000    0.24730    0.28300    0.11920    9.92610    2.28320    3.65640   99.13660    6.00350  -13.08350    5.22520    5.32880   -9999.25   -9999.25
 8009.50000    0.24610    0.30100    0.13140    9.92770    2.28540    3.62030  100.23000    6.00240  -13.11180    4.82900    5.41750   -9999.25   -9999.25
 8010.00000    0.28060    0.31670    0.10480    9.94830    2.19600    3.58410  100.46570    6.00150  -13.14020    4.94540    5.51320   -9999.25   -9999.25
 8010.50000    0.29990    0.30090    0.10120    9.95700    2.17030    3.56720   98.13920    6.07640  -13.16860    5.43870    5.67020   -9999.25   -9999.25
 8011.00000    0.29950    0.28500    0.10440    9.66340    2.22840    3.57180   97.30990    6.27310  -13.28650    6.30280    6.06880   -9999.25   -9999.25
 8011.50000    0.26370    0.25780    0.11100    9.34520    2.29250    3.56280   97.30990    6.60610  -13.44540    7.02630    6.49530   -9999.25   -9999.25
 8012.00000    0.22010    0.25040    0.11940    9.22470    2.35660    3.49200   98.84640    7.18110  -13.60430    7.78350    6.74270   -9999.25   -9999.25
 8012.50000    0.19700    0.25510    0.12790    9.21400    2.37410    3.36920   97.46510    7.61860  -13.77490    8.17590    6.91190   -9999.25   -9999.25
 8013.00000    0.19660    0.26520    0.13660    9.23670    2.37480    3.27530   94.51020    7.89190  -14.01300    8.23720    6.94130   -9999.25   -9999.25
 8013.50000    0.19740    0.27520    0.14530    9.30170    2.37430    3.24980   89.97710    7.85180  -14.25110    8.23210    6.87240   -9999.25   -9999.25
 8014.00000    0.20170    0.29420    0.15090    9.61190    2.36870    3.22970   86.79680    7.55080  -14.48920    7.96630    6.59530   -9999.25   -9999.25
 8014.50000    0.22860    0.31650    0.13400    9.96850    2.32810    3.20600   87.00930    7.01580  -14.77550    7.51340    6.19900   -9999.25   -9999.25
 8015.00000    0.25710    0.32270    0.11800   10.12580    2.26970    3.16810   89.36970    6.51870  -15.09310    6.99440    5.82660   -9999.25   -9999.25
 8015.50000    0.28990    0.32070    0.10200   10.26800    2.21120    3.09290   91.73010    6.00090  -15.41070    6.51120    5.43490   -9999.25   -9999.25
 8016.00000   -9999.25    0.32070    0.08930   10.36380    2.15280    2.95000   93.05000    5.51790  -15.71990    6.25340    5.04570   -9999.25   -9999.25
 8016.50000   -9999.25    0.34180    0.07660   10.48050    2.09430    2.81160   91.51330    5.25960  -15.91360    6.01160    4.68430   -9999.25   -9999.25
 8017.00000   -9999.25    0.36620    0.06430   11.21020    2.03590    2.73550   88.73690    5.11210  -16.10740    5.86500    4.49930   -9999.25   -9999.25
 8017.50000   -9999.25    0.38620    0.05390   11.57800    2.00730    2.73220   86.97950    5.07140  -16.30110    5.69350    4.58040   -9999.25   -9999.25
 8018.00000   -9999.25    0.38750    0.05600   11.76390    2.03120    2.94320   90.79990    5.10840  -16.49490    5.51650    4.80080   -9999.25   -9999.25
 8018.50000   -9999.25    0.36930    0.06580   11.72860    2.08660    3.19070   96.58230    5.21720  -16.68870    5.33540    4.77780   -9999.25   -9999.25
 8019.00000   -9999.25    0.35120    0.06180   11.43290    2.08230    3.43950  101.08730    5.35100  -16.88240    5.15520    4.45390   -9999.25   -9999.25
 8019.50000   -9999.25    0.35710    0.05100   10.80450    2.00320    3.51540  100.04080    5.48820  -16.97490    4.94140    4.05040   -9999.25   -9999.25
 8020.00000   -9999.25    0.39420    0.03050   10.43310    1.99990    3.40120   91.42840    5.57230  -16.95060    4.73660    3.74690   -9999.25   -9999.25
