~Version ---------------------------------------------------
VERS.   2.0 : CWLS log ASCII Standard -VERSION 2.0
WRAP.    NO : One line per depth step
DLM . SPACE : Column Data Section Delimiter
~Well ------------------------------------------------------
STRT .F                 3418.5 : START DEPTH
STOP .F                12997.0 : STOP DEPTH
STEP .F                    0.5 : STEP
NULL .                -9999.25 : NULL VALUE
COMP .                         : COMPANY
WELL .                         : WELL
FLD  .                         : FIELD
LOC  .                         : LOCATION
PROV .                         : PROVINCE
CNTY .                         : COUNTY
STAT .                         : STATE
CTRY .                         : COUNTRY
SRVC .                         : SERVICE COMPANY
DATE .                         : DATE
UWI  .                         : UNIQUE WELL ID
API  .                         : API NUMBER
SLAT .WGS84 5.9280925372982125 : SURFACE LATITUDE
SLON .WGS84  4.006364565975076 : SURFACE LONGITUDE
DATUM.F                1821.12 : DEPTH DATUM ELEV
~Curve Information -----------------------------------------
DEPT.F     : 
DPHI.DEC   : DENSITY POROSITY LIMESTONE
NPHI.DEC   : NEUTRON POROSITY LIMESTONE
DRHO.G/C3  : DENSITY CORRECTION
CALD.IN    : CALIPER FDC LOG
RHOB.G/C3  : BULK DENSITY
PEF .B/E   : PHOTOELECTRIC FACTOR
GRR .GAPI  : GAMMA RAY FROM RES. LOG.
ILD .OHMM  : INDUCTION LOG DEEP
SPR .MV    : SPONTANEOUS POTENTIAL FROM RES.
SFLU.OHMM  : SPHERICALLY FOCUSED LOG UNAVERAGED RESISTIVITY
ILM .OHMM  : INDUCTION LOG MEDIUM
DTCO.US/F  : COMPRESSIONAL-WAVE INTERVAL TRANSIT TIME ACOUSTIC SLOWNESS
DTSM.US/F  : SHEAR-WAVE INTERVAL TRANSIT TIME DELTA-T
~Params ----------------------------------------------------
~Other -----------------------------------------------------
~ASCII -----------------------------------------------------
# ...
 11972.50000    0.06030    0.23040    0.09190    3.28990    2.60440    3.75940  117.41720   10.72760  -11.00270    9.50140   11.11410   -9999.25   -9999.25
 11973.00000    0.03910    0.21980    0.07930    3.31350    2.63310    3.58350  118.23490   10.65960  -11.01470   11.38110   11.04360   -9999.25   -9999.25
 11973.50000    0.02080    0.20320    0.06230    3.30870    2.66650    3.39440  120.90200   10.60800  -11.02670   13.00740   11.01850   -9999.25   -9999.25
 11974.00000    0.01830    0.18770    0.04530    3.30390    2.68360    3.24740  124.21640   10.81060  -11.03870   14.23960   11.21500   -9999.25   -9999.25
 11974.50000    0.02440    0.18220    0.01090    3.29920    2.67200    3.28270  121.31200   11.05200  -11.05070   14.78960   11.52560   -9999.25   -9999.25
 11975.00000    0.03470    0.18040    0.00100    3.29440    2.65870    3.33930  118.02500   11.39380  -11.06270   15.40750   11.88220   -9999.25   -9999.25
 11975.50000    0.04060    0.17970    0.00040    3.29460    2.64660    3.34600  117.91210   11.74620  -11.07470   16.12400   12.24980   -9999.25   -9999.25
 11976.00000    0.04310    0.18060    0.00030    3.28790    2.64040    3.25600  122.63280   12.05370  -11.08670   16.60130   12.50970   -9999.25   -9999.25
 11976.50000    0.04080    0.18550    0.00020    3.28070    2.64210    3.19020  125.63960   12.24950  -11.09870   16.42080   12.70680   -9999.25   -9999.25
 11977.00000    0.03660    0.18880    0.00010    3.27350    2.64830    3.19190  124.19150   12.40700  -11.11070   15.55920   12.86580   -9999.25   -9999.25
 11977.50000    0.03480    0.18890    0.00000    3.26630    2.65390    3.20580  123.06780   12.52040  -11.12260   14.42540   12.97430   -9999.25   -9999.25
 11978.00000    0.04220    0.18810    0.00000    3.25910    2.64300    3.25770  123.76710   12.60860  -11.13460   13.30160   13.05850   -9999.25   -9999.25
 11978.50000    0.04730    0.19330    0.00000    3.25400    2.63210    3.35790  124.76310   12.60860  -11.19810   12.88860   13.05850   -9999.25   -9999.25
 11979.00000    0.04760    0.20060    0.00000    3.29680    2.63270    3.38780  124.91860   12.60860  -11.28700   13.40370   13.05850   -9999.25   -9999.25
 11979.50000    0.04100    0.20590    0.00000    3.30870    2.64290    3.36760  122.29020   12.60860  -11.37580   14.42580   13.05850   -9999.25   -9999.25
 11980.00000    0.03690    0.20740    0.00000    3.30560    2.64970    3.25240  113.90350   12.52440  -11.46470   15.50540   12.98710   -9999.25   -9999.25
 11980.50000    0.03570    0.20560    0.00000    3.30480    2.65030    3.20090  105.58720   12.40860  -11.55360   15.81010   12.85350   -9999.25   -9999.25
 11981.00000    0.03550    0.20590    0.00000    3.30580    2.65030    3.20130  105.28340   12.34740  -11.64240   15.72090   12.79010   -9999.25   -9999.25
 11981.50000    0.03530    0.20620    0.00000    3.30680    2.65030    3.20150  108.92300   12.20880  -11.73130   15.23430   12.67570   -9999.25   -9999.25
 11982.00000    0.03570    0.20650    0.00010    3.30780    2.65030    3.22840  118.17250   11.90760  -11.82010   14.26520   12.42730   -9999.25   -9999.25
 11982.50000    0.03860    0.20710    0.00020    3.30870    2.64800    3.27400  126.87850   11.52250  -11.90900   12.92080   12.02540   -9999.25   -9999.25
 11983.00000    0.04180    0.20810    0.00040    3.30970    2.64370    3.28950  132.99430   11.14990  -11.99780   11.91000   11.63650   -9999.25   -9999.25
 11983.50000    0.04160    0.20910    0.00050    3.31070    2.64110    3.27410  132.17000   10.62750  -12.08670   11.29510   11.19590   -9999.25   -9999.25
 11984.00000    0.03670    0.21010    0.00060    3.31160    2.64880    3.26000  128.20680   10.17120  -12.13610   11.31350   10.63100   -9999.25   -9999.25
 11984.50000    0.03120    0.21160    0.00060    3.31400    2.65860    3.26140  124.44970    9.82100  -12.17940   11.37370   10.25990   -9999.25   -9999.25
 11985.00000    0.03110    0.21320   -0.00060    3.32190    2.66210    3.33100  124.40020    9.57240  -12.22260   11.34470    9.93500   -9999.25   -9999.25
 11985.50000    0.03140    0.21360   -0.00190    3.32560    2.66340    3.40070  126.00860    9.41500  -12.26590   11.01100    9.77170   -9999.25   -9999.25
 11986.00000    0.02890    0.21250   -0.00280    3.32560    2.66340    3.49120  129.17490    9.29490  -12.30910   10.78410    9.63770   -9999.25   -9999.25
 11986.50000    0.02860    0.20680   -0.00120    3.34190    2.66140    3.58460  131.32330    9.14660  -12.35240   10.80400    9.51030   -9999.25   -9999.25
 11987.00000    0.03690    0.20670    0.00340    3.35830    2.64870    3.67790  129.90660    8.94140  -12.39560   10.86890    9.29680   -9999.25   -9999.25
 11987.50000    0.05100    0.20880    0.01560    3.37480    2.62460    3.77080  124.59760    8.85220  -12.43890   10.71410    9.16780   -9999.25   -9999.25
 11988.00000    0.06750    0.21260    0.02710    3.41470    2.59860    3.86320  118.37910    8.93460  -12.48210    9.91470    9.26210   -9999.25   -9999.25
 11988.50000    0.07180    0.21440    0.05680    3.46110    2.59180    3.90430  117.89390    9.17390  -12.52540    9.79500    9.57480   -9999.25   -9999.25
 11989.00000    0.06440    0.21060    0.07830    3.48530    2.60890    3.88630  119.30740    9.41300  -12.56870   10.19380    9.78370   -9999.25   -9999.25
 11989.50000    0.04640    0.20550    0.09300    3.50370    2.63750    3.78260  120.17910    9.61830  -12.56930   11.22910    9.99720   -9999.25   -9999.25
 11990.00000    0.02740    0.19860    0.08120    3.52950    2.66590    3.58900  120.68100    9.82800  -12.53100   12.26380   10.24540   -9999.25   -9999.25
 11990.50000    0.02240    0.20220    0.05750    3.55930    2.67180    3.39440  125.60850   10.12380  -12.49280   12.94270   10.55640   -9999.25   -9999.25
 11991.00000    0.02780    0.20440    0.02260    3.58960    2.66320    3.33550  129.83020   10.42990  -12.45460   12.97970   10.87680   -9999.25   -9999.25
 11991.50000    0.03530    0.20330   -0.00570    3.60380    2.65340    3.27650  132.50400   10.69610  -12.41640   12.99140   11.09600   -9999.25   -9999.25
 11992.00000    0.04360    0.19480    0.00000    3.57920    2.64260    3.21760  128.10560   10.84300  -12.37810   13.53180   11.23690   -9999.25   -9999.25
 11992.50000    0.04460    0.18390   -0.00100    3.50920    2.63650    3.13980  122.44790   10.93230  -12.33990   14.52980   11.32950   -9999.25   -9999.25
 11993.00000    0.04060    0.18120   -0.00250    3.42190    2.64290    3.08030  115.84760   11.02230  -12.30170   14.80470   11.42060   -9999.25   -9999.25
 11993.50000    0.03570    0.18130   -0.00490    3.36290    2.64940    3.08190  108.91540   11.10500  -12.25730   14.79520   11.51760   -9999.25   -9999.25
 11994.00000    0.03550    0.18520   -0.00780    3.34450    2.65140    3.12510  105.90080   11.23760  -12.08090   13.31440   11.64720   -9999.25   -9999.25
 11994.50000    0.03620    0.18540   -0.01100    3.33250    2.65050    3.16830  108.41490   11.40250  -11.90460   12.70360   11.89950   -9999.25   -9999.25
 11995.00000    0.03550    0.18390   -0.01270    3.32390    2.65240    3.29550  110.24250   11.76920  -11.72830   12.99870   12.27330   -9999.25   -9999.25
 11995.50000    0.03390    0.17810   -0.01280    3.31740    2.65460    3.46480  108.12890   12.06890  -11.55190   13.78230   12.54700   -9999.25   -9999.25
 11996.00000    0.03490    0.17240   -0.01290    3.31100    2.65130    3.53950   98.22340   12.35330  -11.37560   15.05900   12.85670   -9999.25   -9999.25
 11996.50000    0.03890    0.16960   -0.01300    3.30450    2.64400    3.53070   96.28700   12.66900  -11.19920   16.40760   13.18500   -9999.25   -9999.25
 11997.00000    0.04000    0.16880   -0.00950    3.29800    2.64440    3.44970   99.26220   13.03420  -11.04430   16.94820   13.62450   -9999.25   -9999.25
 11997.50000    0.03690    0.16690   -0.00550    3.29490    2.64900    3.44580  105.56440   13.50930  -11.04770   17.36560   14.12130   -9999.25   -9999.25
 11998.00000    0.03320    0.16270   -0.00270    3.29900    2.65570    3.47190  108.55550   14.00170  -11.05110   17.82170   14.63610   -9999.25   -9999.25
