~Version ---------------------------------------------------
VERS.   2.0 : CWLS log ASCII Standard -VERSION 2.0
WRAP.    NO : One line per depth step
DLM . SPACE : Column Data Section Delimiter
~Well ------------------------------------------------------
STRT .F                 3418.5 : START DEPTH
STOP .F                12997.0 : STOP DEPTH
STEP .F                    0.5 : STEP
NULL .                -9999.25 : NULL VALUE
COMP .                         : COMPANY
WELL .                         : WELL
FLD  .                         : FIELD
LOC  .                         : LOCATION
PROV .                         : PROVINCE
CNTY .                         : COUNTY
STAT .                         : STATE
CTRY .                         : COUNTRY
SRVC .                         : SERVICE COMPANY
DATE .                         : DATE
UWI  .                         : UNIQUE WELL ID
API  .                         : API NUMBER
SLAT .WGS84 5.9280925372982125 : SURFACE LATITUDE
SLON .WGS84  4.006364565975076 : SURFACE LONGITUDE
DATUM.F                1821.12 : DEPTH DATUM ELEV
~Curve Information -----------------------------------------
DEPT.F     : 
DPHI.DEC   : DENSITY POROSITY LIMESTONE
NPHI.DEC   : NEUTRON POROSITY LIMESTONE
DRHO.G/C3  : DENSITY CORRECTION
CALD.IN    : CALIPER FDC LOG
RHOB.G/C3  : BULK DENSITY
PEF .B/E   : PHOTOELECTRIC FACTOR
GRR .GAPI  : GAMMA RAY FROM RES. LOG.
ILD .OHMM  : INDUCTION LOG DEEP
SPR .MV    : SPONTANEOUS POTENTIAL FROM RES.
SFLU.OHMM  : SPHERICALLY FOCUSED LOG UNAVERAGED RESISTIVITY
ILM .OHMM  : INDUCTION LOG MEDIUM
DTCO.US/F  : COMPRESSIONAL-WAVE INTERVAL TRANSIT TIME ACOUSTIC SLOWNESS
DTSM.US/F  : SHEAR-WAVE INTERVAL TRANSIT TIME DELTA-T
~Params ----------------------------------------------------
~Other -----------------------------------------------------
~ASCII -----------------------------------------------------
# ...
 12310.50000    0.02390    0.26040   -0.04200    4.66210    2.67140   -9999.25  125.98360    3.57410  -14.45840    4.91190    3.66990   86.03620  128.38980
 12311.00000    0.02380    0.25790   -0.03380    4.66180    2.67310   -9999.25  128.72630    3.61840  -14.43270    4.98720    3.73440   86.14260  128.73960
 12311.50000    0.02180    0.25400   -0.03180    4.66200    2.67280   -9999.25  132.91020    3.68060  -14.40690    5.18370    3.80020   86.05280  128.58330
 12312.00000    0.02250    0.25000   -0.03040    4.65930    2.67060   -9999.25  137.52240    3.88440  -14.38120    5.61620    3.86700   85.39690  127.66250
 12312.50000    0.02720    0.24580   -0.03110    4.65530    2.66410   -9999.25  138.06600    3.91960  -14.35540    5.84650    3.94500   84.02720  126.66370
 12313.00000    0.03730    0.24200   -0.04310    4.65120    2.65050   -9999.25  135.92850    3.92340  -14.32970    5.85920    3.95620   83.95610  125.63970
 12313.50000    0.04440    0.23800   -0.04830    4.64720    2.63620   -9999.25  135.94380    3.92720  -14.30390    5.88830    3.95920   83.86620  124.88760
 12314.00000    0.04210    0.23520   -0.05120    4.64310    2.64030   -9999.25  139.05220    3.93090  -14.27820    5.89090    3.96210   83.77630  124.53950
 12314.50000    0.03480    0.23840   -0.04910    4.64180    2.65010   -9999.25  142.58470    3.93470  -14.25250    5.89140    3.96510   83.70310  124.20010
 12315.00000    0.03190    0.24370   -0.04690    4.65350    2.65530   -9999.25  144.64860    3.93850  -14.22670    5.86580    3.96810   83.70220  123.94540
 12315.50000    0.02910    0.24560   -0.04520    4.65980    2.66030   -9999.25  146.60810    3.93950  -14.20100    5.83380    3.97100   83.70130  124.03610
 12316.00000    0.02650    0.24540   -0.04340    4.65990    2.66480   -9999.25  149.76740    3.93800  -14.17520    5.80000    3.97400   83.72370  124.24540
 12316.50000    0.02420    0.24480   -0.04230    4.65990    2.66860   -9999.25  149.97490    3.93660  -14.14950    5.69720    3.98260   83.79010  124.48350
 12317.00000    0.02270    0.24400   -0.04200    4.66000    2.67190   -9999.25  149.86620    3.93510  -14.12370    5.74340    4.01860   84.07030  124.79240
 12317.50000    0.02130    0.24130   -0.04180    4.66020    2.67480   -9999.25  143.84560    3.93370  -14.09800    5.78200    4.01400   84.22580  124.99330
 12318.00000    0.02220    0.24170   -0.04280    4.66040    2.67560   -9999.25  134.58220    3.93230  -14.07230    5.75110    4.00940   84.25490  125.09690
 12318.50000    0.02400    0.24520   -0.04500    4.66020    2.67080   -9999.25  131.96810    3.93080  -14.04650    5.74980    4.00490   84.31260  125.25960
 12319.00000    0.02670    0.24640   -0.04700    4.65980    2.66520   -9999.25  133.39390    3.93390  -14.02080    5.77220    4.00030   84.45290  125.42230
 12319.50000    0.02750    0.24620   -0.04800    4.65940    2.66480   -9999.25  133.48690    3.93750  -13.99500    5.89510    3.99570   84.66630  125.56250
 12320.00000    0.02600    0.24370   -0.04870    4.65900    2.66910   -9999.25  133.44090    3.94080  -13.96930    5.87640    3.99110   84.83340  125.58650
 12320.50000    0.02290    0.24130   -0.04930    4.65850    2.67400   -9999.25  135.00120    3.94100  -13.94350    5.79860    3.98660   85.00040  125.59520
 12321.00000    0.02270    0.24220   -0.04980    4.65810    2.67110   -9999.25  137.01300    3.94110  -13.91780    5.72410    3.98200   85.16740  125.54870
 12321.50000    0.03120    0.24660   -0.05040    4.65770    2.66040   -9999.25  137.50140    3.94130  -13.89210    5.61250    4.00040   85.75880  125.54920
 12322.00000    0.03830    0.24580   -0.05100    4.65730    2.64550   -9999.25  137.66980    3.94270  -13.86630    5.56390    4.02320   85.37650  125.61970
 12322.50000    0.04000    0.24390   -0.05160    4.65690    2.64560   -9999.25  139.63300    3.95170  -13.84060    5.53000    4.05120   84.42630  125.61350
 12323.00000    0.03600    0.24130   -0.05210    4.65650    2.65000   -9999.25  140.74150    4.08420  -13.81480    5.50660    4.25420   83.45170  124.35350
 12323.50000    0.03500    0.23540   -0.05270    4.65600    2.65070   -9999.25  138.55420    4.27040  -13.78910    5.60110    4.53010   82.40900  123.27840
 12324.00000    0.03810    0.23120   -0.05330    4.65560    2.64710   -9999.25  133.68470    4.55370  -13.77680    6.00250    4.76310   81.36640  122.50930
 12324.50000    0.04030    0.22530   -0.05390    4.65520    2.64580   -9999.25  129.29990    4.98140  -13.77830    6.76360    5.01990   80.32380  121.82830
 12325.00000    0.03710    0.21930   -0.05270    4.65480    2.64650   -9999.25  127.06040    5.14710  -13.77980    7.80350    5.30580   79.28110  121.00500
 12325.50000    0.03310    0.21230   -0.05150    4.65440    2.65280   -9999.25  125.53460    5.30730  -13.78130    9.04140    5.60800   77.54140  123.85060
 12326.00000    0.03020    0.20000   -0.05180    4.65390    2.66170   -9999.25  124.98760    5.67250  -13.78280   10.16210    5.88020   76.77390  129.12730
 12326.50000    0.03290    0.19480   -0.05210    4.65350    2.65490   -9999.25  128.72530    6.08330  -13.78420   10.08830    6.04290   77.46730  135.34390
 12327.00000    0.04230    0.19210   -0.05520    4.65310    2.64230   -9999.25  137.30420    6.38630  -13.78570    9.88480    6.30110   77.66480  141.29100
 12327.50000    0.04660    0.18900   -0.06220    4.65270    2.63060   -9999.25  143.09990    6.58620  -13.78720    9.55300    6.57830   77.81380  143.91250
 12328.00000    0.04120    0.18560   -0.06190    4.65230    2.63350   -9999.25  140.04460    6.74160  -13.78870    9.48500    6.74670   77.61630  144.98940
 12328.50000    0.04190    0.18220   -0.06130    4.65190    2.64150   -9999.25  132.96610    6.41310  -13.79020    9.84350    6.51350   76.83720  145.69760
 12329.00000    0.04410    0.18260   -0.06000    4.65140    2.63690   -9999.25  132.57060    6.36630  -13.79170    9.86380    6.46320   76.38110  146.20810
 12329.50000    0.04620    0.18630   -0.06090    4.65100    2.63400   -9999.25  139.15080    6.30660  -13.79320    9.62090    6.37290   76.57770  146.68350
 12330.00000    0.04320    0.19140   -0.06140    4.65060    2.63740   -9999.25  147.18610    6.16500  -13.79470    8.78760    6.27460   76.87550  147.15880
 12330.50000    0.03780    0.19500   -0.05610    4.65020    2.64660   -9999.25  142.17570    6.13120  -13.79620    8.21400    6.17790   77.49400  147.61210
 12331.00000    0.03310    0.19070   -0.04940    4.64980    2.65450   -9999.25  135.27500    5.92140  -13.79770    8.50170    6.08260   77.76490  147.45930
 12331.50000    0.03230    0.18630   -0.04670    4.64940    2.65680   -9999.25  130.13520    5.90410  -13.79910    8.68970    5.96520   77.90830  146.52220
 12332.00000    0.03610    0.18710   -0.04550    4.65230    2.65270   -9999.25  131.54600    5.89950  -13.79620    8.37590    5.99890   77.92030  145.07910
 12332.50000    0.04190    0.18940   -0.04600    4.65850    2.64170   -9999.25  129.49690    5.89490  -13.73520    7.92340    6.06130   77.73860  143.46390
 12333.00000    0.04580    0.19080   -0.04700    4.66210    2.63430   -9999.25  125.65090    5.98550  -13.67420    8.07990    6.10750   77.34970  141.40480
 12333.50000    0.04560    0.18590   -0.04800    4.66530    2.63360   -9999.25  121.30150    6.03030  -13.61320    8.85130    6.13030   76.66560  140.31780
 12334.00000    0.04310    0.17880   -0.04910    4.65200    2.64300   -9999.25  121.66550    6.07560  -13.55220    9.77740    6.15320   76.59400  140.36100
 12334.50000    0.03600    0.17290   -0.05010    4.63450    2.65080   -9999.25  125.05830    6.12120  -13.49120    9.97740    6.18700   76.61420  140.40430
 12335.00000    0.03530    0.17840   -0.05110    4.62650    2.65090   -9999.25  128.63130    6.16710  -13.43020    9.34870    6.23500   76.61420  140.44750
 12335.50000    0.04060    0.18590   -0.05210    4.63510    2.64400   -9999.25  128.14250    6.25090  -13.36920    8.44390    6.26700   76.61420  140.49070
 12336.00000    0.04630    0.19380   -0.05310    4.64820    2.63400   -9999.25  125.25480    6.33030  -13.30820    8.48690    6.29920   76.60310  140.53400
