~Version ---------------------------------------------------
VERS.   2.0 : CWLS log ASCII Standard -VERSION 2.0
WRAP.    NO : One line per depth step
DLM . SPACE : Column Data Section Delimiter
~Well ------------------------------------------------------
STRT .F                 3418.5 : START DEPTH
STOP .F                12997.0 : STOP DEPTH
STEP .F                    0.5 : STEP
NULL .                -9999.25 : NULL VALUE
COMP .                         : COMPANY
WELL .                         : WELL
FLD  .                         : FIELD
LOC  .                         : LOCATION
PROV .                         : PROVINCE
CNTY .                         : COUNTY
STAT .                         : STATE
CTRY .                         : COUNTRY
SRVC .                         : SERVICE COMPANY
DATE .                         : DATE
UWI  .                         : UNIQUE WELL ID
API  .                         : API NUMBER
SLAT .WGS84 5.9280925372982125 : SURFACE LATITUDE
SLON .WGS84  4.006364565975076 : SURFACE LONGITUDE
DATUM.F                1821.12 : DEPTH DATUM ELEV
~Curve Information -----------------------------------------
DEPT.F     : 
DPHI.DEC   : DENSITY POROSITY LIMESTONE
NPHI.DEC   : NEUTRON POROSITY LIMESTONE
DRHO.G/C3  : DENSITY CORRECTION
CALD.IN    : CALIPER FDC LOG
RHOB.G/C3  : BULK DENSITY
PEF .B/E   : PHOTOELECTRIC FACTOR
GRR .GAPI  : GAMMA RAY FROM RES. LOG.
ILD .OHMM  : INDUCTION LOG DEEP
SPR .MV    : SPONTANEOUS POTENTIAL FROM RES.
SFLU.OHMM  : SPHERICALLY FOCUSED LOG UNAVERAGED RESISTIVITY
ILM .OHMM  : INDUCTION LOG MEDIUM
DTCO.US/F  : COMPRESSIONAL-WAVE INTERVAL TRANSIT TIME ACOUSTIC SLOWNESS
DTSM.US/F  : SHEAR-WAVE INTERVAL TRANSIT TIME DELTA-T
~Params ----------------------------------------------------
~Other -----------------------------------------------------
~ASCII -----------------------------------------------------
# ...
 10646.50000    0.04640    0.12700    0.00470    5.00680    2.63080    2.54820   80.87280    7.75390  -29.61230    9.44680    8.03100   -9999.25   -9999.25
 10647.00000    0.04180    0.12660    0.00590    5.01210    2.63730    2.61860   83.44730    7.75120  -29.59530    9.32960    8.02830   -9999.25   -9999.25
 10647.50000    0.04080    0.12960    0.00710    5.01740    2.64080    2.66290   85.93240    7.74860  -29.57840    8.88480    8.02550   -9999.25   -9999.25
 10648.00000    0.04150    0.14320    0.00830    5.02260    2.63940    2.69870   87.01620    7.74590  -29.56140    8.32270    8.02270   -9999.25   -9999.25
 10648.50000    0.04530    0.15090    0.00930    5.02970    2.63470    2.72150   82.51210    7.75560  -29.54440    8.32780    8.03310   -9999.25   -9999.25
 10649.00000    0.04950    0.15270    0.00990    5.03760    2.62840    2.72230   76.23500    7.76980  -29.52750    8.92880    8.04790   -9999.25   -9999.25
 10649.50000    0.05400    0.14090    0.01050    5.04550    2.62010    2.72310   71.72610    7.79220  -29.51050    9.75790    8.07170   -9999.25   -9999.25
 10650.00000    0.05390    0.13040    0.00980    5.06320    2.62050    2.75580   74.21850    7.84870  -29.49350   10.06130    8.13950   -9999.25   -9999.25
 10650.50000    0.04960    0.12880    0.00810    5.10010    2.62570    2.83090   83.67650    7.94470  -29.47660    9.86670    8.23870   -9999.25   -9999.25
 10651.00000    0.04800    0.13490    0.00280    5.14990    2.62860    2.93200   85.80280    8.06620  -29.45960    9.51880    8.37450   -9999.25   -9999.25
 10651.50000    0.04920    0.14040   -0.00230    5.17420    2.62730    3.04790   85.88680    8.20660  -29.44260    9.51620    8.52030   -9999.25   -9999.25
 10652.00000    0.05540    0.14080   -0.00280    5.17820    2.61920    3.18010   84.96980    8.23760  -29.45620    9.63160    8.53200   -9999.25   -9999.25
 10652.50000    0.06190    0.13840   -0.00160    5.18390    2.60570    3.15830   83.20580    8.19460  -29.47200    9.85080    8.50420   -9999.25   -9999.25
 10653.00000    0.06270    0.13550    0.00110    5.18960    2.60550    3.01890   80.75310    8.06170  -29.48790    9.86260    8.36630   -9999.25   -9999.25
 10653.50000    0.06040    0.13260    0.00340    5.19530    2.61130    2.87780   79.22270    7.93100  -29.50380    9.72000    8.23060   -9999.25   -9999.25
 10654.00000    0.05330    0.13030    0.00110    5.20170    2.62350    2.73670   81.08670    7.80620  -29.51960    9.56670    8.10030   -9999.25   -9999.25
 10654.50000    0.04730    0.12810   -0.00130    5.21420    2.62940    2.69900   82.40490    7.68470  -29.53550    9.27060    7.97510   -9999.25   -9999.25
 10655.00000    0.04840    0.12610   -0.00270    5.24500    2.62730    2.76500   82.79790    7.50960  -29.55140    8.88160    7.81760   -9999.25   -9999.25
 10655.50000    0.04980    0.12690   -0.00180    5.25960    2.62560    2.94100   83.79480    7.32120  -29.56720    8.40930    7.62150   -9999.25   -9999.25
 10656.00000    0.05100    0.13260   -0.00090    5.27410    2.62260    2.96290   88.65300    7.13290  -29.58310    7.93410    7.43030   -9999.25   -9999.25
 10656.50000    0.05250    0.13910    0.00090    5.28540    2.61710    2.95470   97.06490    6.93950  -29.58670    7.72380    7.22990   -9999.25   -9999.25
 10657.00000    0.05660    0.14220    0.00310    5.30620    2.61060    2.92620  103.05190    6.79700  -29.58880    7.64360    7.05250   -9999.25   -9999.25
 10657.50000    0.06210    0.14540    0.00530    5.33640    2.60520    2.79790  103.41620    6.70630  -29.59100    7.67770    6.95290   -9999.25   -9999.25
 10658.00000    0.06190    0.14810    0.00750    5.36210    2.60910    2.67500   96.38720    6.63330  -29.59320    7.71420    6.87720   -9999.25   -9999.25
 10658.50000    0.05150    0.15020    0.00710    5.38400    2.62180    2.55710   85.64030    6.56100  -29.59530    7.74890    6.80220   -9999.25   -9999.25
 10659.00000    0.04380    0.15230    0.00490    5.40590    2.63370    2.50550   81.31230    6.51770  -29.59750    7.69500    6.75110   -9999.25   -9999.25
 10659.50000    0.03980    0.15440    0.00270    5.42780    2.64570    2.49740   80.64900    6.42360  -29.59970    7.59160    6.68040   -9999.25   -9999.25
 10660.00000    0.03780    0.15610   -0.00080    5.44970    2.64990    2.54140   85.25260    6.27750  -29.60180    7.47430    6.52740   -9999.25   -9999.25
 10660.50000    0.03740    0.15680   -0.00300    5.47130    2.65090    2.65700   90.21360    6.14210  -29.61540    7.34910    6.38000   -9999.25   -9999.25
 10661.00000    0.03830    0.15670   -0.00500    5.49180    2.64840    2.77260   95.10540    6.01960  -29.63120    7.20710    6.25280   -9999.25   -9999.25
 10661.50000    0.04020    0.15840   -0.00630    5.50930    2.64420    2.88820   98.05550    5.85760  -29.64710    7.04210    6.10210   -9999.25   -9999.25
 10662.00000    0.04670    0.16050   -0.00650    5.52270    2.63190    2.95980   99.55240    5.69180  -29.66290    6.68750    5.92940   -9999.25   -9999.25
 10662.50000    0.05520    0.16250   -0.00680    5.53590    2.62030    3.00890  103.37110    5.54730  -29.67870    6.30580    5.76530   -9999.25   -9999.25
 10663.00000    0.05890    0.16460   -0.00710    5.54920    2.61260    3.05040  106.78790    5.42710  -29.69460    6.02500    5.64030   -9999.25   -9999.25
 10663.50000    0.05990    0.17330   -0.00600    5.55390    2.61020    3.04520  106.97400    5.28770  -29.71040    5.93170    5.50950   -9999.25   -9999.25
 10664.00000    0.06110    0.18100   -0.00380    5.54630    2.60690    3.07120  104.26180    5.13510  -29.72510    5.91130    5.35040   -9999.25   -9999.25
 10664.50000    0.06430    0.18720   -0.00090    5.54390    2.60070    3.17610  102.89080    5.03190  -29.73580    5.90980    5.22100   -9999.25   -9999.25
 10665.00000    0.06430    0.19150    0.00440    5.56800    2.60300    3.14360  103.95260    4.95200  -29.74650    5.87270    5.13810   -9999.25   -9999.25
 10665.50000    0.06280    0.19440    0.01020    5.59400    2.60390    3.08670  108.24190    4.92760  -29.75720    5.73680    5.10390   -9999.25   -9999.25
 10666.00000    0.06120    0.19540    0.01930    5.61990    2.60360    3.06140  109.00410    4.92210  -29.76780    5.52650    5.09770   -9999.25   -9999.25
 10666.50000    0.06750    0.19450    0.02320    5.64590    2.59860    3.09280  108.54320    4.91710  -29.77850    5.44940    5.09260   -9999.25   -9999.25
 10667.00000    0.07150    0.19370    0.02600    5.66530    2.59350    3.11370  107.62330    4.91180  -29.78920    5.46550    5.08710   -9999.25   -9999.25
 10667.50000    0.06730    0.18780    0.02740    5.66860    2.59620    3.08760  107.03560    4.90660  -29.79990    5.54330    5.08160   -9999.25   -9999.25
 10668.00000    0.06430    0.18290    0.02920    5.66500    2.60320    3.04870  107.65610    4.90130  -29.82170    5.66140    5.07620   -9999.25   -9999.25
 10668.50000    0.06110    0.18080    0.03040    5.66670    2.60860    3.03710  108.39820    4.89600  -29.85710    5.76610    5.07070   -9999.25   -9999.25
 10669.00000    0.05820    0.18330    0.03070    5.66830    2.61360    3.05030  107.41670    4.88980  -29.89240    5.82880    5.06430   -9999.25   -9999.25
 10669.50000    0.05690    0.18570    0.03010    5.66890    2.61550    3.04520  104.76840    4.88170  -29.92780    5.86790    5.05590   -9999.25   -9999.25
 10670.00000    0.06070    0.18720    0.02820    5.66610    2.60610    2.97650  103.03360    4.87360  -29.96320    5.86470    5.04750   -9999.25   -9999.25
 10670.50000    0.06560    0.18960    0.00810    5.66530    2.60330    3.04460  103.25610    4.86550  -29.99860    5.78980    5.03910   -9999.25   -9999.25
 10671.00000    0.06380    0.19240    0.00790    5.66910    2.60370    3.12910  103.35640    4.82480  -30.03390    5.66150    4.99960   -9999.25   -9999.25
 10671.50000    0.06330    0.19520    0.01560    5.66210    2.60280    3.17800  101.73720    4.78240  -30.06930    5.51230    4.95560   -9999.25   -9999.25
 10672.00000    0.07380    0.19710    0.02690    5.65500    2.58990    3.11400   99.50270    4.75380  -30.11680    5.48040    4.92410   -9999.25   -9999.25
