~Version ---------------------------------------------------
VERS.   2.0 : CWLS log ASCII Standard -VERSION 2.0
WRAP.    NO : One line per depth step
DLM . SPACE : Column Data Section Delimiter
~Well ------------------------------------------------------
STRT .F                 3418.5 : START DEPTH
STOP .F                12997.0 : STOP DEPTH
STEP .F                    0.5 : STEP
NULL .                -9999.25 : NULL VALUE
COMP .                         : COMPANY
WELL .                         : WELL
FLD  .                         : FIELD
LOC  .                         : LOCATION
PROV .                         : PROVINCE
CNTY .                         : COUNTY
STAT .                         : STATE
CTRY .                         : COUNTRY
SRVC .                         : SERVICE COMPANY
DATE .                         : DATE
UWI  .                         : UNIQUE WELL ID
API  .                         : API NUMBER
SLAT .WGS84 5.9280925372982125 : SURFACE LATITUDE
SLON .WGS84  4.006364565975076 : SURFACE LONGITUDE
DATUM.F                1821.12 : DEPTH DATUM ELEV
~Curve Information -----------------------------------------
DEPT.F     : 
DPHI.DEC   : DENSITY POROSITY LIMESTONE
NPHI.DEC   : NEUTRON POROSITY LIMESTONE
DRHO.G/C3  : DENSITY CORRECTION
CALD.IN    : CALIPER FDC LOG
RHOB.G/C3  : BULK DENSITY
PEF .B/E   : PHOTOELECTRIC FACTOR
GRR .GAPI  : GAMMA RAY FROM RES. LOG.
ILD .OHMM  : INDUCTION LOG DEEP
SPR .MV    : SPONTANEOUS POTENTIAL FROM RES.
SFLU.OHMM  : SPHERICALLY FOCUSED LOG UNAVERAGED RESISTIVITY
ILM .OHMM  : INDUCTION LOG MEDIUM
DTCO.US/F  : COMPRESSIONAL-WAVE INTERVAL TRANSIT TIME ACOUSTIC SLOWNESS
DTSM.US/F  : SHEAR-WAVE INTERVAL TRANSIT TIME DELTA-T
~Params ----------------------------------------------------
~Other -----------------------------------------------------
~ASCII -----------------------------------------------------
# ...
 9658.50000    0.15990    0.28260    0.19370    5.66710    2.43940    3.83940  120.10820    4.78200   -8.77600    5.87500    4.95920   -9999.25   -9999.25
 9659.00000    0.16180    0.29130    0.17660    5.89480    2.43550    4.09290  120.04340    4.71280   -8.77390    5.84810    4.88750   -9999.25   -9999.25
 9659.50000    0.17840    0.31790    0.15940    5.66140    2.41440    4.14660  113.79130    4.66230   -8.76240    5.77320    4.83180   -9999.25   -9999.25
 9660.00000    0.20730    0.31500    0.13750    5.56970    2.35650    3.79180  106.16640    4.61300   -8.75100    5.63630    4.78070   -9999.25   -9999.25
 9660.50000    0.23420    0.31330    0.13110    5.76550    2.30780    3.60260  104.53890    4.56420   -8.73950    5.52000    4.73020   -9999.25   -9999.25
 9661.00000    0.22910    0.30860    0.14010    5.87720    2.32530    3.54600  106.05100    4.52780   -8.72810    5.42180    4.69080   -9999.25   -9999.25
 9661.50000    0.21040    0.30900    0.14740    5.92740    2.35470    3.52640  109.28940    4.49220   -8.71660    5.36240    4.65390   -9999.25   -9999.25
 9662.00000    0.19440    0.31170    0.15170    5.90740    2.37790    3.52640  111.40240    4.45780   -8.70520    5.32310    4.61740   -9999.25   -9999.25
 9662.50000    0.19310    0.30470    0.15010    5.77180    2.37380    3.56730  112.04040    4.44380   -8.69370    5.32150    4.60210   -9999.25   -9999.25
 9663.00000    0.20280    0.29790    0.14600    5.63320    2.36690    3.61130  112.05080    4.43730   -8.68230    5.35160    4.59500   -9999.25   -9999.25
 9663.50000    0.20340    0.29210    0.14000    5.38040    2.39400    3.74180  112.06120    4.43700   -8.67080    5.39190    4.59480   -9999.25   -9999.25
 9664.00000    0.17840    0.28760    0.13110    5.22910    2.43630    4.26540  112.53580    4.44230   -8.65930    5.42520    4.60140   -9999.25   -9999.25
 9664.50000    0.15250    0.28790    0.12010    5.14700    2.47040    4.33440  115.29500    4.46580   -8.64790    5.44730    4.62580   -9999.25   -9999.25
 9665.00000    0.12480    0.28900    0.10840    5.12860    2.50240    4.26220  125.12400    4.48970   -8.63640    5.38990    4.65050   -9999.25   -9999.25
 9665.50000    0.12680    0.28520    0.09500    5.12930    2.49120    4.06940  133.87140    4.51390   -8.62500    5.33040    4.67550   -9999.25   -9999.25
 9666.00000    0.14810    0.27990    0.05540    5.14040    2.44590    3.96760  134.17290    4.53820   -8.57710    5.31440    4.70150   -9999.25   -9999.25
 9666.50000    0.18070    0.27220    0.04920    5.15160    2.40320    3.95440  133.68730    4.57250   -8.52170    5.33870    4.73730   -9999.25   -9999.25
 9667.00000    0.18130    0.26920    0.04850    5.16280    2.40500    3.97900  130.90610    4.59700   -8.46630    5.46980    4.76130   -9999.25   -9999.25
 9667.50000    0.16260    0.26540    0.04980    5.17390    2.43500    3.97920  123.26530    4.60140   -8.41090    5.62350    4.76490   -9999.25   -9999.25
 9668.00000    0.14460    0.26080    0.06200    5.18510    2.46480    3.87830  112.76830    4.60140   -8.35550    5.76360    4.76490   -9999.25   -9999.25
 9668.50000    0.14010    0.24850    0.07330    5.23310    2.47210    3.77510  111.96120    4.60760   -8.30010    5.76360    4.77190   -9999.25   -9999.25
 9669.00000    0.13870    0.24530    0.08430    5.28220    2.47820    3.67640  113.18740    4.62520   -8.34530    5.70100    4.79460   -9999.25   -9999.25
 9669.50000    0.12800    0.25040    0.09440    5.32100    2.49910    3.58440  114.12130    4.67770   -8.42650    5.59010    4.84900   -9999.25   -9999.25
 9670.00000    0.13100    0.26740    0.10260    5.35980    2.48830    3.50410  114.33530    4.73240   -8.50770    5.52080    4.91650   -9999.25   -9999.25
 9670.50000    0.13510    0.27520    0.10200    5.38060    2.48000    3.49820  114.10240    4.80990   -8.58900    5.69470    4.98790   -9999.25   -9999.25
 9671.00000    0.13140    0.27210    0.10100    5.34570    2.50100    3.58580  113.75490    4.85860   -8.67020    5.93760    5.03330   -9999.25   -9999.25
 9671.50000    0.10360    0.26850    0.09940    5.30210    2.53370    3.69600  113.19310    4.86600   -8.75140    6.18210    5.03900   -9999.25   -9999.25
 9672.00000    0.07430    0.26120    0.09660    5.25080    2.59040    3.82620  110.16590    4.83720   -8.83260    6.31740    5.01050   -9999.25   -9999.25
 9672.50000    0.07140    0.24760    0.08920    5.19350    2.58780    3.78880  103.42630    4.80850   -8.91390    6.25560    4.98090   -9999.25   -9999.25
 9673.00000    0.08890    0.24070    0.07120    5.13620    2.55820    3.71460  100.31270    4.70410   -8.99510    6.02820    4.89320   -9999.25   -9999.25
 9673.50000    0.10610    0.24370    0.05720    5.14030    2.52600    3.67420  101.36330    4.59100   -9.07630    5.77730    4.77520   -9999.25   -9999.25
 9674.00000    0.12910    0.25370    0.05750    5.20220    2.49580    3.68210  104.62540    4.50000   -9.04020    5.48140    4.66320   -9999.25   -9999.25
 9674.50000    0.14030    0.26960    0.06860    5.26920    2.47620    3.73100  108.21900    4.45670   -9.00230    5.27520    4.61840   -9999.25   -9999.25
 9675.00000    0.14770    0.27430    0.08140    5.30790    2.45680    3.66750  111.96400    4.41390   -8.96430    5.11160    4.57410   -9999.25   -9999.25
 9675.50000    0.16190    0.27900    0.09590    5.30170    2.43420    3.60410  116.02240    4.41030   -8.92630    5.04950    4.56720   -9999.25   -9999.25
 9676.00000    0.17530    0.28360    0.10770    5.29550    2.41010    3.54060  121.14910    4.44710   -8.88840    5.12670    4.61130   -9999.25   -9999.25
 9676.50000    0.17480    0.28240    0.09970    5.27100    2.41290    3.47720  121.28550    4.50190   -8.85040    5.28430    4.66870   -9999.25   -9999.25
 9677.00000    0.15640    0.26540    0.07920    5.13760    2.44410    3.40620  116.00550    4.56830   -8.81250    5.47260    4.75710   -9999.25   -9999.25
 9677.50000    0.12610    0.24040    0.05690    5.06180    2.49260    3.37670  109.96620    4.69230   -8.77450    5.72210    4.90890   -9999.25   -9999.25
 9678.00000    0.10500    0.21920    0.02520    5.00110    2.52790    3.45950  103.49110    4.89450   -8.73650    6.08800    5.14450   -9999.25   -9999.25
 9678.50000    0.10330    0.21860   -0.00820    4.94560    2.53540    3.59450   97.76650    5.12940   -8.72800    6.43080    5.39140   -9999.25   -9999.25
 9679.00000    0.09750    0.22250   -0.01270    4.92090    2.54180    3.61600   97.56370    5.34370   -8.72470    6.57300    5.57920   -9999.25   -9999.25
 9679.50000    0.09040    0.22480   -0.01030    4.86670    2.55710    3.62460  100.89150    5.52410   -8.72150    6.89180    5.77040   -9999.25   -9999.25
 9680.00000    0.08320    0.22130   -0.00630    4.84740    2.57110    3.63360  108.00920    5.71740   -8.71830    7.63130    5.97290   -9999.25   -9999.25
 9680.50000    0.07580    0.22060   -0.00340    4.84260    2.58250    3.65430  114.18500    5.87580   -8.71500    8.56260    6.09400   -9999.25   -9999.25
 9681.00000    0.06500    0.22050   -0.00290    4.83310    2.59580    3.71080  117.25480    5.92700   -8.71180    8.74260    6.13990   -9999.25   -9999.25
 9681.50000    0.05460    0.22250   -0.00230    4.82350    2.61560    3.72400  120.14250    5.93190   -8.74370    8.60420    6.14300   -9999.25   -9999.25
 9682.00000    0.04880    0.22390   -0.00180    4.81400    2.62780    3.67240  122.75520    5.84580   -8.84660    7.97460    6.06860   -9999.25   -9999.25
 9682.50000    0.05370    0.22090   -0.00130    4.80450    2.62210    3.58680  125.73270    5.74260   -8.94940    7.45890    5.96150   -9999.25   -9999.25
 9683.00000    0.06610    0.21820   -0.00170    4.78440    2.60140    3.52010  128.81940    5.63830   -9.05230    7.08270    5.85620   -9999.25   -9999.25
 9683.50000    0.08180    0.22020   -0.00250    4.72940    2.57940    3.50270  130.16660    5.52890   -9.15510    6.69480    5.74230   -9999.25   -9999.25
 9684.00000    0.09600    0.23840   -0.00320    4.69760    2.55550    3.47920  131.09390    5.49440   -9.25800    6.52840    5.69000   -9999.25   -9999.25
