~Version ---------------------------------------------------
VERS.   2.0 : CWLS log ASCII Standard -VERSION 2.0
WRAP.    NO : One line per depth step
DLM . SPACE : Column Data Section Delimiter
~Well ------------------------------------------------------
STRT .F                 3418.5 : START DEPTH
STOP .F                12997.0 : STOP DEPTH
STEP .F                    0.5 : STEP
NULL .                -9999.25 : NULL VALUE
COMP .                         : COMPANY
WELL .                         : WELL
FLD  .                         : FIELD
LOC  .                         : LOCATION
PROV .                         : PROVINCE
CNTY .                         : COUNTY
STAT .                         : STATE
CTRY .                         : COUNTRY
SRVC .                         : SERVICE COMPANY
DATE .                         : DATE
UWI  .                         : UNIQUE WELL ID
API  .                         : API NUMBER
SLAT .WGS84 5.9280925372982125 : SURFACE LATITUDE
SLON .WGS84  4.006364565975076 : SURFACE LONGITUDE
DATUM.F                1821.12 : DEPTH DATUM ELEV
~Curve Information -----------------------------------------
DEPT.F     : 
DPHI.DEC   : DENSITY POROSITY LIMESTONE
NPHI.DEC   : NEUTRON POROSITY LIMESTONE
DRHO.G/C3  : DENSITY CORRECTION
CALD.IN    : CALIPER FDC LOG
RHOB.G/C3  : BULK DENSITY
PEF .B/E   : PHOTOELECTRIC FACTOR
GRR .GAPI  : GAMMA RAY FROM RES. LOG.
ILD .OHMM  : INDUCTION LOG DEEP
SPR .MV    : SPONTANEOUS POTENTIAL FROM RES.
SFLU.OHMM  : SPHERICALLY FOCUSED LOG UNAVERAGED RESISTIVITY
ILM .OHMM  : INDUCTION LOG MEDIUM
DTCO.US/F  : COMPRESSIONAL-WAVE INTERVAL TRANSIT TIME ACOUSTIC SLOWNESS
DTSM.US/F  : SHEAR-WAVE INTERVAL TRANSIT TIME DELTA-T
~Params ----------------------------------------------------
~Other -----------------------------------------------------
~ASCII -----------------------------------------------------
# ...
 10308.50000    0.15190    0.22910   -0.00240    5.92190    2.44060    3.42910  107.29670    6.03190  -34.54870    8.48460    6.34540   -9999.25   -9999.25
 10309.00000    0.15110    0.20600   -0.00130    5.82040    2.44970    3.42900  108.04320    6.28340  -34.45070    9.76270    6.55240   -9999.25   -9999.25
 10309.50000    0.12270    0.18520    0.00170    5.70750    2.50980    3.42320  106.90830    6.47040  -34.35280   10.00740    6.87540   -9999.25   -9999.25
 10310.00000    0.07600    0.18020    0.00300    5.59790    2.58020    3.35530  110.78000    6.93160  -34.25480   10.08260    7.39700   -9999.25   -9999.25
 10310.50000    0.05400    0.18150    0.00400    5.48830    2.61810    3.21100  114.74070    7.41240  -34.15680   10.27710    7.83960   -9999.25   -9999.25
 10311.00000    0.05700    0.19200    0.00320    5.37870    2.61210    3.06300  116.64170    7.79600  -34.05880   10.55610    8.20030   -9999.25   -9999.25
 10311.50000    0.06340    0.20000    0.00170    5.26910    2.60320    3.01420  116.60160    8.23160  -33.96090   10.82970    8.74230   -9999.25   -9999.25
 10312.00000    0.06410    0.20170    0.00010    5.15950    2.60690    3.20020  113.31870    8.79770  -33.86290   11.47470    9.43120   -9999.25   -9999.25
 10312.50000    0.05270    0.18020   -0.00030    5.04180    2.62800    3.22170  107.59920    9.50730  -33.98710   12.73380   10.21270   -9999.25   -9999.25
 10313.00000    0.03890    0.15770   -0.00030    4.94040    2.64910    3.18080  102.86850   10.35680  -34.12610   15.28070   11.24510   -9999.25   -9999.25
 10313.50000    0.03260    0.13520   -0.00040    4.85030    2.65590    3.08670   98.13770   11.40410  -34.26500   18.91500   12.70530   -9999.25   -9999.25
 10314.00000    0.03620    0.12110   -0.00040    4.76030    2.64600    2.91360   94.96050   13.07330  -34.40400   23.78220   14.93240   -9999.25   -9999.25
 10314.50000    0.04710    0.11900   -0.00040    4.68090    2.63220    2.70610   92.23650   15.04560  -34.54300   29.45410   18.06400   -9999.25   -9999.25
 10315.00000    0.04960    0.11690   -0.00070    4.61420    2.62660    2.60150   91.01480   15.29010  -34.68200   33.70580   19.18060   -9999.25   -9999.25
 10315.50000    0.05010    0.11490   -0.00090    4.54760    2.62710    2.59430   90.74280   14.59370  -34.82100   37.70130   18.73500   -9999.25   -9999.25
 10316.00000    0.04930    0.11260   -0.00120    4.48100    2.62900    2.63410   96.71220   11.98590  -34.96000   37.26240   14.30790   -9999.25   -9999.25
 10316.50000    0.04800    0.10630   -0.00080    4.41430    2.63000    2.71750  112.19680    9.92560  -35.05450   24.76730   11.47040   -9999.25   -9999.25
 10317.00000    0.04780    0.11780   -0.00030    4.34770    2.63050    2.82750  120.22310    8.40460  -35.13950   17.14680    9.58450   -9999.25   -9999.25
 10317.50000    0.04780    0.14320    0.00010    4.28110    2.63060    3.09150  125.15520    7.14110  -35.22450   11.80270    7.76610   -9999.25   -9999.25
 10318.00000    0.05440    0.18760    0.00090    4.23490    2.62090    3.36490  121.03180    6.25400  -35.30960    6.97170    6.53150   -9999.25   -9999.25
 10318.50000    0.07320    0.24660    0.00290    4.22320    2.58640    3.64360  114.66900    5.91070  -35.39460    6.44560    6.10100   -9999.25   -9999.25
 10319.00000    0.09780    0.27040    0.00490    4.21140    2.54560    3.66160  111.62200    5.97860  -35.47960    6.70980    6.59670   -9999.25   -9999.25
 10319.50000    0.12250    0.27150    0.00690    4.19700    2.50470    3.53210  107.92880    6.77960  -35.62100    7.99380    7.46430   -9999.25   -9999.25
 10320.00000    0.12900    0.24570    0.00830    4.16000    2.49360    3.40250  102.47430    7.63440  -35.99780   10.54040    9.08260   -9999.25   -9999.25
 10320.50000    0.11340    0.20250    0.00730    4.09700    2.52070    3.27290   94.00610    9.59730  -36.37450   16.70320   11.40380   -9999.25   -9999.25
 10321.00000    0.08160    0.16390    0.00490    4.01950    2.56590    3.14340   84.30550   12.05930  -36.75120   29.31280   14.26830   -9999.25   -9999.25
 10321.50000    0.06040    0.12730    0.00240    3.94400    2.60200    3.01380   75.77420   15.07200  -37.12790   55.21790   19.27450   -9999.25   -9999.25
 10322.00000    0.04820    0.09010    0.00000    3.89320    2.63070    2.88430   68.25540   18.24730  -37.50460   82.92140   24.52980   -9999.25   -9999.25
 10322.50000    0.04610    0.06460   -0.00390    3.83790    2.63290    2.77400   65.97280   18.89500  -37.75080   82.61340   24.63810   -9999.25   -9999.25
 10323.00000    0.04760    0.06030   -0.00740    3.81790    2.63210    2.68230   68.61200   17.60150  -37.99080   66.38150   20.43860   -9999.25   -9999.25
 10323.50000    0.04840    0.09280   -0.01000    3.79590    2.63050    2.61530   79.53690   13.45800  -38.23090   36.23010   16.47340   -9999.25   -9999.25
 10324.00000    0.05030    0.17430   -0.01030    3.78960    2.62730    2.62000  100.46340    9.85010  -38.47100   17.74060   12.35390   -9999.25   -9999.25
 10324.50000    0.06420    0.24790   -0.00830    3.82960    2.59420    3.06310  120.40970    7.56850  -38.70840   10.53950    8.50880   -9999.25   -9999.25
 10325.00000    0.11070    0.27870    0.00400    3.98350    2.52680    3.40120  125.98680    5.99490  -38.93840    7.15430    6.47920   -9999.25   -9999.25
 10325.50000    0.19170    0.25880    0.02050    4.15330    2.42190    3.72510  127.89630    4.82830  -39.16840    5.72320    5.00660   -9999.25   -9999.25
 10326.00000    0.27300    0.23300    0.03690    4.50630    2.30320    4.04900  126.65600    3.91130  -39.39850    4.99940    3.75870   -9999.25   -9999.25
 10326.50000    0.30040    0.23200    0.04710    5.00860    2.17790    4.15500  118.34530    3.24980  -39.62850    4.33900    2.88270   -9999.25   -9999.25
 10327.00000    0.30040    0.24370    0.04890    5.78510    2.05270    4.05210  109.24030    3.02870  -39.85850    3.67280    2.34120   -9999.25   -9999.25
 10327.50000    0.30040    0.26660    0.04820    6.97140    1.99850    3.94300   95.26820    3.00410  -40.08850    3.16100    2.16420   -9999.25   -9999.25
 10328.00000    0.30040    0.35340    0.01640    7.94830    1.99830    3.88390   93.76240    3.03640  -40.31850    2.74800    2.31940   -9999.25   -9999.25
 10328.50000    0.30050    0.44120   -0.01220    8.63910    1.99870    3.86250  102.05490    3.16470  -40.46090    2.67600    2.73290   -9999.25   -9999.25
 10329.00000    0.30050    0.45890   -0.01340    8.61570    1.99910    3.86850  113.01290    3.27560  -40.59410    2.77850    3.19700   -9999.25   -9999.25
 10329.50000    0.30050    0.44500   -0.00130    8.45830    1.99950    3.86990  122.69840    3.41170  -40.04940    3.59090    3.59200   -9999.25   -9999.25
 10330.00000    0.30050    0.36510    0.02040    7.98100    1.99990    3.82740  126.23060    3.67480  -39.32140    5.37130    3.99520   -9999.25   -9999.25
 10330.50000    0.30050    0.30660    0.05070    6.42380    2.00030    3.71130  126.52650    4.10340  -38.59350    6.14960    4.57230   -9999.25   -9999.25
 10331.00000    0.24610    0.24800    0.08140    5.19580    2.24900    3.59150  122.10140    4.72170  -37.86550    6.44170    5.27150   -9999.25   -9999.25
 10331.50000    0.16200    0.22800    0.09810    4.58180    2.51170    3.47170  116.68200    5.44370  -36.98950    6.65200    6.06120   -9999.25   -9999.25
 10332.00000    0.08620    0.22250    0.06790    4.54210    2.57100    3.35510  109.03150    6.39080  -36.35860    7.34220    6.93880   -9999.25   -9999.25
 10332.50000    0.08260    0.21840    0.03260    4.54190    2.57330    3.28220  102.49560    7.71230  -36.19110    9.10500    8.16730   -9999.25   -9999.25
 10333.00000    0.07630    0.21420    0.01890    4.50630    2.58270    3.31570   95.45710    9.39360  -36.20690   12.96500    9.73300   -9999.25   -9999.25
 10333.50000    0.07120    0.19670    0.00550    4.46780    2.59680    3.39740   89.80950    9.68560  -36.48850   19.02380   10.77950   -9999.25   -9999.25
 10334.00000    0.06030    0.16240   -0.00150    4.45070    2.61980    3.41810   87.00530    8.90250  -36.87920   24.56880   10.98820   -9999.25   -9999.25
