~Version ---------------------------------------------------
VERS.   2.0 : CWLS log ASCII Standard -VERSION 2.0
WRAP.    NO : One line per depth step
DLM . SPACE : Column Data Section Delimiter
~Well ------------------------------------------------------
STRT .FT                142.0 : START DEPTH
STOP .FT              11881.0 : STOP DEPTH
STEP .FT                  0.5 : STEP
NULL .               -9999.25 : NULL VALUE
COMP .                        : COMPANY
WELL .                        : WELL
FLD  .                        : FIELD
LOC  .                        : LOCATION
PROV .                        : PROVINCE
CNTY .                        : COUNTY
STAT .                        : STATE
CTRY .                        : COUNTRY
SRVC .                        : SERVICE COMPANY
DATE .                        : DATE
UWI  .                        : UNIQUE WELL ID
API  .                        : API NUMBER
SLAT .WGS84 1.615166021112799 : SURFACE LATITUDE
SLON .WGS84 6.740950753801002 : SURFACE LONGITUDE
DATUM.F                   nan : DEPTH DATUM ELEV
~Curve Information -----------------------------------------
DEPT   .FT    : 
DTCO   .US/F  : DELTA-T COMPRESSIONAL
DTSM   .US/F  : DELTA-T SHEAR
GRS    .GAPI  : GAMMA RAY FROM SONIC LOG
LLD    .OHMM  : LATEROLOG DEEP RESISTIVITY
LLS    .OHMM  : LATEROLOG SHALLOW RESISTIVITY
NPHI_LS.DEC   : NEUTRON POROSITY LIMESTONE
~Params ----------------------------------------------------
~Other -----------------------------------------------------
~ASCII -----------------------------------------------------
# ...
 10641.50000   90.67670  130.17440  205.69030   17.01740   19.43910    0.34310
 10642.00000   91.59460  133.95180  208.40580   20.27920   21.96470    0.31360
 10642.50000   89.53410  137.10880  206.99950   21.45290   23.48010    0.29580
 10643.00000   87.47350  137.24750  201.03980   20.93770   23.39380    0.29820
 10643.50000   87.46640  136.44620  193.71120   20.42260   22.21700    0.30210
 10644.00000   88.69210  135.72040  193.36490   19.21140   20.13270    0.32460
 10644.50000   88.91710  135.29810  193.82620   19.48110   20.65020    0.34610
 10645.00000   88.44860  134.63140  194.61770   20.46830   22.25280    0.35760
 10645.50000   88.80410  133.89650  194.49420   21.89830   23.85540    0.35770
 10646.00000   89.08880  132.32890  192.33520   23.99280   26.98350    0.33780
 10646.50000   87.74710  130.61980  191.17560   24.71410   27.93960    0.31800
 10647.00000   87.07710  129.87330  192.31860   24.86650   27.30380    0.30240
 10647.50000   88.14450  130.34790  200.31820   22.98370   26.55480    0.31770
 10648.00000   89.75410  131.69350  216.23980   21.10080   24.21380    0.33690
 10648.50000   91.36380  133.26620  239.58040   22.41740   24.66490    0.38930
 10649.00000   91.93050  134.21100  280.98170   24.61180   27.14120    0.38390
 10649.50000   92.50280  131.08210  296.54410   26.80610   29.11170    0.36080
 10650.00000   93.18040  127.76930  299.39870   27.77860   29.05910    0.32290
 10650.50000   92.48190  130.74060  299.26500   26.53160   29.00650    0.31970
 10651.00000   88.38860  135.12350  299.13140   26.28220   28.95400    0.34180
 10651.50000   82.23900  139.50630  298.99770   29.50640   31.86540    0.33400
 10652.00000   77.72850  137.65650  298.86400   35.09540   36.73530    0.30220
 10652.50000   75.01610  134.57560  259.00850   37.14310   38.64860    0.21380
 10653.00000   75.12030  132.18720  271.21900   35.33220   37.70980    0.24160
 10653.50000   76.31330  131.43460  298.24770   32.55660   33.34310    0.27460
 10654.00000   74.72230  129.95490  298.36730   32.00140   39.96540    0.28780
 10654.50000   71.93030  127.18080  265.47630   50.42560   56.52120    0.27070
 10655.00000   70.28820  122.86240  204.70420   68.84970   73.07700    0.23050
 10655.50000   69.80360  121.13270  164.23080   76.19450   81.18410    0.19430
 10656.00000   70.16040  121.41600  151.93580   61.31330   72.21010    0.18000
 10656.50000   71.14810  123.10100  164.83000   42.71190   51.02080    0.21110
 10657.00000   71.93000  125.65610  201.49230   24.11050   29.83150    0.25720
 10657.50000   69.01620  132.69520  224.82800   15.92390   17.11790    0.29500
 10658.00000   66.57360  139.53320  235.45490   16.84390   19.53450    0.29440
 10658.50000   77.48760  148.37880  225.67950   19.76580   23.20900    0.27910
 10659.00000   86.15900  151.08330  207.78130   22.68770   26.88350    0.26040
 10659.50000   83.62250  150.22090  189.38340   23.85650   27.04950    0.25320
 10660.00000   80.39700  148.78030  172.54920   20.30210   25.22510    0.27060
 10660.50000   80.35010  147.07120  169.35100   18.59890   21.07900    0.28990
 10661.00000   81.11160  144.95950  184.52250   21.17030   22.55800    0.28250
 10661.50000   81.63210  142.93440  207.44540   27.74410  129.05410    0.26460
 10662.00000   81.14540  139.65060  241.11540   91.04760  235.55010    0.24680
 10662.50000   79.28800  133.18900  282.09890  168.53360  342.04610    0.22890
 10663.00000   75.71780  128.75420  299.30780  330.88860  448.54220    0.22070
 10663.50000   72.68850  126.49250  299.89190  484.43480  542.82920    0.21780
 10664.00000   70.56000  125.31550  299.96520  581.91490  604.90070    0.21380
 10664.50000   69.41630  125.22390  291.29390  562.61590  600.33330    0.20770
 10665.00000   69.10380  125.13230  256.45100  483.49110  539.61170    0.20030
 10665.50000   70.23670  126.00420  218.27820  404.12990  464.32730    0.19820
 10666.00000   71.56920  127.32220  188.87320  323.82270  367.19870    0.20020
 10666.50000   72.77620  128.73840  174.02120  243.51550  270.07020    0.21540
 10667.00000   73.07860  131.17340  170.40480  163.20840  172.94160    0.22880
 10667.50000   75.67880  132.64260  174.20630   97.89130  119.30100    0.23930
 10668.00000   79.13710  134.59690  184.90710   92.53440  100.33430    0.24570
 10668.50000   79.89420  134.68230  195.22580  103.60040  171.09560    0.24800
 10669.00000   77.63120  132.26060  203.87590  157.28000  271.71220    0.24240
 10669.50000   75.29580  129.36410  216.64810  244.17040  372.32880    0.23570
 10670.00000   73.69490  127.69440  226.80030  421.89580  472.94540    0.22470
 10670.50000   73.17940  126.65450  240.79120  531.74920  573.56200    0.20850
 10671.00000   73.38910  126.29400  248.13490  465.23510  527.06570    0.19820
 10671.50000   73.21630  125.93350  243.76890  285.46510  402.15850    0.19280
 10672.00000   73.03750  125.52210  239.37820  264.28380  297.43870    0.19470
 10672.50000   72.36880  124.53830  231.52740  237.81580  273.46860    0.19330
 10673.00000   71.27870  123.10420  207.97500  226.68750  262.24440    0.19100
 10673.50000   70.88860  121.38370  182.76190  232.30910  262.24440    0.18880
 10674.00000   69.57630  120.02900  166.07790  237.12640  262.13750    0.18880
 10674.50000   67.23310  117.22990  150.28680  295.36510  342.84470    0.17440
 10675.00000   65.28540  114.40050  137.19670  382.61680  477.38820    0.14830
 10675.50000   63.50950  112.71770  122.41190  506.92010  611.93170    0.11600
 10676.00000   63.25020  111.25350  131.48420  588.97790  696.85910    0.09670
 10676.50000   64.40350  110.29230  190.06750  420.44030  570.68640    0.11790
 10677.00000   67.09710  111.90070  254.77780  251.90280  360.49370    0.15270
 10677.50000   70.81320  115.72280  299.31600  143.96290  199.31100    0.18760
 10678.00000   74.88250  121.80020  299.89040   67.60190  111.64350    0.22250
 10678.50000   79.01670  128.15860  299.84130   43.11630   56.69430    0.25430
 10679.00000   82.99150  140.44550  299.79210   36.65970   50.82270    0.28400
 10679.50000   86.01370  143.76720  299.74300   33.24570   48.40320    0.29640
 10680.00000   85.98110  146.70560  299.69380   36.96370   52.46910    0.28580
 10680.50000   83.90480  145.20590  299.64460   44.76290   56.53490    0.24520
 10681.00000   80.83550  139.20690  299.59550   58.29900   79.45010    0.20220
 10681.50000   77.71460  123.38260  299.54630   99.02190  129.49120    0.15550
 10682.00000   75.25720  116.92990  299.49710  212.58140  288.03600    0.12750
 10682.50000   74.72410  117.53110  299.44800  326.14090  446.58090    0.14000
 10683.00000   77.01110  119.52060  299.39880  430.26990  565.08890    0.15940
 10683.50000   79.42000  121.51000  299.34970  303.03760  476.07110    0.17900
 10684.00000   79.69310  123.49950  299.30050  170.00230  279.22020    0.19130
 10684.50000   79.08160  125.22440  299.25130   81.00430  125.18030    0.19490
 10685.00000   78.40020  124.94050  299.20220   67.44280   87.15300    0.19530
 10685.50000   78.40380  123.99640  299.15300   61.59770   81.90340    0.18750
 10686.00000   78.36920  123.92560  299.10380   60.10890   80.41650    0.17190
 10686.50000   78.16360  124.32600  223.06740   59.38170   78.17950    0.16880
 10687.00000   78.12690  124.75900  174.15450   59.09870   75.94250    0.17410
 10687.50000   78.38970  123.96740  155.28380   61.10140   77.84800    0.18470
 10688.00000   78.03630  122.83530  151.75370  104.24810  131.48690    0.19100
 10688.50000   75.97010  120.83310  135.02170  152.11690  185.12570    0.17990
 10689.00000   73.25660  117.52590  118.50810  199.98580  238.76460    0.16220
 10689.50000   71.39610  113.95770  108.06510  231.51210  277.41950    0.13330
 10690.00000   71.10650  112.06160   98.88710  238.34610  271.22560    0.12210
 10690.50000   71.85000  112.03140  103.53760  211.69800  231.49580    0.12910
 10691.00000   74.12810  113.04430  114.88500  185.04990  191.76610    0.14850
 10691.50000   76.59080  116.31100  120.31980  158.40180  169.22220    0.17270
 10692.00000   77.40350  118.70810  117.21790  147.74250  146.95300    0.18300
