~Version ---------------------------------------------------
VERS.   2.0 : CWLS log ASCII Standard -VERSION 2.0
WRAP.    NO : One line per depth step
DLM . SPACE : Column Data Section Delimiter
~Well ------------------------------------------------------
STRT .FT                142.0 : START DEPTH
STOP .FT              11881.0 : STOP DEPTH
STEP .FT                  0.5 : STEP
NULL .               -9999.25 : NULL VALUE
COMP .                        : COMPANY
WELL .                        : WELL
FLD  .                        : FIELD
LOC  .                        : LOCATION
PROV .                        : PROVINCE
CNTY .                        : COUNTY
STAT .                        : STATE
CTRY .                        : COUNTRY
SRVC .                        : SERVICE COMPANY
DATE .                        : DATE
UWI  .                        : UNIQUE WELL ID
API  .                        : API NUMBER
SLAT .WGS84 1.615166021112799 : SURFACE LATITUDE
SLON .WGS84 6.740950753801002 : SURFACE LONGITUDE
DATUM.F                   nan : DEPTH DATUM ELEV
~Curve Information -----------------------------------------
DEPT   .FT    : 
DTCO   .US/F  : DELTA-T COMPRESSIONAL
DTSM   .US/F  : DELTA-T SHEAR
GRS    .GAPI  : GAMMA RAY FROM SONIC LOG
LLD    .OHMM  : LATEROLOG DEEP RESISTIVITY
LLS    .OHMM  : LATEROLOG SHALLOW RESISTIVITY
NPHI_LS.DEC   : NEUTRON POROSITY LIMESTONE
~Params ----------------------------------------------------
~Other -----------------------------------------------------
~ASCII -----------------------------------------------------
# ...
 11201.00000   49.58670   89.19840   10.71850  762.15450  851.57790    0.01310
 11201.50000   49.81330   88.62760    9.96840  820.71490  856.83600    0.01120
 11202.00000   50.09650   88.05670    8.74350  705.47510  774.44730    0.00930
 11202.50000   49.71820   87.65720    7.85940  590.23530  664.84810    0.00880
 11203.00000   49.03680   87.50090    7.46410  474.99550  555.24900    0.00960
 11203.50000   48.81890   87.31960    7.85020  433.61530  470.05040    0.01160
 11204.00000   48.81700   87.78770    8.50830  387.34450  421.45240    0.01260
 11204.50000   49.22840   88.27010    9.14060  366.57280  399.54620    0.01360
 11205.00000   49.75960   88.49240    9.50920  394.10480  433.30430    0.01460
 11205.50000   50.62020   88.46070    9.66180  531.76500  602.09470    0.01500
 11206.00000   51.42730   88.42900    9.56160  669.42520  770.88510    0.01370
 11206.50000   51.73060   88.39720   10.47620  807.08540  939.67540    0.01100
 11207.00000   50.37600   88.36550   12.31250  906.25540  969.02870    0.00920
 11207.50000   48.81970   88.33380   14.30110  906.25540  981.03220    0.00860
 11208.00000   48.84100   88.75850   14.93730  791.67690  885.72200    0.00900
 11208.50000   48.89020   89.54260   14.14100  648.45370  726.87170    0.00940
 11209.00000   49.58550   90.32250   12.92320  505.23060  568.02140    0.01170
 11209.50000   50.63540   90.89130   11.61150  362.00740  409.17100    0.01520
 11210.00000   51.29890   90.99210    9.90330  218.78430  250.32070    0.01660
 11210.50000   51.66490   90.76270    8.42540  219.50290  240.50810    0.01720
 11211.00000   51.70380   90.38220    8.57480  253.65970  269.02720    0.01760
 11211.50000   50.95630   90.07730    9.25920  308.31850  338.85170    0.01620
 11212.00000   50.29390   90.07450   10.26260  362.97730  408.67630    0.01510
 11212.50000   50.25510   90.19920    9.79690  390.96180  427.94250    0.01410
 11213.00000   50.61800   90.35550    9.57160  316.17500  346.72280    0.01470
 11213.50000   51.43960   90.51180    9.96020  241.38820  265.50320    0.01570
 11214.00000   52.34890   90.66800   11.17140  166.60140  184.28350    0.01670
 11214.50000   53.29470   91.22590   12.58300  136.07890  144.10060    0.01970
 11215.00000   53.39290   91.29630   12.80410  128.56570  144.12260    0.02330
 11215.50000   52.53100   91.30390   12.26700  135.76610  153.18290    0.02640
 11216.00000   52.30310   91.53220   11.98660  146.02440  164.50430    0.02680
 11216.50000   52.77130   91.54440   11.34380  150.80710  171.31270    0.02420
 11217.00000   52.54680   91.55170   11.18660  151.16290  166.72230    0.02160
 11217.50000   51.56970   91.65950   11.60030  151.51880  162.13540    0.02140
 11218.00000   50.89170   91.85470   12.35980  153.42200  166.25210    0.02170
 11218.50000   50.42340   92.33600   13.71550  219.53720  190.70510    0.02190
 11219.00000   50.89660   92.52710   16.16570  299.79590  241.56410    0.01920
 11219.50000   50.76790   92.38560   17.81390  380.05470  311.82300    0.01670
 11220.00000   49.69230   92.03590   16.39680  411.07890  393.74050    0.01410
 11220.50000   49.16500   91.63250   13.89400  373.39870  350.12730    0.01310
 11221.00000   49.94290   91.39120   11.60370  303.48850  292.55220    0.01420
 11221.50000   50.32940   91.22740   10.83810  249.89560  234.97710    0.01520
 11222.00000   50.14450   91.22990   11.10550  236.98400  228.84890    0.01610
 11222.50000   50.33920   91.38750   11.37520  232.22630  225.19760    0.01690
 11223.00000   50.63690   91.54510   10.69760  229.48280  222.36980    0.01720
 11223.50000   50.60710   91.70780   10.21850  224.86630  214.93010    0.01740
 11224.00000   51.15320   91.89010   10.88490  213.62960  207.49030    0.01770
 11224.50000   51.51670   92.38480   11.78530  220.33210  201.18590    0.01790
 11225.00000   51.34430   92.65160   12.37910  233.54990  211.40410    0.01800
 11225.50000   52.42320   92.84670   12.18290  246.76780  238.42110    0.01840
 11226.00000   54.08360   93.23100   11.03380  249.46760  238.48420    0.01740
 11226.50000   54.29600   93.48180    9.81800  230.88270  227.04540    0.01740
 11227.00000   54.30450   93.90580    9.23910  212.29770  215.59760    0.01780
 11227.50000   53.93700   94.70130    8.81740  205.92100  211.93050    0.01820
 11228.00000   51.61370   94.83910    8.82630  218.20110  216.36850    0.01850
 11228.50000   49.75670   94.97700    9.23020  248.82280  247.81060    0.01850
 11229.00000   49.15900   94.81890    9.54690  279.44440  269.24270    0.01790
 11229.50000   48.35610   94.03200    9.66180  273.51440  258.17780    0.01770
 11230.00000   46.66870   92.46700   10.41660  247.65440  232.20560    0.01970
 11230.50000   45.88940   90.90190   11.80450  221.79430  211.07170    0.02050
 11231.00000   47.52860   93.02880   13.01150  204.32980  198.28480    0.02230
 11231.50000   49.39720   94.55920   12.81500  193.91310  192.72310    0.02350
 11232.00000   49.59060   95.58920   11.54730  204.67270  197.52550    0.02210
 11232.50000   48.68870   95.53570   10.53250  214.28650  215.29300    0.02050
 11233.00000   49.00670   95.29030   11.17140  195.91960  202.50000    0.01990
 11233.50000   49.97710   95.04980   12.37920  177.55270  186.50860    0.02080
 11234.00000   50.83200   95.54640   13.32580  159.18580  167.70130    0.02320
 11234.50000   50.42110   95.96540   14.38490  140.81900  147.01670    0.02560
 11235.00000   49.56940   96.28300   15.09150  146.72150  147.42890    0.02750
 11235.50000   49.87170   97.21970   15.89860  161.47780  154.00120    0.02640
 11236.00000   50.27490   98.20930   15.12950  176.23410  164.47230    0.02420
 11236.50000   50.27490   98.63620   14.25400  189.19850  180.11210    0.02240
 11237.00000   50.12370   97.92270   13.15190  182.35320  180.11210    0.02110
 11237.50000   49.87170   97.20920   11.77530  175.50780  169.98920    0.02230
 11238.00000   50.02970   96.63000   11.44530  168.66250  159.29580    0.02380
 11238.50000   50.67660   96.10990   12.08780  157.44170  144.64550    0.02620
 11239.00000   51.30200   95.93830   14.76930  141.02210  129.99530    0.02860
 11239.50000   51.34480   96.46640   17.01380  124.60260  121.88380    0.03090
 11240.00000   52.17650   97.87510   17.21590  120.53470  113.77230    0.03360
 11240.50000   53.10870   99.04550   14.20390  116.46690  108.76890    0.03890
 11241.00000   53.92850   97.22960   12.25070  109.11130  105.45760    0.04030
 11241.50000   54.25700   93.38120   11.18320   98.20810   95.98070    0.04050
 11242.00000   53.94260   91.85530   11.42850   87.30480   84.94340    0.04370
 11242.50000   54.05800   92.13320   11.81080   76.40150   75.18240    0.04890
 11243.00000   54.91710   93.36800   12.24490   75.00430   71.57170    0.05420
 11243.50000   55.15850   94.76560   12.31780   78.58240   74.00700    0.05760
 11244.00000   54.73180   94.83160   12.64780   84.54600   79.51720    0.05500
 11244.50000   54.54050   94.26440   13.05210   90.42250   85.02740    0.05290
 11245.00000   53.52190   94.04320   13.06820   90.42250   87.68340    0.04660
 11245.50000   51.93530   94.07480   13.08440   87.80100   82.82030    0.03860
 11246.00000   51.95370   94.84220   13.10050   79.85160   74.71500    0.03870
 11246.50000   52.85460   94.64130   13.75660   71.90210   66.60970    0.04470
 11247.00000   52.51720   93.11980   14.04680   63.95270   60.93660    0.05490
 11247.50000   52.62590   91.70630   13.78910   62.36280   58.78110    0.06510
 11248.00000   54.35620   91.51150   13.23180   61.78990   58.78110    0.06990
 11248.50000   55.92570   91.50790   12.40910   62.94100   58.78110    0.07100
 11249.00000   56.09500   92.03190   11.81290   65.75460   61.05740    0.06880
 11249.50000   55.71930   92.71910   11.32530   68.56810   64.85120    0.06610
 11250.00000   55.03900   93.40620   11.77050   71.38170   68.64490    0.06150
 11250.50000   54.07350   93.26580   12.52940   73.63260   69.40370    0.05410
 11251.00000   53.94110   93.63870   13.97970   70.53000   65.40990    0.04660
 11251.50000   55.31300   94.15270   14.09330   65.35910   61.41610    0.05060
