~Version ---------------------------------------------------
VERS.   2.0 : CWLS log ASCII Standard -VERSION 2.0
WRAP.    NO : One line per depth step
DLM . SPACE : Column Data Section Delimiter
~Well ------------------------------------------------------
STRT .FT                142.0 : START DEPTH
STOP .FT              11881.0 : STOP DEPTH
STEP .FT                  0.5 : STEP
NULL .               -9999.25 : NULL VALUE
COMP .                        : COMPANY
WELL .                        : WELL
FLD  .                        : FIELD
LOC  .                        : LOCATION
PROV .                        : PROVINCE
CNTY .                        : COUNTY
STAT .                        : STATE
CTRY .                        : COUNTRY
SRVC .                        : SERVICE COMPANY
DATE .                        : DATE
UWI  .                        : UNIQUE WELL ID
API  .                        : API NUMBER
SLAT .WGS84 1.615166021112799 : SURFACE LATITUDE
SLON .WGS84 6.740950753801002 : SURFACE LONGITUDE
DATUM.F                   nan : DEPTH DATUM ELEV
~Curve Information -----------------------------------------
DEPT   .FT    : 
DTCO   .US/F  : DELTA-T COMPRESSIONAL
DTSM   .US/F  : DELTA-T SHEAR
GRS    .GAPI  : GAMMA RAY FROM SONIC LOG
LLD    .OHMM  : LATEROLOG DEEP RESISTIVITY
LLS    .OHMM  : LATEROLOG SHALLOW RESISTIVITY
NPHI_LS.DEC   : NEUTRON POROSITY LIMESTONE
~Params ----------------------------------------------------
~Other -----------------------------------------------------
~ASCII -----------------------------------------------------
# ...
 11557.00000   55.70770   87.49440   20.32630 2952.44270 1974.68220    0.01520
 11557.50000   54.87830   86.63530   18.35280 4104.99450 1978.56160    0.01410
 11558.00000   54.57050   86.20520   17.58150 4708.97110 1982.44090    0.01380
 11558.50000   54.53420   86.33960   16.95190 4428.55270 1986.32030    0.01360
 11559.00000   53.92950   86.60840   16.73010 3721.50200 1990.19960    0.01340
 11559.50000   54.26210   86.85270   16.72830 3068.52190 1994.07900    0.01340
 11560.00000   54.48230   87.09710   16.21500 2415.54180 1929.43310    0.01420
 11560.50000   53.81000   87.28030   15.81990 2023.75370 1590.68630    0.01460
 11561.00000   53.05130   87.14590   16.15330 1777.31700 1657.43000    0.01720
 11561.50000   53.27470   86.55310   15.49410 1939.07470 1785.96060    0.01700
 11562.00000   53.52830   85.96020   14.90980 2003.78230 2021.87710    0.01630
 11562.50000   53.43070   85.36740   14.24110 3529.36670 2903.92070    0.01570
 11563.00000   53.32480   85.13020   14.12930 3796.09860 3013.06640    0.01560
 11563.50000   53.68850   85.13020   14.54300 3504.51640 2685.94170    0.01560
 11564.00000   54.03190   85.33180   15.04620 3057.33210 2323.07000    0.01540
 11564.50000   54.16060   85.68690   15.00220 2723.48130 2007.92560    0.01560
 11565.00000   54.04040   85.73490   14.38890 2690.18970 1995.61570    0.01560
 11565.50000   53.89010   85.78290   13.40330 2782.89880 2133.06410    0.01560
 11566.00000   53.71480   85.80210   12.96040 3098.90640 2256.78500    0.01570
 11566.50000   53.53950   86.60340   14.01930 2556.70770 2124.10220    0.01570
 11567.00000   53.39930   87.49100   17.41130 1995.39660 1995.61570    0.01650
 11567.50000   53.72800   88.91540   22.49390 1301.31830  839.27500    0.01930
 11568.00000   54.47000   90.97930   27.06420  715.71720  609.11250    0.02130
 11568.50000   55.93310   92.86760   31.61040  534.77970  547.69330    0.02360
 11569.00000   57.16940   93.59860   34.77270  470.96330  486.27410    0.02710
 11569.50000   57.18860   94.34430   37.09230  466.64390  448.73520    0.02940
 11570.00000   56.44450   94.08900   36.52520  459.65990  446.67230    0.02770
 11570.50000   56.14680   93.71330   34.52040  461.58460  497.41750    0.02610
 11571.00000   56.64940   92.93330   32.29770  541.07860  548.16270    0.02450
 11571.50000   56.53020   91.80250   30.64160  792.57570  598.90790    0.02350
 11572.00000   55.94270   90.62310   27.79590 1219.68870  832.90910    0.02190
 11572.50000   55.25340   89.44360   22.94680 1646.80180 1213.78510    0.02000
 11573.00000   54.28890   88.26410   20.01940 1988.49230 1693.47690    0.01810
 11573.50000   53.08980   87.31340   18.24300 2720.07100 2005.80820    0.01620
 11574.00000   51.00060   86.63150   18.12370 3050.29910 2281.78740    0.01580
 11574.50000   48.95600   85.94960   17.33750 3057.40040 2295.87410    0.01900
 11575.00000   49.06940   85.70710   16.15330 3075.10440 2257.88810    0.02000
 11575.50000   50.64990   86.94620   15.83420 3012.34830 2162.91250    0.02000
 11576.00000   51.44100   87.90320   16.21750 2689.00390 2067.93690    0.02000
 11576.50000   49.77550   87.32990   17.18200 2129.30550 1466.05050    0.02000
 11577.00000   48.58390   87.28940   21.13520 1079.46520  803.46900    0.02230
 11577.50000   50.56690   88.94520   26.17740  798.15750  516.06130    0.02740
 11578.00000   52.03450   91.82020   32.77100  489.83230  434.07090    0.03260
 11578.50000   52.23100   94.13370   37.67730  385.16260  365.28020    0.03460
 11579.00000   52.51500   95.31320   40.11160  337.67240  313.71500    0.03620
 11579.50000   52.74380   96.14940   40.98560  306.36050  296.86710    0.03700
 11580.00000   52.70480   94.85040   39.91440  309.25790  302.45850    0.03580
 11580.50000   53.23940   93.17630   36.18940  450.34630  362.71950    0.03040
 11581.00000   52.65220   91.11880   27.86980  591.43460  482.56670    0.02470
 11581.50000   51.41690   89.06120   19.08750  732.52300  642.13790    0.02010
 11582.00000   51.42210   87.00370   10.80890  861.12640  757.95630    0.02140
 11582.50000   52.15640   85.70700    7.24630  846.82600  787.24120    0.02400
 11583.00000   52.59190   85.70700    7.14390  735.69090  702.52840    0.02670
 11583.50000   52.54370   85.86210    7.90300  640.83470  617.81550    0.02900
 11584.00000   52.55980   85.90090    8.46590  693.79660  572.35900    0.02960
 11584.50000   52.24640   86.24810    9.81270  756.49100  580.29460    0.02880
 11585.00000   52.24640   86.21280   11.69980 1125.78560  778.06690    0.02490
 11585.50000   52.28820   85.98940   13.13400 1705.93450 1114.24930    0.02300
 11586.00000   51.52030   85.76610   14.14500 2183.09150 1450.43160    0.02100
 11586.50000   50.83540   85.66160   13.80370 3117.86620 2193.72800    0.01910
 11587.00000   51.22850   85.44160   13.32530 3581.39600 2527.86630    0.01820
 11587.50000   52.20300   85.24950   12.97690 3584.17690 2451.92780    0.01770
 11588.00000   52.79450   84.92010   14.14550 3009.59420 2014.12550    0.01750
 11588.50000   51.23640   84.72120   14.50130 2318.68550 1793.67090    0.01890
 11589.00000   50.52700   85.22470   15.87550 2005.10710 1415.36630    0.02160
 11589.50000   51.38250   86.60630   17.16690 1518.23450 1078.75740    0.02380
 11590.00000   51.50810   88.21570   20.49190 1124.65330  908.93170    0.02880
 11590.50000   51.96880   90.50000   25.36220  911.87440  739.10590    0.03390
 11591.00000   52.91880   92.78420   29.63450  729.04470  569.28010    0.03550
 11591.50000   54.29780   94.69170   31.82350  591.13870  491.73120    0.03560
 11592.00000   55.59520   95.72210   33.27000  494.25640  459.03750    0.03510
 11592.50000   55.96680   96.17110   34.26440  458.90980  456.91350    0.03540
 11593.00000   56.37540   96.39300   33.66530  422.01990  447.86410    0.03540
 11593.50000   57.52860   96.52990   33.03770  398.71370  415.74970    0.03410
 11594.00000   58.32470   96.60700   32.44580  375.40750  375.87250    0.03320
 11594.50000   57.84390   95.59490   32.77160  356.76160  339.64870    0.03360
 11595.00000   57.20000   94.36070   33.39060  358.22100  355.25370    0.03390
 11595.50000   57.05730   93.07500   33.36340  365.63800  383.76990    0.03390
 11596.00000   56.44390   91.74650   27.49250  386.40180  412.28610    0.03130
 11596.50000   55.80280   90.19830   21.87490  422.82900  424.99070    0.02860
 11597.00000   56.13020   88.65010   17.66290  446.69570  436.89050    0.02410
 11597.50000   56.28540   88.03610   17.10420  552.14810  521.41950    0.02110
 11598.00000   56.09650   87.71240   17.86790  869.05380  838.90950    0.01690
 11598.50000   55.55910   87.33980   18.04070 1326.92830 1242.37450    0.01500
 11599.00000   55.11310   87.26560   17.36100 1784.80290 2003.26800    0.01450
 11599.50000   54.80250   87.19140   16.75720 2636.05520 2448.12480    0.01410
 11600.00000   54.49940   87.23820   16.53400 3118.63430 2901.06070    0.01360
 11600.50000   54.03680   87.46670   15.84560 3155.49350 3025.86270    0.01350
 11601.00000   53.44470   87.74500   15.37130 3023.23260 2834.11220    0.01340
 11601.50000   53.26850   87.66650   14.97910 2890.97170 2704.77880    0.01420
 11602.00000   53.64110   87.17060   15.07740 2686.12090 2558.84010    0.01480
 11602.50000   53.58910   86.62700   16.78200 2372.38520 2204.67680    0.01520
 11603.00000   53.32780   86.24690   19.11620 2058.64950 1992.17890    0.01570
 11603.50000   53.99280   85.91460   20.74970 1972.10270 2016.54050    0.01500
 11604.00000   55.01280   86.23260   20.94130 1832.24590 1910.22830    0.01420
 11604.50000   54.85580   86.31190   20.63130 1847.95920 1898.97330    0.01350
 11605.00000   54.10250   86.39120   20.42540 1899.93410 1982.88150    0.01440
 11605.50000   53.80400   86.34750   19.70980 1866.62570 1948.24820    0.01490
 11606.00000   54.45420   85.77980   18.40110 1813.30260 1842.70690    0.01550
 11606.50000   54.30520   85.12840   17.31270 1813.67430 1831.67800    0.01510
 11607.00000   54.13810   85.65830   18.24650 1780.94200 1788.26390    0.01760
 11607.50000   54.26620   87.68040   22.85600 1536.87920 1641.54630    0.02230
