~Version ---------------------------------------------------
VERS.   2.0 : CWLS log ASCII Standard -VERSION 2.0
WRAP.    NO : One line per depth step
DLM . SPACE : Column Data Section Delimiter
~Well ------------------------------------------------------
STRT .FT                142.0 : START DEPTH
STOP .FT              11881.0 : STOP DEPTH
STEP .FT                  0.5 : STEP
NULL .               -9999.25 : NULL VALUE
COMP .                        : COMPANY
WELL .                        : WELL
FLD  .                        : FIELD
LOC  .                        : LOCATION
PROV .                        : PROVINCE
CNTY .                        : COUNTY
STAT .                        : STATE
CTRY .                        : COUNTRY
SRVC .                        : SERVICE COMPANY
DATE .                        : DATE
UWI  .                        : UNIQUE WELL ID
API  .                        : API NUMBER
SLAT .WGS84 1.615166021112799 : SURFACE LATITUDE
SLON .WGS84 6.740950753801002 : SURFACE LONGITUDE
DATUM.F                   nan : DEPTH DATUM ELEV
~Curve Information -----------------------------------------
DEPT   .FT    : 
DTCO   .US/F  : DELTA-T COMPRESSIONAL
DTSM   .US/F  : DELTA-T SHEAR
GRS    .GAPI  : GAMMA RAY FROM SONIC LOG
LLD    .OHMM  : LATEROLOG DEEP RESISTIVITY
LLS    .OHMM  : LATEROLOG SHALLOW RESISTIVITY
NPHI_LS.DEC   : NEUTRON POROSITY LIMESTONE
~Params ----------------------------------------------------
~Other -----------------------------------------------------
~ASCII -----------------------------------------------------
# ...
 10997.00000   47.34260   89.19050   15.63460 1041.64680 1355.27450    0.00860
 10997.50000   47.62500   89.72750   17.05910  990.64490 1297.30710    0.00860
 10998.00000   48.11360   89.46740   19.12360 1082.00680 1297.05370    0.01010
 10998.50000   47.74820   89.26620   19.17260 1321.51020 1533.35910    0.01050
 10999.00000   47.49210   89.47800   17.36110 1561.01360 1761.69150    0.00960
 10999.50000   47.30370   89.68990   16.22150 1560.70210 2038.09490    0.00960
 11000.00000   47.66380   89.80890   16.31540 1808.17870 2038.09490    0.00960
 11000.50000   47.52020   89.63280   17.39120 1988.62170 2037.87640    0.00960
 11001.00000   46.67300   89.10300   16.68800 1975.54700 2402.01140    0.00910
 11001.50000   46.50220   89.44880   15.93660 1845.99680 2212.48480    0.00820
 11002.00000   46.84020   89.67210   15.52210 1638.79630 2085.89510    0.00830
 11002.50000   47.27770   89.71160   16.14040 1709.46010 2111.80610    0.00910
 11003.00000   48.43340   89.64570   16.75720 1971.94460 2348.84970    0.00870
 11003.50000   48.74800   88.91880   15.17960 2314.76840 2795.01700    0.00830
 11004.00000   47.55960   88.91610   13.81220 2471.22720 2965.25910    0.00790
 11004.50000   47.11870   89.55500   13.32080 2349.45020 2831.53710    0.00740
 11005.00000   47.31230   89.68450   14.92010 2207.94080 2734.98870    0.00840
 11005.50000   47.39870   89.64890   16.78740 2367.27030 2715.77400    0.00920
 11006.00000   47.70770   89.67190   15.73800 2431.00850 2732.56390    0.00900
 11006.50000   47.34930   89.74710   14.34170 2237.82900 2783.50570    0.00870
 11007.00000   46.85530   89.77670   14.48210 1996.35080 2152.41540    0.00830
 11007.50000   46.23980   89.83740   16.75720 1108.72570 1513.51890    0.00790
 11008.00000   46.40090   89.91900   19.61630  991.36980 1119.27410    0.00860
 11008.50000   47.13050   89.98420   21.14120  956.22120 1217.15180    0.00910
 11009.00000   46.81490   90.18400   19.81630 1479.25830 1601.25410    0.00910
 11009.50000   46.04810   90.38730   17.50240 2002.24190 1985.35640    0.00870
 11010.00000   46.49380   90.33740   16.53340 2851.24010 3364.84310    0.00820
 11010.50000   47.43900   89.76580   15.95200 3479.32260 4548.09170    0.00780
 11011.00000   47.97970   89.64120   15.75080 3717.61660 4632.86100    0.00750
 11011.50000   47.27260   89.57650   14.74430 3286.41980 4204.67090    0.00720
 11012.00000   46.40580   89.53680   14.10120 1923.96270 2989.92040    0.00720
 11012.50000   46.15530   89.64430   15.06580 1428.80030 2018.12010    0.00750
 11013.00000   45.98580   89.84230   18.38670  451.52940  731.81510    0.00790
 11013.50000   45.75570   90.75770   23.33810  355.16110  419.41480    0.00870
 11014.00000   45.98390   91.40650   28.20000  516.73190  677.69700    0.01030
 11014.50000   46.29860   91.92310   28.74380 1335.48850 1367.71420    0.01110
 11015.00000   46.68300   91.72390   24.66300 1990.49390 1890.44340    0.00930
 11015.50000   46.70990   90.81690   20.30140 1990.49390 2662.24340    0.00780
 11016.00000   46.73690   90.49090   16.87040 1681.90180 2124.26820    0.00680
 11016.50000   47.20430   89.72160   15.63570 1167.58170 1271.30220    0.00580
 11017.00000   46.93470   89.46630   16.30430  653.26150  812.61020    0.00660
 11017.50000   47.06570   89.97950   18.08990  577.58710  712.05360    0.00720
 11018.00000   47.53420   90.38740   18.25180  755.50400  923.55640    0.00790
 11018.50000   48.09160   90.38740   18.50340 1172.34120 1187.93480    0.00790
 11019.00000   48.28810   90.37210   18.18800 1209.35290 1355.28230    0.00800
 11019.50000   48.15230   90.35680   18.23310 1254.46800 1382.12040    0.00800
 11020.00000   47.69430   90.34160   18.74500 1325.03180 1394.80880    0.00810
 11020.50000   47.55320   90.32630   19.27830 1375.79980 1526.95560    0.00810
 11021.00000   47.11690   90.31100   18.97140 1725.46440 1835.73440    0.00820
 11021.50000   47.19250   90.29580   17.73140 1938.91430 2266.02000    0.00780
 11022.00000   47.63770   90.28660   16.55590 1960.78860 2425.22410    0.00780
 11022.50000   48.00880   89.68690   15.17200 1874.26900 2034.58690    0.00790
 11023.00000   47.91910   89.78870   14.07580 1474.02320 1717.20360    0.00800
 11023.50000   47.54510   90.18950   14.40720 1073.77740 1309.99390    0.00810
 11024.00000   48.00450   90.58890   16.57270  673.53160  902.78420    0.00820
 11024.50000   48.63880   90.58890   20.38040  759.10710  852.23700    0.00830
 11025.00000   48.35870   90.46090   22.65090  894.80900 1063.93270    0.00850
 11025.50000   47.98600   90.32460   21.18500 1370.03800 1540.06590    0.00860
 11026.00000   47.98680   90.18830   18.02420 1930.14860 1920.97240    0.00870
 11026.50000   48.06530   90.05200   15.26070 2272.71400 2626.04430    0.00880
 11027.00000   48.07440   89.91570   14.14040 2659.97150 2944.87350    0.00900
 11027.50000   47.65580   89.77950   13.50050 2875.00380 3359.44130    0.00900
 11028.00000   47.12160   89.69800   12.92970 3178.85260 3774.00910    0.00910
 11028.50000   46.82620   89.79990   12.74020 3421.93160 3963.83660    0.00910
 11029.00000   46.87480   89.91450   12.76160 3024.52210 3987.41980    0.00910
 11029.50000   47.07110   90.05760   12.28860 2493.73550 3205.30490    0.00910
 11030.00000   46.93990   90.20070   11.85080 1962.94890 2423.19000    0.00880
 11030.50000   46.88550   90.38740   11.07960 1335.35530 1953.92100    0.00960
 11031.00000   47.01160   90.48820   10.59770  967.91430 1129.01890    0.01100
 11031.50000   47.15980   90.48700   10.11470 1043.60760 1300.17640    0.01130
 11032.00000   47.65820   90.48090    9.85590 1452.56640 1728.47320    0.01130
 11032.50000   47.84600   90.47490    9.51080 1861.52520 1985.45120    0.01130
 11033.00000   47.40870   90.66700    9.94310 2025.35120 2307.35380    0.01090
 11033.50000   47.07620   91.15610   10.06680 2025.75520 2372.17470    0.01000
 11034.00000   46.74860   91.64520   10.19600 2026.15930 2323.27920    0.01030
 11034.50000   46.86680   92.13430    9.89330 2026.40170 2303.71560    0.01060
 11035.00000   46.67300   92.40930   10.03420 2429.17630 2680.82810    0.01080
 11035.50000   46.68130   92.32810   10.71850 2705.69140 3108.76080    0.01070
 11036.00000   46.87840   92.32540   11.35940 2722.38270 2983.81210    0.01040
 11036.50000   46.65020   92.09350   11.37000 2267.91120 2607.96570    0.00970
 11037.00000   46.51520   91.92640   11.92620 2184.02720 2307.28700    0.00950
 11037.50000   46.84720   91.70390   13.62460 2139.84340 2307.27890    0.00980
 11038.00000   46.62040   91.68440   14.64360 2202.01920 2133.11650    0.01010
 11038.50000   46.65110   91.76150   12.97410 2176.79650 2273.88010    0.00980
 11039.00000   46.57220   91.83100   11.13210 2058.92240 2372.06270    0.00970
 11039.50000   46.19930   91.86250   10.12530 2008.98090 2247.65760    0.00940
 11040.00000   46.11370   91.89390    9.85750 1763.06450 2094.25150    0.01010
 11040.50000   46.71370   91.92540    9.51330 1784.65900 1820.12560    0.01060
 11041.00000   46.82740   91.81250    9.36360 1806.25340 1819.45770    0.01090
 11041.50000   46.80240   91.72380    8.92840 1841.84370 1910.81560    0.01090
 11042.00000   46.81420   91.77070    9.17110 1918.29050 1979.26970    0.01090
 11042.50000   47.04680   91.78630    8.92000 2006.64230 2006.40250    0.01060
 11043.00000   46.82180   91.72400    8.74560 2129.03750 1999.73990    0.01060
 11043.50000   46.70310   91.72500    8.30850 2036.68490 1989.05040    0.01060
 11044.00000   46.87430   91.80730    8.14720 2004.80400 1963.22020    0.01060
 11044.50000   46.87440   91.82650    7.69920 1837.32160 1876.82720    0.01030
 11045.00000   46.60230   91.79940    7.06760 1558.18420 1723.48450    0.01000
 11045.50000   46.63040   91.77220    6.21840 1278.73210 1469.71720    0.00970
 11046.00000   46.66780   91.79430    6.04060  998.02110 1215.94990    0.00990
 11046.50000   46.89150   91.95270    6.41630  824.52650  962.18260    0.00970
 11047.00000   47.11100   91.95440    6.89910  799.30060  865.86940    0.00970
 11047.50000   46.80390   92.01760    6.89910  810.06240  934.32590    0.00930
