~Version ---------------------------------------------------
VERS.   2.0 : CWLS log ASCII Standard -VERSION 2.0
WRAP.    NO : One line per depth step
DLM . SPACE : Column Data Section Delimiter
~Well ------------------------------------------------------
STRT .FT                142.0 : START DEPTH
STOP .FT              11881.0 : STOP DEPTH
STEP .FT                  0.5 : STEP
NULL .               -9999.25 : NULL VALUE
COMP .                        : COMPANY
WELL .                        : WELL
FLD  .                        : FIELD
LOC  .                        : LOCATION
PROV .                        : PROVINCE
CNTY .                        : COUNTY
STAT .                        : STATE
CTRY .                        : COUNTRY
SRVC .                        : SERVICE COMPANY
DATE .                        : DATE
UWI  .                        : UNIQUE WELL ID
API  .                        : API NUMBER
SLAT .WGS84 1.615166021112799 : SURFACE LATITUDE
SLON .WGS84 6.740950753801002 : SURFACE LONGITUDE
DATUM.F                   nan : DEPTH DATUM ELEV
~Curve Information -----------------------------------------
DEPT   .FT    : 
DTCO   .US/F  : DELTA-T COMPRESSIONAL
DTSM   .US/F  : DELTA-T SHEAR
GRS    .GAPI  : GAMMA RAY FROM SONIC LOG
LLD    .OHMM  : LATEROLOG DEEP RESISTIVITY
LLS    .OHMM  : LATEROLOG SHALLOW RESISTIVITY
NPHI_LS.DEC   : NEUTRON POROSITY LIMESTONE
~Params ----------------------------------------------------
~Other -----------------------------------------------------
~ASCII -----------------------------------------------------
# ...
 10743.50000  100.11300  147.56820   -9999.25   78.62070   82.26690    0.32660
 10744.00000  100.01220  147.88610   -9999.25   73.52020   77.36750    0.33240
 10744.50000   99.91140  148.20410   -9999.25   75.94530   78.32480    0.33820
 10745.00000  101.46000  148.52200   -9999.25   78.12280   82.59660    0.34390
 10745.50000  101.42940  149.46270   -9999.25   79.14930   83.00020    0.34970
 10746.00000   99.91770  150.27790   -9999.25   76.55270   78.15800    0.34740
 10746.50000   98.76810  150.99460   -9999.25   72.22540   72.97470    0.33850
 10747.00000   97.72400  151.71140   -9999.25   67.89820   68.82790    0.33440
 10747.50000   96.03300  152.28470   -9999.25   66.62020   69.17070    0.32880
 10748.00000   93.64400  151.89380   -9999.25   68.73970   70.89100    0.31250
 10748.50000   91.02390  151.40500   -9999.25   70.85940   72.61130    0.30220
 10749.00000   89.12820  148.49820   -9999.25   72.61070   74.09800    0.28870
 10749.50000   88.15760  147.50330   -9999.25   70.63100   73.20760    0.28180
 10750.00000   87.85570  148.73370   -9999.25   68.65130   70.98340    0.27710
 10750.50000   87.90330  149.55700   -9999.25   67.45380   70.11690    0.27240
 10751.00000   88.33840  150.24160   -9999.25   70.85440   70.13410    0.27290
 10751.50000   89.35660  151.82250   -9999.25   75.10270   77.76750    0.28180
 10752.00000   90.37490  153.20510   -9999.25   79.35090   84.39760    0.29060
 10752.50000   91.23740  153.65740   -9999.25   81.20950   84.93650    0.29640
 10753.00000   91.47670  154.89610   -9999.25   79.52670   81.87670    0.29740
 10753.50000   91.51660  156.42890   -9999.25   71.03810   75.46870    0.29830
 10754.00000   92.03300  157.47900   -9999.25   62.54950   67.27330    0.30760
 10754.50000   92.56930  158.18010   -9999.25   62.23990   64.84330    0.31620
 10755.00000   93.29290  158.46480   -9999.25   66.63340   69.97560    0.31870
 10755.50000   93.15120  158.18190   -9999.25   72.83790   80.77880    0.31490
 10756.00000   93.22560  158.07140   -9999.25   84.12220   91.58200    0.30840
 10756.50000   93.63880  158.15860   -9999.25   95.40650  102.38520    0.30320
 10757.00000   93.62160  158.24580   -9999.25  106.69080  114.35690    0.29280
 10757.50000   92.85990  158.10810   -9999.25  118.11990  128.08140    0.29160
 10758.00000   92.53520  158.03020   -9999.25  132.40210  141.80580    0.29830
 10758.50000   93.23570  158.50990   -9999.25  142.88590  153.66000    0.30820
 10759.00000   94.02170  158.64310   -9999.25  153.36970  162.70870    0.31050
 10759.50000   94.04340  158.31360   -9999.25  163.85350  171.75740    0.31100
 10760.00000   94.41770  157.96830   -9999.25  171.20520  180.80600    0.31180
 10760.50000   94.59430  157.64690   -9999.25  172.23690  186.22680    0.31340
 10761.00000   94.47430  157.02440   -9999.25  179.86470  188.49910    0.31560
 10761.50000   94.19610  156.33040   -9999.25  185.74300  191.78520    0.31530
 10762.00000   92.81850  155.98770   -9999.25  191.59640  195.90340    0.30530
 10762.50000   91.20010  155.64510   -9999.25  184.76430  191.91190    0.29620
 10763.00000   90.25920  155.80990   -9999.25  175.34920  182.24690    0.29920
 10763.50000   92.17840  155.71160   -9999.25  165.93410  172.58190    0.30940
 10764.00000   93.73180  155.72540   -9999.25  155.52890  162.91690    0.31050
 10764.50000   93.14030  156.53590   -9999.25  144.46360  153.25190    0.30540
 10765.00000   92.27800  156.81900   -9999.25  134.77320  143.58690    0.30200
 10765.50000   91.79680  156.55720   -9999.25  129.38670  137.88420    0.29600
 10766.00000   91.37980  156.65700   -9999.25  123.68980  132.18160    0.30110
 10766.50000   91.09380  156.80080   -9999.25  120.02740  126.47900    0.31240
 10767.00000   90.57160  157.28990   -9999.25  117.08390  124.90470    0.31800
 10767.50000   90.04340  157.56700   -9999.25  115.89420  126.62950    0.32350
 10768.00000   90.55170  157.80250   -9999.25  117.70630  128.35420    0.32350
 10768.50000   92.35180  157.80290   -9999.25  119.51840  130.07900    0.31530
 10769.00000   94.20870  157.61740   -9999.25  120.59810  130.76890    0.30720
 10769.50000   94.81410  157.61620   -9999.25  119.48250  130.73530    0.30230
 10770.00000   95.18820  158.19340   -9999.25  118.09430  130.70470    0.30420
 10770.50000   95.23790  158.59950   -9999.25  116.70620  130.64990    0.31020
 10771.00000   95.00280  158.22230   -9999.25  115.31810  128.75750    0.31650
 10771.50000   94.97930  158.25840   -9999.25  112.85590  125.64010    0.31280
 10772.00000   95.16490  158.45540   -9999.25  106.45980  121.03090    0.30710
 10772.50000   94.97860  158.27210   -9999.25   95.50060  108.00520    0.30130
 10773.00000   94.64450  158.38410   -9999.25   84.54140   98.07490    0.29600
 10773.50000   94.63900  158.49610   -9999.25   70.03210   80.40520    0.29870
 10774.00000   94.19760  158.60810   -9999.25   60.59290   68.14040    0.30460
 10774.50000   92.83250  158.77750   -9999.25   58.76600   65.64980    0.31220
 10775.00000   92.34890  158.87360   -9999.25   65.31280   71.22390    0.31680
 10775.50000   92.48820  158.76540   -9999.25   81.66860   86.91500    0.31200
 10776.00000   92.22680  158.22300   -9999.25   98.97780  108.76060    0.30150
 10776.50000   91.88920  157.76190   -9999.25  111.94450  125.46490    0.29680
 10777.00000   92.08880  157.30960   -9999.25  118.37080  133.27080    0.30030
 10777.50000   93.41650  156.34660   -9999.25  122.98580  141.07660    0.31300
 10778.00000   93.79140  155.79920   -9999.25  128.32950  148.88250    0.31920
 10778.50000   93.16000  156.90140   -9999.25  143.49430  156.68830    0.31870
 10779.00000   93.43730  158.49510   -9999.25  151.69130  176.16000    0.31800
 10779.50000   94.43240  158.85260   -9999.25  149.21340  170.91490    0.32190
 10780.00000   94.49610  158.80880   -9999.25  146.73550  166.72180    0.31880
 10780.50000   94.44260  158.46480   -9999.25  148.96560  168.31570    0.31350
 10781.00000   94.68060  157.82980   -9999.25  161.70280  177.39900    0.30830
 10781.50000   94.09850  158.04730   -9999.25  182.51840  203.97020    0.31490
 10782.00000   93.35690  158.40730   -9999.25  211.76510  256.77290    0.32500
 10782.50000   92.94800  158.55300   -9999.25  254.48810  279.61080    0.33510
 10783.00000   91.65960  158.49000   -9999.25  248.00630  260.05980    0.33240
 10783.50000   90.30070  158.30960   -9999.25  215.59730  228.81860    0.31710
 10784.00000   89.58940  158.05090   -9999.25  183.18840  193.04240    0.30480
 10784.50000   89.12600  157.79220   -9999.25  150.77940  157.26620    0.28680
 10785.00000   89.98230  158.25550   -9999.25  118.37050  121.49000    0.27790
 10785.50000   91.46660  158.82600   -9999.25   85.96150   92.11330    0.27970
 10786.00000   93.57470  158.34360   -9999.25   79.47970   76.29140    0.28850
 10786.50000   94.72220  157.13780   -9999.25   81.94500   80.55910    0.29910
 10787.00000   95.62710  156.04590   -9999.25   86.05380   84.82680    0.31240
 10787.50000   95.56870  155.06830   -9999.25   89.34080   85.68040    0.32040
 10788.00000   94.76550  154.85160   -9999.25   85.50820   80.39420    0.31540
 10788.50000   94.83720  155.03810   -9999.25   75.64760   71.58380    0.30240
 10789.00000   94.24750  152.24030   -9999.25   65.78700   62.77350    0.29610
 10789.50000   92.99820  148.41730   -9999.25   55.92650   53.96320    0.29450
 10790.00000   92.40490  145.87160   -9999.25   47.45040   47.48300    0.29300
 10790.50000   91.89000  144.95930   -9999.25   46.67790   44.49800    0.29160
 10791.00000   91.68850  144.45610   -9999.25   46.58210   43.43780    0.28970
 10791.50000   92.94320  143.79690   -9999.25   47.86040   45.21090    0.29340
 10792.00000   94.52050  143.09810   -9999.25   49.99090   48.04680    0.29850
 10792.50000   96.71320  142.50460   -9999.25   53.62440   50.88260    0.30780
 10793.00000   97.02260  141.83240   -9999.25   56.37560   52.30200    0.31360
 10793.50000   96.79040  141.15970   -9999.25   56.16870   52.73200    0.32250
 10794.00000   97.16030  140.47350   -9999.25   55.82380   51.08950    0.33170
