~Version ---------------------------------------------------
VERS.   2.0 : CWLS log ASCII Standard -VERSION 2.0
WRAP.    NO : One line per depth step
DLM . SPACE : Column Data Section Delimiter
~Well ------------------------------------------------------
STRT .FT                142.0 : START DEPTH
STOP .FT              11881.0 : STOP DEPTH
STEP .FT                  0.5 : STEP
NULL .               -9999.25 : NULL VALUE
COMP .                        : COMPANY
WELL .                        : WELL
FLD  .                        : FIELD
LOC  .                        : LOCATION
PROV .                        : PROVINCE
CNTY .                        : COUNTY
STAT .                        : STATE
CTRY .                        : COUNTRY
SRVC .                        : SERVICE COMPANY
DATE .                        : DATE
UWI  .                        : UNIQUE WELL ID
API  .                        : API NUMBER
SLAT .WGS84 1.615166021112799 : SURFACE LATITUDE
SLON .WGS84 6.740950753801002 : SURFACE LONGITUDE
DATUM.F                   nan : DEPTH DATUM ELEV
~Curve Information -----------------------------------------
DEPT   .FT    : 
DTCO   .US/F  : DELTA-T COMPRESSIONAL
DTSM   .US/F  : DELTA-T SHEAR
GRS    .GAPI  : GAMMA RAY FROM SONIC LOG
LLD    .OHMM  : LATEROLOG DEEP RESISTIVITY
LLS    .OHMM  : LATEROLOG SHALLOW RESISTIVITY
NPHI_LS.DEC   : NEUTRON POROSITY LIMESTONE
~Params ----------------------------------------------------
~Other -----------------------------------------------------
~ASCII -----------------------------------------------------
# ...
 10386.50000   84.20040  118.93580  112.84970    5.67250    4.27090    0.42040
 10387.00000   84.31270  119.44240  112.74570    5.83750    4.38230    0.40380
 10387.50000   83.16230  117.86450  113.39490    6.00250    4.53300    0.39310
 10388.00000   80.60200  115.07150  114.82420    6.16750    4.65840    0.38250
 10388.50000   78.88720  112.23770  114.31910    6.22920    4.65620    0.37630
 10389.00000   77.81530  109.81590  111.27310    6.13420    4.58800    0.37890
 10389.50000   78.05490  110.04000  107.88390    6.09620    4.55010    0.39140
 10390.00000   79.43630  112.48580  106.11760    6.30030    4.68210    0.40400
 10390.50000   82.09050  114.38820  105.27920    6.64040    4.81410    0.40480
 10391.00000   85.26770  123.18730  106.73330    6.98060    5.02490    0.40470
 10391.50000   87.09070  133.78600  108.06920    7.31940    5.41020    0.40430
 10392.00000   87.85070  139.88830  109.95390    7.68830    5.79430    0.40380
 10392.50000   86.35660  143.36820  111.56420    8.27330    6.04500    0.40290
 10393.00000   85.26400  144.13320  112.16810    8.88050    6.63850    0.39880
 10393.50000   85.01770  141.59060  111.59700    9.48770    6.98300    0.39590
 10394.00000   84.90080  139.52610  111.57650   10.01950    7.29830    0.39910
 10394.50000   86.09940  140.05300  111.26230   10.06590    7.13240    0.40830
 10395.00000   88.34000  142.38340  109.76320    9.31920    6.83850    0.42190
 10395.50000   89.67670  143.28140  109.15640    8.44380    6.02780    0.43050
 10396.00000   89.42590  143.58810  110.24840    7.91850    5.92000    0.43840
 10396.50000   90.06510  144.21690  111.16420    7.84070    5.82910    0.44460
 10397.00000   90.57650  144.95440  111.39850    7.84570    5.96020    0.43830
 10397.50000   89.77450  143.77230  112.34220    8.14710    6.12040    0.42260
 10398.00000   88.52530  142.07040  113.61360    8.52810    6.29330    0.40710
 10398.50000   88.29720  141.40400  113.97970    8.92270    6.65400    0.40090
 10399.00000   88.49350  141.61000  113.11320    9.32060    7.22040    0.40040
 10399.50000   88.41760  140.42570  113.22480    9.53840    7.29730    0.39990
 10400.00000   87.54020  138.71400  114.94790    9.22540    7.35490    0.38930
 10400.50000   85.48310  137.91050  116.55800    8.47990    6.78510    0.37880
 10401.00000   83.08790  137.10630  114.90170    7.60060    6.10380    0.38590
 10401.50000   83.22160  137.00620  112.63890    6.68780    5.31870    0.39770
 10402.00000   84.17770  136.93820  112.82850    5.77500    4.41630    0.39600
 10402.50000   84.05420  136.93250  114.03570    5.20750    4.19470    0.38910
 10403.00000   84.12270  136.93100  115.09260    5.15780    4.12620    0.38170
 10403.50000   85.14140  137.24390  115.66120    5.10810    4.10940    0.37480
 10404.00000   85.18750  139.96180  115.29590    5.16150    4.09270    0.37250
 10404.50000   84.07030  150.15400  112.09210    5.17930    4.07590    0.37470
 10405.00000   85.21870  152.11700  108.99760    5.07830    4.05920    0.38640
 10405.50000   86.64810  154.42790  110.06870    5.01470    4.04250    0.39320
 10406.00000   86.55820  154.98800  113.40640    5.02100    4.03240    0.40830
 10406.50000   86.51700  154.45080  116.02650    5.09450    4.11240    0.40660
 10407.00000   87.29330  154.37960  114.06890    5.16790    4.19230    0.38980
 10407.50000   87.84270  154.44950  111.96290    5.24140    4.27220    0.37300
 10408.00000   86.50750  154.09830  111.64920    5.30020    4.35220    0.38340
 10408.50000   86.22410  154.04920  111.16150    5.30240    4.36800    0.40280
 10409.00000   87.21880  155.57630  110.91810    5.30610    4.36780    0.42430
 10409.50000   87.93250  157.10480  111.69720    5.30990    4.36750    0.42350
 10410.00000   87.02100  155.84970  114.15010    5.31360    4.36720    0.39780
 10410.50000   85.16680  152.69640  116.06270    5.31730    4.36700    0.37760
 10411.00000   83.83380  150.67350  117.40630    5.32100    4.36670    0.37360
 10411.50000   82.85370  148.79170  117.16980    5.32470    4.36640    0.37390
 10412.00000   82.28790  148.10840  114.65820    5.42390    4.37480    0.37200
 10412.50000   82.99160  148.95890  111.41810    5.46040    4.42240    0.37040
 10413.00000   84.29180  151.16170  108.24180    5.47940    4.47000    0.38000
 10413.50000   85.80010  153.70140  106.73300    5.49840    4.51760    0.39470
 10414.00000   86.81040  155.09570  105.56310    5.51740    4.56510    0.41580
 10414.50000   86.56140  155.50750  104.39330    5.52500    4.61270    0.42840
 10415.00000   86.12020  155.13370  106.27510    5.64210    4.66030    0.41770
 10415.50000   86.80330  154.37950  108.99750    5.75040    4.66800    0.40390
 10416.00000   88.17130  152.32020  110.88960    5.72840    4.63960    0.39290
 10416.50000   89.69150  141.70470  111.56390    5.70630    4.64540    0.39620
 10417.00000   89.68600  136.96220  111.06070    6.09290    4.94030    0.40030
 10417.50000   89.55770  135.46370  109.45040    6.69320    5.38810    0.40450
 10418.00000   89.24740  134.22070  107.38660    7.29350    5.83600    0.40820
 10418.50000   88.93720  132.07330  106.03410    7.89380    6.07140    0.41180
 10419.00000   88.62690  129.50380  109.68470    7.89380    6.16500    0.40940
 10419.50000   88.15600  128.28150  114.42990    7.44230    5.87600    0.40570
 10420.00000   86.51190  123.53940  118.40610    6.95870    5.58710    0.39630
 10420.50000   85.15440  119.50740  119.14550    6.77990    5.22900    0.38560
 10421.00000   86.63610  115.50910  119.80190    6.64080    5.22680    0.38890
 10421.50000   88.71740  113.90930  120.06810    6.61610    5.23180    0.40220
 10422.00000   88.84200  112.99500  119.32150    6.82470    5.37760    0.41280
 10422.50000   87.66220  114.45520  117.54100    7.04710    5.52350    0.40320
 10423.00000   88.19630  117.59180  117.00790    7.02190    5.54380    0.38730
 10423.50000   88.59950  120.24630  118.16610    6.84700    5.39040    0.37460
 10424.00000   87.10580  117.97110  119.42690    6.61900    5.24830    0.37720
 10424.50000   84.94380  116.56570  120.52900    6.34650    5.13150    0.39180
 10425.00000   83.51650  115.79170  119.38220    6.31990    5.10660    0.40630
 10425.50000   83.31160  118.28960  118.06030    6.45780    5.19380    0.41480
 10426.00000   83.51000  122.38620  116.32310    6.59580    5.26190    0.42070
 10426.50000   83.76180  127.47080  113.53050    6.73370    5.33010    0.41250
 10427.00000   84.87750  133.06710  110.01920    6.87160    5.52970    0.39560
 10427.50000   86.07990  138.32780  107.51390    7.23950    5.76230    0.37500
 10428.00000   85.01630  142.07180  109.13670    7.60740    5.84090    0.35440
 10428.50000   83.03820  143.48690  112.35170    7.46160    5.86640    0.33790
 10429.00000   83.16920  148.03350  113.41590    6.91970    5.73010    0.34650
 10429.50000   83.95320  151.22420  112.07780    6.38170    5.24310    0.35790
 10430.00000   85.06790  153.63720  112.56330    5.84940    5.03030    0.37820
 10430.50000   86.85250  156.03090  114.93880    5.68400    4.81750    0.39030
 10431.00000   87.29580  156.75730  117.28480    5.65610    4.60470    0.39720
 10431.50000   86.64000  154.59840  117.63070    5.62810    4.57360    0.39630
 10432.00000   85.54570  151.63040  115.73720    5.63220    4.58790    0.39300
 10432.50000   84.22670  150.41980  114.50320    5.66340    4.59270    0.38060
 10433.00000   84.03390  150.72500  114.95470    5.61470    4.58300    0.37820
 10433.50000   85.57090  151.25050  113.83630    5.58550    4.58490    0.38480
 10434.00000   87.39660  151.25050  110.65280    5.64490    4.63240    0.39910
 10434.50000   88.09580  150.73810  107.03790    5.75130    4.68000    0.41020
 10435.00000   89.35710  151.48450  105.13400    5.85770    4.79560    0.41000
 10435.50000   90.88730  152.20550  104.55320    5.98990    4.97610    0.39790
 10436.00000   91.58740  150.94980  105.04650    6.16080    5.17720    0.38210
 10436.50000   92.24790  147.07600  107.75100    6.33640    5.37590    0.37190
 10437.00000   91.33800  139.24990  113.07850    6.91670    5.65790    0.37470
