~Version ---------------------------------------------------
VERS.   2.0 : CWLS log ASCII Standard -VERSION 2.0
WRAP.    NO : One line per depth step
DLM . SPACE : Column Data Section Delimiter
~Well ------------------------------------------------------
STRT .FT                142.0 : START DEPTH
STOP .FT              11881.0 : STOP DEPTH
STEP .FT                  0.5 : STEP
NULL .               -9999.25 : NULL VALUE
COMP .                        : COMPANY
WELL .                        : WELL
FLD  .                        : FIELD
LOC  .                        : LOCATION
PROV .                        : PROVINCE
CNTY .                        : COUNTY
STAT .                        : STATE
CTRY .                        : COUNTRY
SRVC .                        : SERVICE COMPANY
DATE .                        : DATE
UWI  .                        : UNIQUE WELL ID
API  .                        : API NUMBER
SLAT .WGS84 1.615166021112799 : SURFACE LATITUDE
SLON .WGS84 6.740950753801002 : SURFACE LONGITUDE
DATUM.F                   nan : DEPTH DATUM ELEV
~Curve Information -----------------------------------------
DEPT   .FT    : 
DTCO   .US/F  : DELTA-T COMPRESSIONAL
DTSM   .US/F  : DELTA-T SHEAR
GRS    .GAPI  : GAMMA RAY FROM SONIC LOG
LLD    .OHMM  : LATEROLOG DEEP RESISTIVITY
LLS    .OHMM  : LATEROLOG SHALLOW RESISTIVITY
NPHI_LS.DEC   : NEUTRON POROSITY LIMESTONE
~Params ----------------------------------------------------
~Other -----------------------------------------------------
~ASCII -----------------------------------------------------
# ...
 11456.00000   50.95960   84.42330   15.36820  227.46050  244.60600    0.02540
 11456.50000   51.34300   84.58940   14.06460  188.77980  223.86020    0.02610
 11457.00000   50.70440   84.75560   13.93470  192.34480  220.12290    0.02530
 11457.50000   50.23210   84.66890   14.13790  210.29840  232.60190    0.02280
 11458.00000   50.21450   84.46730   13.87370  342.97230  267.44650    0.02070
 11458.50000   49.74090   84.06000   15.98360  593.37310  446.91250    0.01870
 11459.00000   49.21550   83.67040   16.94760  843.77390  722.79290    0.01670
 11459.50000   49.15600   83.39180   18.22160  971.67050  893.70440    0.01510
 11460.00000   49.58570   83.74700   20.56150  950.86350  734.52330    0.01630
 11460.50000   50.70440   84.24420   21.54280  590.16490  309.17970    0.02330
 11461.00000   51.78280   84.91970   21.26350  229.46640  153.13200    0.03030
 11461.50000   52.98800   85.66970   19.41410   78.94750  111.25010    0.03730
 11462.00000   52.77460   86.21700   17.03500   68.54850   87.93550    0.04280
 11462.50000   52.65450   86.77220   14.78790   62.31980   83.40640    0.04280
 11463.00000   52.87120   87.18150   13.73680   62.92460   85.00110    0.04260
 11463.50000   53.17070   87.12100   12.55590   68.48810   93.33400    0.03910
 11464.00000   53.18690   86.48660   12.63030   83.81620  102.42200    0.03180
 11464.50000   53.11610   85.75140   14.59840  138.20240  160.43530    0.02450
 11465.00000   52.21510   85.01620   16.13710  192.58870  424.27210    0.01910
 11465.50000   50.96570   84.47020   17.21010  449.39270  688.10890    0.01510
 11466.00000   50.44780   83.81340   16.57260  722.55820  986.03650    0.01490
 11466.50000   50.25080   83.46620   15.12690 1002.80920 1230.82170    0.01490
 11467.00000   50.40110   83.22550   13.46650 1213.94650 1344.96760    0.01420
 11467.50000   50.24110   82.95560   11.95220 1411.96240 1629.60490    0.01370
 11468.00000   49.66870   82.81180   11.83180 1759.21160 1972.93200    0.01390
 11468.50000   48.94040   82.45310   12.91080 2037.01090 3949.04660    0.01450
 11469.00000   48.68870   82.42810   14.12960 4876.48240 5586.26700    0.01400
 11469.50000   50.63570   82.39840   14.59330 6716.47860 7223.48730    0.01310
 11470.00000   52.77200   82.25260   13.50030 8562.93830 8883.03700    0.01230
 11470.50000   53.54370   82.10670   11.59430 9450.01190 10215.64970    0.01210
 11471.00000   52.31690   81.96080    9.81270 8970.79230 10220.20080    0.01210
 11471.50000   50.53670   81.84370    9.06280 8370.00680 9913.74850    0.01240
 11472.00000   49.56940   81.82720    9.62690 7769.62840 9098.51590    0.01310
 11472.50000   49.65160   81.81070   11.17140 8117.63140 9381.04480    0.01390
 11473.00000   49.85700   81.62510   12.28100 8633.53550 9803.55180    0.01450
 11473.50000   50.09420   81.27250   12.88490 8426.92150 9627.95840    0.01450
 11474.00000   50.30840   81.33770   13.23970 6975.74330 8377.22190    0.01450
 11474.50000   50.22720   81.34210   13.41290 4723.28990 6533.46930    0.01500
 11475.00000   50.16810   81.53050   12.95550 2470.83640 4270.12160    0.01570
 11475.50000   49.36060   81.76480   12.32880 1459.33380 2006.77380    0.01670
 11476.00000   49.04160   81.99910   11.96720 1170.23820 1666.19370    0.01690
 11476.50000   50.56610   82.23350   12.07720 1142.46500 1560.98830    0.01690
 11477.00000   52.82090   82.56490   12.98760 1131.73920 1544.49360    0.01670
 11477.50000   53.12860   82.69640   13.41420 1125.26990 1534.00440    0.01620
 11478.00000   52.18090   82.72880   13.47300 1118.80070 1518.34190    0.01560
 11478.50000   51.51590   82.64660   13.25490 1116.23470 1549.89710    0.01510
 11479.00000   51.20120   82.40480   13.41840 1198.56300 1556.22330    0.01450
 11479.50000   50.50280   82.16300   13.44600 1404.33100 1876.43980    0.01410
 11480.00000   50.43230   82.05780   13.58220 1487.70410 1928.04350    0.01290
 11480.50000   50.43230   82.21050   14.07400 1332.47570 1753.79600    0.01470
 11481.00000   50.62390   82.57340   14.58620  914.00400 1164.10060    0.01640
 11481.50000   50.89180   82.85860   14.99590  495.53230  574.40510    0.01820
 11482.00000   50.62750   83.14390   14.46120  312.56530  458.64220    0.02000
 11482.50000   50.90600   83.33950   13.35920  286.60150  425.92490    0.01940
 11483.00000   51.53140   83.55470   12.07720  272.33320  413.96910    0.01850
 11483.50000   51.18610   83.65460   11.44640  254.98400  402.01320    0.01930
 11484.00000   50.23860   83.73260   11.29190  231.55380  356.57100    0.02000
 11484.50000   50.77070   83.66110   11.03110  217.28910  326.13000    0.02070
 11485.00000   51.44380   83.60220   11.17140  264.10410  371.98790    0.02040
 11485.50000   51.14110   83.50390   11.71390  640.21130 1174.80690    0.02020
 11486.00000   50.64900   83.40570   12.64870 1492.70120 1966.16140    0.01880
 11486.50000   50.17860   83.19330   13.54370 2004.19520 6629.20410    0.01790
 11487.00000   49.76360   82.90480   13.96440 7293.11390 9580.05960    0.01690
 11487.50000   49.49240   82.61630   13.93880 8606.91150 11259.94490    0.01620
 11488.00000   49.17580   82.32850   13.04050 9224.00000 12029.08760    0.01590
 11488.50000   49.44790   82.05760   12.29960 9079.87570 12404.88260    0.01550
 11489.00000   49.46750   81.87720   12.60080 8719.56500 11758.40210    0.01520
 11489.50000   49.48710   81.90760   13.38210 8359.25420 11416.42950    0.01530
 11490.00000   49.31510   81.72660   14.08510 7541.52380 9701.47950    0.01560
 11490.50000   48.89030   81.54570   13.94600 6517.32830 7986.52940    0.01580
 11491.00000   49.04150   81.60650   13.96230 5493.13280 6271.57940    0.01610
 11491.50000   49.27330   81.58490   14.11300 4468.93730 4959.78840    0.01620
 11492.00000   49.17350   81.66800   14.80110 3444.74180 4040.49680    0.01590
 11492.50000   48.59500   81.66130   16.24980 2420.54620 3121.20520    0.01580
 11493.00000   48.38640   81.65470   17.13620 1433.88960 2201.91360    0.01530
 11493.50000   48.56170   81.64810   17.61800 1359.24740 2025.55090    0.01490
 11494.00000   48.21330   81.74180   17.31060 1524.82150 2038.04350    0.01430
 11494.50000   47.35560   81.77690   17.51200 1854.08040 2833.32950    0.01460
 11495.00000   46.94510   81.62310   17.31570 3012.85970 4150.47770    0.01500
 11495.50000   47.95080   81.85740   16.95910 4333.98690 5467.62590    0.01550
 11496.00000   48.62900   82.41370   16.33160 5655.11410 8403.10510    0.01590
 11496.50000   49.15740   82.67350   14.69670 8343.66570 11338.58420    0.01670
 11497.00000   49.44680   82.97480   14.56660 11943.83360 14305.58200    0.01750
 11497.50000   49.46070   83.09710   14.56270 12241.42890 17398.65410    0.01830
 11498.00000   48.87320   83.02230   15.66460 11809.97000 16541.15510    0.01910
 11498.50000   48.41660   83.19050   15.38980 10731.32290 15289.85720    0.01960
 11499.00000   48.59800   83.35860   15.49850 9652.67570 13117.78210    0.01950
 11499.50000   49.12170   83.50550   16.66380 8574.02860 11380.12200    0.01920
 11500.00000   49.26980   83.87500   18.08570 8574.03010 11521.02540    0.01890
 11500.50000   48.89030   84.17150   18.41780 10621.53610 13585.58590    0.01870
 11501.00000   49.13710   84.29660   18.82500 13114.66710 15650.14640    0.01870
 11501.50000   49.14450   84.29530   18.77260 15607.79820 19615.35720    0.01900
 11502.00000   48.87010   84.32680   18.38600 17577.09400 22451.52100    0.01950
 11502.50000   49.42620   84.09450   16.45530 17451.04860 22591.63610    0.01990
 11503.00000   49.42640   84.10650   15.07270 17325.00330 22620.70210    0.01990
 11503.50000   49.34910   83.80920   13.89350 17198.95790 22400.32690    0.02030
 11504.00000   48.89080   83.42410   14.08350 17072.91260 22264.15640    0.02070
 11504.50000   48.89030   83.03910   14.15980 16168.91030 21724.19620    0.02110
 11505.00000   49.17580   82.99180   13.97350 15097.33730 20562.14900    0.02110
 11505.50000   49.36350   83.12830   13.93490 12832.70550 17388.91430    0.01980
 11506.00000   49.25090   83.27890   13.93330 10117.57530 14215.67960    0.01840
