~Version ---------------------------------------------------
VERS.   2.0 : CWLS log ASCII Standard -VERSION 2.0
WRAP.    NO : One line per depth step
DLM . SPACE : Column Data Section Delimiter
~Well ------------------------------------------------------
STRT .FT                142.0 : START DEPTH
STOP .FT              11881.0 : STOP DEPTH
STEP .FT                  0.5 : STEP
NULL .               -9999.25 : NULL VALUE
COMP .                        : COMPANY
WELL .                        : WELL
FLD  .                        : FIELD
LOC  .                        : LOCATION
PROV .                        : PROVINCE
CNTY .                        : COUNTY
STAT .                        : STATE
CTRY .                        : COUNTRY
SRVC .                        : SERVICE COMPANY
DATE .                        : DATE
UWI  .                        : UNIQUE WELL ID
API  .                        : API NUMBER
SLAT .WGS84 1.615166021112799 : SURFACE LATITUDE
SLON .WGS84 6.740950753801002 : SURFACE LONGITUDE
DATUM.F                   nan : DEPTH DATUM ELEV
~Curve Information -----------------------------------------
DEPT   .FT    : 
DTCO   .US/F  : DELTA-T COMPRESSIONAL
DTSM   .US/F  : DELTA-T SHEAR
GRS    .GAPI  : GAMMA RAY FROM SONIC LOG
LLD    .OHMM  : LATEROLOG DEEP RESISTIVITY
LLS    .OHMM  : LATEROLOG SHALLOW RESISTIVITY
NPHI_LS.DEC   : NEUTRON POROSITY LIMESTONE
~Params ----------------------------------------------------
~Other -----------------------------------------------------
~ASCII -----------------------------------------------------
# ...
 10488.50000   99.64400  127.50980  151.49270   24.25350   24.94950    0.34530
 10489.00000  101.90320  125.49280  153.34660   25.95490   27.15490    0.35080
 10489.50000  102.55410  127.87000  152.28340   28.30940   29.36020    0.33860
 10490.00000  102.28140  130.48740  150.86260   30.19410   30.66690    0.32520
 10490.50000  101.29560  133.40810  143.14240   31.37390   31.96690    0.31900
 10491.00000  100.01310  136.32880  140.11700   33.03270   34.08350    0.32210
 10491.50000   99.36320  139.02070  141.84850   36.04990   37.28230    0.32940
 10492.00000   97.40560  145.59930  145.17970   40.82280   43.39280    0.31900
 10492.50000   96.54870  151.15180  149.15400   46.93200   49.50330    0.30320
 10493.00000   96.40520  155.03500  163.34470   53.93210   55.61370    0.28290
 10493.50000   94.15090  155.72080  170.46590   58.48250   58.64500    0.29070
 10494.00000   92.28100  156.12010  168.00260   56.09800   58.78010    0.29700
 10494.50000   90.83040  156.31630  158.54320   49.23430   52.73490    0.31280
 10495.00000   90.12170  155.46560  153.11240   42.37050   46.07680    0.32260
 10495.50000   89.98760  152.84510  139.79040   38.01750   41.50340    0.32950
 10496.00000   89.85350  151.15510  137.41360   39.02570   41.90160    0.32620
 10496.50000   89.71950  152.01530  136.67440   40.28600   42.89720    0.30920
 10497.00000   89.84650  153.64120  137.49840   41.54630   43.89280    0.27010
 10497.50000   88.84630  155.26710  140.56270   42.80650   44.83970    0.25760
 10498.00000   86.62330  156.22700  143.34400   44.06680   45.67500    0.27870
 10498.50000   86.51920  156.56730  144.12490   45.10840   46.66350    0.30200
 10499.00000   88.55050  156.06830  142.59990   46.00630   50.77750    0.31540
 10499.50000   89.86180  154.58670  139.28150   51.65290   59.15100    0.33340
 10500.00000   91.32210  153.10500  134.74600   55.60550   63.08950    0.30830
 10500.50000   91.49400  151.21070  131.73610   59.55820   70.03940    0.26720
 10501.00000   90.08690  146.73280  131.18950   60.81780   70.03940    0.23680
 10501.50000   86.22650  142.07110  130.54570   58.59380   70.90640    0.25040
 10502.00000   80.51410  136.84960  124.95170   72.62810   88.48800    0.28190
 10502.50000   74.29780  127.57000  112.00070  102.76080  110.46500    0.27890
 10503.00000   69.94450  123.87330   98.60130  143.62590  132.44200    0.23630
 10503.50000   69.70060  122.61100   88.51440  169.11220  145.19770    0.18770
 10504.00000   70.38260  123.50080   94.64390  148.84280  125.03080    0.13920
 10504.50000   73.37530  126.94280  114.43540  109.86460   90.30010    0.13920
 10505.00000   79.04800  132.13030  131.64240   70.88640   55.56940    0.19200
 10505.50000   84.30140  137.31780  144.73430   39.52110   33.16470    0.24430
 10506.00000   87.00550  142.81090  145.68630   42.89590   35.80630    0.26250
 10506.50000   88.63000  149.05100  136.32230   51.33280   42.79180    0.28020
 10507.00000   89.46780  150.84400  125.63540   59.76980   49.77740    0.27340
 10507.50000   89.46780  150.24710  118.05540   68.20670   51.62490    0.25240
 10508.00000   89.46780  149.52510  121.20680   65.18270   50.96740    0.25470
 10508.50000   89.21720  149.49900  130.43470   62.96360   51.34000    0.26400
 10509.00000   88.59060  147.68070  136.57160   68.62730   53.68330    0.26680
 10509.50000   87.99480  146.05740  138.54160   75.72690   59.04430    0.25350
 10510.00000   87.38320  146.88870  138.36140   75.27960   57.52670    0.24300
 10510.50000   86.86460  147.86360  140.05940   68.35620   53.04990    0.24980
 10511.00000   86.77940  148.61270  140.36140   61.43280   48.57320    0.26360
 10511.50000   87.42720  149.44360  137.70460   61.81210   47.97930    0.27490
 10512.00000   87.42590  149.55090  133.45750   66.24320   50.21690    0.27490
 10512.50000   86.17260  146.10670  130.13360   71.30490   52.38370    0.26700
 10513.00000   85.10620  142.95020  127.15400   75.28550   54.55050    0.25880
 10513.50000   84.34520  141.41960  125.70990   77.64440   56.71720    0.25060
 10514.00000   83.90750  138.28520  123.60890   88.05880   58.88400    0.24350
 10514.50000   83.85060  136.41080  118.52260  110.55660   67.77440    0.23940
 10515.00000   83.89600  134.42190  110.01450  133.05430   84.30540    0.23530
 10515.50000   83.11630  132.43300  101.65890  155.55200  104.80950    0.22810
 10516.00000   81.42120  130.44410   95.70940  158.44970  106.10680    0.21650
 10516.50000   80.07440  129.08130   91.10170  146.32410  104.11880    0.20720
 10517.00000   79.15050  130.15530   92.23400  133.37480  101.63380    0.20830
 10517.50000   77.48450  131.69800   95.77650  126.01800   93.15850    0.21380
 10518.00000   77.96960  133.24080  101.75410  116.19890   82.56450    0.21930
 10518.50000   79.98130  135.55870  109.85480  103.88800   78.50910    0.22210
 10519.00000   82.28090  137.80860  117.15750   91.57720   68.82610    0.22240
 10519.50000   84.19400  139.79760  123.05420   79.26630   59.14300    0.22950
 10520.00000   84.84690  143.60440  130.16280   73.43300   59.14300    0.24050
 10520.50000   85.04940  146.18640  133.12570   82.00990   62.36760    0.24780
 10521.00000   84.97120  146.61860  132.12150   96.30480   74.83030    0.24170
 10521.50000   84.56240  145.48680  129.15860  110.59960   87.29290    0.23790
 10522.00000   84.03050  143.58800  127.67750  124.89440   99.75550    0.23950
 10522.50000   83.04150  142.44870  127.67660  130.53450  105.32410    0.24460
 10523.00000   81.54450  142.36970  127.26470  120.57580  102.72100    0.24960
 10523.50000   79.83350  141.90860  125.10080  106.66410   88.76110    0.25470
 10524.00000   78.54710  140.43300  123.15270   88.90520   72.06450    0.25270
 10524.50000   79.67860  137.21750  123.85370   71.14620   59.73510    0.24950
 10525.00000   84.45980  139.23320  127.65730   53.38730   47.40580    0.26280
 10525.50000   88.18840  139.23320  131.44140   39.46180   35.07640    0.27750
 10526.00000   90.71410  138.69570  132.95610   36.19170   33.90650    0.29210
 10526.50000   95.77410  141.60150  132.61190   38.41500   36.06650    0.28580
 10527.00000   98.58040  148.37500  132.74880   41.19410   38.22650    0.27700
 10527.50000   97.61060  153.14890  133.59770   43.97320   40.38650    0.28650
 10528.00000   95.50080  156.17630  134.35460   46.75230   41.85140    0.29780
 10528.50000   92.15430  157.70540  133.51440   49.53150   43.14250    0.29260
 10529.00000   90.79660  158.23570  132.09560   60.65460   53.08980    0.28160
 10529.50000   91.12620  157.44260  130.85280   77.65530   63.03720    0.27060
 10530.00000   91.34580  155.04090  130.41960   94.65600   72.98450    0.26460
 10530.50000   89.82600  152.63930  131.89900  110.77440   84.96090    0.26450
 10531.00000   89.73120  153.25690  132.95580  128.92700  105.05300    0.26800
 10531.50000   91.49490  154.00480  132.51640  137.26930  115.67630    0.27260
 10532.00000   91.92780  153.13560  130.51320  138.39040  115.96650    0.26500
 10532.50000   92.37340  152.81670  128.56270  129.97850  108.21790    0.25300
 10533.00000   93.15180  153.88220  129.81040  113.17890   96.14370    0.24030
 10533.50000   93.50280  155.02770  133.41140   96.37930   81.18580    0.24330
 10534.00000   94.92190  155.53220  135.39010   79.57970   66.22790    0.26150
 10534.50000   95.68250  156.03660  136.17980   66.14010   54.26160    0.27980
 10535.00000   93.93650  156.37350  136.49340   69.81770   56.29550    0.28550
 10535.50000   91.95890  155.80060  136.32230   74.41480   58.32950    0.27140
 10536.00000   90.23220  154.83740  133.37100   80.17040   63.58100    0.25730
 10536.50000   90.19680  153.60290  129.32760   90.56040   70.97760    0.24320
 10537.00000   89.27740  152.85100  128.57870  100.95040   77.31970    0.24160
 10537.50000   87.20660  152.76500  131.54390  111.34040   83.39820    0.24510
 10538.00000   85.95050  152.32030  133.75590  121.73040   89.47670    0.24940
 10538.50000   86.23020  151.57320  135.71850  132.12040   95.55530    0.25680
 10539.00000   86.80640  150.82610  137.98300  136.98040  101.63380    0.26420
