~Version ---------------------------------------------------
VERS.   2.0 : CWLS log ASCII Standard -VERSION 2.0
WRAP.    NO : One line per depth step
DLM . SPACE : Column Data Section Delimiter
~Well ------------------------------------------------------
STRT .FT                142.0 : START DEPTH
STOP .FT              11881.0 : STOP DEPTH
STEP .FT                  0.5 : STEP
NULL .               -9999.25 : NULL VALUE
COMP .                        : COMPANY
WELL .                        : WELL
FLD  .                        : FIELD
LOC  .                        : LOCATION
PROV .                        : PROVINCE
CNTY .                        : COUNTY
STAT .                        : STATE
CTRY .                        : COUNTRY
SRVC .                        : SERVICE COMPANY
DATE .                        : DATE
UWI  .                        : UNIQUE WELL ID
API  .                        : API NUMBER
SLAT .WGS84 1.615166021112799 : SURFACE LATITUDE
SLON .WGS84 6.740950753801002 : SURFACE LONGITUDE
DATUM.F                   nan : DEPTH DATUM ELEV
~Curve Information -----------------------------------------
DEPT   .FT    : 
DTCO   .US/F  : DELTA-T COMPRESSIONAL
DTSM   .US/F  : DELTA-T SHEAR
GRS    .GAPI  : GAMMA RAY FROM SONIC LOG
LLD    .OHMM  : LATEROLOG DEEP RESISTIVITY
LLS    .OHMM  : LATEROLOG SHALLOW RESISTIVITY
NPHI_LS.DEC   : NEUTRON POROSITY LIMESTONE
~Params ----------------------------------------------------
~Other -----------------------------------------------------
~ASCII -----------------------------------------------------
# ...
 11354.00000   52.39360   86.53350    8.75930 1245.97060 1315.01740    0.00990
 11354.50000   51.38000   85.25590    9.51080 1097.06140 1188.87570    0.01000
 11355.00000   50.83250   84.43710   10.04930 1007.72950 1047.58560    0.01030
 11355.50000   50.86450   84.76770   10.11470 1074.03540 1035.32340    0.01050
 11356.00000   50.36640   85.08720    9.52150 1311.56480 1285.97640    0.00990
 11356.50000   49.75310   85.67140    8.93270 1549.09430 1599.28720    0.00930
 11357.00000   49.35810   86.41370    8.95520 1786.62370 1912.59800    0.00960
 11357.50000   49.29080   87.15610    8.97760 1976.64720 2105.04770    0.01090
 11358.00000   49.22340   88.13070    9.61880 2505.00780 2437.32420    0.01230
 11358.50000   49.15600   88.53020    9.55880 2749.46900 2769.60060    0.01240
 11359.00000   49.13930   88.28090    9.51140 2993.93020 3101.87710    0.01230
 11359.50000   49.12250   87.88970    9.51450 3368.96710 3434.15350    0.01240
 11360.00000   48.73450   87.19380   10.11470 3339.74180 3546.26370    0.01260
 11360.50000   48.04600   86.53420   10.11470 3174.30890 3399.16140    0.01280
 11361.00000   47.49510   86.25360   10.11470 3008.87600 3273.80040    0.01300
 11361.50000   48.21800   86.05240    9.55180 3009.54960 3263.79590    0.01330
 11362.00000   49.12480   85.92240    9.18570 3598.39100 3334.75710    0.01350
 11362.50000   49.14730   85.96240    8.94000 4187.23240 4631.63870    0.01370
 11363.00000   49.59620   86.00230    9.72700 4776.07370 5907.94950    0.01400
 11363.50000   50.32150   85.85110   10.67620 4920.00190 5373.92650    0.01420
 11364.00000   49.88410   85.56960   11.30260 3966.14520 4487.98010    0.01440
 11364.50000   49.20510   85.26590   11.36770 3012.28840 3524.52230    0.01460
 11365.00000   49.33480   85.20800   11.33940 2816.03650 3517.15250    0.01440
 11365.50000   49.11720   84.79230   11.45790 2891.78140 3588.34320    0.01290
 11366.00000   48.24380   84.41710   11.64880 3037.60120 3659.53400    0.01150
 11366.50000   48.00300   84.06920   11.92630 2882.50820 3702.24850    0.01090
 11367.00000   48.55790   84.01250   11.92630 2494.77580 3152.01390    0.01160
 11367.50000   49.11280   83.84340   11.32240 2107.04340 2601.77930    0.01230
 11368.00000   49.10470   83.84170   10.71630 1469.91410 2051.54470    0.01260
 11368.50000   49.41840   83.84010   10.35620 1147.72950 1466.05840    0.01310
 11369.00000   49.87120   83.83840    9.89840 1050.49080 1308.24630    0.01310
 11369.50000   49.64410   84.09560    9.51740 1059.15750 1333.78240    0.01260
 11370.00000   49.61770   84.65210    9.26110 1232.65470 1443.54500    0.01250
 11370.50000   50.16580   85.70330    9.68580 1417.12950 1652.63780    0.01220
 11371.00000   50.12210   86.24200   10.72250 1417.12950 1631.76110    0.01190
 11371.50000   49.61990   86.25460   12.26250 1199.26130 1425.14690    0.01270
 11372.00000   49.51950   86.22270   13.45330 1024.96660 1218.53280    0.01460
 11372.50000   49.81290   85.46250   14.24490  956.86970 1046.45580    0.01590
 11373.00000   50.04930   84.69030   13.63050  838.42220  926.18450    0.01620
 11373.50000   50.65150   83.87330   12.73530  719.97470  798.58340    0.01600
 11374.00000   51.73230   83.05640   11.82800  601.52720  641.66340    0.01580
 11374.50000   52.53920   83.07650   11.29920  483.07970  524.02700    0.01580
 11375.00000   52.23400   83.42230   11.30750  376.76780  416.21150    0.01830
 11375.50000   51.41690   84.10940   11.82440  288.65940  315.31060    0.02120
 11376.00000   51.24860   85.09310   12.27500  200.55090  242.06830    0.02970
 11376.50000   52.38560   86.04060   11.60120  127.65490  168.82600    0.03620
 11377.00000   52.40450   86.50940   11.54370  115.60870  120.30450    0.03960
 11377.50000   52.18590   87.25840   12.06710  103.56240  110.77910    0.04100
 11378.00000   53.71640   88.22160   12.89250   91.51610  101.25360    0.04530
 11378.50000   55.41880   89.66330   11.58030   84.22390   91.72820    0.06010
 11379.00000   55.09220   90.40850   10.31030   78.12030   82.20280    0.06940
 11379.50000   54.86680   91.15370   10.12900   72.01660   78.03090    0.06990
 11380.00000   55.78690   91.89890   11.90110   67.51830   73.58220    0.06890
 11380.50000   56.10870   93.39150   12.90160   59.29990   65.86630    0.07290
 11381.00000   56.28650   94.74550   12.63080   51.08140   56.70170    0.08210
 11381.50000   57.65630   97.08840   11.92630   42.86300   47.71950    0.09490
 11382.00000   59.37960   99.47850   11.42790   37.51070   40.28520    0.10770
 11382.50000   60.04990  100.54260   10.98270   34.75750   40.43620    0.11820
 11383.00000   61.71470  101.33850   10.68970   36.32550   41.48930    0.11600
 11383.50000   63.34830  101.95980   10.54560   44.37390   46.25330    0.10960
 11384.00000   63.70360  101.12930   11.03920   59.42240   61.47560    0.09850
 11384.50000   62.98240   98.66360   11.95350   74.47080   83.67020    0.08130
 11385.00000   61.32680   96.14600   12.83210   89.51930  105.86470    0.06410
 11385.50000   57.92060   92.49190   13.96930  114.00630  129.98770    0.05000
 11386.00000   54.78220   88.98060   13.91000  140.85310  154.11070    0.03660
 11386.50000   53.18180   88.02920   14.02300  146.48610  155.07730    0.03090
 11387.00000   52.66950   86.81190   13.06060  130.18850  140.73920    0.03150
 11387.50000   51.33830   85.22480   11.59680  113.89090  124.00370    0.03540
 11388.00000   51.09150   84.39360   10.31830   97.59340  107.26830    0.03970
 11388.50000   52.62220   86.36040    9.53200   81.29650   90.53280    0.04410
 11389.00000   54.55500   89.23240   10.39200   82.27760   85.48190    0.04760
 11389.50000   54.22100   89.13430   12.22820   92.13580   93.68180    0.04510
 11390.00000   53.90860   88.89080   13.92710   97.87450  100.24180    0.04160
 11390.50000   53.79340   88.77480   14.36860   96.80710  100.25180    0.03940
 11391.00000   54.15590   89.00670   14.34170   91.51950   94.79470    0.04590
 11391.50000   54.17510   89.14590   11.62430   83.89600   87.97200    0.05350
 11392.00000   53.82620   89.71100   10.86950   76.27250   80.17820    0.05670
 11392.50000   54.08650   90.27620   10.38040   69.74440   74.02100    0.05650
 11393.00000   55.24690   90.76940   10.27670   71.78660   74.13080    0.05720
 11393.50000   56.32010   91.15460   10.12040   73.82870   75.15810    0.05840
 11394.00000   55.36410   91.53980   10.26890   73.56900   75.57220    0.05970
 11394.50000   54.66520   91.95140   10.71850   70.89880   73.73990    0.06160
 11395.00000   55.66000   92.99380   10.91480   68.30690   70.86880    0.06720
 11395.50000   55.74360   94.05950   10.44410   65.71490   67.84300    0.07270
 11396.00000   55.57130   95.09670    9.88540   63.12300   64.81730    0.07520
 11396.50000   56.26430   96.13380    9.54530   61.14260   63.63670    0.07080
 11397.00000   57.16960   96.90490   10.24470   60.21290   62.47830    0.06600
 11397.50000   56.54760   96.49260   11.92630   61.38260   65.46510    0.06110
 11398.00000   56.08550   95.56890   12.31630   69.05190   72.92500    0.05910
 11398.50000   55.75380   94.40110   11.02050   76.72110   80.38490    0.05280
 11399.00000   55.20820   92.92240    9.68230   84.39040   87.84480    0.04520
 11399.50000   54.24530   91.44380    9.30520   92.05970   94.39520    0.03760
 11400.00000   53.65020   89.96510   10.34340   91.33210   94.94450    0.03260
 11400.50000   53.23040   88.48650   11.41220   88.50540   93.39050    0.03110
 11401.00000   52.39220   88.02390   11.92630   85.67860   91.83650    0.03250
 11401.50000   51.56750   86.82800   11.32240   85.32800   97.72480    0.03390
 11402.00000   51.95420   86.41700   10.55090  100.25560  128.74290    0.03210
 11402.50000   52.41310   86.11280   10.95900  129.33270  159.76110    0.02610
 11403.00000   52.06280   85.72140   11.50350  164.62100  190.77920    0.02520
 11403.50000   51.47870   85.32990   11.92630  218.41430  221.79740    0.02360
 11404.00000   51.28170   85.15210   11.62630  246.84760  249.05540    0.02200
 11404.50000   50.87240   84.87220   10.95900  257.22940  265.26470    0.02100
