~Version ---------------------------------------------------
VERS.   2.0 : CWLS log ASCII Standard -VERSION 2.0
WRAP.    NO : One line per depth step
DLM . SPACE : Column Data Section Delimiter
~Well ------------------------------------------------------
STRT .FT                142.0 : START DEPTH
STOP .FT              11881.0 : STOP DEPTH
STEP .FT                  0.5 : STEP
NULL .               -9999.25 : NULL VALUE
COMP .                        : COMPANY
WELL .                        : WELL
FLD  .                        : FIELD
LOC  .                        : LOCATION
PROV .                        : PROVINCE
CNTY .                        : COUNTY
STAT .                        : STATE
CTRY .                        : COUNTRY
SRVC .                        : SERVICE COMPANY
DATE .                        : DATE
UWI  .                        : UNIQUE WELL ID
API  .                        : API NUMBER
SLAT .WGS84 1.615166021112799 : SURFACE LATITUDE
SLON .WGS84 6.740950753801002 : SURFACE LONGITUDE
DATUM.F                   nan : DEPTH DATUM ELEV
~Curve Information -----------------------------------------
DEPT   .FT    : 
DTCO   .US/F  : DELTA-T COMPRESSIONAL
DTSM   .US/F  : DELTA-T SHEAR
GRS    .GAPI  : GAMMA RAY FROM SONIC LOG
LLD    .OHMM  : LATEROLOG DEEP RESISTIVITY
LLS    .OHMM  : LATEROLOG SHALLOW RESISTIVITY
NPHI_LS.DEC   : NEUTRON POROSITY LIMESTONE
~Params ----------------------------------------------------
~Other -----------------------------------------------------
~ASCII -----------------------------------------------------
# ...
 11099.00000   51.64170   94.72430   15.85140  277.52050  286.53670    0.02210
 11099.50000   51.43340   94.82810   22.57120  251.56400  280.54870    0.02150
 11100.00000   51.48330   95.80760   28.80320  219.12060  235.17980    0.02150
 11100.50000   51.79980   96.52180   30.14310  191.39360  199.91660    0.02750
 11101.00000   52.14060   96.70600   25.99500  200.65710  235.05680    0.03610
 11101.50000   52.27640   96.89020   21.21680  246.24620  304.09630    0.03350
 11102.00000   51.45020   96.24890   21.98270  337.07100  373.13570    0.02790
 11102.50000   50.62390   95.62360   25.50540  386.01110  442.17520    0.01970
 11103.00000   50.51290   94.97930   27.58140  337.10790  394.14970    0.02020
 11103.50000   50.95970   95.48320   25.69110  249.62840  229.67110    0.02900
 11104.00000   51.64750   96.45300   21.98080  162.14890  169.58890    0.03770
 11104.50000   52.51240   96.97940   18.61540  108.99140  121.52330    0.04650
 11105.00000   53.28330   96.78770   16.48110  128.89030  137.43720    0.04870
 11105.50000   52.92260   96.14990   15.85170  153.76140  171.54700    0.04090
 11106.00000   52.42330   95.47820   15.05400  186.09030  205.65690    0.02870
 11106.50000   52.01920   93.72440   14.73450  216.77260  241.04320    0.01880
 11107.00000   50.76350   92.32890   15.26540  208.98050  230.02780    0.01870
 11107.50000   49.51340   91.82170   15.92940  192.00410  219.01240    0.01890
 11108.00000   48.97070   91.43670   16.75110  187.34930  206.72270    0.01940
 11108.50000   49.04510   91.92260   17.83250  202.58160  215.87340    0.01960
 11109.00000   48.97430   92.35490   19.30420  221.57380  238.15780    0.01800
 11109.50000   48.45430   92.79020   22.16310  259.41280  279.00460    0.01610
 11110.00000   47.93430   93.34650   27.27560  297.25170  319.85140    0.01410
 11110.50000   47.66160   93.93650   32.44190  335.09070  360.69810    0.01210
 11111.00000   46.97530   94.33550   34.43100  372.92970  388.77750    0.01020
 11111.50000   46.56110   94.27120   30.86410  371.42010  389.97280    0.00980
 11112.00000   46.65960   94.20700   26.87050  349.28950  366.35730    0.01000
 11112.50000   46.80730   94.14270   22.65230  327.15890  345.39840    0.01100
 11113.00000   47.27770   94.14530   17.20600  309.66270  324.43960    0.01190
 11113.50000   48.28790   93.75470   14.31130  301.09580  312.19360    0.01280
 11114.00000   48.89910   93.44350   15.13870  301.09580  312.19360    0.01380
 11114.50000   49.09450   93.39350   18.91800  306.21040  316.80510    0.01410
 11115.00000   48.97240   93.35650   21.56690  318.99690  328.33370    0.01410
 11115.50000   49.16780   93.13490   19.65510  331.78350  339.86230    0.01410
 11116.00000   49.98370   92.89540   14.70990  342.60110  365.15170    0.01330
 11116.50000   50.79960   92.35880   10.83130  362.09690  392.72250    0.01360
 11117.00000   51.32310   92.07590   10.06380  332.07920  368.57220    0.01300
 11117.50000   50.67700   91.79290   10.55770  294.55690  320.22390    0.01280
 11118.00000   50.03100   91.68040   10.08570  269.54580  297.20760    0.01370
 11118.50000   49.38490   91.54400    9.26110  305.65230  317.08630    0.01450
 11119.00000   48.73880   91.51510    8.64900  341.75890  378.34230    0.01350
 11119.50000   48.09280   91.83970    9.52520  452.79950  494.20970    0.01070
 11120.00000   48.27200   91.94250   10.37760  569.00920  588.87820    0.00840
 11120.50000   48.50940   91.68620   10.86290  602.19880  607.44010    0.00810
 11121.00000   47.90470   91.42160   11.32240  605.80410  656.45260    0.00890
 11121.50000   47.48060   91.32080   10.82420  640.67320  731.91170    0.00940
 11122.00000   47.77920   90.80450   10.22040  751.02200  784.45500    0.01000
 11122.50000   48.07790   90.28820    8.91330  772.22490  784.61690    0.01050
 11123.00000   48.37650   90.28820    8.90800  682.54220  597.73510    0.01130
 11123.50000   49.08830   91.60160    8.37860  467.94210  417.24840    0.01260
 11124.00000   49.91620   92.61080    7.52050  253.34210  241.02500    0.01890
 11124.50000   50.50440   93.50840    6.73200  171.14430  203.09510    0.02550
 11125.00000   51.12790   94.21970    6.91940  175.65490  190.50870    0.03220
 11125.50000   52.04980   94.33400    7.13530  196.01010  203.37280    0.03290
 11126.00000   52.22170   94.24740    7.94900  199.69280  213.67410    0.02660
 11126.50000   51.98430   94.17300    8.41810  185.94060  205.71620    0.02190
 11127.00000   52.43710   94.54310    8.90700  168.95890  185.77210    0.02690
 11127.50000   53.14530   94.32460    8.47090  146.73990  165.82810    0.03420
 11128.00000   53.53740   93.91550    8.36120  124.52090  145.88410    0.04150
 11128.50000   54.13110   93.61250    9.05660  115.47030  127.84970    0.04540
 11129.00000   54.78260   94.97010    9.15860  106.41970  117.45390    0.05050
 11129.50000   55.34050   96.72880    8.90700   97.36910  113.30640    0.05560
 11130.00000   55.54010   97.93490    8.36900  100.30670  120.41970    0.05970
 11130.50000   55.72610   97.73550    7.89780  115.08240  127.53310    0.06010
 11131.00000   55.13390   97.67510    8.12040  124.23330  136.29940    0.05180
 11131.50000   53.84680   96.93940    8.68590  133.34520  142.56790    0.04150
 11132.00000   52.42920   95.40300   10.60680  142.45720  148.83640    0.03120
 11132.50000   51.37810   93.91240   13.46950  147.92440  165.24790    0.02090
 11133.00000   50.56110   93.58190   14.47410  142.45740  157.56040    0.01880
 11133.50000   50.42190   93.25140   13.81540  133.34570  147.95100    0.02470
 11134.00000   51.17130   93.09770   11.92440  123.17230  138.34160    0.03080
 11134.50000   51.62380   93.35430    9.41620  108.75180  129.58660    0.03680
 11135.00000   51.68730   93.79090    8.60460  110.77780  126.59730    0.04220
 11135.50000   52.10500   94.17070    9.05560  134.70780  154.02550    0.03940
 11136.00000   52.40660   93.86080    9.17550  171.47120  181.45370    0.03350
 11136.50000   52.14720   93.24380    9.10140  208.23450  223.82890    0.02770
 11137.00000   51.61520   92.13000    8.39860  244.99790  288.62480    0.02180
 11137.50000   50.59700   90.94230    7.93730  281.76130  353.42070    0.01810
 11138.00000   49.57570   89.63350    7.23500  389.56300  418.21660    0.01590
 11138.50000   49.69870   89.17640    6.81070  544.72360  619.16090    0.01370
 11139.00000   49.97980   88.71940    6.93560  699.88420  801.72970    0.01150
 11139.50000   48.67360   88.89720    7.83020  818.87620  874.72600    0.01090
 11140.00000   47.66060   89.34440    8.51050  865.38730  893.27620    0.01040
 11140.50000   48.24010   89.79160    8.59830  861.35040  882.97020    0.01020
 11141.00000   48.72450   90.21590    7.83670  846.32480  902.42880    0.01000
 11141.50000   47.94610   90.41510    6.87730  792.85760  891.16880    0.00990
 11142.00000   47.70580   90.54710    6.92080  685.83870  757.61650    0.00990
 11142.50000   48.18590   90.41590    7.51440  558.20790  597.53700    0.01000
 11143.00000   48.73150   90.09190    7.99000  430.57710  456.11410    0.01100
 11143.50000   48.93720   89.76800    8.40670  302.94630  327.12880    0.01250
 11144.00000   49.34540   89.77530    7.70550  199.59700  223.93030    0.01470
 11144.50000   49.75350   89.78250    8.05860  198.33140  234.81010    0.01560
 11145.00000   50.16030   89.78980    8.58690  260.35190  287.47080    0.01520
 11145.50000   50.16110   89.79710    8.83080  297.53700  337.07450    0.01410
 11146.00000   50.04910   89.80440    8.77540  297.47290  346.93130    0.01350
 11146.50000   50.57110   89.93600    8.51700  254.94420  296.76860    0.01480
 11147.00000   51.82160   91.28550    8.35930  190.17380  188.62770    0.02010
 11147.50000   54.24690   92.63490    7.80880  125.40350  149.12990    0.02860
 11148.00000   56.01100   94.04600    7.31920  106.02590  130.89700    0.03810
 11148.50000   56.70860   95.24980    6.69280  106.76790  128.45140    0.04250
 11149.00000   55.86360   94.83700    6.52210  130.23780  152.46130    0.03780
 11149.50000   54.68450   94.13240    6.51920  187.53300  223.42650    0.02860
