~Version ---------------------------------------------------
VERS.   2.0 : CWLS log ASCII Standard -VERSION 2.0
WRAP.    NO : One line per depth step
DLM . SPACE : Column Data Section Delimiter
~Well ------------------------------------------------------
STRT .FT                142.0 : START DEPTH
STOP .FT              11881.0 : STOP DEPTH
STEP .FT                  0.5 : STEP
NULL .               -9999.25 : NULL VALUE
COMP .                        : COMPANY
WELL .                        : WELL
FLD  .                        : FIELD
LOC  .                        : LOCATION
PROV .                        : PROVINCE
CNTY .                        : COUNTY
STAT .                        : STATE
CTRY .                        : COUNTRY
SRVC .                        : SERVICE COMPANY
DATE .                        : DATE
UWI  .                        : UNIQUE WELL ID
API  .                        : API NUMBER
SLAT .WGS84 1.615166021112799 : SURFACE LATITUDE
SLON .WGS84 6.740950753801002 : SURFACE LONGITUDE
DATUM.F                   nan : DEPTH DATUM ELEV
~Curve Information -----------------------------------------
DEPT   .FT    : 
DTCO   .US/F  : DELTA-T COMPRESSIONAL
DTSM   .US/F  : DELTA-T SHEAR
GRS    .GAPI  : GAMMA RAY FROM SONIC LOG
LLD    .OHMM  : LATEROLOG DEEP RESISTIVITY
LLS    .OHMM  : LATEROLOG SHALLOW RESISTIVITY
NPHI_LS.DEC   : NEUTRON POROSITY LIMESTONE
~Params ----------------------------------------------------
~Other -----------------------------------------------------
~ASCII -----------------------------------------------------
# ...
 11710.00000   51.65010   95.01380    4.05310  774.89890  848.62680    0.01120
 11710.50000   51.94400   95.29170    4.35640  769.76070  848.86690    0.01230
 11711.00000   52.44480   95.45250    4.96800  764.62260  846.24310    0.01300
 11711.50000   52.76440   95.45050    5.61230  761.71120  843.52220    0.01240
 11712.00000   52.58340   95.35020    6.40440  793.85650  874.27390    0.01150
 11712.50000   52.01460   95.10240    7.04750  828.97840  898.83700    0.01050
 11713.00000   51.45540   94.84390    7.49770  829.33050  891.93090    0.00980
 11713.50000   51.13780   94.81550    7.84280  725.92060  797.84990    0.01050
 11714.00000   51.48210   94.78720    8.59350  596.57050  646.93120    0.01120
 11714.50000   51.75120   94.75880   10.16150  467.22040  496.01250    0.01250
 11715.00000   51.94400   94.72390   12.58090  337.87020  363.37610    0.01290
 11715.50000   52.12910   94.66410   14.56230  249.66040  304.51100    0.01320
 11716.00000   52.23320   94.43180   16.02190  212.52520  268.81140    0.01360
 11716.50000   51.83490   93.85550   16.01690  201.15160  256.94860    0.01280
 11717.00000   50.38140   93.28200   16.97460  195.82910  258.56220    0.01150
 11717.50000   48.80620   92.89380   22.85610  200.48070  264.81340    0.00990
 11718.00000   48.59800   92.35830   34.05490  208.18470  280.11220    0.00880
 11718.50000   48.44680   91.82470   42.04390  190.87850  244.33510    0.01010
 11719.00000   48.14020   91.45500   41.14560  150.09790  191.26430    0.01130
 11719.50000   47.56450   91.10950   34.57830  109.31720  142.61310    0.01240
 11720.00000   46.67800   90.54960   26.82620  109.91400  142.66380    0.01220
 11720.50000   45.89700   89.98970   23.45050  141.06980  190.95180    0.01110
 11721.00000   46.05010   90.01210   20.25450  218.65300  271.42260    0.00930
 11721.50000   46.07390   90.04050   18.06250  296.23620  373.94800    0.00900
 11722.00000   46.30340   90.46680   19.56000  423.72500  564.69170    0.00870
 11722.50000   46.46440   91.20680   27.24930  555.74820  672.26400    0.01070
 11723.00000   46.26990   91.75640   35.33750  531.26600  644.35100    0.01350
 11723.50000   46.10260   92.17230   35.78880  506.78040  606.52160    0.01440
 11724.00000   46.08280   92.51980   28.71970  602.53370  614.04950    0.01200
 11724.50000   45.69300   92.86140   20.48970  762.10560  782.74570    0.00970
 11725.00000   45.32800   93.10890   13.83150  921.67750 1003.00040    0.00770
 11725.50000   44.88910   93.35640   10.61910 1081.24940 1178.26590    0.00670
 11726.00000   45.07620   93.41720    8.20400 1145.09070 1222.19890    0.00620
 11726.50000   44.87870   93.02090    7.12160 1036.55920 1144.51490    0.00660
 11727.00000   44.88910   92.05650    6.22930  868.59130  987.64510    0.00690
 11727.50000   46.04710   92.04640    5.51840  779.11330  830.77540    0.00720
 11728.00000   46.68520   92.49620    5.69030  723.37710  744.81090    0.00750
 11728.50000   46.60580   92.99460    5.24550  678.79180  676.57270    0.00800
 11729.00000   46.21590   93.00870    4.70170  673.25290  641.35240    0.00800
 11729.50000   45.90740   93.02280    4.74930  666.32470  622.63630    0.00800
 11730.00000   46.09320   93.04420    4.70260  659.39650  603.92010    0.00810
 11730.50000   46.55560   93.09460    4.77800  652.46830  585.20390    0.00810
 11731.00000   46.66630   93.14500    5.11110  645.54020  577.71750    0.00810
 11731.50000   46.47850   93.19540    5.09220  638.61200  567.15200    0.00820
 11732.00000   46.46350   93.18860    4.97060  626.69210  556.77970    0.00810
 11732.50000   46.33140   93.23570    5.06520  594.05370  530.52020    0.00780
 11733.00000   46.09570   93.56430    4.63970  557.44790  501.48350    0.00800
 11733.50000   46.57220   94.56650    4.66070  504.97270  440.76350    0.00780
 11734.00000   47.36250   95.64780    5.48130  475.13140  404.33150    0.00770
 11734.50000   47.85150   95.08820    6.32450  472.22000  401.85020    0.00750
 11735.00000   47.57300   95.41440    6.92300  478.73110  436.49380    0.00730
 11735.50000   46.46320   96.09780    7.32520  491.75350  438.04920    0.00700
 11736.00000   45.76590   95.96570    8.65750  468.68990  379.04720    0.00850
 11736.50000   46.22920   94.92180   12.55020  353.37210  289.72300    0.01080
 11737.00000   46.80770   94.30180   17.55520  238.05430  200.39890    0.01320
 11737.50000   46.70330   93.96670   22.56020  122.73650  111.07470    0.01610
 11738.00000   46.70330   93.83950   26.56180  114.41440  106.39220    0.01730
 11738.50000   47.44900   94.43830   22.30360  114.84070   99.07530    0.01800
 11739.00000   48.58320   95.38290   15.48420  116.36170   97.61190    0.02190
 11739.50000   49.32500   96.59060    9.09710  115.44080   99.81520    0.02570
 11740.00000   49.63090   97.72160    7.08080  114.94140  102.01840    0.03010
 11740.50000   50.24790   98.40020    6.27240  118.17870  104.22170    0.02990
 11741.00000   50.47600   98.26590    6.67430  122.37940  111.82580    0.02500
 11741.50000   50.10090   97.15280    7.24920  148.93130  128.63020    0.02000
 11742.00000   49.56870   95.66240    7.43570  177.87080  151.13250    0.01510
 11742.50000   49.56780   94.27140    7.47280  184.29350  152.07750    0.01380
 11743.00000   49.98430   93.21520    8.06740  161.19740  136.09940    0.01370
 11743.50000   49.10950   92.58630    9.26510  142.25870  113.41280    0.01430
 11744.00000   49.45160   93.54810   14.47350  121.86730   95.83550    0.01730
 11744.50000   51.21030   95.55420   30.51210  100.50740   78.16540    0.02650
 11745.00000   53.34510  100.08910   56.64200   79.14750   60.49530    0.05670
 11745.50000   56.93840  104.12450   92.89120   57.78760   42.82510    0.10360
 11746.00000   61.38870  106.97270  130.32040   36.42770   34.04730    0.14640
 11746.50000   64.72900  115.53370  149.25110   27.71360   28.27420    0.18370
 11747.00000   66.58080  118.45530  167.73450   29.68440   31.32470    0.19740
 11747.50000   66.61500  114.93900  157.16100   32.62570   35.83590    0.16390
 11748.00000   65.11660  110.54550  150.41430  208.85150  281.92450    0.12440
 11748.50000   61.73120   98.37570   91.91750  645.77430  589.25820    0.05920
 11749.00000   57.63720   91.57550   52.84360 1082.69720  896.59190    0.02430
 11749.50000   53.82590   88.82950   29.02100 1499.77470 1196.00140    0.01520
 11750.00000   51.85360   89.24960   21.88300 1837.47040 1490.12810    0.01430
 11750.50000   50.39690   89.67360   21.24150 1996.89680 1685.57750    0.01340
 11751.00000   49.06920   87.77640   19.96410 2080.21880 1782.04070    0.01250
 11751.50000   49.02460   86.67670   18.06220 2383.53440 1878.50390    0.01160
 11752.00000   48.69880   86.55450   16.70070 2661.52020 1969.02790    0.01070
 11752.50000   48.89950   87.04320   15.98160 2901.51110 2505.87470    0.01070
 11753.00000   48.78950   86.76190   15.91350 2697.89310 2308.75810    0.01180
 11753.50000   48.82100   85.89910   14.56160 2365.23220 2111.64160    0.01280
 11754.00000   49.37360   85.48530   12.90090 2032.57130 1776.54460    0.01370
 11754.50000   49.41350   84.94320   11.51820 1615.16840 1539.70480    0.01430
 11755.00000   49.38360   84.08840   11.87350 1595.22820 1453.82820    0.01400
 11755.50000   49.35360   85.41940   12.74060 1614.80760 1517.62810    0.01320
 11756.00000   48.90890   87.71300   13.07910 1883.00230 1803.24730    0.01240
 11756.50000   49.05110   87.94030   12.92700 2431.69100 1989.13020    0.01160
 11757.00000   48.71290   87.56970   12.58940 3067.46790 2538.43730    0.01160
 11757.50000   48.68790   88.04440   12.78180 3703.24480 3068.94420    0.01160
 11758.00000   48.30540   88.61430   12.79030 4121.49500 3558.49550    0.01190
 11758.50000   48.12470   88.80100   12.50990 4399.83260 3775.57980    0.01240
 11759.00000   47.91600   88.87560   12.06360 4536.81360 3946.41020    0.01290
 11759.50000   48.54490   88.87560   12.22450 4125.05200 3617.09390    0.01340
 11760.00000   48.65660   88.53410   12.75660 3623.46900 3071.34800    0.01400
 11760.50000   48.31950   87.96480   12.81180 2987.15390 2290.39380    0.01450
