~Version ---------------------------------------------------
VERS.   2.0 : CWLS log ASCII Standard -VERSION 2.0
WRAP.    NO : One line per depth step
DLM . SPACE : Column Data Section Delimiter
~Well ------------------------------------------------------
STRT .FT                142.0 : START DEPTH
STOP .FT              11881.0 : STOP DEPTH
STEP .FT                  0.5 : STEP
NULL .               -9999.25 : NULL VALUE
COMP .                        : COMPANY
WELL .                        : WELL
FLD  .                        : FIELD
LOC  .                        : LOCATION
PROV .                        : PROVINCE
CNTY .                        : COUNTY
STAT .                        : STATE
CTRY .                        : COUNTRY
SRVC .                        : SERVICE COMPANY
DATE .                        : DATE
UWI  .                        : UNIQUE WELL ID
API  .                        : API NUMBER
SLAT .WGS84 1.615166021112799 : SURFACE LATITUDE
SLON .WGS84 6.740950753801002 : SURFACE LONGITUDE
DATUM.F                   nan : DEPTH DATUM ELEV
~Curve Information -----------------------------------------
DEPT   .FT    : 
DTCO   .US/F  : DELTA-T COMPRESSIONAL
DTSM   .US/F  : DELTA-T SHEAR
GRS    .GAPI  : GAMMA RAY FROM SONIC LOG
LLD    .OHMM  : LATEROLOG DEEP RESISTIVITY
LLS    .OHMM  : LATEROLOG SHALLOW RESISTIVITY
NPHI_LS.DEC   : NEUTRON POROSITY LIMESTONE
~Params ----------------------------------------------------
~Other -----------------------------------------------------
~ASCII -----------------------------------------------------
# ...
 10845.50000   49.70710   87.41650   13.39380  591.14950  592.25710    0.01340
 10846.00000   48.51730   88.09190   12.84030  694.00050  610.80150    0.01260
 10846.50000   48.41660   88.65620   12.65090  926.48300  808.36680    0.01180
 10847.00000   48.41660   88.25060   14.09070 1191.37340 1005.93220    0.01100
 10847.50000   49.57120   87.20120   15.81720 1456.26370 1203.49750    0.01030
 10848.00000   50.62650   85.95860   17.73520 1721.15410 1401.06280    0.00990
 10848.50000   51.19460   84.71590   17.67500 1986.04450 1576.88530    0.00940
 10849.00000   50.83540   82.59960   16.47800 2197.46760 1757.80200    0.00950
 10849.50000   51.10770   79.92980   15.28100 2134.16990 1845.25650    0.01080
 10850.00000   50.71380   78.76700   14.50170 2016.12030 1757.22520    0.01260
 10850.50000   49.72740   78.04730   14.34900 1975.25500 1646.87170    0.01310
 10851.00000   49.13360   78.61160   13.23750 1836.54010 1542.22610    0.01290
 10851.50000   49.67160   81.21050   12.51820 1697.82510 1437.58050    0.01270
 10852.00000   50.84950   82.83860   13.27840 1610.14980 1332.93490    0.01220
 10852.50000   52.63570   84.05280   14.07010 1577.96040 1312.00580    0.01160
 10853.00000   54.27200   84.77180   14.38240 1627.66360 1344.68700    0.01020
 10853.50000   52.86580   83.29110   13.85160 1827.53570 1575.61490    0.00940
 10854.00000   51.39460   82.24690   12.93940 1987.43340 1806.54280    0.00930
 10854.50000   51.32380   82.37590   12.19340 2394.06890 1945.09960    0.00950
 10855.00000   51.78550   82.79170   11.38990 2139.78750 1788.29710    0.00970
 10855.50000   51.79480   83.11040   10.43050 1978.35500 1526.95960    0.01100
 10856.00000   51.80410   83.42920    9.77290 1593.85700 1325.34760    0.01170
 10856.50000   51.55860   84.54780    9.84030 1530.14790 1302.54220    0.01120
 10857.00000   50.71150   85.42750   10.51230 1543.50050 1326.76000    0.01090
 10857.50000   49.91370   84.96330   10.90650 1518.28860 1336.44720    0.01100
 10858.00000   49.69360   84.21550   10.67630 1438.85130 1282.56080    0.01110
 10858.50000   49.40720   83.50860   10.22910 1433.33280 1228.67450    0.01090
 10859.00000   49.68560   83.03710    9.85970 1412.85220 1197.81790    0.01090
 10859.50000   50.47490   83.10290    9.78530 1369.92860 1211.15110    0.01090
 10860.00000   51.12280   84.26760    9.77780 1296.85210 1155.60590    0.01090
 10860.50000   50.81930   86.50890    9.77040 1197.86450 1086.17440    0.01120
 10861.00000   51.13030   88.38390    9.31110 1131.39270 1038.01120    0.01160
 10861.50000   51.41650   88.33930    9.65050 1206.42340 1080.07230    0.01170
 10862.00000   50.61880   86.72090   10.64250 1331.70550 1217.34300    0.01150
 10862.50000   49.61650   84.46740   11.75720 1456.98760 1354.61370    0.01250
 10863.00000   49.31220   83.43890   12.18290 1545.39170 1436.84510    0.01320
 10863.50000   49.11630   83.35250   11.57900 1496.61500 1361.70960    0.01320
 10864.00000   48.97090   83.39710   10.72960 1317.47220 1236.70210    0.01290
 10864.50000   49.66920   83.44170    9.92860 1313.33950 1179.23740    0.01260
 10865.00000   50.43360   83.53540    9.92750 1359.72890 1248.65980    0.01140
 10865.50000   51.10050   83.48980   10.97520 1465.88700 1346.68260    0.01010
 10866.00000   50.56840   83.99370   12.06000 1661.69850 1461.50540    0.01000
 10866.50000   49.75030   84.48210   13.44130 1857.51000 1576.32830    0.00990
 10867.00000   49.35550   84.45300   13.56610 1912.68640 1661.22270    0.00950
 10867.50000   50.80310   84.29610   12.85420 1958.68030 1726.16480    0.00900
 10868.00000   51.39870   84.74060   12.43950 2004.67420 1788.98870    0.00860
 10868.50000   50.28470   84.92470   12.15640 2038.55260 1899.49240    0.00850
 10869.00000   48.41660   84.91230   11.63360 2356.17730 1959.70790    0.00910
 10869.50000   48.57610   85.12110   11.22400 2356.03670 1956.05060    0.00960
 10870.00000   49.98370   85.33000   11.54940 2222.33780 1952.39320    0.01020
 10870.50000   50.78110   85.50550   11.39150 2055.91130 1939.37410    0.01070
 10871.00000   51.19720   85.65350   11.38970 1966.16140 1888.90770    0.01140
 10871.50000   51.99080   85.63730   11.83570 1675.42930 1726.63640    0.01260
 10872.00000   52.20190   85.64110   12.64850 1384.69730 1474.45160    0.01430
 10872.50000   51.53570   85.64500   15.27820 1093.96520 1222.26670    0.01600
 10873.00000   50.00980   85.91120   35.05610  803.23310  970.08190    0.01600
 10873.50000   49.33690   86.93210   69.77270  699.25070  818.77100    0.01530
 10874.00000   50.09950   88.21260  134.10140  721.88720  823.32570    0.01450
 10874.50000   50.17130   88.98980  156.40090 1116.39880 1406.07310    0.01380
 10875.00000   49.14390   89.76700  133.92640 1942.10420 1985.78390    0.01290
 10875.50000   48.01340   89.80260   89.48890 4948.26900 7044.47290    0.01160
 10876.00000   47.98070   89.60450   45.05150 9871.13540 9672.16570    0.01030
 10876.50000   48.47770   88.39940   22.27090 12124.19030 12051.25880    0.00900
 10877.00000   48.54730   86.68100   18.37840 14377.24520 14430.35180    0.00770
 10877.50000   47.30600   84.47890   17.90500 15642.11450 16333.62630    0.00630
 10878.00000   46.58280   83.00770   18.49780 15734.89210 16123.27210    0.00660
 10878.50000   47.70560   83.40870   19.57240 14618.28080 15860.32930    0.00620
 10879.00000   49.13890   83.59170   20.67070 13873.25460 15379.85460    0.00610
 10879.50000   49.12850   83.77460   19.14190 11643.68150 12542.78900    0.00520
 10880.00000   49.22040   83.70770   16.47990 8210.49750 8437.48560    0.00420
 10880.50000   49.15640   83.99780   16.51670 4777.31350 4629.42060    0.00570
 10881.00000   49.58140   85.12330   19.16010 2030.76630 2010.30970    0.00900
 10881.50000   50.16580   85.64940   22.37910 1527.79160 1797.22120    0.01220
 10882.00000   51.02050   85.30050   23.11630 1752.04650 1969.14990    0.01300
 10882.50000   52.37100   83.96340   23.01910 2214.49630 2216.95000    0.01370
 10883.00000   53.30350   81.40340   23.48380 2788.26230 3136.92720    0.01330
 10883.50000   51.99930   78.12000   23.46270 3332.88250 3306.46020    0.01320
 10884.00000   50.62850   77.09010   21.30660 3559.90770 3445.32930    0.01370
 10884.50000   50.72480   77.64500   18.21200 3665.75970 3556.42450    0.01390
 10885.00000   51.40970   78.38670   14.55530 3632.17800 3556.42450    0.01350
 10885.50000   52.75170   78.87610   12.30390 3539.06540 3102.63350    0.01310
 10886.00000   54.27620   79.49590   11.46680 3207.82880 2670.65500    0.01320
 10886.50000   53.60960   80.36340   12.08690 2942.83960 2560.51950    0.01400
 10887.00000   52.05050   81.22210   13.03830 2997.66170 2608.44080    0.01490
 10887.50000   50.13260   81.08300   12.62390 3834.75250 3136.81710    0.01420
 10888.00000   49.76250   80.28020   10.39630 4857.98800 3936.83260    0.01230
 10888.50000   49.39230   79.47740    9.14440 5676.57650 4605.08920    0.00990
 10889.00000   49.01820   78.64040   10.14280 5092.75810 4301.87240    0.00850
 10889.50000   49.30210   79.01820   13.50850 4362.98510 3749.14240    0.00920
 10890.00000   49.94970   80.80890   16.32010 3633.21210 3196.41240    0.01060
 10890.50000   49.74990   82.72680   18.42430 2985.14930 2643.68240    0.01240
 10891.00000   49.35540   84.11960   18.00770 2663.92770 2358.51950    0.01270
 10891.50000   50.58610   84.65360   17.68160 2444.66370 2251.73480    0.01290
 10892.00000   51.81920   84.93540   18.54820 2369.52280 2209.02090    0.01250
 10892.50000   52.34890   85.21730   19.44960 2340.54480 2292.24590    0.01200
 10893.00000   52.51850   85.24400   20.87000 2673.37840 2506.13180    0.01200
 10893.50000   52.59250   84.86610   21.52140 3006.21210 2883.98660    0.01230
 10894.00000   52.35790   84.28760   20.96740 3339.04580 3261.84150    0.01210
 10894.50000   51.72570   83.76190   19.20740 3745.12390 3639.69630    0.01190
 10895.00000   51.00270   84.43490   17.09960 4444.17990 4017.55110    0.01170
 10895.50000   51.40450   84.93540   15.76750 5028.44470 4395.40600    0.01160
 10896.00000   51.58260   85.09920   15.21830 5956.50600 4765.65670    0.01190
