~Version ---------------------------------------------------
VERS.   2.0 : CWLS log ASCII Standard -VERSION 2.0
WRAP.    NO : One line per depth step
DLM . SPACE : Column Data Section Delimiter
~Well ------------------------------------------------------
STRT .FT                142.0 : START DEPTH
STOP .FT              11881.0 : STOP DEPTH
STEP .FT                  0.5 : STEP
NULL .               -9999.25 : NULL VALUE
COMP .                        : COMPANY
WELL .                        : WELL
FLD  .                        : FIELD
LOC  .                        : LOCATION
PROV .                        : PROVINCE
CNTY .                        : COUNTY
STAT .                        : STATE
CTRY .                        : COUNTRY
SRVC .                        : SERVICE COMPANY
DATE .                        : DATE
UWI  .                        : UNIQUE WELL ID
API  .                        : API NUMBER
SLAT .WGS84 1.615166021112799 : SURFACE LATITUDE
SLON .WGS84 6.740950753801002 : SURFACE LONGITUDE
DATUM.F                   nan : DEPTH DATUM ELEV
~Curve Information -----------------------------------------
DEPT   .FT    : 
DTCO   .US/F  : DELTA-T COMPRESSIONAL
DTSM   .US/F  : DELTA-T SHEAR
GRS    .GAPI  : GAMMA RAY FROM SONIC LOG
LLD    .OHMM  : LATEROLOG DEEP RESISTIVITY
LLS    .OHMM  : LATEROLOG SHALLOW RESISTIVITY
NPHI_LS.DEC   : NEUTRON POROSITY LIMESTONE
~Params ----------------------------------------------------
~Other -----------------------------------------------------
~ASCII -----------------------------------------------------
# ...
 10131.50000   53.32310   88.48780   18.70780 2025.18150 1934.53490    0.02010
 10132.00000   53.59470   88.80460   18.73330 1730.05850 1828.23680    0.01880
 10132.50000   55.05580   88.33860   19.38150 1654.25610 1711.36860    0.01750
 10133.00000   55.88160   87.43560   19.78550 1610.57060 1667.78100    0.01630
 10133.50000   54.66650   86.65910   20.49690 1588.37120 1646.93550    0.01530
 10134.00000   54.61490   87.15990   21.50950 1566.17180 1630.35780    0.01530
 10134.50000   55.53740   88.73600   23.71510 1533.41030 1600.89330    0.01660
 10135.00000   55.30240   88.39980   25.66630 1394.53380 1497.69140    0.01810
 10135.50000   54.63780   86.72860   28.34040 1217.47430 1336.37040    0.01950
 10136.00000   54.23830   85.76300   29.06370  887.68290 1095.01720    0.02090
 10136.50000   54.22520   86.27040   28.58630  660.36790  733.61590    0.02110
 10137.00000   54.43180   87.35170   28.28530  617.56510  702.83710    0.02080
 10137.50000   54.43800   88.58950   29.57790  574.76220  694.39250    0.02120
 10138.00000   54.04910   89.92340   34.51060  531.95940  670.68730    0.02480
 10138.50000   54.23340   89.79170   42.59770  476.35440  586.23740    0.03770
 10139.00000   55.23510   90.57790   50.44170  380.07680  472.39030    0.05050
 10139.50000   55.93550   92.61030   56.70360  283.79920  352.65070    0.05850
 10140.00000   55.72020   94.65900   56.11420  187.52150  232.91120    0.04760
 10140.50000   55.15480   95.56410   44.08220   90.68480  113.17160    0.03480
 10141.00000   54.47680   95.18980   35.12340  102.93030  115.26270    0.02190
 10141.50000   53.75660   94.59380   36.93070  199.45510  299.01230    0.01490
 10142.00000   53.80860   94.13510   48.59280  394.81900  482.76190    0.01630
 10142.50000   53.82870   93.79560   62.73470  557.92400  643.52160    0.03390
 10143.00000   54.45160   94.12780   72.56320  526.91650  616.57410    0.05670
 10143.50000   56.56900   97.01490   81.03010  337.45610  372.38950    0.08860
 10144.00000   59.77010  104.37230   85.01130  147.99560  146.92520    0.12060
 10144.50000   63.29360  110.07170   84.68780   28.85430   43.88590    0.12480
 10145.00000   66.11440  115.78710   81.06900   20.54330   28.98170    0.10780
 10145.50000   68.43380  119.71750   77.17740   20.30770   26.92810    0.10460
 10146.00000   70.10150  122.32830   73.37530   21.22370   27.86270    0.11930
 10146.50000   70.63140  124.33990   72.01100   21.22180   28.42110    0.15170
 10147.00000   70.25230  123.37280   73.33330   20.21180   27.26030    0.15620
 10147.50000   70.07380  121.17700   74.35370   17.70110   25.02610    0.13630
 10148.00000   69.47700  118.18570   68.80900   17.69670   24.40380    0.10570
 10148.50000   68.56040  114.03820   62.25550   23.74550   29.55200    0.07510
 10149.00000   66.50960  109.70510   52.72290   31.17060   55.18230    0.05700
 10149.50000   62.98110  104.45430   46.36240   73.38160  102.23550    0.05050
 10150.00000   59.66860   97.16960   41.39600  115.59260  167.39760    0.04940
 10150.50000   58.11300   93.98160   38.19440  157.80360  181.54720    0.04890
 10151.00000   57.14570   93.14950   36.11120  171.08070  193.90600    0.04840
 10151.50000   56.55470   92.71860   35.58420  184.35780  202.17760    0.04680
 10152.00000   56.46130   92.44950   35.01400  195.08830  210.44920    0.04400
 10152.50000   56.92090   92.81980   33.78620  201.99900  218.72080    0.04230
 10153.00000   56.52270   93.08560   33.06150  208.90970  226.74770    0.04130
 10153.50000   55.93770   93.09680   32.54320  215.82040  228.20850    0.04040
 10154.00000   56.08920   92.75590   32.49540  222.73110  232.53290    0.03770
 10154.50000   56.38090   92.82890   31.24990  234.47850  244.91890    0.03450
 10155.00000   56.16690   92.76060   29.55710  247.43500  275.79750    0.03290
 10155.50000   55.99600   92.10380   28.67140  309.57000  306.67610    0.03280
 10156.00000   56.11750   92.17730   27.72740  371.70500  337.55480    0.03660
 10156.50000   56.33340   92.48970   27.17390  374.09550  356.12030    0.04670
 10157.00000   57.15350   92.80210   28.23060  351.54810  330.17270    0.05460
 10157.50000   58.25290   93.55630   31.24990  295.04590  294.95970    0.06090
 10158.00000   58.98210   94.77870   33.84480  256.36690  259.74670    0.06630
 10158.50000   58.84050   95.89220   35.88460  222.14380  224.53380    0.07580
 10159.00000   59.47740   97.73340   37.69700  187.92060  189.32080    0.08300
 10159.50000   60.84440  100.11140   40.40890  157.11210  154.10780    0.08850
 10160.00000   62.53310  103.01670   43.03940  139.96240  118.89480    0.09000
 10160.50000   63.17760  103.60020   44.43390  122.81270   98.22050    0.08970
 10161.00000   63.62390  103.43820   45.40090  105.66290   87.23860    0.09020
 10161.50000   63.95800  104.36870   47.56340   92.45710   77.13160    0.09090
 10162.00000   64.34200  106.00830   48.37410   83.67450   70.52400    0.09200
 10162.50000   64.70500  107.97530   47.64290   77.36730   63.91640    0.09360
 10163.00000   65.14830  109.75900   46.61920   74.33600   59.35230    0.09610
 10163.50000   65.63270  111.97730   46.36770   73.78750   57.85330    0.09890
 10164.00000   66.47860  114.79150   47.63210   69.48480   56.35440    0.10220
 10164.50000   67.94330  117.17120   49.41060   61.00070   49.14930    0.10550
 10165.00000   69.41010  119.53090   51.33970   52.51660   40.14410    0.11390
 10165.50000   70.14590  120.62450   53.40420   44.03250   31.13900    0.12320
 10166.00000   70.33870  120.54060   55.46340   36.37450   26.44310    0.13060
 10166.50000   70.04630  120.10180   56.34950   35.26760   25.40240    0.13230
 10167.00000   69.83990  117.10670   56.14870   38.79060   26.51760    0.12900
 10167.50000   69.63350  114.11150   54.14470   42.31350   28.91810    0.12290
 10168.00000   69.42710  114.42770   51.24080   45.83650   31.31860    0.11860
 10168.50000   69.22070  117.27680   49.35960   47.65380   32.23310    0.11900
 10169.00000   68.89340  119.93650   49.04930   45.37880   31.25200    0.12140
 10169.50000   68.84940  121.45690   51.16260   41.20260   28.44190    0.12650
 10170.00000   69.24910  123.31050   55.60900   36.11820   25.63170    0.13290
 10170.50000   69.84870  126.53290   58.70000   31.62500   22.82160    0.13880
 10171.00000   72.32750  130.45980   60.73470   29.51180   20.01140    0.14400
 10171.50000   74.38880  134.39170   62.65080   26.60430   17.20130    0.15200
 10172.00000   74.00540  137.12000   63.44340   23.69690   15.62850    0.16280
 10172.50000   73.37690  137.21200   68.03890   20.78950   13.54850    0.17480
 10173.00000   74.05800  137.25540   69.65020   18.77520   12.33290    0.17910
 10173.50000   75.21900  137.44300   70.30910   18.59020   12.14670    0.18210
 10174.00000   75.63980  137.52550   70.06660   18.40520   11.96040    0.18390
 10174.50000   74.75030  137.01440   69.19870   18.22030   11.81140    0.18650
 10175.00000   74.35850  135.61200   68.08560   18.03530   11.90310    0.18770
 10175.50000   74.94690  135.82380   67.72040   17.85030   11.81200    0.18740
 10176.00000   75.72670  136.77450   68.47660   17.52450   11.73910    0.18800
 10176.50000   76.35680  138.05460   69.63950   17.09780   11.29780    0.18860
 10177.00000   76.00760  139.00600   71.21630   15.89730   10.68230    0.19230
 10177.50000   74.29420  141.50790   72.84830   14.56260   10.10570    0.19700
 10178.00000   72.37110  144.53150   74.67820   13.17370    9.68440    0.20200
 10178.50000   73.18500  147.21910   77.33500   11.93200    9.26300    0.20650
 10179.00000   73.78410  148.96610   80.54300   10.91140    8.84540    0.21520
 10179.50000   71.18560  144.76670   83.75100    9.68830    7.81730    0.22610
 10180.00000   68.84780  139.55940   86.43070    8.46510    6.78920    0.23770
 10180.50000   63.59640  119.74530   83.19220    7.68380    6.50310    0.31760
 10181.00000   58.53510  105.57570   73.33560    9.99300    7.11640    0.34210
 10181.50000   52.97380   91.40600   58.81830   17.90550   11.26570    0.30300
 10182.00000   50.21170   85.49330   45.86320   29.83630  304.63090    0.18160
