~Version ---------------------------------------------------
VERS.   2.0 : CWLS log ASCII Standard -VERSION 2.0
WRAP.    NO : One line per depth step
DLM . SPACE : Column Data Section Delimiter
~Well ------------------------------------------------------
STRT .FT                142.0 : START DEPTH
STOP .FT              11881.0 : STOP DEPTH
STEP .FT                  0.5 : STEP
NULL .               -9999.25 : NULL VALUE
COMP .                        : COMPANY
WELL .                        : WELL
FLD  .                        : FIELD
LOC  .                        : LOCATION
PROV .                        : PROVINCE
CNTY .                        : COUNTY
STAT .                        : STATE
CTRY .                        : COUNTRY
SRVC .                        : SERVICE COMPANY
DATE .                        : DATE
UWI  .                        : UNIQUE WELL ID
API  .                        : API NUMBER
SLAT .WGS84 1.615166021112799 : SURFACE LATITUDE
SLON .WGS84 6.740950753801002 : SURFACE LONGITUDE
DATUM.F                   nan : DEPTH DATUM ELEV
~Curve Information -----------------------------------------
DEPT   .FT    : 
DTCO   .US/F  : DELTA-T COMPRESSIONAL
DTSM   .US/F  : DELTA-T SHEAR
GRS    .GAPI  : GAMMA RAY FROM SONIC LOG
LLD    .OHMM  : LATEROLOG DEEP RESISTIVITY
LLS    .OHMM  : LATEROLOG SHALLOW RESISTIVITY
NPHI_LS.DEC   : NEUTRON POROSITY LIMESTONE
~Params ----------------------------------------------------
~Other -----------------------------------------------------
~ASCII -----------------------------------------------------
# ...
 10284.50000   87.25890  148.22670  124.61740    6.60880    4.82650    0.36970
 10285.00000   86.83940  147.21880  125.21900    6.98350    5.15460    0.36670
 10285.50000   85.76690  145.65670  124.00920    7.30130    5.36800    0.36360
 10286.00000   82.60120  143.22110  122.61460    7.47340    5.31990    0.37290
 10286.50000   80.31400  140.90300  122.99130    7.20730    5.15830    0.38950
 10287.00000   78.67180  138.86460  124.72160    7.08840    5.18940    0.39630
 10287.50000   77.94030  131.73740  125.40390    7.30230    5.34230    0.39560
 10288.00000   79.54610  123.06370  124.81440    7.75530    5.49530    0.38530
 10288.50000   82.79030  119.45990  122.09550    8.20830    5.68540    0.37920
 10289.00000   87.09980  120.70480  121.63880    8.45040    5.83290    0.38770
 10289.50000   90.46440  121.85220  123.93610    8.17570    5.86890    0.38640
 10290.00000   92.13540  121.96480  126.56450    8.28060    5.96660    0.37740
 10290.50000   93.15480  121.90390  127.59650    8.78750    6.53590    0.34210
 10291.00000   93.40450  122.29100  125.45280   10.02160    7.40340    0.30690
 10291.50000   91.76710  124.91030  120.47090    9.97640    7.57750    0.31190
 10292.00000   89.95400  129.86810  116.33400    9.13880    6.83200    0.33180
 10292.50000   88.58220  133.34560  114.45500    8.09170    6.08660    0.36040
 10293.00000   90.28220  135.90010  115.08640    7.04460    5.34110    0.38910
 10293.50000   93.11700  136.14380  117.22600    6.74170    5.30880    0.39610
 10294.00000   95.69250  136.50330  119.41160    8.50420    5.55650    0.39700
 10294.50000   94.95940  137.98570  121.33690   10.70720    7.44220    0.39230
 10295.00000   90.75340  139.79340  121.52770   12.91020    9.66980    0.37600
 10295.50000   86.86750  139.79290  119.92110   13.92000    9.71560    0.36120
 10296.00000   85.41050  137.59350  118.87650   13.01690    9.34240    0.35140
 10296.50000   87.00140  133.84550  120.60030   11.88750    8.96920    0.36190
 10297.00000   90.64420  127.78370  125.75470   10.75800    8.39590    0.37690
 10297.50000   93.25980  128.98970  130.78190   10.03430    7.60550    0.39190
 10298.00000   94.18630  132.50010  130.93030   10.12280    7.28970    0.39440
 10298.50000   94.69240  135.44270  129.25730   10.59070    7.54080    0.39060
 10299.00000   95.13870  137.94080  129.04330   11.95360    7.95880    0.36550
 10299.50000   95.03290  138.74820  130.08750   14.34660   10.44960    0.33640
 10300.00000   94.76230  139.52840  130.42080   17.95190   13.45850    0.30730
 10300.50000   94.09230  139.67280  130.07990   23.37570   16.46750    0.26880
 10301.00000   89.87610  136.48260  127.51110   28.79950   18.05830    0.24180
 10301.50000   83.04240  122.79930  124.97980   27.67660   17.96720    0.22810
 10302.00000   77.20970  112.38480  123.88630   23.83720   15.41410    0.21710
 10302.50000   74.17400  102.95440  125.62960   18.03390   12.26580    0.22850
 10303.00000   71.55270   97.52590  125.65620   16.74320   11.12220    0.24700
 10303.50000   70.46560   94.04190  122.92980   16.06500   10.55020    0.27070
 10304.00000   70.53930   95.80580  119.68820   15.60120   10.25990    0.28890
 10304.50000   72.37310   98.95570  116.99620   15.21150    9.96950    0.30010
 10305.00000   73.51950  101.38610  115.73430   13.93840    9.03380    0.30680
 10305.50000   73.28010  102.69410  117.55610   12.07640    7.89130    0.31920
 10306.00000   73.95250  104.12040  120.73770   10.21430    6.74890    0.33150
 10306.50000   74.65750  106.12380  123.88920   10.17860    6.60530    0.33720
 10307.00000   74.30930  105.11700  124.87910   10.36780    6.91800    0.34250
 10307.50000   74.62060  102.49560  123.44490   10.55710    7.10530    0.35430
 10308.00000   75.63710   99.45070  122.15670   10.44860    6.87220    0.37040
 10308.50000   76.13240   97.68070  121.72200    9.45540    6.29030    0.38010
 10309.00000   76.82270   97.18280  123.15030    8.46220    5.70830    0.38200
 10309.50000   78.48830   98.75750  124.57720    7.60760    5.12640    0.38330
 10310.00000   80.92520  101.22420  122.68270    7.30730    4.91760    0.39110
 10310.50000   84.55030  105.67440  121.21750    7.18720    4.76110    0.40100
 10311.00000   89.50880  112.70310  119.27500    7.14320    4.70290    0.40820
 10311.50000   94.45070  119.12090  118.68200    7.12110    4.71270    0.41600
 10312.00000   95.65730  121.33240  118.73090    7.08840    4.76180    0.41570
 10312.50000   95.25060  120.21180  119.44700    7.17660    4.81100    0.41290
 10313.00000   94.39740  118.98050  121.09800    7.28700    4.86010    0.40960
 10313.50000   92.82600  117.35530  120.30630    7.51470    4.93270    0.40640
 10314.00000   91.29810  115.63150  117.53060    7.89580    5.19750    0.40320
 10314.50000   89.77020  114.19890  114.68760    8.27690    5.46230    0.39540
 10315.00000   89.26630  113.82970  113.73340    8.65810    5.72700    0.38500
 10315.50000   89.20970  114.13620  115.08300    8.88670    5.83290    0.38530
 10316.00000   89.78680  115.76870  117.19030    8.71880    5.87750    0.39080
 10316.50000   90.73550  117.40120  118.66190    8.55990    5.61760    0.39440
 10317.00000   92.93320  119.03370  119.23130    8.40110    5.58310    0.39360
 10317.50000   94.64280  120.66620  119.43170    8.17630    5.46330    0.38620
 10318.00000   94.70370  122.29870  119.72510    7.93500    5.28660    0.37880
 10318.50000   93.26710  123.93120  119.51690    7.69360    5.11000    0.37750
 10319.00000   91.18780  125.56370  119.30020    7.45230    4.95220    0.38500
 10319.50000   89.97590  127.19620  118.22330    7.21100    4.86990    0.39590
 10320.00000   89.89610  128.82870  118.71160    7.06620    4.78760    0.40400
 10320.50000   91.32420  130.46120  119.55650    7.02100    4.69980    0.41070
 10321.00000   94.61280  132.09370  120.04940    7.00870    4.75840    0.40730
 10321.50000   97.47480  133.08000  120.49410    6.98010    4.87620    0.40190
 10322.00000  100.63490  134.05710  121.77250    7.10330    5.01810    0.39660
 10322.50000  101.22310  132.93690  122.42630    7.57050    5.22330    0.39120
 10323.00000   98.66670  128.71530  121.26010    8.03780    5.42850    0.38990
 10323.50000   96.14050  124.37300  119.42200    8.31740    5.65530    0.39070
 10324.00000   93.82500  119.64840  116.95180    8.31530    5.78650    0.40020
 10324.50000   92.92970  116.92170  114.50040    8.02040    5.51930    0.41780
 10325.00000   91.97080  114.46570  111.86090    7.60390    5.25220    0.43250
 10325.50000   90.97270  111.14600  110.30780    7.18740    4.93220    0.42710
 10326.00000   89.14500  108.80810  109.14000    6.77100    4.71880    0.41620
 10326.50000   89.81750  109.15600  108.97800    6.65580    4.71780    0.41190
 10327.00000   90.87250  112.69020  112.12240    7.21960    4.92440    0.41470
 10327.50000   91.54640  116.51760  116.35690    7.96320    5.36730    0.41920
 10328.00000   90.53370  116.30450  118.19260    8.10340    5.84500    0.42340
 10328.50000   88.84760  113.69770  118.19710    8.06600    5.81810    0.42100
 10329.00000   87.16150  111.73160  118.20160    7.15180    5.28140    0.41750
 10329.50000   85.83500  112.30440  118.87480    6.61550    4.74470    0.41130
 10330.00000   86.09280  115.80780  119.42580    6.73740    4.81620    0.39370
 10330.50000   86.48100  118.35170  120.67100    7.65370    5.31760    0.36850
 10331.00000   86.32110  120.56980  121.73640    8.57010    5.81900    0.34330
 10331.50000   86.64210  121.20350  121.33910    9.48670    6.32050    0.33460
 10332.00000   88.76230  122.31470  121.51350    9.09290    6.23510    0.34560
 10332.50000   91.84170  123.42600  122.73570    9.29150    6.23640    0.35900
 10333.00000   94.80690  123.13850  125.00020   10.85240    7.42850    0.36060
 10333.50000   96.93550  121.93740  126.35890   15.34980    9.64710    0.33540
 10334.00000   97.57070  120.55530  126.63060   19.84720   12.56920    0.29990
 10334.50000   94.47330  118.52600  125.34930   22.65870   15.49140    0.24160
 10335.00000   82.46990  115.17170  122.58470   21.59760   15.71200    0.21210
