~Version ---------------------------------------------------
VERS.   2.0 : CWLS log ASCII Standard -VERSION 2.0
WRAP.    NO : One line per depth step
DLM . SPACE : Column Data Section Delimiter
~Well ------------------------------------------------------
STRT .FT                142.0 : START DEPTH
STOP .FT              11881.0 : STOP DEPTH
STEP .FT                  0.5 : STEP
NULL .               -9999.25 : NULL VALUE
COMP .                        : COMPANY
WELL .                        : WELL
FLD  .                        : FIELD
LOC  .                        : LOCATION
PROV .                        : PROVINCE
CNTY .                        : COUNTY
STAT .                        : STATE
CTRY .                        : COUNTRY
SRVC .                        : SERVICE COMPANY
DATE .                        : DATE
UWI  .                        : UNIQUE WELL ID
API  .                        : API NUMBER
SLAT .WGS84 1.615166021112799 : SURFACE LATITUDE
SLON .WGS84 6.740950753801002 : SURFACE LONGITUDE
DATUM.F                   nan : DEPTH DATUM ELEV
~Curve Information -----------------------------------------
DEPT   .FT    : 
DTCO   .US/F  : DELTA-T COMPRESSIONAL
DTSM   .US/F  : DELTA-T SHEAR
GRS    .GAPI  : GAMMA RAY FROM SONIC LOG
LLD    .OHMM  : LATEROLOG DEEP RESISTIVITY
LLS    .OHMM  : LATEROLOG SHALLOW RESISTIVITY
NPHI_LS.DEC   : NEUTRON POROSITY LIMESTONE
~Params ----------------------------------------------------
~Other -----------------------------------------------------
~ASCII -----------------------------------------------------
# ...
 10029.50000   -9999.25   -9999.25   19.14180   -9999.25   -9999.25    0.04300
 10030.00000   -9999.25   -9999.25   21.33570   -9999.25   -9999.25    0.04800
 10030.50000   -9999.25   -9999.25   23.36240   -9999.25   -9999.25    0.05250
 10031.00000   -9999.25   -9999.25   24.42120   -9999.25   -9999.25    0.05400
 10031.50000   -9999.25   -9999.25   24.28960   -9999.25   -9999.25    0.05290
 10032.00000   -9999.25   -9999.25   23.88700   -9999.25   -9999.25    0.05130
 10032.50000   -9999.25   -9999.25   24.97070   -9999.25   -9999.25    0.05110
 10033.00000   -9999.25   -9999.25   26.32480   -9999.25   -9999.25    0.05530
 10033.50000   -9999.25   -9999.25   28.07370   -9999.25   -9999.25    0.06370
 10034.00000   -9999.25   -9999.25   31.29270   -9999.25   -9999.25    0.07210
 10034.50000   -9999.25   -9999.25   37.14720   -9999.25   -9999.25    0.07210
 10035.00000   -9999.25   -9999.25   43.17820   -9999.25   -9999.25    0.07010
 10035.50000   -9999.25   -9999.25   48.16110   -9999.25   -9999.25    0.06550
 10036.00000   -9999.25   -9999.25   48.79730   -9999.25   -9999.25    0.06250
 10036.50000   -9999.25   -9999.25   43.94040   -9999.25   -9999.25    0.06000
 10037.00000   -9999.25   -9999.25   36.76600   -9999.25   -9999.25    0.06000
 10037.50000   -9999.25   -9999.25   29.27950   -9999.25   -9999.25    0.06030
 10038.00000   -9999.25   -9999.25   25.82520   -9999.25   -9999.25    0.06030
 10038.50000   -9999.25   -9999.25   25.29740   -9999.25   -9999.25    0.06090
 10039.00000   -9999.25   -9999.25   27.15070   -9999.25   -9999.25    0.06240
 10039.50000   -9999.25   -9999.25   30.07240   -9999.25   -9999.25    0.06500
 10040.00000   -9999.25   -9999.25   33.27940   -9999.25   -9999.25    0.06500
 10040.50000   -9999.25   -9999.25   35.44580   -9999.25   -9999.25    0.06390
 10041.00000   -9999.25   -9999.25   34.14590   -9999.25   -9999.25    0.06250
 10041.50000   -9999.25   -9999.25   28.98270   -9999.25   -9999.25    0.06260
 10042.00000   -9999.25   -9999.25   24.38330   -9999.25   -9999.25    0.06750
 10042.50000   -9999.25   -9999.25   20.61000   -9999.25   -9999.25    0.07370
 10043.00000   -9999.25   -9999.25   18.09270   -9999.25   -9999.25    0.08210
 10043.50000   -9999.25   -9999.25   16.42090   -9999.25   -9999.25    0.08340
 10044.00000   -9999.25   -9999.25   17.05400   -9999.25   -9999.25    0.08060
 10044.50000   -9999.25   -9999.25   18.32230   -9999.25   -9999.25    0.07240
 10045.00000   -9999.25   -9999.25   19.03720   -9999.25   -9999.25    0.06470
 10045.50000   -9999.25   -9999.25   18.43940   -9999.25   -9999.25    0.05720
 10046.00000   -9999.25   -9999.25   16.75710   -9999.25   -9999.25    0.05590
 10046.50000   -9999.25   -9999.25   14.69160   -9999.25   -9999.25    0.05470
 10047.00000   -9999.25   -9999.25   14.13390   -9999.25   -9999.25    0.05440
 10047.50000   -9999.25   -9999.25   13.90210   -9999.25   -9999.25    0.05420
 10048.00000   -9999.25   -9999.25   14.71660   -9999.25   -9999.25    0.05210
 10048.50000   -9999.25   -9999.25   16.39750   -9999.25   -9999.25    0.04890
 10049.00000   -9999.25   -9999.25   18.40220   -9999.25   -9999.25    0.04550
 10049.50000   -9999.25   -9999.25   20.90250   -9999.25   -9999.25    0.04530
 10050.00000   -9999.25   -9999.25   21.62560   -9999.25   -9999.25    0.04580
 10050.50000   -9999.25   -9999.25   21.35240   -9999.25   -9999.25    0.04660
 10051.00000   -9999.25   -9999.25   20.09160   -9999.25   -9999.25    0.04790
 10051.50000   -9999.25   -9999.25   19.29660   -9999.25   -9999.25    0.04970
 10052.00000   -9999.25   -9999.25   19.45920   -9999.25   -9999.25    0.05140
 10052.50000   -9999.25   -9999.25   19.84400   -9999.25   -9999.25    0.05250
 10053.00000   -9999.25   -9999.25   20.60890   -9999.25   -9999.25    0.05160
 10053.50000   -9999.25   -9999.25   22.00600   -9999.25   -9999.25    0.05070
 10054.00000   -9999.25   -9999.25   23.30590   -9999.25   -9999.25    0.05120
 10054.50000   -9999.25   -9999.25   24.17040   -9999.25   -9999.25    0.05420
 10055.00000   -9999.25   -9999.25   24.78240   -9999.25   -9999.25    0.05700
 10055.50000   -9999.25   -9999.25   24.82460   -9999.25   -9999.25    0.05840
 10056.00000   -9999.25   -9999.25   24.22670   -9999.25   -9999.25    0.05900
 10056.50000   -9999.25   -9999.25   22.78170   -9999.25   -9999.25    0.05950
 10057.00000   -9999.25   -9999.25   22.10420   -9999.25   -9999.25    0.05990
 10057.50000   -9999.25   -9999.25   22.60330   -9999.25   -9999.25    0.06030
 10058.00000   -9999.25   -9999.25   23.03440   -9999.25   -9999.25    0.06170
 10058.50000   -9999.25   -9999.25   23.08020   -9999.25   -9999.25    0.06250
 10059.00000   -9999.25   -9999.25   23.79550   -9999.25   -9999.25    0.06320
 10059.50000   -9999.25   -9999.25   24.54830   -9999.25   -9999.25    0.06360
 10060.00000   -9999.25   -9999.25   25.15850   -9999.25   -9999.25    0.06310
 10060.50000   -9999.25   -9999.25   25.22730   -9999.25   -9999.25    0.05510
 10061.00000   -9999.25   -9999.25   26.72390   -9999.25   -9999.25    0.05550
 10061.50000   -9999.25   -9999.25   32.41020   -9999.25   -9999.25    0.06470
 10062.00000   -9999.25   -9999.25   38.81980   -9999.25   -9999.25    0.06840
 10062.50000   -9999.25   -9999.25   44.86990   -9999.25   -9999.25    0.06610
 10063.00000   49.52540   93.74570   47.42730   42.84780  221.66060    0.06200
 10063.50000   50.19750   94.78350   44.53030   60.44190  341.05310    0.05780
 10064.00000   51.18070   94.05670   40.06000   61.19750  351.73060    0.05470
 10064.50000   50.89540   93.38840   34.38890   61.58080  333.40920    0.05480
 10065.00000   51.16300   93.22510   32.53210  144.89180  302.86120    0.05840
 10065.50000   52.46310   93.43560   34.33850  249.02850  277.29120    0.06710
 10066.00000   54.44620   94.42110   36.87780  276.88900  290.29280    0.07040
 10066.50000   56.25100   95.40660   36.18570  304.74950  315.73390    0.06260
 10067.00000   57.42770   95.83280   35.25310  332.60990  341.17490    0.04730
 10067.50000   56.75530   95.18500   35.14400  397.60860  349.38960    0.03240
 10068.00000   54.75850   94.15540   35.55090  647.23130  347.87500    0.02450
 10068.50000   52.93480   93.01040   33.62700  828.15250  353.37610    0.02230
 10069.00000   51.42470   92.53800   31.14050  906.02160  367.86790    0.01980
 10069.50000   54.67290   95.57540   29.74690  960.57770  402.94940    0.01700
 10070.00000   66.98090  111.05710   32.36700 1000.21310  468.91540    0.01630
 10070.50000   80.90150  131.87660   34.83280 1031.93210  488.17040    0.01620
 10071.00000   85.73910  154.47540   36.48840  866.31640  462.76180    0.01620
 10071.50000   77.31720  140.50560   36.42950  659.36400  454.73980    0.01610
 10072.00000   61.83890  108.47570   35.44190  567.12160  448.92500    0.01560
 10072.50000   53.13240   89.81120   34.37490  599.53670  490.54290    0.01510
 10073.00000   51.67500   89.93390   32.83000  631.95170  507.03460    0.01460
 10073.50000   51.57830   90.52870   31.72330  657.86860  497.92970    0.01460
 10074.00000   51.53070   91.13900   31.88440  548.32950  514.31720    0.01490
 10074.50000   51.44530   91.27340   33.68790  448.75170  478.98540    0.01550
 10075.00000   51.75900   91.27340   38.98970  390.06060  430.64890    0.01650
 10075.50000   51.90070   92.01330   48.09480  351.92200  403.10370    0.01720
 10076.00000   51.87610   91.84740   56.99440  329.32250  389.41940    0.01780
 10076.50000   52.19740   91.68150   63.22460  310.76740  363.84780    0.01810
 10077.00000   52.62780   91.32060   63.47460  292.21240  335.30440    0.01910
 10077.50000   52.92050   91.04540   58.34200  279.25830  306.76090    0.01920
 10078.00000   52.64410   91.57500   53.38910  267.70450  283.79340    0.01880
 10078.50000   52.35990   91.63990   48.00290  242.59290  259.77570    0.01840
 10079.00000   52.38880   90.92870   43.81150  254.58820  277.91180    0.01800
 10079.50000   52.67680   90.30420   39.60090  275.21440  300.59330    0.01790
 10080.00000   52.76190   89.82890   38.12300  288.38070  330.75350    0.01950
