~Version ---------------------------------------------------
VERS.   2.0 : CWLS log ASCII Standard -VERSION 2.0
WRAP.    NO : One line per depth step
DLM . SPACE : Column Data Section Delimiter
~Well ------------------------------------------------------
STRT .FT                142.0 : START DEPTH
STOP .FT              11881.0 : STOP DEPTH
STEP .FT                  0.5 : STEP
NULL .               -9999.25 : NULL VALUE
COMP .                        : COMPANY
WELL .                        : WELL
FLD  .                        : FIELD
LOC  .                        : LOCATION
PROV .                        : PROVINCE
CNTY .                        : COUNTY
STAT .                        : STATE
CTRY .                        : COUNTRY
SRVC .                        : SERVICE COMPANY
DATE .                        : DATE
UWI  .                        : UNIQUE WELL ID
API  .                        : API NUMBER
SLAT .WGS84 1.615166021112799 : SURFACE LATITUDE
SLON .WGS84 6.740950753801002 : SURFACE LONGITUDE
DATUM.F                   nan : DEPTH DATUM ELEV
~Curve Information -----------------------------------------
DEPT   .FT    : 
DTCO   .US/F  : DELTA-T COMPRESSIONAL
DTSM   .US/F  : DELTA-T SHEAR
GRS    .GAPI  : GAMMA RAY FROM SONIC LOG
LLD    .OHMM  : LATEROLOG DEEP RESISTIVITY
LLS    .OHMM  : LATEROLOG SHALLOW RESISTIVITY
NPHI_LS.DEC   : NEUTRON POROSITY LIMESTONE
~Params ----------------------------------------------------
~Other -----------------------------------------------------
~ASCII -----------------------------------------------------
# ...
 11812.00000   47.29450   93.48360   37.43920 4588.91580 5021.23220    0.01120
 11812.50000   47.84880   93.52450   35.02400 5611.79010 6126.09510    0.01110
 11813.00000   48.68870   93.39750   32.52060 6802.15940 7208.00270    0.01020
 11813.50000   49.63250   93.60960   29.51710 7992.52860 8255.47720    0.00920
 11814.00000   50.22850   93.76910   27.82420 9000.02860 9302.95170    0.00830
 11814.50000   50.82440   93.60950   28.29170 8963.45190 9385.56630    0.00800
 11815.00000   51.18200   93.37130   31.55180 8872.01020 9111.45700    0.00800
 11815.50000   51.17520   93.13310   33.46910 9055.57400 9457.80170    0.00820
 11816.00000   51.16850   92.83750   32.62370 10144.80120 10625.43300    0.00830
 11816.50000   51.16170   92.26610   30.63440 11436.48140 11793.06440    0.00840
 11817.00000   50.59450   91.75410   28.64510 12469.82550 12960.69580    0.00860
 11817.50000   49.78060   91.87580   29.39300 11392.82250 12544.38720    0.00900
 11818.00000   49.19300   92.26150   30.46430 9851.98330 10898.96710    0.00990
 11818.50000   48.66130   92.40700   29.49950 8311.14400 9253.54700    0.01140
 11819.00000   47.67630   92.49070   27.47820 7434.35990 8165.20240    0.01200
 11819.50000   47.00560   92.32860   25.68840 7126.24830 7510.65020    0.01250
 11820.00000   47.28110   92.48020   24.53190 7082.53310 7399.71000    0.01280
 11820.50000   46.88000   92.66970   23.70160 6998.52300 7647.61340    0.01200
 11821.00000   46.41140   92.85920   23.42460 6905.13970 8062.05500    0.01120
 11821.50000   46.46680   93.17400   23.10480 6862.18380 7869.20490    0.01100
 11822.00000   46.76410   93.33630   22.94680 6653.64830 7676.35480    0.01030
 11822.50000   47.27750   92.93950   22.17580 6772.86830 7521.69020    0.00970
 11823.00000   47.63520   92.75840   21.30590 7177.49060 7903.45300    0.00920
 11823.50000   47.52800   93.37550   20.68230 7429.45760 8380.89690    0.00890
 11824.00000   47.95060   94.06440   20.03040 7020.79280 8508.17930    0.00880
 11824.50000   48.66350   94.26900   19.51550 6612.12790 7735.60760    0.00880
 11825.00000   49.59000   94.47650   20.28450 5789.88060 6764.23560    0.00870
 11825.50000   50.20940   94.49990   22.43950 4347.25960 4997.66230    0.00870
 11826.00000   50.57980   94.52330   26.25590 3173.48070 3994.83970    0.00860
 11826.50000   50.77030   94.54670   28.73620 3045.57170 3501.18440    0.00850
 11827.00000   50.90990   94.57010   28.90330 2910.24620 3519.11550    0.00850
 11827.50000   51.16670   94.22930   27.43940 3019.03090 3611.72570    0.00850
 11828.00000   51.99030   94.32840   24.98760 2965.54770 3667.29190    0.00930
 11828.50000   52.57830   94.64030   23.53550 2885.36970 3572.68150    0.01000
 11829.00000   52.70380   94.80480   23.98150 2806.67400 3454.99520    0.01070
 11829.50000   52.39620   94.81960   25.69030 2767.62150 3337.30890    0.01140
 11830.00000   52.66960   94.34060   27.98290 2777.92770 3219.62250    0.01190
 11830.50000   52.82090   93.78150   29.31670 2833.06170 3191.59670    0.01240
 11831.00000   53.02130   93.27970   31.64730 3059.34320 3339.32660    0.01320
 11831.50000   52.59110   93.13790   32.15260 3436.46970 3658.61100    0.01400
 11832.00000   51.75240   92.99620   33.07560 3480.39650 3659.01750    0.01460
 11832.50000   50.46920   92.85440   34.71190 2273.94950 3382.84730    0.01500
 11833.00000   50.29360   93.16850   36.35120 1348.51700 2213.70570    0.01560
 11833.50000   51.25750   93.49550   37.32480  697.68070  216.88390    0.01800
 11834.00000   51.82420   93.75440   40.12970  167.38120  143.26810    0.02100
 11834.50000   52.07470   93.79380   43.76950  144.53230  132.60250    0.02240
 11835.00000   51.89360   93.39770   44.40290  155.62820  136.41220    0.02040
 11835.50000   51.56440   93.06870   40.79430  182.64460  163.49800    0.01800
 11836.00000   51.29390   93.07950   35.73470  181.54350  155.67170    0.01590
 11836.50000   50.80520   93.23400   35.13630  150.68720  131.01320    0.01790
 11837.00000   50.94120   93.89080   38.94460  119.83080  106.35480    0.02390
 11837.50000   52.33060   94.98260   45.79470   88.97450   81.69630    0.03190
 11838.00000   53.42560   96.12480   52.09380   85.76280   76.77600    0.04240
 11838.50000   53.85180   97.28100   53.00220  101.34640   86.86460    0.05260
 11839.00000   54.36690   97.49560   48.99930  121.47910  102.08720    0.04950
 11839.50000   54.70700   96.95920   41.62620  141.61180  117.30980    0.04330
 11840.00000   54.64510   96.16480   35.21240  157.72060  132.53240    0.03720
 11840.50000   55.30060   95.08010   31.66870  152.38270  138.59040    0.03210
 11841.00000   56.55490   94.38010   30.79550  147.04480  128.75710    0.03510
 11841.50000   56.47680   93.63540   31.40970  139.09440  118.92380    0.03430
 11842.00000   55.16880   93.22110   32.08460  129.41600  109.09050    0.03170
 11842.50000   54.03030   93.14640   33.03110  119.73760   99.25720    0.02900
 11843.00000   53.89260   93.07160   35.03750  110.05920   89.42390    0.02690
 11843.50000   54.63500   93.28560   37.71720  100.89660   80.25060    0.03000
 11844.00000   55.11550   93.60310   41.11150   91.86290   72.06720    0.03610
 11844.50000   55.22890   94.01930   45.24470   82.82930   63.88080    0.04110
 11845.00000   55.54210   94.96230   49.37800   75.88010   61.25180    0.04630
 11845.50000   55.67270   96.03030   53.51120   76.99100   59.11610    0.05120
 11846.00000   55.45470   95.58230   57.64450   71.18050   50.76090    0.05220
 11846.50000   55.93150   94.33810   -9999.25   58.49800   45.00810    0.04120
 11847.00000   56.46390   93.26590   -9999.25   36.70820   31.06960    0.02800
 11847.50000   56.30780   93.32890   -9999.25   20.17490   17.13110    0.02830
 11848.00000   55.79830   93.39190   -9999.25   12.97200    9.84870    0.03860
 11848.50000   55.37080   93.45490   -9999.25   12.08590   10.29310    0.04890
 11849.00000   55.67650   93.79960   -9999.25   13.54830   10.79460    0.05030
 11849.50000   55.74640   94.16550   -9999.25   12.42170   10.33830    0.04470
 11850.00000   55.75990   94.40340   -9999.25   11.01460   10.34530    0.04100
 11850.50000   55.77330   94.61110   -9999.25   10.94810   10.46420    0.04210
 11851.00000   56.24650   94.44000   -9999.25   14.20070   11.05980    0.04370
 11851.50000   57.37800   93.68080   -9999.25   19.28160   17.07260    0.04100
 11852.00000   58.00250   92.41940   -9999.25   25.00860   23.08540    0.03320
 11852.50000   56.74900   91.44770   -9999.25   30.74160   29.09820    0.02540
 11853.00000   55.22820   91.13440   -9999.25   31.51320   30.95620    0.02060
 11853.50000   54.56100   90.82120   -9999.25   36.31560   33.88410    0.02050
 11854.00000   54.50990   90.93990   -9999.25   75.50740   39.97510    0.02030
 11854.50000   53.94890   91.39560   -9999.25  157.77910  119.00110    0.02000
 11855.00000   53.07020   91.48760   -9999.25  276.24510  213.85630    0.01990
 11855.50000   51.61190   90.99470   -9999.25  406.74740  332.45510   -9999.25
 11856.00000   50.37500   90.33760   -9999.25  562.45400  465.74560   -9999.25
 11856.50000   49.55540   89.68050   -9999.25  718.16060  621.07340   -9999.25
 11857.00000   49.15070   89.28550   -9999.25  873.86720  812.13430   -9999.25
 11857.50000   48.68730   89.50440   -9999.25  792.42200  839.55740   -9999.25
 11858.00000   48.24020   89.77840   -9999.25  610.56100  733.99940   -9999.25
 11858.50000   48.16440   89.54670   -9999.25  377.05210  531.14580   -9999.25
 11859.00000   48.86870   90.31440   -9999.25  143.54310  328.29220   -9999.25
 11859.50000   49.82120   91.59470   -9999.25  111.36570  125.43860   -9999.25
 11860.00000   51.06120   92.53630   -9999.25   99.69250  118.49880   -9999.25
 11860.50000   51.91370   93.07870   -9999.25   93.95010  112.32200   -9999.25
 11861.00000   52.78550   93.70000   -9999.25   95.00030  114.41440   -9999.25
 11861.50000   53.22960   94.10210   -9999.25  100.27550  123.05970   -9999.25
 11862.00000   53.42940   93.63870   -9999.25  114.88650  132.43990   -9999.25
 11862.50000   53.62160   93.16510   -9999.25  147.57640  141.90700   -9999.25
