~Version ---------------------------------------------------
VERS.   2.0 : CWLS log ASCII Standard -VERSION 2.0
WRAP.    NO : One line per depth step
DLM . SPACE : Column Data Section Delimiter
~Well ------------------------------------------------------
STRT .F                    2.0 : START DEPTH
STOP .F                 2794.0 : STOP DEPTH
STEP .F                    0.5 : STEP
NULL .                -9999.25 : NULL VALUE
COMP .                         : COMPANY
WELL .                         : WELL
FLD  .                         : FIELD
LOC  .                         : LOCATION
PROV .                         : PROVINCE
CNTY .                         : COUNTY
STAT .                         : STATE
CTRY .                         : COUNTRY
SRVC .                         : SERVICE COMPANY
DATE .                         : DATE
UWI  .                         : UNIQUE WELL ID
API  .                         : API NUMBER
SLAT .WGS84 1.8354767251648987 : SURFACE LATITUDE
SLON .WGS84  7.600270196392003 : SURFACE LONGITUDE
DATUM.F                2641.76 : DEPTH DATUM ELEV
~Curve Information -----------------------------------------
DEPT   .F     : 1 MEASURED DEPTH
DT     .US/F  : DELTA-T (INTERVAL TRANSIT TIME)
DTCO   .US/F  : DELTA-T COMPRESSIONAL
DTSM   .US/F  : DELTA-T SHEAR
GRD    .GAPI  : GAMMA RAY FROM DENSITY LOG
NPHI_LS.DEC   : NEUTRON POROSITY LIMESTONE
DPHI_LS.DEC   : DENSITY POROSITY LIMESTONE
CALD   .IN    : CALIPER FROM DENSITY LOG
DRHO   .G/C3  : BULK DENSITY CORRECTION
RHOB   .G/C3  : BULK DENSITY
~Params ----------------------------------------------------
~Other -----------------------------------------------------
~ASCII -----------------------------------------------------
# ...
 2228.50000   68.71180   68.13590  119.41460    6.55800   -0.01290    0.38590    9.16580   -0.00900    2.05130
 2229.00000   68.78180   68.80200  120.60820    6.60140   -0.01340    0.38570    9.16600   -0.00900    2.05120
 2229.50000   68.72690   69.77240  119.77840    6.89400   -0.01350    0.38380    9.16650   -0.00870    2.05510
 2230.00000   68.75340   68.98840  120.93660    7.27390   -0.01370    0.38200    9.16700   -0.00830    2.05770
 2230.50000   68.79050   67.82910  120.36620    6.84180   -0.01380    0.38240    9.15840   -0.00820    2.05820
 2231.00000   68.69950   67.43020  119.93700    5.91440   -0.01390    0.38470    9.12490   -0.00850    2.05390
 2231.50000   68.63740   68.61870  121.69670    5.23610   -0.01400    0.38720    9.09250   -0.00890    2.04910
 2232.00000   68.62560   67.46720  120.58350    4.52250   -0.01410    0.38930    9.08620   -0.00940    2.04600
 2232.50000   68.67280   67.46850  120.25620    4.22190   -0.01400    0.39000    9.08230   -0.00840    2.04430
 2233.00000   68.68880   67.46990  119.63830    4.37950   -0.01350    0.39000    9.08210   -0.00730    2.04570
 2233.50000   68.66380   67.47120  120.62940    4.71110   -0.01340    0.38720    9.08700   -0.00630    2.04830
 2234.00000   68.55640   67.47250  120.46020    5.34050   -0.01330    0.38100    9.07840   -0.00470    2.05660
 2234.50000   68.53900   67.47380  120.00530    6.01080   -0.01330    0.37630    9.06770   -0.00300    2.06670
 2235.00000   68.54510   67.47540  119.91750    6.46720   -0.01330    0.37420    9.05470   -0.00130    2.07190
 2235.50000   68.52700   67.47870  119.84480    6.51050   -0.01330    0.37570    9.04030   -0.00320    2.07010
 2236.00000   68.41220   67.48190  119.77200    6.56380   -0.01340    0.37870    9.02580   -0.00510    2.06620
 2236.50000   68.29340   67.48520  119.69930    6.55490   -0.01340    0.37590    9.01140   -0.00710    2.06590
 2237.00000   68.16610   67.48840  119.63460    6.43170   -0.01340    0.37150    8.99690   -0.00760    2.07200
 2237.50000   68.07640   67.49170  120.06160    6.35740   -0.01330    0.36860    8.98240   -0.00710    2.07830
 2238.00000   67.98170   67.49490  120.89700    6.68010   -0.01310    0.37350    8.96800   -0.00540    2.07500
 2238.50000   68.15220   67.49820  119.63920    7.11980   -0.01280    0.37740    8.95140   -0.00360    2.06780
 2239.00000   68.12070   67.50140  120.66430    7.35360   -0.01250    0.37740    8.93090   -0.00180    2.06550
 2239.50000   67.79980   67.50470  120.35910    6.84870   -0.01160    0.37390    8.91370   -0.00010    2.06970
 2240.00000   67.32100   67.50800  120.13990    6.04560   -0.00800    0.36360    8.90790    0.00140    2.08470
 2240.50000   66.54570   67.27180  118.92450    5.31790   -0.00420    0.35100    8.90680   -0.00030    2.10490
 2241.00000   64.94280   65.29000  116.47500    5.48950   -0.00040    0.31570    8.90600   -0.00280    2.16510
 2241.50000   62.69910   63.19790  113.49100    5.96780    0.00300    0.25530    8.90680   -0.00500    2.27010
 2242.00000   60.18890   61.30390  110.36660    6.63390    0.00400    0.09260    8.90760   -0.00340    2.44970
 2242.50000   58.36540   59.85540  108.72630    7.01910   -0.00130   -0.00370    8.90710    0.00410    2.69610
 2243.00000   59.05110   59.31580  108.74070    6.56320   -0.01090    0.01970    8.90440    0.00770    2.72370
 2243.50000   61.25740   60.33930  110.34760    5.34470   -0.01360    0.10820    8.90300    0.00030    2.54910
 2244.00000   63.81590   62.74200  112.85000    4.54560   -0.01370    0.21940    8.90280   -0.00780    2.39010
 2244.50000   66.02670   64.61550  115.69540    3.99650   -0.01370    0.28190    8.90710   -0.01010    2.20060
 2245.00000   67.03920   65.92430  117.91390    3.70800   -0.01380    0.33270    8.91610   -0.00480    2.13860
 2245.50000   67.41880   67.16570  118.48660    3.37590   -0.01390    0.35710    8.93650   -0.00060    2.10660
 2246.00000   67.83010   67.44860  119.18100    3.54600   -0.01400    0.37620    8.95470    0.00200    2.07310
 2246.50000   68.08840   67.50560  119.51230    4.03580   -0.01410    0.38300    8.97080    0.00390    2.05750
 2247.00000   68.25800   67.52510  118.51010    5.20200   -0.01430    0.38120    8.98680    0.00570    2.05950
 2247.50000   68.30170   67.54450  119.94960    5.92050   -0.01440    0.38120    9.00290    0.00750    2.06100
 2248.00000   68.33610   67.56400  120.26220    6.19820   -0.01450    0.38700    9.01900    0.00680    2.05450
 2248.50000   68.46730   67.58350  120.61760    5.74520   -0.01460    0.39480    9.03500    0.00590    2.04310
 2249.00000   68.70970   67.60300  120.55660    5.34770   -0.01460    0.39650    9.05110    0.00570    2.03390
 2249.50000   68.74300   67.62250  120.49570    4.21840   -0.01440    0.39370    9.06780    0.00690    2.03830
 2250.00000   68.61300   67.64200  120.32860    3.48970   -0.01420    0.38820    9.07480    0.00810    2.04920
 2250.50000   68.41430   67.66140  119.88160    3.00500   -0.01380    0.38170    9.06810    0.00930    2.06000
 2251.00000   68.10110   67.60970  119.61380    3.24670   -0.01310    0.37590    9.05340    0.01030    2.06860
 2251.50000   67.65940   67.47600  118.66930    3.78470   -0.01230    0.36500    9.02840    0.01130    2.08510
 2252.00000   66.96600   67.27370  118.66970    4.62950   -0.01110    0.34470    9.00340    0.01220    2.12520
 2252.50000   66.22700   66.42760  118.16530    5.80810   -0.00950    0.32180    8.95750    0.01260    2.16090
 2253.00000   65.72210   65.70420  117.13130    6.86000   -0.00850    0.29930    8.90560    0.01230    2.19320
 2253.50000   65.55000   65.61810  116.54980    7.27220   -0.00770    0.29350    8.89570    0.01200    2.20400
 2254.00000   65.55550   65.49510  116.10120    7.76660   -0.00760    0.29790    8.89610    0.01170    2.19920
 2254.50000   66.00020   65.58460  117.73530    8.61550   -0.00760    0.30200    8.89580    0.01180    2.19090
 2255.00000   66.75450   66.43740  118.53180    9.61230   -0.00760    0.30470    8.89380    0.01320    2.18690
 2255.50000   67.26980   66.15350  119.83190   11.13020   -0.00720    0.30460    8.89270    0.01470    2.18680
 2256.00000   67.54220   65.52440  117.54420   12.98630   -0.00740    0.30190    8.89410    0.01610    2.19240
 2256.50000   67.64630   66.70500  119.68430   14.50560   -0.00820    0.29670    8.89300    0.01750    2.20110
 2257.00000   67.61160   67.55540  120.54910   14.97320   -0.00930    0.29360    8.89060    0.01740    2.20530
 2257.50000   67.69640   67.11860  120.60290   14.04570   -0.01040    0.30290    8.87110    0.01450    2.19230
 2258.00000   67.85700   66.59460  120.28930   11.75680   -0.01110    0.32470    8.84830    0.01020    2.16130
 2258.50000   68.12020   66.77740  118.51980    8.88810   -0.01160    0.34490    8.82360    0.00500    2.12050
 2259.00000   68.25610   67.11330  118.46600    7.55500   -0.01150    0.35800    8.80290    0.00280    2.09900
 2259.50000   68.12370   67.44910  118.86920    6.83540   -0.01080    0.36370    8.79970    0.00110    2.08620
 2260.00000   67.61870   67.67120  119.39550    8.18120   -0.00820    0.36310    8.80350   -0.00070    2.09340
 2260.50000   67.30950   67.31300  118.28220   10.49650   -0.00500    0.34770    8.79520   -0.00240    2.11840
 2261.00000   67.08530   66.94210  116.88220   12.04100   -0.00130    0.32730    8.75280   -0.00420    2.15020
 2261.50000   66.41450   66.56460  116.81440   11.84490    0.00570    0.30520    8.71280   -0.00660    2.18220
 2262.00000   64.69010   65.51220  116.17080   10.97480    0.01330    0.28000    8.68490   -0.00930    2.24780
 2262.50000   62.35130   63.79280  113.48170   11.23340    0.01300    0.19220    8.66750   -0.00930    2.37670
 2263.00000   60.70010   61.97950  112.21900   11.61140    0.01200    0.08070    8.61790   -0.00330    2.54890
 2263.50000   59.91140   60.69130  111.02250   11.49520    0.01090    0.03190    8.55640   -0.00480    2.65220
 2264.00000   59.20820   59.41980  109.47620    9.86390    0.01080    0.02180    8.53410   -0.00660    2.67650
 2264.50000   58.49820   58.42920  107.70660    7.90220    0.01150    0.01120    8.52680   -0.00740    2.68600
