~Version ---------------------------------------------------
VERS.   2.0 : CWLS log ASCII Standard -VERSION 2.0
WRAP.    NO : One line per depth step
DLM . SPACE : Column Data Section Delimiter
~Well ------------------------------------------------------
STRT .F                    2.0 : START DEPTH
STOP .F                 2794.0 : STOP DEPTH
STEP .F                    0.5 : STEP
NULL .                -9999.25 : NULL VALUE
COMP .                         : COMPANY
WELL .                         : WELL
FLD  .                         : FIELD
LOC  .                         : LOCATION
PROV .                         : PROVINCE
CNTY .                         : COUNTY
STAT .                         : STATE
CTRY .                         : COUNTRY
SRVC .                         : SERVICE COMPANY
DATE .                         : DATE
UWI  .                         : UNIQUE WELL ID
API  .                         : API NUMBER
SLAT .WGS84 1.8354767251648987 : SURFACE LATITUDE
SLON .WGS84  7.600270196392003 : SURFACE LONGITUDE
DATUM.F                2641.76 : DEPTH DATUM ELEV
~Curve Information -----------------------------------------
DEPT   .F     : 1 MEASURED DEPTH
DT     .US/F  : DELTA-T (INTERVAL TRANSIT TIME)
DTCO   .US/F  : DELTA-T COMPRESSIONAL
DTSM   .US/F  : DELTA-T SHEAR
GRD    .GAPI  : GAMMA RAY FROM DENSITY LOG
NPHI_LS.DEC   : NEUTRON POROSITY LIMESTONE
DPHI_LS.DEC   : DENSITY POROSITY LIMESTONE
CALD   .IN    : CALIPER FROM DENSITY LOG
DRHO   .G/C3  : BULK DENSITY CORRECTION
RHOB   .G/C3  : BULK DENSITY
~Params ----------------------------------------------------
~Other -----------------------------------------------------
~ASCII -----------------------------------------------------
# ...
 2338.00000   57.02860   58.52060  109.35010   22.35160    0.05430   -0.12530    8.28660    0.00600    2.92310
 2338.50000   58.28940   59.41640  110.75560   24.96110    0.07210   -0.11610    8.28310    0.00690    2.89640
 2339.00000   60.11730   59.54180  112.30530   24.40700    0.07660   -0.09660    8.27950    0.00660    2.86990
 2339.50000   60.83050   59.66720  114.11170   21.77920    0.05540   -0.08580    8.27590    0.00580    2.85540
 2340.00000   59.36030   59.67810  112.19380   17.83490    0.02970   -0.09490    8.27440    0.00410    2.87730
 2340.50000   56.71520   58.11580  108.97440   13.70340    0.01210   -0.10610    8.27600    0.00230    2.91260
 2341.00000   54.08920   55.88950  104.06340   11.35070    0.00680   -0.12580    8.27760    0.00030    2.93180
 2341.50000   52.66210   53.82730  100.79560   10.26460    0.00650   -0.13440    8.27920   -0.00130    2.93880
 2342.00000   51.79350   53.59540  100.12040   12.69600    0.01470   -0.13140    8.27180   -0.00240    2.93160
 2342.50000   52.22940   53.58280  100.77740   16.19900    0.02730   -0.12010    8.25150   -0.00210    2.90500
 2343.00000   53.36900   53.57010  100.00790   20.43700    0.03660   -0.10050    8.23120   -0.00230    2.87580
 2343.50000   54.02510   53.55750   99.93440   22.62170    0.02970   -0.08390    8.21090   -0.00240    2.84650
 2344.00000   54.04070   53.54490  100.61250   18.22400    0.01890   -0.08160    8.18760   -0.00140    2.84590
 2344.50000   53.46810   53.42780  100.46570   13.14000    0.01010   -0.10000    8.17620    0.00050    2.88730
 2345.00000   52.01600   52.49340   98.06760   15.17640    0.01220   -0.11840    8.17450    0.00240    2.93060
 2345.50000   50.78170   51.34910   96.01890   21.74620    0.02280   -0.13430    8.17340    0.00200    2.93680
 2346.00000   50.05030   50.12820   93.29430   30.19170    0.03310   -0.12780    8.17240   -0.00060    2.91200
 2346.50000   49.42680   49.27640   91.46110   36.02760    0.03640   -0.09190    8.17140   -0.00310    2.87430
 2347.00000   49.07480   49.29050   90.60060   39.05910    0.03180   -0.07550    8.17030   -0.00370    2.84120
 2347.50000   49.16170   49.45490   89.63640   41.16730    0.02650   -0.07340    8.16880   -0.00390    2.83520
 2348.00000   49.72660   49.61930   91.09160   41.44890    0.02010   -0.07810    8.16790   -0.00330    2.83840
 2348.50000   50.38210   49.78360   93.17500   35.91500    0.01310   -0.08410    8.16760   -0.00120    2.84790
 2349.00000   51.03690   49.91910   94.68170   26.89170    0.00870   -0.09270    8.16730    0.00100    2.86240
 2349.50000   51.54950   50.04630   96.18840   20.97420    0.00610   -0.10340    8.16690    0.00430    2.88610
 2350.00000   51.51180   50.17340   97.76750   16.70040    0.00370   -0.11820    8.16660    0.00850    2.92260
 2350.50000   51.26270   50.30050   97.49530   18.43550    0.00370   -0.13350    8.16630    0.00720    2.94430
 2351.00000   51.61700   50.42760   95.79980   21.81750    0.00310   -0.13630    8.16600    0.00430    2.93900
 2351.50000   52.11650   50.55480   97.42570   23.56000    0.00220   -0.12950    8.16570   -0.00130    2.92530
 2352.00000   52.23010   50.53540   97.55090   23.24360    0.00120   -0.12190    8.16540   -0.00720    2.92270
 2352.50000   51.44430   50.46020   96.94400   22.84760    0.00210   -0.12570    8.16530   -0.00930    2.92630
 2353.00000   50.63420   50.38500   95.36300   26.10300    0.00410   -0.13260    8.16520   -0.00940    2.93900
 2353.50000   49.75740   50.14260   93.31800   32.65560    0.00870   -0.13400    8.16520   -0.00940    2.93830
 2354.00000   48.83840   48.47860   91.20360   41.74810    0.01820   -0.11950    8.16510   -0.00920    2.91810
 2354.50000   47.88160   47.36780   87.67710   51.01560    0.03800   -0.09080    8.16510   -0.00870    2.86720
 2355.00000   47.62410   47.47840   87.51960   55.42860    0.06230   -0.06190    8.16520   -0.00730    2.81900
 2355.50000   47.41360   47.41270   86.67710   53.76120    0.07280   -0.04570    8.16310   -0.00550    2.78580
 2356.00000   47.07950   46.34070   85.83220   49.13840    0.05590   -0.04490    8.15870   -0.00300    2.78410
 2356.50000   46.45010   46.15590   85.13830   40.35140    0.02980   -0.05610    8.15370   -0.00030    2.80140
 2357.00000   46.37750   46.04550   84.56530   34.91340    0.01110   -0.06960    8.14650    0.00200    2.82520
 2357.50000   46.98800   46.19810   85.55330   30.19560    0.00390   -0.08320    8.13010    0.00270    2.84800
 2358.00000   48.25850   47.25470   87.63900   25.15000   -0.00000   -0.09670    8.11410    0.00410    2.86990
 2358.50000   49.53700   49.00990   90.52250   18.69680   -0.00020   -0.11090    8.09590    0.00580    2.90020
 2359.00000   50.31900   50.19930   93.32440   14.57630    0.00310   -0.12850    8.08880    0.00740    2.92780
 2359.50000   50.60650   50.25530   95.30300   16.36890    0.00890   -0.14030    8.09300    0.00900    2.94860
 2360.00000   51.00670   50.25490   96.25070   20.71510    0.01520   -0.14050    8.09190    0.00840    2.94290
 2360.50000   51.46610   50.50420   96.91770   25.28490    0.01620   -0.12810    8.08790    0.00780    2.91920
 2361.00000   51.93970   51.29240   96.73700   24.06520    0.01350   -0.11540    8.08660    0.00720    2.90170
 2361.50000   52.24700   51.15670   96.32250   19.16480    0.01000   -0.11440    8.08700    0.00660    2.90610
 2362.00000   51.59080   50.25490   95.77550   15.47930    0.01050   -0.12640    8.08750    0.00550    2.92750
 2362.50000   50.46400   50.42120   94.00920   17.48530    0.01140   -0.13740    8.08740    0.00420    2.94800
 2363.00000   49.07410   49.52760   91.68300   22.10520    0.01280   -0.13850    8.08700    0.00260    2.93920
 2363.50000   47.72160   48.24750   88.91650   26.02870    0.01210   -0.12750    8.08660    0.00080    2.91500
 2364.00000   47.01670   46.96740   87.50350   23.13350    0.00740   -0.11440    8.08620   -0.00040    2.89280
 2364.50000   47.26110   46.50770   88.64320   18.09260    0.00270   -0.10560    8.08580    0.00170    2.88900
 2365.00000   48.31730   47.61600   89.85570   12.92190    0.00010   -0.11280    8.08540    0.00530    2.90420
 2365.50000   49.73490   48.76110   92.75920    9.83870    0.00030   -0.12230    8.08480    0.00480    2.92430
 2366.00000   50.98790   49.93510   95.53410    9.09520    0.00140   -0.13210    8.08420    0.00360    2.93830
 2366.50000   51.16150   50.21810   95.71780   11.59210    0.00370   -0.14060    8.08360    0.00210    2.95150
 2367.00000   50.69830   50.21940   95.03680   15.13910    0.00700   -0.14850    8.08300   -0.00010    2.96200
 2367.50000   49.63760   50.00480   93.70040   19.85060    0.01360   -0.14160    8.08280   -0.00190    2.94860
 2368.00000   48.44390   48.36540   91.26930   24.31550    0.03060   -0.11150    8.08360   -0.00280    2.90330
 2368.50000   47.66190   47.34920   88.18980   26.49570    0.04140   -0.07510    8.08450   -0.00370    2.85230
 2369.00000   47.74380   47.84730   85.41200   28.76070    0.04220   -0.06360    8.08540   -0.00460    2.81960
 2369.50000   48.11610   47.38710   86.04880   31.48360    0.03470   -0.06190    8.08630   -0.00420    2.81560
 2370.00000   48.37350   47.20940   88.94630   33.54160    0.02730   -0.06620    8.08720   -0.00430    2.82350
 2370.50000   48.47640   47.12800   90.22900   32.07980    0.01980   -0.07420    8.08810   -0.00710    2.83680
 2371.00000   48.51660   47.04660   89.51030   29.27680    0.01750   -0.08540    8.08900   -0.00650    2.85650
 2371.50000   48.34300   47.76530   88.84460   29.66270    0.01680   -0.09490    8.08990   -0.00520    2.87390
 2372.00000   48.29290   48.18890   88.72040   32.29290    0.01620   -0.09860    8.09080   -0.00370    2.87830
 2372.50000   48.46290   47.06360   89.20960   33.27170    0.01160   -0.10230    8.09080   -0.00260    2.88140
 2373.00000   48.88600   47.69540   90.55370   27.05420    0.00460   -0.10910    8.09070   -0.00130    2.89780
 2373.50000   49.61250   48.40110   90.60940   19.64360   -0.00020   -0.11850    8.09070   -0.00070    2.91980
 2374.00000   50.41090   49.23540   93.37330   11.58930   -0.00210   -0.13090    8.09070   -0.00160    2.93900
