~Version ---------------------------------------------------
VERS.   2.0 : CWLS log ASCII Standard -VERSION 2.0
WRAP.    NO : One line per depth step
DLM . SPACE : Column Data Section Delimiter
~Well ------------------------------------------------------
STRT .F                    2.0 : START DEPTH
STOP .F                 2794.0 : STOP DEPTH
STEP .F                    0.5 : STEP
NULL .                -9999.25 : NULL VALUE
COMP .                         : COMPANY
WELL .                         : WELL
FLD  .                         : FIELD
LOC  .                         : LOCATION
PROV .                         : PROVINCE
CNTY .                         : COUNTY
STAT .                         : STATE
CTRY .                         : COUNTRY
SRVC .                         : SERVICE COMPANY
DATE .                         : DATE
UWI  .                         : UNIQUE WELL ID
API  .                         : API NUMBER
SLAT .WGS84 1.8354767251648987 : SURFACE LATITUDE
SLON .WGS84  7.600270196392003 : SURFACE LONGITUDE
DATUM.F                2641.76 : DEPTH DATUM ELEV
~Curve Information -----------------------------------------
DEPT   .F     : 1 MEASURED DEPTH
DT     .US/F  : DELTA-T (INTERVAL TRANSIT TIME)
DTCO   .US/F  : DELTA-T COMPRESSIONAL
DTSM   .US/F  : DELTA-T SHEAR
GRD    .GAPI  : GAMMA RAY FROM DENSITY LOG
NPHI_LS.DEC   : NEUTRON POROSITY LIMESTONE
DPHI_LS.DEC   : DENSITY POROSITY LIMESTONE
CALD   .IN    : CALIPER FROM DENSITY LOG
DRHO   .G/C3  : BULK DENSITY CORRECTION
RHOB   .G/C3  : BULK DENSITY
~Params ----------------------------------------------------
~Other -----------------------------------------------------
~ASCII -----------------------------------------------------
# ...
 1644.50000   70.39540   70.36240  125.58310    3.58080   -0.01120    0.40850    8.69190    0.00090    2.01360
 1645.00000   70.37370   70.56610  125.06230    3.13180   -0.01160    0.40750    8.69110   -0.00010    2.01430
 1645.50000   70.19890   70.64380  124.29820    2.79160   -0.01200    0.40560    8.69310   -0.00100    2.01740
 1646.00000   69.79970   70.64380  123.62890    2.73690   -0.01180    0.40360    8.69530   -0.00080    2.02080
 1646.50000   69.57650   70.64380  123.46720    2.81260   -0.01120    0.40160    8.69760    0.00210    2.02460
 1647.00000   69.55920   70.39280  123.30960    3.07400   -0.01070    0.39880    8.69990    0.00540    2.02840
 1647.50000   69.60300   69.13130  122.59790    3.20070   -0.01020    0.39600    8.70210    0.00970    2.03270
 1648.00000   69.72450   69.70220  123.89110    3.30710   -0.00900    0.39600    8.70440    0.01210    2.03400
 1648.50000   69.95650   70.58090  124.48520    3.35960   -0.00790    0.39710    8.70660    0.01200    2.03380
 1649.00000   70.21890   69.82850  123.72090    3.68310   -0.00740    0.39910    8.70890    0.01180    2.03150
 1649.50000   70.46180   69.72520  123.64210    4.16880   -0.00750    0.40110    8.71120    0.00990    2.02810
 1650.00000   70.55700   70.70930  124.98560    4.47890   -0.00780    0.40260    8.70780    0.00770    2.02410
 1650.50000   70.50880   70.15110  125.00290    4.73760   -0.00810    0.40340    8.70310    0.00550    2.02200
 1651.00000   70.34880   69.21430  123.01050    4.72660   -0.00810    0.40230    8.70240    0.00420    2.02270
 1651.50000   70.27230   69.97300  125.37200    4.80940   -0.00760    0.40080    8.70240    0.00300    2.02420
 1652.00000   70.26870   71.03390  128.57810    5.48730   -0.00430    0.40020    8.70440    0.00250    2.02620
 1652.50000   70.67530   72.09480  131.42860    7.21080    0.00770    0.39990    8.71330    0.00270    2.02810
 1653.00000   72.51730   73.84970  133.79250   10.12880    0.02640    0.39640    8.72210    0.00320    2.03010
 1653.50000   73.66060   74.66180  132.06870   12.30490    0.04490    0.37870    8.66030    0.00110    2.04280
 1654.00000   71.67820   73.34420  127.32390   12.32460    0.03990    0.33500    8.56070   -0.00280    2.10030
 1654.50000   66.61530   70.03780  121.55180    9.26900    0.02790    0.22400    8.47130   -0.00460    2.23530
 1655.00000   61.61490   65.64850  114.64520    6.52740    0.01600    0.11300    8.38180   -0.00420    2.42000
 1655.50000   56.62300   60.77580  107.63210    5.65880    0.00410   -0.01530    8.36390   -0.00030    2.69300
 1656.00000   53.47650   55.64510   97.53500    5.38870   -0.00470   -0.07180    8.35090    0.00350    2.85430
 1656.50000   52.69950   53.51400   95.46950    5.13830   -0.00360   -0.11050    8.35100    0.00130    2.89320
 1657.00000   52.92330   53.45700   95.54410    4.32550   -0.00170   -0.08900    8.35650   -0.00090    2.85750
 1657.50000   53.34690   53.43730   96.66010    3.59010    0.00030   -0.06750    8.36200   -0.00220    2.81890
 1658.00000   53.63020   53.41760   97.66250    3.30410    0.00060   -0.05230    8.36750   -0.00290    2.80450
 1658.50000   53.48530   52.97180   97.25310    3.25580   -0.00010   -0.06640    8.37300   -0.00290    2.82460
 1659.00000   53.06140   52.28010   96.14600    3.51430   -0.00080   -0.08770    8.37850   -0.00240    2.86500
 1659.50000   52.28350   52.00540   95.03880    3.92130   -0.00150   -0.11210    8.38400   -0.00160    2.90590
 1660.00000   51.82300   51.46510   94.42520    4.03780   -0.00230   -0.12840    8.36210   -0.00210    2.93200
 1660.50000   51.45350   50.18870   94.13080    3.72830   -0.00340   -0.13940    8.34260   -0.00330    2.94780
 1661.00000   51.32910   50.86820   93.76550    3.44600   -0.00320   -0.14420    8.34460   -0.00420    2.95550
 1661.50000   51.27320   51.54850   93.14560    3.03190   -0.00290   -0.14470    8.34490   -0.00420    2.95760
 1662.00000   51.26750   50.65690   92.66920    3.11780   -0.00310   -0.14370    8.34500   -0.00370    2.95610
 1662.50000   51.28800   50.30930   93.18590    3.30440   -0.00360   -0.14280    8.34510   -0.00230    2.95340
 1663.00000   51.31140   50.37710   93.91520    3.66540   -0.00410   -0.14210    8.34610   -0.00080    2.95320
 1663.50000   51.44020   51.17100   94.32000    4.09800   -0.00320   -0.13810    8.34710   -0.00160    2.94790
 1664.00000   51.73580   50.86040   93.51430    4.25670   -0.00260   -0.13000    8.34800   -0.00330    2.93450
 1664.50000   52.05440   51.61320   94.92170    4.24460   -0.00220   -0.11710    8.34870   -0.00720    2.91290
 1665.00000   52.48610   52.34200   95.57300    4.17390   -0.00140   -0.10500    8.35180   -0.01330    2.88220
 1665.50000   52.98730   52.47190   96.22630    4.14850    0.00080   -0.09290    8.39020   -0.01770    2.84750
 1666.00000   53.51160   52.29290   96.55070    4.94680    0.00730   -0.07080    8.41920   -0.01840    2.82940
 1666.50000   53.27040   51.47060   96.22300    6.24740    0.01070   -0.06750    8.43710   -0.01660    2.83810
 1667.00000   52.27790   51.88200   95.60850    7.54540    0.01170   -0.08280    8.45510   -0.01210    2.87060
 1667.50000   51.73590   51.01070   94.99400    8.27970    0.01140   -0.09950    8.47200   -0.00770    2.89760
 1668.00000   51.73910   50.24550   94.59530    8.89830    0.00950   -0.12000    8.48430   -0.00510    2.90910
 1668.50000   52.38590   52.47950   97.13420    9.87890    0.00770   -0.11360    8.50250   -0.00180    2.91490
 1669.00000   55.43180   54.73890  102.44840   13.52600    0.00740   -0.10140    8.54710    0.00150    2.86810
 1669.50000   61.37630   56.93500  109.37240   18.72820    0.00610   -0.03740    8.59480    0.00470    2.72270
 1670.00000   66.46850   62.45850  116.29630   20.25200    0.00300    0.12250    8.73870    0.00700    2.53310
 1670.50000   70.29400   66.61480  121.17900   15.53350   -0.00070    0.26050    8.90220    0.00880    2.29220
 1671.00000   70.90410   69.47450  123.71700   10.05110   -0.00650    0.30180    9.04450    0.01510    2.14790
 1671.50000   70.23060   70.41190  123.57260    7.28750   -0.00920    0.34320    9.06710    0.01960    2.11180
 1672.00000   69.79690   69.78510  122.88390    5.97490   -0.00990    0.36360    9.07900    0.02250    2.08450
 1672.50000   70.05180   69.74670  122.63140    5.06170   -0.00990    0.37430    9.08510    0.02540    2.07140
 1673.00000   70.15050   69.67020  123.14010    4.92460   -0.01000    0.38020    9.08660    0.02830    2.06170
 1673.50000   70.15440   69.59360  123.60030    5.19260   -0.01030    0.38440    9.08810    0.02970    2.05350
 1674.00000   70.15830   69.51710  123.47370    5.36290   -0.01080    0.38740    9.08960    0.02890    2.05070
 1674.50000   70.12080   69.44060  122.81160    5.41580   -0.01140    0.38790    9.08950    0.02780    2.05110
 1675.00000   69.99270   69.88490  122.14940    4.82810   -0.01190    0.38730    9.08930    0.02110    2.05050
 1675.50000   69.65360   70.45500  121.28720    4.02610   -0.01250    0.38780    9.08830    0.01510    2.04690
 1676.00000   69.44700   69.49650  120.37030    3.36710   -0.01310    0.39100    9.08750    0.00940    2.04100
 1676.50000   69.30440   68.73070  119.49480    2.68940   -0.01360    0.39540    9.08670    0.00440    2.03470
 1677.00000   69.37310   68.90300  119.41260    2.68830   -0.01360    0.39620    9.08970    0.00390    2.03440
 1677.50000   69.72650   69.24140  120.19480    3.46710   -0.01330    0.39560    9.08990    0.00460    2.03560
 1678.00000   70.09010   69.72480  121.40430    4.20620   -0.01320    0.39520    9.08920    0.00660    2.03630
 1678.50000   70.39550   70.26520  121.87830    4.54050   -0.01330    0.39510    9.08500    0.00770    2.03690
 1679.00000   70.44540   70.48620  121.79590    4.26210   -0.01360    0.39430    9.07750    0.00860    2.03800
 1679.50000   70.23580   70.68580  121.71350    3.69020   -0.01400    0.39340    9.08000    0.00720    2.03920
 1680.00000   69.67660   70.57460  120.40570    2.96920   -0.01440    0.39460    9.08510    0.00540    2.03700
 1680.50000   69.05890   68.91520  119.56800    2.34840   -0.01480    0.39620    9.10240    0.00430    2.03460
