~Version ---------------------------------------------------
VERS.   2.0 : CWLS log ASCII Standard -VERSION 2.0
WRAP.    NO : One line per depth step
DLM . SPACE : Column Data Section Delimiter
~Well ------------------------------------------------------
STRT .F                    2.0 : START DEPTH
STOP .F                 2794.0 : STOP DEPTH
STEP .F                    0.5 : STEP
NULL .                -9999.25 : NULL VALUE
COMP .                         : COMPANY
WELL .                         : WELL
FLD  .                         : FIELD
LOC  .                         : LOCATION
PROV .                         : PROVINCE
CNTY .                         : COUNTY
STAT .                         : STATE
CTRY .                         : COUNTRY
SRVC .                         : SERVICE COMPANY
DATE .                         : DATE
UWI  .                         : UNIQUE WELL ID
API  .                         : API NUMBER
SLAT .WGS84 1.8354767251648987 : SURFACE LATITUDE
SLON .WGS84  7.600270196392003 : SURFACE LONGITUDE
DATUM.F                2641.76 : DEPTH DATUM ELEV
~Curve Information -----------------------------------------
DEPT   .F     : 1 MEASURED DEPTH
DT     .US/F  : DELTA-T (INTERVAL TRANSIT TIME)
DTCO   .US/F  : DELTA-T COMPRESSIONAL
DTSM   .US/F  : DELTA-T SHEAR
GRD    .GAPI  : GAMMA RAY FROM DENSITY LOG
NPHI_LS.DEC   : NEUTRON POROSITY LIMESTONE
DPHI_LS.DEC   : DENSITY POROSITY LIMESTONE
CALD   .IN    : CALIPER FROM DENSITY LOG
DRHO   .G/C3  : BULK DENSITY CORRECTION
RHOB   .G/C3  : BULK DENSITY
~Params ----------------------------------------------------
~Other -----------------------------------------------------
~ASCII -----------------------------------------------------
# ...
 1352.50000   68.97070   69.54520  120.78220    4.67520   -0.01350    0.39990    8.99760    0.00750    2.02730
 1353.00000   68.78810   69.57510  120.59510    4.29210   -0.01370    0.40430    8.99930    0.00750    2.02010
 1353.50000   68.56260   69.60500  120.45130    3.89740   -0.01390    0.40280    9.00100    0.00810    2.02400
 1354.00000   68.38680   68.95380  120.28610    3.53480   -0.01420    0.39580    9.00240    0.00940    2.03900
 1354.50000   68.33360   67.53610  120.11090    3.17230   -0.01450    0.38830    9.00240    0.01180    2.05240
 1355.00000   68.39720   68.22500  119.93560    2.80970   -0.01410    0.38590    9.00240    0.01340    2.05400
 1355.50000   68.46330   67.70990  119.93200    2.52780   -0.01380    0.38500    9.00240    0.01350    2.05240
 1356.00000   68.49550   68.06730  120.66760    2.48290   -0.01340    0.38400    9.00240    0.01320    2.05570
 1356.50000   68.50850   68.16980  119.78630    2.53040   -0.01290    0.38000    9.00240    0.01300    2.06230
 1357.00000   68.44070   67.63810  120.48660    2.62220   -0.01250    0.37470    9.00240    0.01270    2.07060
 1357.50000   68.31680   67.56380  120.94010    3.05910   -0.01260    0.36730    9.00240    0.01260    2.08160
 1358.00000   67.91110   67.48950  120.78260    3.94800   -0.01330    0.35980    9.00240    0.01520    2.09600
 1358.50000   67.55900   67.58420  120.54380    3.90280   -0.01390    0.35280    9.00170    0.01750    2.10730
 1359.00000   67.34390   66.67900  120.30500    3.63680   -0.01420    0.35560    9.00030    0.01870    2.10470
 1359.50000   67.18540   67.38750  119.93520    3.06580   -0.01430    0.36100    8.99890    0.01990    2.09410
 1360.00000   67.27670   66.29880  119.72740    2.58740   -0.01430    0.36650    8.99750    0.02050    2.08390
 1360.50000   67.36790   66.53930  119.37840    2.10910   -0.01430    0.37040    8.99610    0.01890    2.07580
 1361.00000   67.49020   66.39610  118.98010    2.06720   -0.01420    0.36990    8.99470    0.01730    2.07810
 1361.50000   67.67260   66.88000  118.75810    2.06490   -0.01410    0.36280    8.99320    0.01530    2.08970
 1362.00000   67.80480   67.87030  118.70450    2.06360   -0.01420    0.35570    8.99590    0.01270    2.10100
 1362.50000   67.98600   68.60040  118.62450    2.04010   -0.01440    0.36190    9.00450    0.00990    2.09380
 1363.00000   68.46870   68.08070  119.49710    2.02390   -0.01410    0.37440    9.01320    0.00690    2.06490
 1363.50000   68.50580   67.69010  120.52140    2.20060   -0.01370    0.38910    9.02220    0.00630    2.04780
 1364.00000   68.09610   68.15030  120.08160    2.13230   -0.01330    0.38970    9.04530    0.00610    2.04800
 1364.50000   68.12120   67.84380  119.59420    1.98200   -0.01300    0.38120    9.06720    0.00690    2.06130
 1365.00000   68.32380   67.36270  119.96140    1.93780   -0.01210    0.37410    9.07820    0.00930    2.06800
 1365.50000   68.59180   66.59940  120.50140    2.52700   -0.00800    0.37780    9.08930    0.01200    2.05780
 1366.00000   69.80690   68.64690  124.35740    5.08530    0.00110    0.39150    9.11690    0.01460    2.04120
 1366.50000   72.70150   71.52160  131.35420    8.90010    0.01110    0.39310    9.17230    0.01730    2.04160
 1367.00000   76.48870   74.62570  136.54900   11.87160    0.01880    0.38840    9.21910    0.02230    2.05190
 1367.50000   78.30180   77.54580  140.69030   12.49150    0.01480    0.38310    9.24120    0.02730    2.06040
 1368.00000   77.84130   78.36820  140.91340   10.98620    0.00550    0.37930    9.26320    0.02580    2.06180
 1368.50000   75.58620   76.17800  134.85380    7.96800   -0.00320    0.38120    9.26670    0.02450    2.06120
 1369.00000   72.44880   74.07710  127.42570    6.26020   -0.00660    0.38470    9.26700    0.02420    2.05570
 1369.50000   71.26820   71.99580  124.80900    5.59180   -0.00840    0.38880    9.26590    0.02410    2.04930
 1370.00000   70.85490   70.43090  124.40610    5.34940   -0.00980    0.39260    9.25850    0.02610    2.04330
 1370.50000   70.36130   70.52350  123.97860    5.07880   -0.01110    0.39160    9.24060    0.03350    2.04150
 1371.00000   70.13510   70.57100  123.48270    4.32600   -0.01240    0.38990    9.20370    0.03550    2.04930
 1371.50000   69.95050   70.61850  123.05120    3.66620   -0.01290    0.38820    9.15900    0.03120    2.04970
 1372.00000   69.69520   70.48550  121.64680    3.09080   -0.01300    0.38810    9.10490    0.02360    2.04740
 1372.50000   69.47940   69.49670  120.91200    2.97550   -0.01310    0.39250    9.05670    0.01460    2.04140
 1373.00000   69.10140   68.10070  121.95040    2.83530   -0.01310    0.39640    9.03770    0.00500    2.03260
 1373.50000   68.91770   69.37000  122.91480    2.57710   -0.01320    0.39890    9.02850   -0.00070    2.03120
 1374.00000   68.86110   68.29210  123.13370    2.74210   -0.01320    0.39670    9.01740   -0.00120    2.03670
 1374.50000   68.77710   67.63080  121.00160    3.27370   -0.01330    0.39260    9.01050   -0.00020    2.04540
 1375.00000   68.61100   66.79570  120.72980    3.78410   -0.01340    0.38930    9.01900    0.00070    2.04960
 1375.50000   68.44630   67.22900  119.59350    4.00830   -0.01380    0.38590    9.02750    0.00170    2.05380
 1376.00000   68.31650   67.47710  119.29080    3.55510   -0.01370    0.38320    9.02920    0.00370    2.05640
 1376.50000   68.29400   67.78780  119.23260    3.01950   -0.01360    0.38390    8.99870    0.00540    2.05540
 1377.00000   68.20180   68.43350  118.64640    2.51460   -0.01350    0.38650    8.96810    0.00550    2.04930
 1377.50000   68.08880   67.51830  119.99850    2.09460   -0.01340    0.38920    8.94180    0.00410    2.04390
 1378.00000   68.20110   67.36830  119.12890    1.99900   -0.01330    0.39200    8.93270    0.00270    2.04170
 1378.50000   68.33420   67.96880  119.72310    1.97680   -0.01330    0.39300    8.92550    0.00260    2.03890
 1379.00000   68.34620   68.09970  120.13030    1.98470   -0.01340    0.39460    8.91840    0.00380    2.03580
 1379.50000   68.31750   67.65130  120.46040    1.98870   -0.01340    0.39870    8.91570    0.00500    2.03170
 1380.00000   68.42550   67.65110  118.52090    2.12770   -0.01350    0.40120    8.91560    0.00640    2.02730
 1380.50000   68.55170   67.65090  118.85850    2.27730   -0.01350    0.40120    8.91560    0.00780    2.02680
 1381.00000   68.41230   67.65070  120.01270    2.53900   -0.01310    0.40010    8.91560    0.01080    2.02850
 1381.50000   68.19010   67.65050  119.49280    3.13570   -0.01270    0.39870    8.91530    0.01320    2.03100
 1382.00000   68.29350   66.99020  117.61700    3.82210   -0.01110    0.39500    8.91410    0.01530    2.03730
 1382.50000   68.50360   66.88840  119.28680    4.74720   -0.00910    0.38450    8.91280    0.02110    2.05710
 1383.00000   68.56900   68.58240  123.75200    6.78320   -0.00620    0.37400    8.91140    0.02710    2.07710
 1383.50000   69.50860   70.07330  128.50970    9.81530    0.00300    0.36830    8.91000    0.03340    2.08420
 1384.00000   73.35750   72.28630  133.40880   14.58070    0.01520    0.36700    8.93870    0.04040    2.08380
 1384.50000   77.04540   74.58550  137.29930   18.97330    0.02110    0.36600    8.98550    0.04740    2.08580
 1385.00000   78.30280   76.70940  137.28650   18.17860    0.01310    0.36110    9.00160    0.05150    2.10210
 1385.50000   77.65370   78.50680  134.76190   16.73000    0.00490    0.35810    9.01760    0.04840    2.09660
 1386.00000   75.79670   78.56040  132.12730   15.30620   -0.00070    0.36730    9.03360    0.03420    2.07960
 1386.50000   74.41830   76.63170  130.21320   13.89530   -0.00320    0.37690    9.04960    0.02010    2.06610
 1387.00000   74.35630   74.67010  129.71950   12.48450   -0.00460    0.38430    9.06560    0.01170    2.05460
 1387.50000   74.24230   73.13230  129.37110   10.82580   -0.00650    0.39090    9.08320    0.00910    2.04250
 1388.00000   73.71860   71.63340  127.67650    8.80790   -0.00840    0.39590    9.08980    0.00800    2.03380
 1388.50000   72.99380   70.64420  125.95750    6.83650   -0.00920    0.40010    9.07960    0.00710    2.02750
