~Version ---------------------------------------------------
VERS.   2.0 : CWLS log ASCII Standard -VERSION 2.0
WRAP.    NO : One line per depth step
DLM . SPACE : Column Data Section Delimiter
~Well ------------------------------------------------------
STRT .F                    2.0 : START DEPTH
STOP .F                 2794.0 : STOP DEPTH
STEP .F                    0.5 : STEP
NULL .                -9999.25 : NULL VALUE
COMP .                         : COMPANY
WELL .                         : WELL
FLD  .                         : FIELD
LOC  .                         : LOCATION
PROV .                         : PROVINCE
CNTY .                         : COUNTY
STAT .                         : STATE
CTRY .                         : COUNTRY
SRVC .                         : SERVICE COMPANY
DATE .                         : DATE
UWI  .                         : UNIQUE WELL ID
API  .                         : API NUMBER
SLAT .WGS84 1.8354767251648987 : SURFACE LATITUDE
SLON .WGS84  7.600270196392003 : SURFACE LONGITUDE
DATUM.F                2641.76 : DEPTH DATUM ELEV
~Curve Information -----------------------------------------
DEPT   .F     : 1 MEASURED DEPTH
DT     .US/F  : DELTA-T (INTERVAL TRANSIT TIME)
DTCO   .US/F  : DELTA-T COMPRESSIONAL
DTSM   .US/F  : DELTA-T SHEAR
GRD    .GAPI  : GAMMA RAY FROM DENSITY LOG
NPHI_LS.DEC   : NEUTRON POROSITY LIMESTONE
DPHI_LS.DEC   : DENSITY POROSITY LIMESTONE
CALD   .IN    : CALIPER FROM DENSITY LOG
DRHO   .G/C3  : BULK DENSITY CORRECTION
RHOB   .G/C3  : BULK DENSITY
~Params ----------------------------------------------------
~Other -----------------------------------------------------
~ASCII -----------------------------------------------------
# ...
 2776.00000   51.37440   52.26060   95.59670   -9999.25   -9999.25   -0.11420    7.82960    0.01460    2.90700
 2776.50000   50.13280   50.88220   91.92060   -9999.25   -9999.25   -0.11960    7.81300    0.01770    2.91280
 2777.00000   49.22900   49.86860   90.80030   -9999.25   -9999.25   -0.11820    7.81150    0.02360    2.90770
 2777.50000   49.96670   49.78450   92.20390   -9999.25   -9999.25   -0.11410    7.81580    0.03110    2.90220
 2778.00000   52.48330   52.12140   95.31990   -9999.25   -9999.25   -0.11030    7.81920    0.03860    2.89630
 2778.50000   55.43330   54.42400   99.27180   -9999.25   -9999.25   -0.10160    7.82250    0.03990    2.87620
 2779.00000   57.15630   55.93740  102.24360   -9999.25   -9999.25   -0.08240    7.82090    0.03630    2.83590
 2779.50000   57.91140   56.25100  103.52560   -9999.25   -9999.25   -0.05060    7.81920    0.02660    2.78550
 2780.00000   57.90780   56.51610  103.55540   -9999.25   -9999.25   -0.02100    7.81760    0.01680    2.74490
 2780.50000   -9999.25   -9999.25   -9999.25   -9999.25   -9999.25   -0.00400    7.81620    0.01050    2.71790
 2781.00000   -9999.25   -9999.25   -9999.25   -9999.25   -9999.25   -0.01030    7.81530    0.00750    2.72200
 2781.50000   -9999.25   -9999.25   -9999.25   -9999.25   -9999.25   -0.02950    7.81380    0.00920    2.75110
 2782.00000   -9999.25   -9999.25   -9999.25   -9999.25   -9999.25   -0.05040    7.81040    0.01110    2.79820
 2782.50000   -9999.25   -9999.25   -9999.25   -9999.25   -9999.25   -0.06950    7.81010    0.01270    2.83560
 2783.00000   -9999.25   -9999.25   -9999.25   -9999.25   -9999.25   -0.08320    7.82050    0.01300    2.85480
 2783.50000   -9999.25   -9999.25   -9999.25   -9999.25   -9999.25   -0.08780    7.81560    0.01320    2.85790
 2784.00000   -9999.25   -9999.25   -9999.25   -9999.25   -9999.25   -0.09570    7.81090    0.01600    2.87840
 2784.50000   -9999.25   -9999.25   -9999.25   -9999.25   -9999.25   -0.11800    7.80640    0.02260    2.91150
 2785.00000   -9999.25   -9999.25   -9999.25   -9999.25   -9999.25   -0.13530    7.80220    0.02910    2.94890
 2785.50000   -9999.25   -9999.25   -9999.25   -9999.25   -9999.25   -0.14070    7.80380    0.02680    2.94580
 2786.00000   -9999.25   -9999.25   -9999.25   -9999.25   -9999.25   -0.12730    7.80540    0.02110    2.92600
 2786.50000   -9999.25   -9999.25   -9999.25   -9999.25   -9999.25   -0.12000    7.80740    0.01820    2.91010
 2787.00000   -9999.25   -9999.25   -9999.25   -9999.25   -9999.25   -0.11650    7.80960    0.01900    2.90590
 2787.50000   -9999.25   -9999.25   -9999.25   -9999.25   -9999.25   -0.11350    7.81180    0.01990    2.90040
 2788.00000   -9999.25   -9999.25   -9999.25   -9999.25   -9999.25   -0.10820    7.81400    0.02270    2.89540
 2788.50000   -9999.25   -9999.25   -9999.25   -9999.25   -9999.25   -0.10920    7.81620    0.02880    2.89430
 2789.00000   -9999.25   -9999.25   -9999.25   -9999.25   -9999.25   -0.11290    7.81850    0.03530    2.90610
 2789.50000   -9999.25   -9999.25   -9999.25   -9999.25   -9999.25   -0.12080    7.81810    0.04180    2.91920
 2790.00000   -9999.25   -9999.25   -9999.25   -9999.25   -9999.25   -0.13140    7.81550    0.04830    2.93460
 2790.50000   -9999.25   -9999.25   -9999.25   -9999.25   -9999.25   -0.13750    7.81130    0.04590    2.94070
 2791.00000   -9999.25   -9999.25   -9999.25   -9999.25   -9999.25   -0.13600    7.80630    0.03310    2.93870
 2791.50000   -9999.25   -9999.25   -9999.25   -9999.25   -9999.25   -0.13440    7.79910    0.02100    2.93680
 2792.00000   -9999.25   -9999.25   -9999.25   -9999.25   -9999.25   -0.13290    7.77960    0.01380    2.93470
 2792.50000   -9999.25   -9999.25   -9999.25   -9999.25   -9999.25   -0.13130    7.74380    0.01550    2.93170
 2793.00000   -9999.25   -9999.25   -9999.25   -9999.25   -9999.25   -0.12560    7.65540    0.02840    2.92720
 2793.50000   -9999.25   -9999.25   -9999.25   -9999.25   -9999.25   -0.11730    7.61450    0.04760    2.91020
 2794.00000   -9999.25   -9999.25   -9999.25   -9999.25   -9999.25   -0.10810    7.57480    0.06740    2.88720
