~Version ---------------------------------------------------
VERS.   2.0 : CWLS log ASCII Standard -VERSION 2.0
WRAP.    NO : One line per depth step
DLM . SPACE : Column Data Section Delimiter
~Well ------------------------------------------------------
STRT .F                    2.0 : START DEPTH
STOP .F                 2794.0 : STOP DEPTH
STEP .F                    0.5 : STEP
NULL .                -9999.25 : NULL VALUE
COMP .                         : COMPANY
WELL .                         : WELL
FLD  .                         : FIELD
LOC  .                         : LOCATION
PROV .                         : PROVINCE
CNTY .                         : COUNTY
STAT .                         : STATE
CTRY .                         : COUNTRY
SRVC .                         : SERVICE COMPANY
DATE .                         : DATE
UWI  .                         : UNIQUE WELL ID
API  .                         : API NUMBER
SLAT .WGS84 1.8354767251648987 : SURFACE LATITUDE
SLON .WGS84  7.600270196392003 : SURFACE LONGITUDE
DATUM.F                2641.76 : DEPTH DATUM ELEV
~Curve Information -----------------------------------------
DEPT   .F     : 1 MEASURED DEPTH
DT     .US/F  : DELTA-T (INTERVAL TRANSIT TIME)
DTCO   .US/F  : DELTA-T COMPRESSIONAL
DTSM   .US/F  : DELTA-T SHEAR
GRD    .GAPI  : GAMMA RAY FROM DENSITY LOG
NPHI_LS.DEC   : NEUTRON POROSITY LIMESTONE
DPHI_LS.DEC   : DENSITY POROSITY LIMESTONE
CALD   .IN    : CALIPER FROM DENSITY LOG
DRHO   .G/C3  : BULK DENSITY CORRECTION
RHOB   .G/C3  : BULK DENSITY
~Params ----------------------------------------------------
~Other -----------------------------------------------------
~ASCII -----------------------------------------------------
# ...
 1790.50000   70.13630   69.68480  127.78620    7.31810    0.00150    0.25400    8.81300    0.01080    2.27200
 1791.00000   70.86240   71.10230  128.53330    7.45500   -0.00030    0.27370    8.80490    0.01020    2.21910
 1791.50000   71.00410   71.76880  126.72420    6.65110   -0.00260    0.32300    8.79690    0.00620    2.13280
 1792.00000   70.46700   71.07280  123.43540    5.72000   -0.00250    0.37000    8.78890    0.00340    2.07710
 1792.50000   67.52090   67.93470  119.12760    4.89410   -0.00070    0.33680    8.78090   -0.00050    2.10690
 1793.00000   63.82530   64.76930  114.46950    4.36110    0.00100    0.24340    8.76790   -0.00290    2.21790
 1793.50000   60.35980   61.50950  109.26260    4.10960    0.00210    0.14990    8.76610   -0.00290    2.40200
 1794.00000   56.61650   57.89210  103.86910    3.96200    0.00180    0.04030    8.77020   -0.00090    2.59390
 1794.50000   54.04670   55.54080   99.82660    3.87670   -0.00130   -0.03840    8.77430    0.00150    2.76080
 1795.00000   53.24350   54.82080   98.49000    3.71800   -0.00420   -0.08590    8.77840    0.00380    2.85870
 1795.50000   53.15650   53.56290   97.53100    3.52510   -0.00680   -0.10770    8.78260    0.00330    2.90380
 1796.00000   53.50450   53.75710   96.77880    3.36510   -0.00690   -0.11420    8.78670    0.00230    2.90140
 1796.50000   54.09070   54.53160   99.76260    3.22310   -0.00590   -0.09390    8.78170    0.00130    2.84920
 1797.00000   54.78860   55.46730   98.68770    3.00450   -0.00410   -0.05660    8.77560    0.00030    2.79260
 1797.50000   55.56290   56.65800   99.59650    2.89120   -0.00000   -0.02600    8.77640    0.00110    2.75510
 1798.00000   55.85500   54.41020   99.31820    3.08860    0.00420   -0.01610    8.77720    0.00230    2.74510
 1798.50000   54.96780   54.20670   98.08760    3.45730    0.00760   -0.03210    8.77760    0.00310    2.76490
 1799.00000   53.89820   54.98580   99.46080    4.67180    0.00900   -0.05490    8.77690    0.00310    2.80970
 1799.50000   55.59660   56.88890  102.78660    6.69560    0.00990   -0.07330    8.78200    0.00310    2.83270
 1800.00000   58.53250   58.79190  107.63200    8.55870    0.00540   -0.06480    8.81190    0.00000    2.77060
 1800.50000   62.60570   61.13610  111.88850    7.59960   -0.00090    0.09330    8.84180   -0.00490    2.58540
 1801.00000   66.02690   63.52080  113.94430    6.16330   -0.00710    0.16570    8.89270   -0.00810    2.38400
 1801.50000   68.32990   65.04570  115.00940    4.15440   -0.01210    0.23770    8.94600   -0.01070    2.21540
 1802.00000   68.54950   66.03100  117.68590    3.40780   -0.01270    0.29750    8.97190   -0.01050    2.12810
 1802.50000   68.80060   67.32500  120.37420    3.18870   -0.00910    0.37730    8.97930   -0.00850    2.06740
 1803.00000   69.85270   69.66570  122.43680    4.18120   -0.00510    0.40060    8.98670   -0.00630    2.03260
 1803.50000   71.01210   69.04510  124.54330    5.79410   -0.00230    0.40880    8.98800    0.00070    2.01260
 1804.00000   72.13120   70.75170  125.59340    6.94360   -0.00390    0.41490    8.98810    0.00660    2.00470
 1804.50000   72.14210   70.88140  125.32990    6.31140   -0.00570    0.40680    8.98810    0.01240    2.01000
 1805.00000   71.24020   70.18260  124.47450    5.68940   -0.00790    0.39660    8.98770    0.01860    2.02800
 1805.50000   70.26870   69.46050  124.28700    4.87770   -0.00940    0.38710    8.98730    0.02330    2.04870
 1806.00000   69.63280   70.69800  123.04170    4.42540   -0.00920    0.38540    8.98730    0.02290    2.05180
 1806.50000   69.06900   69.22150  121.59830    4.06500   -0.00850    0.38210    8.98730    0.02260    2.05490
 1807.00000   67.90920   67.92480  119.83540    4.07790   -0.00770    0.36900    8.98770    0.02210    2.06880
 1807.50000   66.26930   66.81120  117.25810    4.21640   -0.00680    0.33410    8.98820    0.02170    2.14710
 1808.00000   64.82820   65.00640  114.68090    4.48380   -0.00540    0.28000    8.98870    0.02160    2.25570
 1808.50000   63.44120   62.84960  110.61120    4.84190   -0.00280    0.20710    8.98910    0.01860    2.36760
 1809.00000   61.64800   60.40570  107.29700    5.70810    0.00190    0.15400    8.98940    0.01030    2.44750
 1809.50000   60.67420   60.85000  109.49280    7.42440    0.01040    0.11990    8.98920    0.00290    2.50050
 1810.00000   62.25070   62.91480  113.42510    9.45910    0.02000    0.09390    8.98900    0.00760    2.54510
 1810.50000   68.66920   64.97970  113.65930   11.07250    0.02120    0.12460    8.98780    0.01030    2.53600
 1811.00000   71.99860   67.35930  112.64930   10.93360    0.01530    0.18090    8.98490    0.00500    2.38840
 1811.50000   71.93390   69.74800  116.69470    9.08450    0.01010    0.24500    8.98890   -0.00430    2.24880
 1812.00000   67.95090   69.81570  117.72750    7.22440    0.00990    0.29830    8.99300   -0.00580    2.19450
 1812.50000   62.36130   65.09320  110.37880    6.54020    0.00960    0.22010    8.99720   -0.00550    2.28230
 1813.00000   57.73470   60.23040  105.71680    6.99230    0.00950    0.08270    9.00140   -0.00290    2.50970
 1813.50000   55.04960   55.86020  103.47830    7.23380    0.00350   -0.00890    9.00550   -0.00040    2.73050
 1814.00000   53.79840   54.99570  101.76370    6.44800   -0.00330   -0.08580    9.01790   -0.00020    2.84660
 1814.50000   53.89360   54.28330  100.52210    4.85190   -0.00680   -0.11200    9.03120    0.00010    2.89640
 1815.00000   54.30840   53.13690   99.52750    3.50140   -0.00590   -0.09970    9.04450    0.00060    2.87740
 1815.50000   54.94940   54.56070  100.39030    3.05620   -0.00380   -0.04530    9.05790    0.00130    2.79720
 1816.00000   55.63910   55.17960  100.70340    3.14740   -0.00080   -0.01780    9.06880    0.00210    2.74810
 1816.50000   55.79360   54.45500  100.74790    3.82960    0.00220   -0.00610    9.07160    0.00290    2.72420
 1817.00000   55.34500   54.45430  100.79250    4.47120    0.00520   -0.02000    9.08620    0.00320    2.73960
 1817.50000   54.34810   54.09460  100.17500    4.85630    0.00550   -0.03790    9.10610    0.00340    2.78460
 1818.00000   52.97390   52.73800   97.94680    5.10920    0.00350   -0.06400    9.12030    0.00220    2.82330
 1818.50000   52.84570   51.29560   97.15860    4.70350    0.00050   -0.09780    9.15100    0.00080    2.87680
 1819.00000   52.85850   51.19720   96.80090    4.12470   -0.00230   -0.11760    9.16480   -0.00090    2.91420
 1819.50000   52.10980   50.88620   95.97000    4.05420   -0.00450   -0.13340    9.17850   -0.00260    2.93550
 1820.00000   51.62890   50.37190   92.05930    4.28430   -0.00560   -0.14160    9.20220   -0.00430    2.94950
 1820.50000   53.14220   51.57590   90.98300    5.89010    0.00040   -0.12470    9.23390   -0.00600    2.92240
 1821.00000   56.06600   53.55060   95.35910    8.58110    0.02460   -0.06420    9.24880   -0.00840    2.85900
 1821.50000   61.51390   58.78150  102.77420   14.60450    0.12420   -0.00380    9.26250   -0.01000    2.71830
 1822.00000   69.40530   64.36080  113.51660   21.26660    0.19070    0.06690    9.27840   -0.01140    2.63220
 1822.50000   73.46830   68.16690  121.91260   25.60160    0.20590    0.07640    9.29450   -0.01060    2.58320
 1823.00000   74.59760   70.25710  125.29690   26.52570    0.14630    0.06870    9.31110   -0.00570    2.59080
 1823.50000   74.02150   70.75960  128.57860   26.03640    0.07450    0.06380    9.32770   -0.00390    2.60390
 1824.00000   72.80230   70.71710  131.23740   26.21660    0.03200    0.13030    9.32900   -0.00210    2.51930
 1824.50000   73.56760   69.81960  131.43800   26.52660    0.01620    0.20330    9.33330   -0.00030    2.39440
 1825.00000   75.23670   71.52640  131.58990   25.79580    0.01100    0.25470    9.36860    0.00150    2.26860
 1825.50000   75.17320   73.73630  131.35050   22.96930    0.00580    0.29340    9.39710    0.00510    2.18240
 1826.00000   73.58460   75.63800  130.23660   20.09540    0.00060    0.32590    9.40990    0.00950    2.13830
 1826.50000   72.53020   75.47340  128.57000   15.34290   -0.00430    0.35080    9.41350    0.01050    2.10640
