~Version ---------------------------------------------------
VERS.   2.0 : CWLS log ASCII Standard -VERSION 2.0
WRAP.    NO : One line per depth step
DLM . SPACE : Column Data Section Delimiter
~Well ------------------------------------------------------
STRT .F                    2.0 : START DEPTH
STOP .F                 2794.0 : STOP DEPTH
STEP .F                    0.5 : STEP
NULL .                -9999.25 : NULL VALUE
COMP .                         : COMPANY
WELL .                         : WELL
FLD  .                         : FIELD
LOC  .                         : LOCATION
PROV .                         : PROVINCE
CNTY .                         : COUNTY
STAT .                         : STATE
CTRY .                         : COUNTRY
SRVC .                         : SERVICE COMPANY
DATE .                         : DATE
UWI  .                         : UNIQUE WELL ID
API  .                         : API NUMBER
SLAT .WGS84 1.8354767251648987 : SURFACE LATITUDE
SLON .WGS84  7.600270196392003 : SURFACE LONGITUDE
DATUM.F                2641.76 : DEPTH DATUM ELEV
~Curve Information -----------------------------------------
DEPT   .F     : 1 MEASURED DEPTH
DT     .US/F  : DELTA-T (INTERVAL TRANSIT TIME)
DTCO   .US/F  : DELTA-T COMPRESSIONAL
DTSM   .US/F  : DELTA-T SHEAR
GRD    .GAPI  : GAMMA RAY FROM DENSITY LOG
NPHI_LS.DEC   : NEUTRON POROSITY LIMESTONE
DPHI_LS.DEC   : DENSITY POROSITY LIMESTONE
CALD   .IN    : CALIPER FROM DENSITY LOG
DRHO   .G/C3  : BULK DENSITY CORRECTION
RHOB   .G/C3  : BULK DENSITY
~Params ----------------------------------------------------
~Other -----------------------------------------------------
~ASCII -----------------------------------------------------
# ...
 1936.50000   68.78170   67.30170  120.89050    5.33630   -0.01410    0.37980    9.60010   -0.00090    2.06350
 1937.00000   69.02850   67.78630  121.64380    5.68100   -0.01350    0.38160    9.59970   -0.00090    2.06080
 1937.50000   69.48600   69.30270  122.78930    6.78100   -0.01290    0.38330    9.59930   -0.00090    2.05760
 1938.00000   70.00120   70.70330  123.54220    8.15890   -0.01230    0.38510    9.59920   -0.00090    2.05520
 1938.50000   70.36920   70.24170  123.54220    8.74090   -0.01230    0.38680    9.59940   -0.00090    2.05280
 1939.00000   70.56340   69.27940  123.86660    8.27640   -0.01230    0.38710    9.59930   -0.00000    2.05040
 1939.50000   70.29610   70.55840  124.61410    6.89850   -0.01230    0.38560    9.59870    0.00130    2.04980
 1940.00000   69.89590   69.90620  123.51650    5.52060   -0.01290    0.38440    9.59870    0.00260    2.04980
 1940.50000   69.63370   68.80320  122.34520    4.29250   -0.01370    0.38550    9.59910    0.00400    2.04990
 1941.00000   69.41280   69.64410  121.23240    4.02320   -0.01450    0.38670    9.59950    0.00530    2.04990
 1941.50000   69.13860   69.34910  120.45240    3.91060   -0.01470    0.38380    9.58910    0.00580    2.05090
 1942.00000   68.90830   67.51840  120.46070    3.58590   -0.01490    0.38050    9.57280    0.00470    2.05670
 1942.50000   68.76270   67.48300  120.47050    2.80920   -0.01510    0.37730    9.55390    0.00290    2.06280
 1943.00000   68.55010   67.46730  120.48030    2.27280   -0.01530    0.37680    9.52810    0.00110    2.06600
 1943.50000   68.35310   67.45160  120.49010    1.99660   -0.01530    0.38020    9.52010   -0.00050    2.06150
 1944.00000   68.33290   67.43590  120.49990    1.97890   -0.01500    0.38350    9.52100   -0.00160    2.05590
 1944.50000   68.40360   67.46740  120.50970    2.04260   -0.01480    0.38680    9.49530   -0.00120    2.05310
 1945.00000   68.43800   67.50010  120.51950    2.23130   -0.01480    0.38350    9.46300   -0.00040    2.05370
 1945.50000   68.32370   67.53280  120.52930    2.51140   -0.01480    0.37910    9.43080    0.00320    2.05680
 1946.00000   68.26330   67.56550  121.15110    2.77110   -0.01340    0.37350    9.42200    0.00710    2.06380
 1946.50000   68.24450   67.59820  121.40070    3.01310   -0.01150    0.36240    9.42170    0.00530    2.08170
 1947.00000   67.77730   67.63100  120.72060    3.24370   -0.00920    0.34570    9.42160    0.00310    2.11420
 1947.50000   67.19100   67.56150  120.71850    3.47440   -0.00640    0.32620    9.42180   -0.00050    2.15620
 1948.00000   66.52580   66.51090  119.09330    3.63190   -0.00430    0.30670    9.42180   -0.00410    2.21380
 1948.50000   64.88550   65.09650  116.61730    3.72000   -0.00260    0.23280    9.42250   -0.00740    2.34070
 1949.00000   62.40490   63.28510  114.13430    4.01010   -0.00080    0.13740    9.42480   -0.00890    2.46360
 1949.50000   60.25890   61.35600  111.65120    4.38180    0.00110    0.06110    9.42580   -0.01030    2.60530
 1950.00000   58.22110   59.27940  108.70000    5.32090    0.00300    0.01090    9.42270   -0.01110    2.69710
 1950.50000   56.68380   57.18120  105.73920    6.46810    0.00320   -0.02710    9.42160   -0.01190    2.75790
 1951.00000   55.49220   55.29480  103.68280    8.05910   -0.00070   -0.06290    9.42170   -0.00330    2.82470
 1951.50000   54.73330   57.17510  107.04850    8.91230   -0.00680   -0.09190    9.42150    0.00620    2.86900
 1952.00000   57.26420   58.91670  110.33560    8.71070   -0.01080   -0.09520    9.42140    0.01200    2.76240
 1952.50000   61.41360   60.26400  113.22050    7.32670   -0.01450    0.07980    9.42150    0.01130    2.56730
 1953.00000   64.69000   62.38460  116.10540    5.57660   -0.01520    0.20510    9.42170    0.00820    2.30770
 1953.50000   67.17460   65.42020  118.99040    3.95430   -0.01520    0.28030    9.42180    0.00530    2.18270
 1954.00000   68.58740   67.94450  120.98730    3.13920   -0.01510    0.38240    9.42180    0.00620    2.07640
 1954.50000   69.13300   68.45630  121.47650    2.84860   -0.01500    0.39290    9.42180    0.00750    2.04500
 1955.00000   69.29350   67.51050  120.61770    3.39590   -0.01490    0.39670    9.42160    0.00640    2.03400
 1955.50000   69.43920   67.92660  120.87400    4.04880   -0.01470    0.39700    9.42170    0.00480    2.03370
 1956.00000   69.68590   68.88080  121.95910    4.21040   -0.01450    0.39570    9.40620    0.00620    2.03680
 1956.50000   69.89290   68.33360  120.74380    4.24580   -0.01420    0.39250    9.38310    0.00740    2.04000
 1957.00000   69.98650   67.53230  122.33490    4.18280   -0.01400    0.38980    9.36310    0.00860    2.04410
 1957.50000   70.06020   68.49790  121.60470    4.04540   -0.01400    0.38860    9.34860    0.00870    2.04840
 1958.00000   70.14180   67.86680  121.52000    3.76970   -0.01420    0.38950    9.34040    0.00880    2.04640
 1958.50000   70.03650   70.30840  121.35680    3.38860   -0.01430    0.39260    9.33560    0.00840    2.04070
 1959.00000   69.64570   70.08680  121.14890    3.22240   -0.01440    0.39540    9.32460    0.00680    2.03610
 1959.50000   69.47050   68.56670  121.02900    3.17180   -0.01410    0.39470    9.30270    0.00560    2.03710
 1960.00000   69.59630   67.51220  121.34600    3.29540   -0.01210    0.39190    9.27970    0.00550    2.04190
 1960.50000   69.56860   67.49620  121.56830    3.49160   -0.00960    0.38910    9.26440    0.00390    2.04910
 1961.00000   69.04050   67.50020  121.65370    3.64450   -0.00710    0.38580    9.26420    0.00060    2.05510
 1961.50000   68.85980   67.31590  120.91760    3.47730   -0.00050    0.37600    9.26440   -0.00460    2.06560
 1962.00000   67.91250   65.87880  118.79770    3.78210    0.00770    0.35350    9.26430   -0.01220    2.11450
 1962.50000   65.22700   63.98380  115.63190    4.22070    0.01090    0.24400    9.26440   -0.01630    2.26710
 1963.00000   62.08110   61.40730  112.46610    4.84780    0.00500    0.13440    9.26480   -0.01430    2.43440
 1963.50000   58.16860   58.23700  108.80590    5.10580   -0.00360    0.01330    9.26490   -0.00840    2.70230
 1964.00000   56.03350   55.28540  104.81190    5.00180   -0.00620   -0.06540    9.26470   -0.00470    2.82720
 1964.50000   54.51670   53.41980  100.87170    5.10410   -0.00540   -0.09210    9.26430   -0.00640    2.86550
 1965.00000   54.88280   53.32660  100.61920    5.36100   -0.00070   -0.07040    9.26430   -0.01160    2.83170
 1965.50000   54.92380   53.40260  100.99450    5.94400    0.01960   -0.04240    9.26450   -0.01380    2.79200
 1966.00000   55.68000   54.65840  102.79890    7.39370    0.03890   -0.03120    9.26450   -0.01310    2.76460
 1966.50000   56.99020   55.89970  105.09460    9.00420    0.04560   -0.02830    9.26450   -0.01040    2.75690
 1967.00000   58.08170   57.06330  107.97830   10.34190    0.02760   -0.03030    9.26450   -0.00780    2.76150
 1967.50000   59.31960   58.10410  110.86200   10.84960    0.00280   -0.02070    9.26450   -0.00490    2.74860
 1968.00000   61.50090   59.78880  114.35660   10.19030   -0.00230    0.03820    9.26430   -0.00620    2.62180
 1968.50000   63.49180   61.68210  116.63290    8.85680    0.00050    0.16150    9.26430   -0.02130    2.45170
 1969.00000   64.62940   62.18950  116.54180    7.47860    0.00300    0.21230    9.26500   -0.02970    2.34630
 1969.50000   64.01320   61.85360  113.86790    6.01590    0.00320    0.18240    9.26530   -0.02470    2.39800
 1970.00000   62.14480   60.30510  110.68360    4.79890    0.00010    0.07920    9.26470   -0.01590    2.57320
 1970.50000   58.65280   58.65920  107.41380    4.25570   -0.00360    0.00040    9.26390   -0.00400    2.71350
 1971.00000   57.15450   57.58860  105.79360    4.56860   -0.00730   -0.03890    9.26350   -0.00150    2.77220
 1971.50000   58.68020   58.40490  109.01540    5.76740   -0.01020    0.02790    9.28040   -0.00030    2.66900
 1972.00000   62.24760   59.99220  112.50670    6.60920   -0.01170    0.14830    9.30500   -0.00190    2.48660
 1972.50000   65.70730   62.90300  115.95870    5.72570   -0.01260    0.24230    9.32540   -0.00690    2.26450
