~Version ---------------------------------------------------
VERS.   2.0 : CWLS log ASCII Standard -VERSION 2.0
WRAP.    NO : One line per depth step
DLM . SPACE : Column Data Section Delimiter
~Well ------------------------------------------------------
STRT .F                    2.0 : START DEPTH
STOP .F                 2794.0 : STOP DEPTH
STEP .F                    0.5 : STEP
NULL .                -9999.25 : NULL VALUE
COMP .                         : COMPANY
WELL .                         : WELL
FLD  .                         : FIELD
LOC  .                         : LOCATION
PROV .                         : PROVINCE
CNTY .                         : COUNTY
STAT .                         : STATE
CTRY .                         : COUNTRY
SRVC .                         : SERVICE COMPANY
DATE .                         : DATE
UWI  .                         : UNIQUE WELL ID
API  .                         : API NUMBER
SLAT .WGS84 1.8354767251648987 : SURFACE LATITUDE
SLON .WGS84  7.600270196392003 : SURFACE LONGITUDE
DATUM.F                2641.76 : DEPTH DATUM ELEV
~Curve Information -----------------------------------------
DEPT   .F     : 1 MEASURED DEPTH
DT     .US/F  : DELTA-T (INTERVAL TRANSIT TIME)
DTCO   .US/F  : DELTA-T COMPRESSIONAL
DTSM   .US/F  : DELTA-T SHEAR
GRD    .GAPI  : GAMMA RAY FROM DENSITY LOG
NPHI_LS.DEC   : NEUTRON POROSITY LIMESTONE
DPHI_LS.DEC   : DENSITY POROSITY LIMESTONE
CALD   .IN    : CALIPER FROM DENSITY LOG
DRHO   .G/C3  : BULK DENSITY CORRECTION
RHOB   .G/C3  : BULK DENSITY
~Params ----------------------------------------------------
~Other -----------------------------------------------------
~ASCII -----------------------------------------------------
# ...
 1206.50000   69.78970   69.56430  121.66390    3.32470   -0.01400    0.39930    9.97240    0.00380    2.02970
 1207.00000   69.74300   69.79340  121.94770    3.83890   -0.01380    0.39900    9.96440    0.00480    2.03010
 1207.50000   69.52800   70.38430  123.72920    5.28420   -0.01360    0.39830    9.94000    0.00580    2.03120
 1208.00000   69.19760   70.16090  123.40140    7.57310   -0.01300    0.39740    9.91670    0.00610    2.03350
 1208.50000   69.13780   69.57890  123.10070    8.69330   -0.01140    0.39430    9.89330    0.00480    2.03650
 1209.00000   69.22500   69.77470  124.16930    8.41140   -0.00890    0.39080    9.87590    0.00300    2.04260
 1209.50000   69.41740   71.24240  127.20760    8.02130   -0.00640    0.38730    9.84910    0.00250    2.04970
 1210.00000   70.33640   72.81940  130.65880    9.10790    0.00160    0.38320    9.79610    0.00280    2.05640
 1210.50000   72.41100   74.70610  133.49010   10.44160    0.01080    0.37460    9.72950    0.00450    2.06710
 1211.00000   73.14350   75.42430  133.67000   10.80580    0.01280    0.35460    9.66020    0.00730    2.09860
 1211.50000   72.15640   74.34570  130.43310    9.21550    0.00490    0.32430    9.48800    0.01230    2.16980
 1212.00000   69.20890   72.00040  125.74190    7.32840    0.00090    0.28860    9.24690    0.01940    2.25400
 1212.50000   65.49400   68.78420  120.76330    5.22750    0.00080    0.22710    8.97820    0.02070    2.34740
 1213.00000   62.01800   65.78580  114.66200    3.91420    0.00130    0.17170    8.85150    0.01500    2.43320
 1213.50000   59.22020   62.78750  108.56080    3.31910    0.00170    0.10120    8.76610    0.00770    2.54040
 1214.00000   56.98130   58.29990  103.05970    3.30850    0.00010    0.02930    8.73070    0.00660    2.64550
 1214.50000   55.66010   55.62640  101.86870    3.42330   -0.00150   -0.01000    8.70720    0.00600    2.72790
 1215.00000   55.71730   56.29290  101.75200    3.42210   -0.00310    0.00410    8.70870    0.00330    2.69960
 1215.50000   56.65370   55.54010  101.68510    3.22490   -0.00400    0.03280    8.71020    0.00100    2.65120
 1216.00000   57.38650   56.41350  103.03590    2.97520   -0.00310    0.05290    8.70960    0.00500    2.61160
 1216.50000   57.92920   57.57320  103.91030    2.85190   -0.00200    0.08410    8.70800    0.00780    2.55600
 1217.00000   58.60100   58.60440  106.67370    3.01970   -0.00110    0.11260    8.70680    0.00560    2.50910
 1217.50000   58.91090   58.53910  106.79090    3.69550    0.00220    0.12680    8.70720    0.00270    2.49980
 1218.00000   58.60870   58.51180  106.79160    4.19350    0.00480    0.09770    8.70770    0.00210    2.54470
 1218.50000   57.86750   59.29090  106.62210    4.65120    0.00590    0.04890    8.70800    0.00150    2.62390
 1219.00000   57.11190   58.37080  105.59030    5.01320    0.00680   -0.00220    8.70820    0.00050    2.71540
 1219.50000   56.51590   57.60600  104.06920    5.39470    0.00770   -0.02880    8.70830   -0.00140    2.75930
 1220.00000   56.04940   56.68920  102.02750    6.02160    0.00860   -0.04420    8.70780   -0.00340    2.78400
 1220.50000   55.85780   56.62900  101.91160    6.42720    0.00720   -0.05050    8.70710   -0.00510    2.79610
 1221.00000   56.20060   57.17840  103.29140    5.99290    0.00600   -0.05190    8.70740   -0.00410    2.79440
 1221.50000   56.77760   56.21930  104.60000    5.63830    0.00590   -0.04890    8.70790   -0.00320    2.79220
 1222.00000   56.06930   55.51740  104.59460    6.03280    0.01130   -0.04640    8.70830   -0.00230    2.78730
 1222.50000   55.36860   55.28360  104.17630    6.94000    0.02310   -0.04790    8.70840   -0.00010    2.79340
 1223.00000   56.22470   55.53310  107.89260    8.81040    0.04280   -0.05470    8.70860    0.00400    2.80300
 1223.50000   59.05930   56.64690  113.74600   12.48840    0.05630   -0.04910    8.72670    0.01480    2.79140
 1224.00000   63.83430   59.93160  120.11290   16.18200    0.06720    0.01270    8.74610    0.03260    2.72220
 1224.50000   69.87730   63.74070  128.68340   19.76580    0.07030    0.10810    8.79880    0.04940    2.55330
 1225.00000   73.79810   66.41870  130.63820   19.62680    0.01890    0.20230    9.01300    0.05210    2.33630
 1225.50000   76.02330   69.07760  130.56640   16.00660    0.00680    0.26310    9.33540    0.04850    2.18830
 1226.00000   74.80950   71.66150  128.85340   10.92220   -0.00290    0.35450    9.48660    0.04130    2.11940
 1226.50000   71.54770   70.80940  126.70320    7.69540   -0.00860    0.37380    9.58210    0.02330    2.08070
 1227.00000   70.22770   69.33730  124.80640    6.76810   -0.00960    0.38520    9.62840    0.00670    2.05950
 1227.50000   69.83510   69.87120  125.89300    6.58680   -0.00820    0.39190    9.66380   -0.00200    2.04360
 1228.00000   68.73850   70.62720  124.64940    6.33080   -0.00560    0.39790    9.64890   -0.00550    2.03860
 1228.50000   67.57040   70.70330  122.80490    5.66870   -0.00340    0.38230    9.60600   -0.00620    2.04320
 1229.00000   65.90330   69.63670  119.91470    5.03460   -0.00140    0.35320    9.49560   -0.00560    2.09350
 1229.50000   62.97610   67.52940  117.02460    4.48900   -0.00030    0.26250    9.15320    0.00060    2.24790
 1230.00000   59.85140   66.72830  115.05080    4.38340   -0.00120    0.17190    8.74470    0.01690    2.45240
 1230.50000   57.13200   65.55960  112.94580    4.44020   -0.00200    0.03830    8.59490    0.02800    2.67350
 1231.00000   55.42680   61.12610  108.02050    4.60050   -0.00290   -0.02190    8.53290    0.02300    2.74930
 1231.50000   55.20980   55.36490  102.64260    4.27190   -0.00410   -0.02780    8.53330    0.00900    2.75710
 1232.00000   55.23400   54.40480   99.38670    3.71800   -0.00540   -0.01740    8.53380   -0.00060    2.73540
 1232.50000   55.65140   55.35030   98.75240    3.16410   -0.00500    0.00090    8.53420   -0.00740    2.69800
 1233.00000   55.68570   53.16470   99.21580    2.92200   -0.00400    0.02570    8.53540   -0.00920    2.65650
 1233.50000   55.68680   55.33270  101.22340    3.02370   -0.00280    0.03740    8.53650   -0.00790    2.64770
 1234.00000   55.77440   55.40340  102.40700    3.41320   -0.00150    0.03100    8.53550   -0.00200    2.66130
 1234.50000   55.95410   55.43130  100.88330    3.76840   -0.00030    0.01550    8.53450    0.00230    2.68620
 1235.00000   55.85240   55.45920   99.80890    4.12370    0.00140    0.00390    8.53460    0.00270    2.70350
 1235.50000   55.46750   55.39170   99.28090    4.47890    0.00280   -0.00920    8.53480    0.00160    2.73170
 1236.00000   55.00000   55.03060   97.33070    4.83530    0.00300   -0.03390    8.53580    0.00050    2.77780
 1236.50000   54.16410   53.76950   96.51970    4.95770    0.00220   -0.06370    8.53590   -0.00030    2.82770
 1237.00000   53.20680   52.19930   98.96840    4.82340    0.00150   -0.09470    8.53540   -0.00030    2.87930
 1237.50000   52.22080   50.67910   98.69240    4.87120    0.00080   -0.11420    8.53580   -0.00200    2.91970
 1238.00000   51.26380   49.78860   96.87380    5.94370    0.00300   -0.13700    8.53620   -0.00360    2.94580
 1238.50000   52.35580   49.32870   96.89090    7.85650    0.01040   -0.13210    8.53650   -0.00520    2.94170
 1239.00000   54.67690   50.31400   98.17910    9.91150    0.02880   -0.09410    8.56010   -0.00550    2.87090
 1239.50000   55.31480   51.05460   99.46740   11.92940    0.04560   -0.04480    8.59370   -0.00540    2.79660
 1240.00000   54.59060   50.30920  100.65320   11.99200    0.06240   -0.00500    8.62590   -0.00250    2.75080
 1240.50000   56.48580   51.81940  101.76770   10.93400    0.08480    0.01830    8.65800    0.00040    2.70490
 1241.00000   60.69610   52.75290  105.13760   13.69110    0.14470    0.07230    8.68980    0.00330    2.65910
 1241.50000   67.40840   55.16950  110.70380   19.22930    0.20620    0.15080    8.78090    0.00370    2.51580
 1242.00000   79.18700   67.81320  122.32020   26.89300    0.26330    0.22710    8.95220    0.00170    2.32680
 1242.50000   88.57530   82.34590  131.54660   32.47250    0.38660    0.28170    9.06080    0.00370    2.18010
