~Version ---------------------------------------------------
VERS.   2.0 : CWLS log ASCII Standard -VERSION 2.0
WRAP.    NO : One line per depth step
DLM . SPACE : Column Data Section Delimiter
~Well ------------------------------------------------------
STRT .F                    2.0 : START DEPTH
STOP .F                 2794.0 : STOP DEPTH
STEP .F                    0.5 : STEP
NULL .                -9999.25 : NULL VALUE
COMP .                         : COMPANY
WELL .                         : WELL
FLD  .                         : FIELD
LOC  .                         : LOCATION
PROV .                         : PROVINCE
CNTY .                         : COUNTY
STAT .                         : STATE
CTRY .                         : COUNTRY
SRVC .                         : SERVICE COMPANY
DATE .                         : DATE
UWI  .                         : UNIQUE WELL ID
API  .                         : API NUMBER
SLAT .WGS84 1.8354767251648987 : SURFACE LATITUDE
SLON .WGS84  7.600270196392003 : SURFACE LONGITUDE
DATUM.F                2641.76 : DEPTH DATUM ELEV
~Curve Information -----------------------------------------
DEPT   .F     : 1 MEASURED DEPTH
DT     .US/F  : DELTA-T (INTERVAL TRANSIT TIME)
DTCO   .US/F  : DELTA-T COMPRESSIONAL
DTSM   .US/F  : DELTA-T SHEAR
GRD    .GAPI  : GAMMA RAY FROM DENSITY LOG
NPHI_LS.DEC   : NEUTRON POROSITY LIMESTONE
DPHI_LS.DEC   : DENSITY POROSITY LIMESTONE
CALD   .IN    : CALIPER FROM DENSITY LOG
DRHO   .G/C3  : BULK DENSITY CORRECTION
RHOB   .G/C3  : BULK DENSITY
~Params ----------------------------------------------------
~Other -----------------------------------------------------
~ASCII -----------------------------------------------------
# ...
 2630.00000   52.45740   53.42580   97.52970    9.46420    0.00250   -0.12070    7.91840    0.01720    2.91830
 2630.50000   51.97370   52.54590   96.51080    8.36060    0.00010   -0.12410    7.91590    0.01260    2.92350
 2631.00000   51.40760   51.84600   95.54420    7.25690   -0.00170   -0.12950    7.91340    0.00900    2.93090
 2631.50000   50.85670   50.43200   94.90010    6.56180   -0.00230   -0.13450    7.91330    0.00520    2.93990
 2632.00000   50.53950   50.14680   94.47320    5.89690   -0.00260   -0.13910    7.91410    0.00270    2.94650
 2632.50000   50.56940   50.15860   94.48210    5.19850   -0.00290   -0.13800    7.91310    0.00190    2.94520
 2633.00000   50.64410   50.99980   94.43340    4.56260   -0.00330   -0.13460    7.91230    0.00470    2.93870
 2633.50000   50.82860   51.08690   94.49140    3.92660   -0.00330   -0.13410    7.91200    0.00820    2.93910
 2634.00000   51.16210   51.17390   95.90460    3.50920   -0.00190   -0.13820    7.91180    0.01150    2.94730
 2634.50000   51.71220   51.43960   96.35730    5.27390    0.00210   -0.14320    7.91160    0.01630    2.95070
 2635.00000   51.64190   52.06770   95.08400    7.39110    0.00740   -0.13650    7.91170    0.02130    2.94490
 2635.50000   50.70480   49.81230   93.96320    9.50840    0.01370   -0.12630    7.91200    0.01920    2.92390
 2636.00000   49.16490   48.39320   92.30290   11.95160    0.01800   -0.11600    7.91220    0.01720    2.90020
 2636.50000   47.61030   47.21630   88.90110   15.22580    0.01750   -0.10570    7.91190    0.01480    2.88030
 2637.00000   46.47410   47.02820   86.53110   19.15490    0.01510   -0.09860    7.91150    0.01210    2.86820
 2637.50000   45.61220   45.97160   84.45220   24.03670    0.01140   -0.09190    7.91990    0.01050    2.85910
 2638.00000   46.29750   47.26850   86.62910   24.75490    0.00940   -0.08770    7.91620    0.01040    2.85900
 2638.50000   47.69570   47.52530   89.45210   21.15440    0.00790   -0.09150    7.91000    0.01230    2.87050
 2639.00000   49.90360   49.26040   92.92200   17.92760    0.00820   -0.10810    7.91280    0.02170    2.90350
 2639.50000   52.09550   50.39110   95.72110   19.55040    0.00970   -0.12400    7.91870    0.02860    2.92970
 2640.00000   53.18700   51.49780   97.49960   21.98040    0.01130   -0.13100    7.91490    0.02840    2.92940
 2640.50000   53.62660   52.60460   97.99090   22.38910    0.01190   -0.12550    7.90960    0.02670    2.92630
 2641.00000   53.67380   54.11240   98.82690   20.14520    0.00990   -0.12520    7.90750    0.02550    2.92360
 2641.50000   53.80560   54.19080  100.15770   18.69600    0.00890   -0.12340    7.92040    0.02170    2.91880
 2642.00000   54.29820   53.23040  101.30640   18.57240    0.00810   -0.11770    7.93620    0.01700    2.91320
 2642.50000   54.61830   54.37490  101.74750   18.40730    0.00590   -0.11950    7.94930    0.01410    2.91130
 2643.00000   54.23540   54.27090  100.81070   16.96460    0.00410   -0.12320    7.96090    0.01170    2.92060
 2643.50000   53.30290   53.77940   98.98230   14.06880    0.00130   -0.13100    7.94070    0.01060    2.93210
 2644.00000   52.38260   53.13570   97.31870   11.13190   -0.00060   -0.13890    7.91660    0.00860    2.94530
 2644.50000   51.57800   52.13460   96.05770    8.65770   -0.00200   -0.14670    7.90420    0.00700    2.96190
 2645.00000   51.13880   50.18120   94.78080    6.70010   -0.00260   -0.15410    7.90490    0.00670    2.97620
 2645.50000   50.90860   50.21300   93.53070    5.09920   -0.00320   -0.15760    7.90610    0.00590    2.97970
 2646.00000   50.67860   50.41180   94.58780    4.56380   -0.00330   -0.15570    7.90620    0.00690    2.97800
 2646.50000   50.47450   50.25230   93.90030    4.61840   -0.00310   -0.15140    7.90400    0.00820    2.96720
 2647.00000   50.40000   50.07750   93.16100    5.13820   -0.00310   -0.14500    7.90270    0.00830    2.95440
 2647.50000   50.43580   49.90270   92.38730    5.49670   -0.00310   -0.14070    7.90470    0.00840    2.94750
 2648.00000   50.41390   49.32110   91.80840    5.74770   -0.00240   -0.14190    7.90620    0.00820    2.95410
 2648.50000   49.89950   48.73110   92.45060    5.96120   -0.00130   -0.14620    7.91360    0.00780    2.96330
 2649.00000   49.33830   48.12110   91.54830    6.52490    0.00120   -0.14940    7.93340    0.00710    2.96380
 2649.50000   49.06760   47.30620   90.65130    8.31570    0.00430   -0.14330    7.91670    0.00550    2.95710
 2650.00000   48.32040   46.90330   90.30780   16.57120    0.01000   -0.13280    7.91810    0.00420    2.92480
 2650.50000   47.69050   49.69780   92.09760   26.91460    0.01970   -0.11320    7.91940    0.00430    2.88720
 2651.00000   49.04390   53.14240   99.17050   43.00030    0.03760   -0.08920    7.92180    0.00950    2.83510
 2651.50000   53.70490   56.93650  109.12970   59.01600    0.07740   -0.04490    7.92590    0.01710    2.78040
 2652.00000   59.82750   60.73060  117.03960   69.35360    0.12220   -0.00690    7.93230    0.02530    2.71130
 2652.50000   66.94770   64.08270  123.55970   76.36890    0.14640    0.02670    7.94730    0.03190    2.65510
 2653.00000   69.41870   67.00780  125.02670   78.35550    0.15610    0.05170    7.96560    0.02960    2.61660
 2653.50000   69.21330   68.69210  124.52380   79.27830    0.14640    0.05880    7.99560    0.02400    2.60890
 2654.00000   68.48670   68.69090  123.40100   78.24460    0.12930    0.05690    8.02550    0.01780    2.61760
 2654.50000   67.53760   67.43330  122.04010   74.09590    0.11130    0.04750    8.02740    0.01290    2.63440
 2655.00000   66.22950   66.13610  120.66620   67.82360    0.10210    0.02890    8.01970    0.01120    2.66680
 2655.50000   64.51600   65.25080  118.49340   62.60950    0.09330    0.00790    8.00740    0.00980    2.70270
 2656.00000   63.55260   64.43830  115.96160   58.90090    0.08440   -0.00930    7.99060    0.00950    2.73160
 2656.50000   62.70310   62.85010  113.26620   54.92270    0.07900   -0.01810    7.98340    0.00940    2.74370
 2657.00000   61.35730   61.04420  110.20420   50.68960    0.07620   -0.02350    7.98230    0.01000    2.75500
 2657.50000   59.06420   59.21590  107.14220   45.74150    0.07240   -0.03670    7.99600    0.01140    2.77730
 2658.00000   56.01020   57.23440  103.58240   39.03140    0.06430   -0.05290    7.98150    0.01300    2.80990
 2658.50000   52.63950   53.95360   98.16590   33.86450    0.05100   -0.06240    7.92760    0.01180    2.82110
 2659.00000   50.52050   51.16230   92.74940   28.51230    0.03730   -0.06890    7.90720    0.01070    2.82830
 2659.50000   48.27430   49.01120   88.49810   25.58090    0.02660   -0.07370    7.90270    0.01030    2.83760
 2660.00000   45.98880   47.33910   85.80510   23.84880    0.02210   -0.07800    7.90210    0.00990    2.84550
 2660.50000   46.29700   48.35670   87.81420   26.88480    0.02200   -0.07860    7.90400    0.00970    2.84040
 2661.00000   48.18780   49.99290   90.55540   33.36120    0.03390   -0.06930    7.90590    0.00980    2.82250
 2661.50000   51.92870   52.29890   95.43220   43.32670    0.04710   -0.04800    7.90780    0.00990    2.78360
 2662.00000   56.07470   54.87130  101.11270   49.08730    0.05310   -0.02450    7.92020    0.01000    2.74590
 2662.50000   58.82730   57.34270  105.99650   47.68820    0.05230   -0.01560    7.93710    0.01000    2.73960
 2663.00000   59.82080   59.71090  109.33590   45.70990    0.05160   -0.02570    7.96920    0.01100    2.76120
 2663.50000   61.48070   62.06170  112.68940   50.09030    0.06830   -0.03700    8.00140    0.01380    2.77450
 2664.00000   64.28790   64.25560  116.16770   61.68670    0.11660   -0.02400    8.00430    0.01230    2.74090
 2664.50000   66.49780   64.58270  117.69800   69.65270    0.14260    0.02460    8.00290    0.00830    2.66000
 2665.00000   65.95670   63.60910  117.46540   68.73080    0.12000    0.05110    8.00310    0.00540    2.62400
 2665.50000   63.68010   62.54150  114.12700   64.54940    0.07910    0.04360    8.00340    0.00450    2.63490
 2666.00000   60.90980   61.75080  110.68680   58.65220    0.04560    0.02280    8.00360    0.00350    2.66940
