~Version ---------------------------------------------------
VERS.   2.0 : CWLS log ASCII Standard -VERSION 2.0
WRAP.    NO : One line per depth step
DLM . SPACE : Column Data Section Delimiter
~Well ------------------------------------------------------
STRT .F                    2.0 : START DEPTH
STOP .F                 2794.0 : STOP DEPTH
STEP .F                    0.5 : STEP
NULL .                -9999.25 : NULL VALUE
COMP .                         : COMPANY
WELL .                         : WELL
FLD  .                         : FIELD
LOC  .                         : LOCATION
PROV .                         : PROVINCE
CNTY .                         : COUNTY
STAT .                         : STATE
CTRY .                         : COUNTRY
SRVC .                         : SERVICE COMPANY
DATE .                         : DATE
UWI  .                         : UNIQUE WELL ID
API  .                         : API NUMBER
SLAT .WGS84 1.8354767251648987 : SURFACE LATITUDE
SLON .WGS84  7.600270196392003 : SURFACE LONGITUDE
DATUM.F                2641.76 : DEPTH DATUM ELEV
~Curve Information -----------------------------------------
DEPT   .F     : 1 MEASURED DEPTH
DT     .US/F  : DELTA-T (INTERVAL TRANSIT TIME)
DTCO   .US/F  : DELTA-T COMPRESSIONAL
DTSM   .US/F  : DELTA-T SHEAR
GRD    .GAPI  : GAMMA RAY FROM DENSITY LOG
NPHI_LS.DEC   : NEUTRON POROSITY LIMESTONE
DPHI_LS.DEC   : DENSITY POROSITY LIMESTONE
CALD   .IN    : CALIPER FROM DENSITY LOG
DRHO   .G/C3  : BULK DENSITY CORRECTION
RHOB   .G/C3  : BULK DENSITY
~Params ----------------------------------------------------
~Other -----------------------------------------------------
~ASCII -----------------------------------------------------
# ...
  659.00000   -9999.25   -9999.25   -9999.25   39.90540    0.25740   -9999.25   -9999.25   -9999.25   -9999.25
  659.50000   -9999.25   -9999.25   -9999.25   40.33250    0.26690   -9999.25   -9999.25   -9999.25   -9999.25
  660.00000   -9999.25   -9999.25   -9999.25   43.98720    0.28450   -9999.25   -9999.25   -9999.25   -9999.25
  660.50000   -9999.25   -9999.25   -9999.25   46.91910    0.29970   -9999.25   -9999.25   -9999.25   -9999.25
  661.00000   -9999.25   -9999.25   -9999.25   47.06490    0.30400   -9999.25   -9999.25   -9999.25   -9999.25
  661.50000   -9999.25   -9999.25   -9999.25   46.07950    0.32160   -9999.25   -9999.25   -9999.25   -9999.25
  662.00000   -9999.25   -9999.25   -9999.25   46.04340    0.34490   -9999.25   -9999.25   -9999.25   -9999.25
  662.50000   -9999.25   -9999.25   -9999.25   47.04400    0.36020   -9999.25   -9999.25   -9999.25   -9999.25
  663.00000   -9999.25   -9999.25   -9999.25   48.11640    0.37080   -9999.25   -9999.25   -9999.25   -9999.25
  663.50000   -9999.25   -9999.25   -9999.25   49.04350    0.36900   -9999.25   -9999.25   -9999.25   -9999.25
  664.00000   -9999.25   -9999.25   -9999.25   50.31050    0.35290   -9999.25   -9999.25   -9999.25   -9999.25
  664.50000   -9999.25   -9999.25   -9999.25   50.89240    0.33410   -9999.25   -9999.25   -9999.25   -9999.25
  665.00000   -9999.25   -9999.25   -9999.25   50.56410    0.31970   -9999.25   -9999.25   -9999.25   -9999.25
  665.50000   -9999.25   -9999.25   -9999.25   50.12610    0.33270   -9999.25   -9999.25   -9999.25   -9999.25
  666.00000   -9999.25   -9999.25   -9999.25   49.66660    0.34680   -9999.25   -9999.25   -9999.25   -9999.25
  666.50000   -9999.25   -9999.25   -9999.25   49.19770    0.36240   -9999.25   -9999.25   -9999.25   -9999.25
  667.00000   -9999.25   -9999.25   -9999.25   48.71320    0.38060   -9999.25   -9999.25   -9999.25   -9999.25
  667.50000   -9999.25   -9999.25   -9999.25   49.98990    0.39720   -9999.25   -9999.25   -9999.25   -9999.25
  668.00000   -9999.25   -9999.25   -9999.25   51.72600    0.39310   -9999.25   -9999.25   -9999.25   -9999.25
  668.50000   -9999.25   -9999.25   -9999.25   53.29180    0.39200   -9999.25   -9999.25   -9999.25   -9999.25
  669.00000   -9999.25   -9999.25   -9999.25   52.54690    0.39700   -9999.25   -9999.25   -9999.25   -9999.25
  669.50000   -9999.25   -9999.25   -9999.25   49.54560    0.40140   -9999.25   -9999.25   -9999.25   -9999.25
  670.00000   -9999.25   -9999.25   -9999.25   46.13120    0.39070   -9999.25   -9999.25   -9999.25   -9999.25
  670.50000   -9999.25   -9999.25   -9999.25   43.81000    0.33570   -9999.25   -9999.25   -9999.25   -9999.25
  671.00000   -9999.25   -9999.25   -9999.25   43.93630    0.31800   -9999.25   -9999.25   -9999.25   -9999.25
  671.50000   -9999.25   -9999.25   -9999.25   45.19390    0.32410   -9999.25   -9999.25   -9999.25   -9999.25
  672.00000   -9999.25   -9999.25   -9999.25   45.99710    0.33640   -9999.25   -9999.25   -9999.25   -9999.25
  672.50000   -9999.25   -9999.25   -9999.25   45.24090    0.33980   -9999.25   -9999.25   -9999.25   -9999.25
  673.00000   -9999.25   -9999.25   -9999.25   43.60950    0.34320   -9999.25   -9999.25   -9999.25   -9999.25
  673.50000   -9999.25   -9999.25   -9999.25   41.39020    0.35600   -9999.25   -9999.25   -9999.25   -9999.25
  674.00000   -9999.25   -9999.25   -9999.25   38.61050    0.34850   -9999.25   -9999.25   -9999.25   -9999.25
  674.50000   -9999.25   -9999.25   -9999.25   38.81040    0.32160   -9999.25   -9999.25   -9999.25   -9999.25
  675.00000   -9999.25   -9999.25   -9999.25   42.50830    0.33550   -9999.25   -9999.25   -9999.25   -9999.25
  675.50000   -9999.25   -9999.25   -9999.25   51.64620    0.40670   -9999.25   -9999.25   -9999.25   -9999.25
  676.00000  101.93910   90.21980  164.26210   62.74630    0.43650   -9999.25    8.62850   -9999.25   -9999.25
  676.50000  104.17200   90.23140  164.26430   70.05660    0.39660   -9999.25    9.03650   -9999.25   -9999.25
  677.00000   93.60360   89.24990  164.26660   71.07310    0.35670   -9999.25    9.00960   -9999.25   -9999.25
  677.50000   85.25420   87.60170  164.26880   70.78840    0.32900   -9999.25    8.96130   -9999.25   -9999.25
  678.00000   83.68720   85.90470  164.25860   70.98830    0.31930    0.18030    8.95080    0.00360    2.38570
  678.50000   83.02140   85.94020  164.21510   72.74720    0.30130    0.17590    8.97090    0.00120    2.40750
  679.00000   84.95110   87.10800  164.13090   75.06410    0.29110    0.17560    9.00760   -0.00250    2.40770
  679.50000   87.79880   88.67960  163.04290   76.68860    0.28700    0.18090    9.04430   -0.00620    2.40230
  680.00000   91.24470   90.41300  163.01600   77.09580    0.29630    0.18820    9.08100   -0.00820    2.38770
  680.50000   93.07390   91.67700  164.78190   77.08910    0.31030    0.19570    9.11770   -0.00910    2.37530
  681.00000   91.64370   90.77230  165.39590   75.80440    0.31500    0.19540    9.15140   -0.00960    2.37540
  681.50000   88.56580   88.74620  163.96650   74.41980    0.31590    0.18970    9.17750   -0.00950    2.38130
  682.00000   86.13950   86.65070  162.20370   73.03530    0.30810    0.18010    9.20810   -0.00850    2.39840
  682.50000   84.08620   84.49060  159.99480   71.11250    0.29110    0.17040    9.23400   -0.00730    2.41520
  683.00000   82.33510   82.33060  157.78580   69.05890    0.27340    0.15850    9.25260   -0.00610    2.43560
  683.50000   80.71190   80.41780  155.69640   66.13080    0.25800    0.14580    9.27120   -0.00500    2.45450
  684.00000   79.44070   79.03130  155.07100   63.53610    0.23980    0.13700    9.28970   -0.00560    2.47240
  684.50000   78.16950   78.80410  154.36080   61.05800    0.21610    0.13170    9.30830   -0.00630    2.48220
  685.00000   77.27300   78.69870  153.65060   60.84480    0.19900    0.12790    9.32680   -0.00620    2.48760
  685.50000   77.24400   78.47430  153.45800   61.92210    0.20180    0.12670    9.34500   -0.00600    2.49210
  686.00000   77.92260   77.60740  153.42290   63.05440    0.20300    0.12620    9.36480   -0.00590    2.49480
  686.50000   78.62320   78.72800  153.33890   64.22440    0.19040    0.12470    9.39070   -0.00570    2.49600
  687.00000   78.72400   78.27510  152.44970   65.47670    0.17750    0.12010    9.41270   -0.00500    2.50220
  687.50000   78.68480   77.79860  151.03460   66.29080    0.17200    0.11680    9.42020   -0.00440    2.51000
  688.00000   78.65020   78.45290  150.23770   66.12730    0.17920    0.11620    9.42620   -0.00410    2.51270
  688.50000   78.93990   78.97970  149.72300   65.88550    0.17960    0.11850    9.43860   -0.00370    2.50870
  689.00000   79.48190   79.42000  149.07230   66.47030    0.17950    0.12290    9.46530   -0.00350    2.50260
  689.50000   80.02390   79.69960  147.33320   68.98150    0.18170    0.12760    9.49500   -0.00320    2.49040
  690.00000   80.25730   79.30470  145.30080   71.35300    0.18760    0.13080    9.51700   -0.00310    2.48990
  690.50000   79.48290   78.45030  142.58860   70.26360    0.18240    0.12770    9.52450   -0.00300    2.49150
  691.00000   77.95730   77.59590  139.87640   68.26460    0.17450    0.12340    9.52460   -0.00290    2.49980
  691.50000   76.34780   76.60350  137.92880   68.25250    0.18120    0.11900    9.52550   -0.00290    2.50760
  692.00000   76.28440   78.67660  138.72450   71.65240    0.20520    0.11620    9.54730   -0.00280    2.50880
  692.50000   78.78310   80.60910  140.99960   77.25800    0.24230    0.12580    9.57110   -0.00270    2.49020
  693.00000   82.41930   82.31280  141.41070   81.81130    0.26810    0.14050    9.59790   -0.00260    2.46880
  693.50000   85.22450   84.01640  141.41170   84.73510    0.28390    0.14650    9.60220   -0.00250    2.46200
  694.00000   86.54850   85.72010  140.83160   85.79890    0.26660    0.13920    9.59890   -0.00240    2.48040
  694.50000   85.82740   86.66310  137.52900   85.76450    0.24900    0.12600    9.59780   -0.00230    2.49950
  695.00000   84.13510   85.58750  132.19910   83.26850    0.24050    0.11590    9.59720   -0.00220    2.51330
