~Version ---------------------------------------------------
VERS.   2.0 : CWLS log ASCII Standard -VERSION 2.0
WRAP.    NO : One line per depth step
DLM . SPACE : Column Data Section Delimiter
~Well ------------------------------------------------------
STRT .F                    2.0 : START DEPTH
STOP .F                 2794.0 : STOP DEPTH
STEP .F                    0.5 : STEP
NULL .                -9999.25 : NULL VALUE
COMP .                         : COMPANY
WELL .                         : WELL
FLD  .                         : FIELD
LOC  .                         : LOCATION
PROV .                         : PROVINCE
CNTY .                         : COUNTY
STAT .                         : STATE
CTRY .                         : COUNTRY
SRVC .                         : SERVICE COMPANY
DATE .                         : DATE
UWI  .                         : UNIQUE WELL ID
API  .                         : API NUMBER
SLAT .WGS84 1.8354767251648987 : SURFACE LATITUDE
SLON .WGS84  7.600270196392003 : SURFACE LONGITUDE
DATUM.F                2641.76 : DEPTH DATUM ELEV
~Curve Information -----------------------------------------
DEPT   .F     : 1 MEASURED DEPTH
DT     .US/F  : DELTA-T (INTERVAL TRANSIT TIME)
DTCO   .US/F  : DELTA-T COMPRESSIONAL
DTSM   .US/F  : DELTA-T SHEAR
GRD    .GAPI  : GAMMA RAY FROM DENSITY LOG
NPHI_LS.DEC   : NEUTRON POROSITY LIMESTONE
DPHI_LS.DEC   : DENSITY POROSITY LIMESTONE
CALD   .IN    : CALIPER FROM DENSITY LOG
DRHO   .G/C3  : BULK DENSITY CORRECTION
RHOB   .G/C3  : BULK DENSITY
~Params ----------------------------------------------------
~Other -----------------------------------------------------
~ASCII -----------------------------------------------------
# ...
  805.00000   89.46080   62.22030   89.19140   81.62600    0.23670    0.12390    9.42810    0.00580    2.50380
  805.50000   89.11100   62.21430   87.72580   78.17990    0.22720    0.13170    9.43190    0.00360    2.49060
  806.00000   88.75210   62.21900   88.69740   74.67650    0.21980    0.13510    9.43990    0.00410    2.48200
  806.50000   88.19900   62.22370   88.27370   71.10930    0.21840    0.13700    9.45910    0.00470    2.47660
  807.00000   87.61280   62.22840   87.91250   69.24770    0.21710    0.13410    9.47960    0.00500    2.47690
  807.50000   87.36150   62.23300   87.63690   68.44950    0.20180    0.12550    9.50680    0.00550    2.49030
  808.00000   87.21960   62.30510   87.03770   68.92010    0.19330    0.11660    9.51730    0.00680    2.50410
  808.50000   87.45840   62.67310   88.15310   69.16360    0.19710    0.11350    9.52360    0.00620    2.51700
  809.00000   88.06320   62.98050   88.53000   68.97640    0.20680    0.11760    9.52360    0.00460    2.51280
  809.50000   88.78280   63.56510   89.88090   68.83640    0.20980    0.11940    9.52360    0.00440    2.50850
  810.00000   90.08110   64.28340   89.69480   69.94880    0.20360    0.11760    9.52390    0.00440    2.50920
  810.50000   91.06590   64.34620   90.78190   70.86750    0.19530    0.11630    9.52410    0.00390    2.51160
  811.00000   90.65330   64.07030   89.65720   68.76990    0.18910    0.11590    9.52340    0.00250    2.51200
  811.50000   89.70560   63.06400   87.64690   65.13400    0.19540    0.11470    9.52260    0.00060    2.51300
  812.00000   88.24840   62.55930   88.61020   62.97710    0.20630    0.11180    9.52200    0.00090    2.51720
  812.50000   87.04600   63.45280   89.29160   64.18110    0.21780    0.10950    9.52160    0.00080    2.52230
  813.00000   86.80340   63.82290   90.46240   66.64590    0.22940    0.10860    9.52110    0.00070    2.52440
  813.50000   86.38780   62.76160   89.05250   66.69770    0.22450    0.10730    9.52060    0.00090    2.52640
  814.00000   84.45360   60.24040   86.57190   62.97080    0.18750    0.10100    9.52010   -0.00040    2.53670
  814.50000   82.84710   56.23900   83.06880   57.90410    0.14280    0.08640    9.51970   -0.00170    2.56220
  815.00000   78.66230   51.23510   79.56580   54.78160    0.11720    0.06850    9.51920   -0.00290    2.58820
  815.50000   75.37070   47.36820   76.50250   57.56050    0.12140    0.06110    9.52670   -0.00340    2.60460
  816.00000   77.57590   47.18250   76.27730   62.81640    0.16060    0.07130    9.53650   -0.00240    2.59640
  816.50000   83.55420   47.19730   82.23770   68.83170    0.20470    0.09310    9.54640    0.00140    2.56410
  817.00000   88.28630   47.23290   86.10280   73.45460    0.24560    0.12210    9.55620    0.00510    2.51920
  817.50000   92.90850   47.26850   88.70350   74.95210    0.26400    0.13750    9.55530    0.00520    2.47530
  818.00000   93.97990   47.27410   88.35770   70.39270    0.21810    0.14070    9.54200    0.00360    2.46710
  818.50000   89.39670   47.24100   85.22980   62.68260    0.16100    0.11890    9.52790    0.00190    2.49920
  819.00000   82.20860   47.20800   81.99830   57.77980    0.12890    0.09350    9.51390    0.00020    2.54040
  819.50000   77.36780   47.18850   78.32170   57.38130    0.13520    0.08200    9.51430   -0.00100    2.57130
  820.00000   77.18530   47.17210   77.41690   60.61030    0.16360    0.08700    9.51480   -0.00100    2.56540
  820.50000   79.92260   47.15580   79.85590   63.90760    0.19470    0.10490    9.51510   -0.00010    2.53500
  821.00000   83.64950   47.13940   82.27300   65.02570    0.21790    0.12330    9.51510    0.00080    2.50160
  821.50000   85.38390   47.12310   83.30500   64.70970    0.20610    0.12960    9.51510    0.00170    2.49020
  822.00000   84.29340   47.10670   81.88510   62.59950    0.16630    0.11540    9.51480    0.00260    2.51200
  822.50000   81.71860   47.09040   78.71570   60.08860    0.13860    0.09130    9.51470    0.00360    2.55220
  823.00000   79.57110   47.07400   78.45190   59.63900    0.15000    0.08280    9.51520    0.00450    2.56590
  823.50000   79.90290   47.05770   76.35220   61.27740    0.17760    0.09850    9.51570    0.00560    2.54160
  824.00000   81.23160   47.04130   79.29200   63.03520    0.20370    0.11620    9.51530    0.00720    2.51050
  824.50000   82.41770   47.02500   82.73570   64.79290    0.20820    0.11780    9.51410    0.00980    2.50830
  825.00000   83.69870   47.00860   85.80750   66.59320    0.20730    0.10640    9.50530    0.01320    2.52470
  825.50000   84.81350   46.99230   87.74150   67.72480    0.19580    0.09700    9.48310    0.01400    2.53960
  826.00000   83.65930   46.97810   84.91390   67.41890    0.16170    0.09080    9.45220    0.01240    2.55350
  826.50000   80.23990   46.97900   79.98200   66.02590    0.12860    0.08170    9.42750    0.00860    2.56590
  827.00000   75.41630   46.97990   75.23170   64.68520    0.09920    0.06530    9.42330    0.00470    2.59370
  827.50000   70.69900   46.98090   74.22940   63.64070    0.07990    0.04950    9.41930    0.00250    2.61930
  828.00000   67.72130   46.98180   71.28540   63.64180    0.08580    0.03740    9.41970    0.00090    2.64470
  828.50000   68.97360   46.98270   70.69080   65.99570    0.10660    0.03850    9.42000    0.00010    2.64610
  829.00000   72.57850   46.98370   72.82680   69.42080    0.13560    0.04870    9.42010   -0.00060    2.63180
  829.50000   76.48620   46.98460   74.77020   72.17260    0.14990    0.06130    9.42030   -0.00100    2.60590
  830.00000   79.17690   46.98550   78.72670   71.72200    0.15370    0.07460    9.42070   -0.00100    2.58500
  830.50000   79.85360   46.98650   78.99270   67.74180    0.15030    0.08150    9.42110   -0.00090    2.57260
  831.00000   78.78470   46.98740   79.87340   63.56790    0.15120    0.08240    9.42170   -0.00080    2.57020
  831.50000   78.70550   46.98830   80.31540   60.50650    0.16620    0.08310    9.42240   -0.00060    2.56860
  832.00000   79.24960   46.98930   80.56250   59.28660    0.18080    0.08710    9.42290   -0.00050    2.56480
  832.50000   79.22330   46.99020   80.11980   60.43420    0.16660    0.09040    9.42340   -0.00030    2.55920
  833.00000   78.90850   46.99110   78.40090   61.91620    0.13890    0.08830    9.42370   -0.00070    2.55810
  833.50000   78.04180   46.99210   77.34520   63.42550    0.12560    0.08230    9.42420   -0.00210    2.56850
  834.00000   77.02150   46.99300   76.28950   65.41370    0.12610    0.07880    9.42440   -0.00350    2.57440
  834.50000   75.83510   46.99460   75.23390   67.47320    0.12550    0.07740    9.42450   -0.00490    2.57750
  835.00000   75.26070   46.99750   74.80680   69.80570    0.12070    0.07350    9.43330   -0.00610    2.58180
  835.50000   75.64950   47.00050   76.62180   72.21570    0.13060    0.06720    9.44450   -0.00490    2.59100
  836.00000   77.07240   47.00340   80.13100   73.47090    0.17020    0.06930    9.46670   -0.00100    2.59340
  836.50000   80.50560   47.00640   83.64360   70.53820    0.21920    0.08370    9.49500   -0.00140    2.57780
  837.00000   84.26090   47.00930   84.65900   68.22680    0.25840    0.09690    9.51910   -0.00290    2.55060
  837.50000   87.31280   47.01230   87.61170   68.48570    0.25450    0.10130    9.52540   -0.00380    2.53750
  838.00000   88.38710   47.01520   89.99090   69.16740    0.24530    0.09800    9.53050   -0.00320    2.54100
  838.50000   88.04650   47.01820   90.24950   69.23570    0.25630    0.10190    9.54140   -0.00250    2.54220
  839.00000   87.77650   47.02110   88.89610   69.04540    0.27030    0.10890    9.57310   -0.00180    2.52920
  839.50000   88.53350   47.02410   90.34060   69.52240    0.27180    0.11250    9.59680   -0.00110    2.51870
  840.00000   89.76630   47.02710   92.53520   72.24900    0.26880    0.11180    9.60190   -0.00040    2.51760
  840.50000   90.40520   47.03000   92.25760   74.60880    0.27250    0.11120    9.60220    0.00020    2.51680
  841.00000   91.04130   47.03300   93.55870   76.77310    0.27900    0.11490    9.60090    0.00010    2.51560
