~Version ---------------------------------------------------
VERS.   2.0 : CWLS log ASCII Standard -VERSION 2.0
WRAP.    NO : One line per depth step
DLM . SPACE : Column Data Section Delimiter
~Well ------------------------------------------------------
STRT .F                    2.0 : START DEPTH
STOP .F                 2794.0 : STOP DEPTH
STEP .F                    0.5 : STEP
NULL .                -9999.25 : NULL VALUE
COMP .                         : COMPANY
WELL .                         : WELL
FLD  .                         : FIELD
LOC  .                         : LOCATION
PROV .                         : PROVINCE
CNTY .                         : COUNTY
STAT .                         : STATE
CTRY .                         : COUNTRY
SRVC .                         : SERVICE COMPANY
DATE .                         : DATE
UWI  .                         : UNIQUE WELL ID
API  .                         : API NUMBER
SLAT .WGS84 1.8354767251648987 : SURFACE LATITUDE
SLON .WGS84  7.600270196392003 : SURFACE LONGITUDE
DATUM.F                2641.76 : DEPTH DATUM ELEV
~Curve Information -----------------------------------------
DEPT   .F     : 1 MEASURED DEPTH
DT     .US/F  : DELTA-T (INTERVAL TRANSIT TIME)
DTCO   .US/F  : DELTA-T COMPRESSIONAL
DTSM   .US/F  : DELTA-T SHEAR
GRD    .GAPI  : GAMMA RAY FROM DENSITY LOG
NPHI_LS.DEC   : NEUTRON POROSITY LIMESTONE
DPHI_LS.DEC   : DENSITY POROSITY LIMESTONE
CALD   .IN    : CALIPER FROM DENSITY LOG
DRHO   .G/C3  : BULK DENSITY CORRECTION
RHOB   .G/C3  : BULK DENSITY
~Params ----------------------------------------------------
~Other -----------------------------------------------------
~ASCII -----------------------------------------------------
# ...
  951.00000   52.25900   50.82210   98.70760    2.36920   -0.00130   -0.13450    8.52970   -0.00470    2.94730
  951.50000   52.21170   51.65610   98.42690    2.28320   -0.00190   -0.14360    8.53020   -0.00420    2.95940
  952.00000   52.22140   50.63430   97.60280    2.19710   -0.00220   -0.14730    8.53080   -0.00340    2.96000
  952.50000   52.04940   50.31790   98.58810    2.20480   -0.00230   -0.14550    8.53120   -0.00250    2.95440
  953.00000   51.85790   50.25910   97.75620    1.97850   -0.00180   -0.14190    8.53070   -0.00150    2.94750
  953.50000   51.72960   50.25570   96.58440    1.79620   -0.00030   -0.13870    8.53080   -0.00220    2.94310
  954.00000   51.73820   50.37840   97.49720    1.87230    0.01330   -0.13610    8.53140   -0.00340    2.93830
  954.50000   51.92840   51.27440   99.60870    2.02120    0.03920   -0.12750    8.53180   -0.00470    2.92480
  955.00000   52.68860   52.60080  101.64090    2.25720    0.06640   -0.11150    8.53120   -0.00590    2.88670
  955.50000   53.65280   53.29670  102.69900    2.38660    0.06180   -0.08670    8.53050   -0.00780    2.83630
  956.00000   54.09180   54.54190  103.62800    2.40520    0.03820   -0.06770    8.53100   -0.00810    2.82620
  956.50000   53.73090   53.51400  102.27770    2.49850    0.00860   -0.07810    8.53240   -0.00750    2.84890
  957.00000   52.82860   54.23840  100.71500    2.71390    0.00250   -0.10240    8.53390   -0.00620    2.89830
  957.50000   52.06440   52.96520   99.08500    2.81690    0.00010   -0.12670    8.53460   -0.00640    2.92830
  958.00000   51.31180   51.12710   96.77810    2.61450   -0.00080   -0.13570    8.53500   -0.00700    2.94260
  958.50000   51.00940   50.37150   96.61350    2.53380   -0.00070   -0.13680    8.53550   -0.00800    2.94380
  959.00000   50.94800   50.34390   97.02030    2.86240   -0.00090   -0.13800    8.53580   -0.00820    2.94540
  959.50000   50.93090   50.31630   97.68340    3.22570   -0.00090   -0.13990    8.53600   -0.00640    2.95100
  960.00000   50.78670   50.28870   96.62550    3.28850   -0.00010   -0.14340    8.53660   -0.00360    2.95510
  960.50000   50.46400   50.26120   96.70550    3.19560    0.00090   -0.14440    8.53720   -0.00200    2.95720
  961.00000   50.37650   50.23360   97.72750    3.11660    0.00500   -0.14220    8.53740   -0.00090    2.95150
  961.50000   50.45700   50.20600   96.54150    3.40370    0.02720   -0.13570    8.53760    0.00020    2.93730
  962.00000   50.79530   50.52460   98.24260    3.94810    0.07870   -0.12100    8.53790   -0.00030    2.90210
  962.50000   51.97660   51.51210  101.37750    4.48410    0.15990   -0.09740    8.53830   -0.00260    2.84300
  963.00000   53.29110   51.98460  103.03240    4.43610    0.18510   -0.04570    8.53880   -0.00810    2.75870
  963.50000   54.07010   52.97190  104.82540    4.24520    0.17790   -0.01280    8.54310   -0.01220    2.72790
  964.00000   54.32920   53.99470  106.58610    4.16690    0.18200   -0.00470    8.54740   -0.00670    2.72220
  964.50000   54.53890   54.78570  106.97860    4.22380    0.24600    0.00210    8.56260   -0.00120    2.70320
  965.00000   54.96700   55.57670  109.16180    4.31510    0.33510    0.04660    8.59130   -0.00170    2.60990
  965.50000   55.94650   56.34040  111.80760    4.64740    0.40880    0.11300    8.61690   -0.00300    2.49220
  966.00000   57.24090   56.88120  114.45340    5.48460    0.44980    0.15860    8.61720   -0.00420    2.43350
  966.50000   58.53460   58.08090  116.90470    6.15990    0.47400    0.17830    8.61740   -0.00460    2.40650
  967.00000   58.54410   58.36770  117.43140    6.37250    0.48390    0.17780    8.61030   -0.00680    2.40520
  967.50000   57.86010   58.07890  115.22180    6.21870    0.39340    0.16420    8.60310   -0.00930    2.42540
  968.00000   56.77750   57.18660  112.31730    5.55290    0.30590    0.11680    8.60040   -0.01090    2.50350
  968.50000   55.53300   56.13330  109.32180    4.71990    0.15570    0.05310    8.60850   -0.00640    2.59300
  969.00000   54.35310   54.85400  106.35170    4.35930    0.09420   -0.00370    8.61660   -0.00190    2.71870
  969.50000   53.54850   53.82120  103.48670    4.59000    0.07580   -0.03490    8.62490   -0.00130    2.78830
  970.00000   53.28090   53.74060  101.29680    4.92530    0.06710   -0.05490    8.65240   -0.00070    2.81870
  970.50000   53.19190   53.05170   99.28050    5.26060    0.06780   -0.07280    8.67990   -0.00010    2.83560
  971.00000   52.97280   52.12260   98.91380    5.39570    0.07440   -0.07610    8.70680    0.00040    2.83900
  971.50000   52.96760   51.51920  100.45990    5.50650    0.08780   -0.07620    8.73370    0.00080    2.83740
  972.00000   53.29970   53.01190  102.57450    6.08210    0.12490   -0.07210    8.73970    0.00130    2.82690
  972.50000   53.72640   53.21740  103.68670    7.09680    0.16490   -0.05870    8.74410    0.00040    2.79690
  973.00000   54.43020   53.27750  105.06520    7.82650    0.18350   -0.03220    8.76440   -0.00270    2.75320
  973.50000   55.09820   53.72830  106.20320    7.78840    0.15630   -0.01050    8.79430   -0.00590    2.72070
  974.00000   55.37850   54.24270  106.47760    7.30940    0.12040   -0.00550    8.80840   -0.00620    2.73120
  974.50000   54.91960   53.40590  106.56520    6.58860    0.09590   -0.02980    8.81380   -0.00370    2.77160
  975.00000   54.38840   53.64140  106.65660    6.13620    0.10610   -0.04960    8.81910   -0.00220    2.80090
  975.50000   54.81790   53.84000  109.43440    6.22680    0.14640   -0.04890    8.82440   -0.00220    2.79080
  976.00000   55.65630   53.81710  108.91890    6.39690    0.20670   -0.03020    8.85420   -0.00220    2.74940
  976.50000   56.67150   55.91830  112.09800    6.58430    0.28970    0.01460    8.88810   -0.00190    2.70770
  977.00000   58.40060   57.41660  116.64690    6.90750    0.42640    0.06480    8.93000   -0.00130    2.61100
  977.50000   60.35280   58.87870  120.21660    7.79660    0.45130    0.13310    8.97030   -0.00070    2.48990
  978.00000   61.91330   60.34090  124.90040    8.82900    0.44440    0.17600    8.99820   -0.00170    2.42070
  978.50000   62.64360   61.34320  126.70180    9.62080    0.43780    0.19680    9.02610   -0.00360    2.37120
  979.00000   62.43840   61.48810  126.29290    9.78540    0.44390    0.20450    9.05400   -0.00530    2.35980
  979.50000   62.21010   61.44200  125.43430    9.78690    0.46760    0.20480    9.08180   -0.00700    2.35980
  980.00000   61.98110   61.38780  124.13640    9.79110    0.48430    0.20550    9.10260   -0.00680    2.35890
  980.50000   61.75760   60.71510  124.93880    9.63440    0.49460    0.20670    9.12120   -0.00640    2.35690
  981.00000   61.67720   59.86930  125.04910    8.52680    0.50330    0.20890    9.13970   -0.00620    2.35270
  981.50000   61.83090   61.39510  125.25360    7.05100    0.50680    0.21170    9.15060   -0.00610    2.34870
  982.00000   62.08750   63.18230  125.48400    5.65480    0.50550    0.21360    9.16090   -0.00610    2.34650
  982.50000   62.15200   62.59640  125.87550    5.03650    0.49260    0.21500    9.17010   -0.00560    2.34430
  983.00000   62.16240   61.12400  126.85430    4.81740    0.47880    0.21570    9.17550   -0.00400    2.34210
  983.50000   62.61670   61.00360  127.83310    4.73230    0.46880    0.21670    9.18340   -0.00240    2.33890
  984.00000   63.28650   62.24410  129.27120    4.71050    0.46140    0.22060    9.19960   -0.00090    2.33180
  984.50000   63.88900   63.40690  130.79100    4.82900    0.46710    0.22580    9.23690    0.00050    2.32310
  985.00000   64.76040   63.64250  132.31070    5.17460    0.48220    0.22760    9.25980    0.00170    2.32040
  985.50000   65.84750   64.64430  133.40320    5.48120    0.48900    0.22720    9.26450    0.00160    2.32140
  986.00000   67.13410   65.78250  134.46620    5.54780    0.49550    0.22540    9.27950    0.00120    2.32400
  986.50000   68.01520   67.08040  135.52920    5.47600    0.51640    0.22490    9.29940    0.00080    2.32520
  987.00000   68.46270   67.44170  136.34280    5.26260    0.53570    0.22490    9.31810    0.00020    2.32510
