~Version ---------------------------------------------------
VERS.   2.0 : CWLS log ASCII Standard -VERSION 2.0
WRAP.    NO : One line per depth step
DLM . SPACE : Column Data Section Delimiter
~Well ------------------------------------------------------
STRT .F                    2.0 : START DEPTH
STOP .F                 2794.0 : STOP DEPTH
STEP .F                    0.5 : STEP
NULL .                -9999.25 : NULL VALUE
COMP .                         : COMPANY
WELL .                         : WELL
FLD  .                         : FIELD
LOC  .                         : LOCATION
PROV .                         : PROVINCE
CNTY .                         : COUNTY
STAT .                         : STATE
CTRY .                         : COUNTRY
SRVC .                         : SERVICE COMPANY
DATE .                         : DATE
UWI  .                         : UNIQUE WELL ID
API  .                         : API NUMBER
SLAT .WGS84 1.8354767251648987 : SURFACE LATITUDE
SLON .WGS84  7.600270196392003 : SURFACE LONGITUDE
DATUM.F                2641.76 : DEPTH DATUM ELEV
~Curve Information -----------------------------------------
DEPT   .F     : 1 MEASURED DEPTH
DT     .US/F  : DELTA-T (INTERVAL TRANSIT TIME)
DTCO   .US/F  : DELTA-T COMPRESSIONAL
DTSM   .US/F  : DELTA-T SHEAR
GRD    .GAPI  : GAMMA RAY FROM DENSITY LOG
NPHI_LS.DEC   : NEUTRON POROSITY LIMESTONE
DPHI_LS.DEC   : DENSITY POROSITY LIMESTONE
CALD   .IN    : CALIPER FROM DENSITY LOG
DRHO   .G/C3  : BULK DENSITY CORRECTION
RHOB   .G/C3  : BULK DENSITY
~Params ----------------------------------------------------
~Other -----------------------------------------------------
~ASCII -----------------------------------------------------
# ...
 2082.50000   54.12360   54.08770   99.04620    4.57380    0.00250   -0.05700    8.98990   -0.01210    2.81380
 2083.00000   53.91560   53.68040   98.60130    4.59320    0.00200   -0.07370    8.98440   -0.01070    2.85000
 2083.50000   53.91280   53.33190   98.66220    4.72330    0.00130   -0.08810    8.98410   -0.00910    2.87270
 2084.00000   54.05920   53.30540   98.81190    4.51990   -0.00020   -0.09550    8.98380   -0.00860    2.86750
 2084.50000   54.20690   53.39690   99.40470    4.06000   -0.00100   -0.08410    8.98340   -0.00850    2.84820
 2085.00000   54.29040   53.42430   99.60410    3.55720   -0.00140   -0.07080    8.98310   -0.00940    2.82800
 2085.50000   54.34020   54.35770   99.73970    3.27870   -0.00140   -0.06280    8.98280   -0.01010    2.81630
 2086.00000   54.33940   53.40480   99.87530    2.88330   -0.00140   -0.05990    8.98240   -0.01060    2.81290
 2086.50000   54.20280   53.30800   99.52250    2.72850   -0.00160   -0.05760    8.98250   -0.01100    2.80820
 2087.00000   54.10260   53.36930   98.65080    2.99520   -0.00120   -0.05640    8.98380   -0.00990    2.80400
 2087.50000   53.93910   54.38290   99.62140    3.26480   -0.00110   -0.06020    8.98630   -0.00910    2.81030
 2088.00000   53.82280   53.53460   98.48800    3.54740   -0.00140   -0.07150    8.98390   -0.00730    2.83030
 2088.50000   53.88290   53.27430   97.31510    3.96900   -0.00230   -0.08300    8.98290   -0.00520    2.84510
 2089.00000   54.33050   53.56720   96.66560    4.01050   -0.00320   -0.08220    8.98330   -0.00480    2.83820
 2089.50000   54.96780   54.36860   97.54500    3.99600   -0.00310   -0.06100    8.98420   -0.00750    2.80340
 2090.00000   55.21430   53.53720   96.43650    3.86540   -0.00140   -0.03630    9.00720   -0.00890    2.76250
 2090.50000   55.16040   53.31050   97.26960    3.74660    0.00060   -0.01830    9.03820   -0.00860    2.74090
 2091.00000   54.80630   53.30130   98.75130    3.81750    0.00200   -0.02630    9.05880   -0.00650    2.74970
 2091.50000   54.43100   53.29220   97.55980    4.42580    0.00200   -0.04210    9.06260   -0.00460    2.79050
 2092.00000   54.15510   53.28300   96.31680    5.12860    0.00200   -0.05990    9.06640   -0.00480    2.81800
 2092.50000   53.98960   53.41840   97.07260    5.58970    0.00200   -0.06890    9.06840   -0.00540    2.82580
 2093.00000   54.11120   54.23970   99.06960    5.52530    0.00220   -0.06460    9.06750   -0.00740    2.81440
 2093.50000   54.48030   53.32880   98.54690    5.28700    0.00340   -0.05140    9.06890   -0.00960    2.79190
 2094.00000   54.70360   53.23460   96.47260    4.96500    0.00720   -0.03570    9.10390   -0.01190    2.76980
 2094.50000   54.83180   53.51280   97.79510    5.66790    0.01110   -0.02430    9.13440   -0.01330    2.75150
 2095.00000   54.73520   54.29220   99.39130    6.61820    0.01310   -0.03050    9.15060   -0.01410    2.76060
 2095.50000   54.65150   53.32010   99.77850    7.42380    0.01290   -0.04210    9.16330   -0.01350    2.78200
 2096.00000   54.66960   53.32010   97.82710    8.08760    0.01210   -0.05040    9.18110   -0.01320    2.79640
 2096.50000   54.71110   53.53790   97.02880    8.67970    0.01560   -0.04240    9.20340   -0.01370    2.78430
 2097.00000   54.73590   54.34470   98.22070    9.14350    0.03150   -0.02490    9.22540   -0.01490    2.75890
 2097.50000   55.09430   54.83090  100.76550   10.88930    0.06310   -0.01950    9.25450   -0.01550    2.74720
 2098.00000   55.94730   55.69990  103.46570   14.35700    0.10490   -0.02260    9.27390   -0.01230    2.74990
 2098.50000   57.12950   57.01580  106.51040   18.71570    0.13950   -0.02620    9.29760   -0.00910    2.75440
 2099.00000   58.82330   58.33670  109.16120   22.67620    0.16660   -0.02180    9.33520   -0.00730    2.74770
 2099.50000   60.13480   59.65770  110.08380   24.33920    0.17040   -0.01580    9.35770   -0.00620    2.74110
 2100.00000   60.96360   61.00910  112.47920   24.28720    0.15630   -0.02190    9.38770   -0.00510    2.75060
 2100.50000   61.69580   62.86820  115.89320   24.20260    0.13660   -0.03510    9.41600   -0.00400    2.77420
 2101.00000   63.28200   64.72740  118.70200   24.08580    0.11730   -0.04500    9.43100   -0.00410    2.78970
 2101.50000   65.48380   66.22250  121.33980   24.64940    0.09280   -0.04820    9.44150   -0.00440    2.79140
 2102.00000   67.46500   67.49030  122.98990   25.02290    0.06590   -0.04190    9.47340   -0.00470    2.77710
 2102.50000   68.81500   68.75820  123.50190   25.02130    0.03620   -0.01180    9.51290   -0.00490    2.75040
 2103.00000   69.08060   70.05560  124.28550   22.56270    0.01400    0.03330    9.55440   -0.00390    2.71650
 2103.50000   68.76120   69.84770  122.32250   17.66240   -0.00430    0.11150    9.60360   -0.00280    2.56820
 2104.00000   68.32000   67.77380  120.55950   11.57950   -0.00990    0.18520    9.65560   -0.00170    2.40500
 2104.50000   68.52180   67.56210  121.53680    7.15270   -0.01310    0.25900    9.69370   -0.00060    2.26820
 2105.00000   68.83150   67.47030  122.79720    4.59750   -0.01370    0.34160    9.70040    0.00050    2.14410
 2105.50000   68.89210   67.37840  123.47610    4.14370   -0.01400    0.37080    9.73620    0.00200    2.08750
 2106.00000   68.89320   68.11440  123.70720    4.45230   -0.01400    0.38080    9.76450    0.00260    2.06470
 2106.50000   68.94580   68.62010  123.13220    4.79930   -0.01490    0.38410    9.77900    0.00100    2.05690
 2107.00000   69.06990   67.60960  120.68830    4.92420   -0.01580    0.38590    9.77910    0.00010    2.05270
 2107.50000   69.14830   67.53870  120.74330    4.91880   -0.01680    0.38580    9.77870   -0.00080    2.05320
 2108.00000   68.99460   67.43960  120.68410    4.88460   -0.01680    0.38480    9.77860   -0.00100    2.05550
 2108.50000   68.76930   67.74350  119.65200    4.31420   -0.01600    0.38190    9.77860   -0.00030    2.05870
 2109.00000   68.64950   68.23610  120.45860    3.91100   -0.01550    0.37950    9.77870    0.00030    2.06290
 2109.50000   68.78640   68.71980  121.26670    3.81770   -0.01520    0.37940    9.77480    0.00010    2.06400
 2110.00000   69.33050   69.21550  123.46960    4.27370   -0.01450    0.38060    9.76640   -0.00050    2.06250
 2110.50000   69.90350   69.73920  123.51660    4.67830   -0.01380    0.38070    9.75030   -0.00110    2.06150
 2111.00000   70.15730   69.24830  123.52600    4.63730   -0.01390    0.38050    9.71330   -0.00160    2.06210
 2111.50000   69.84190   68.44440  122.78650    4.13600   -0.01420    0.38070    9.69890   -0.00210    2.06150
 2112.00000   69.03120   67.75030  121.58650    3.62360   -0.01400    0.38010    9.69840   -0.00230    2.06310
 2112.50000   68.33790   67.36560  120.32770    3.28330   -0.01380    0.37420    9.69790   -0.00250    2.06720
 2113.00000   67.64750   67.37020  119.67740    3.95520   -0.01340    0.36500    9.69710   -0.00180    2.08160
 2113.50000   67.39140   67.39010  120.18320    5.47970   -0.01280    0.35170    9.69500   -0.00080    2.10940
 2114.00000   67.70490   68.11460  120.46990    7.59110   -0.01230    0.33280    9.67190    0.00020    2.14110
 2114.50000   68.35970   68.53870  120.57320    8.84050   -0.01220    0.31690    9.64560    0.00200    2.16400
 2115.00000   69.15140   68.62750  121.25120    8.01270   -0.01320    0.32850    9.62390    0.00090    2.14520
 2115.50000   69.60860   68.90490  121.76400    6.86060   -0.01470    0.35490    9.61380   -0.00020    2.10790
 2116.00000   69.60470   69.07580  120.20540    5.95360   -0.01560    0.37490    9.60500   -0.00140    2.06980
 2116.50000   69.29550   68.81500  119.81360    5.13900   -0.01600    0.38740    9.59930   -0.00210    2.05420
 2117.00000   68.98990   69.49000  120.44490    4.32440   -0.01650    0.39010    9.59840   -0.00170    2.04580
 2117.50000   68.80680   68.70300  119.68540    3.69780   -0.01700    0.39080    9.59820   -0.00130    2.04500
 2118.00000   68.77670   68.52520  120.68930    3.31210   -0.01710    0.38970    9.59810   -0.00090    2.04610
 2118.50000   68.77180   68.38050  120.37390    2.92640   -0.01710    0.38870    9.59800   -0.00050    2.04760
