~Version ---------------------------------------------------
VERS.   2.0 : CWLS log ASCII Standard -VERSION 2.0
WRAP.    NO : One line per depth step
DLM . SPACE : Column Data Section Delimiter
~Well ------------------------------------------------------
STRT .F                    2.0 : START DEPTH
STOP .F                 2794.0 : STOP DEPTH
STEP .F                    0.5 : STEP
NULL .                -9999.25 : NULL VALUE
COMP .                         : COMPANY
WELL .                         : WELL
FLD  .                         : FIELD
LOC  .                         : LOCATION
PROV .                         : PROVINCE
CNTY .                         : COUNTY
STAT .                         : STATE
CTRY .                         : COUNTRY
SRVC .                         : SERVICE COMPANY
DATE .                         : DATE
UWI  .                         : UNIQUE WELL ID
API  .                         : API NUMBER
SLAT .WGS84 1.8354767251648987 : SURFACE LATITUDE
SLON .WGS84  7.600270196392003 : SURFACE LONGITUDE
DATUM.F                2641.76 : DEPTH DATUM ELEV
~Curve Information -----------------------------------------
DEPT   .F     : 1 MEASURED DEPTH
DT     .US/F  : DELTA-T (INTERVAL TRANSIT TIME)
DTCO   .US/F  : DELTA-T COMPRESSIONAL
DTSM   .US/F  : DELTA-T SHEAR
GRD    .GAPI  : GAMMA RAY FROM DENSITY LOG
NPHI_LS.DEC   : NEUTRON POROSITY LIMESTONE
DPHI_LS.DEC   : DENSITY POROSITY LIMESTONE
CALD   .IN    : CALIPER FROM DENSITY LOG
DRHO   .G/C3  : BULK DENSITY CORRECTION
RHOB   .G/C3  : BULK DENSITY
~Params ----------------------------------------------------
~Other -----------------------------------------------------
~ASCII -----------------------------------------------------
# ...
 1498.50000   70.51450   69.31580  120.91660    9.74190   -0.00860    0.39080    8.80860    0.00440    2.04410
 1499.00000   70.17070   67.93750  121.83040   11.70220   -0.00760    0.38560    8.80890    0.00550    2.05270
 1499.50000   69.60990   67.47160  121.74170   13.15460   -0.00650    0.38310    8.80930    0.00670    2.05660
 1500.00000   70.14620   68.85620  123.26470   14.53790   -0.00540    0.38150    8.80960    0.00790    2.05910
 1500.50000   71.54540   70.23570  126.06100   14.36380   -0.00440    0.38100    8.81000    0.00910    2.06150
 1501.00000   73.05310   70.95860  129.03070   12.64120   -0.00410    0.38160    8.80080    0.01020    2.05920
 1501.50000   74.06740   72.94070  132.49330   10.94490   -0.00290    0.38800    8.78170    0.01100    2.05160
 1502.00000   74.77730   74.41700  136.27910   10.14850    0.00140    0.39540    8.76220    0.01120    2.04000
 1502.50000   75.13490   74.83340  137.06480   12.12420    0.01110    0.40000    8.74200    0.01150    2.03090
 1503.00000   75.67960   76.26590  138.10260   14.26090    0.01700    0.40040    8.72110    0.01300    2.02720
 1503.50000   76.57020   77.58120  138.65810   16.00570    0.01770    0.39660    8.71900    0.01620    2.03140
 1504.00000   76.83730   77.67860  137.36030   16.23140    0.01310    0.39370    8.73590    0.01910    2.03350
 1504.50000   76.37900   77.16330  134.84820   14.86810    0.00770    0.39600    8.77600    0.02010    2.03230
 1505.00000   75.31120   75.48910  133.16430   13.19630    0.00180    0.39750    8.80240    0.01610    2.03200
 1505.50000   73.90050   73.23340  131.50960   11.97250   -0.00350    0.39500    8.78820    0.01220    2.03320
 1506.00000   72.82290   70.73990  129.06230   11.63320   -0.00720    0.39120    8.74620    0.00870    2.04160
 1506.50000   71.54820   70.68570  126.19760   12.99600   -0.00700    0.38610    8.71500    0.00980    2.04980
 1507.00000   69.87390   70.31370  123.49980   16.95570   -0.00600    0.38030    8.71330    0.01290    2.05590
 1507.50000   68.51870   69.31400  121.56900   23.67420   -0.00500    0.37320    8.71310    0.01630    2.07240
 1508.00000   67.87310   67.73730  119.57950   29.48830   -0.00580    0.36060    8.72440    0.01710    2.09360
 1508.50000   67.75450   68.06600  118.27370   29.76010   -0.00710    0.35070    8.74120    0.01650    2.11020
 1509.00000   68.22810   69.03050  119.62510   24.12800   -0.00850    0.36140    8.77250    0.01320    2.09140
 1509.50000   69.12010   69.99500  121.26050   16.07050   -0.00870    0.38310    8.79230    0.00880    2.06210
 1510.00000   70.01220   70.82140  123.34500   11.09860   -0.00850    0.39890    8.80520    0.00430    2.03480
 1510.50000   71.28130   70.81950  124.58850    8.47180   -0.00830    0.40490    8.81210    0.00200    2.02230
 1511.00000   71.86590   70.81290  124.63160    6.51830   -0.00910    0.40730    8.81190   -0.00020    2.01800
 1511.50000   71.77760   70.80630  124.67470    4.98140   -0.01010    0.40820    8.81210   -0.00120    2.01520
 1512.00000   70.95960   70.79970  124.47810    4.58490   -0.01050    0.40750    8.78500   -0.00160    2.01500
 1512.50000   69.94990   70.79310  123.25210    5.69560   -0.01060    0.40300    8.75270   -0.00110    2.01980
 1513.00000   69.25110   70.16890  122.62780    8.48500   -0.01050    0.39690    8.72770    0.00090    2.02690
 1513.50000   68.94250   69.79870  123.54930   11.04810   -0.01050    0.38830    8.71160    0.00240    2.04110
 1514.00000   68.66260   69.75520  122.22220   13.47230   -0.01050    0.38310    8.70600    0.00370    2.05700
 1514.50000   68.65610   69.71180  120.90920   14.48310   -0.01060    0.38100    8.71030    0.00510    2.06070
 1515.00000   68.72290   69.51910  119.75990   13.61290   -0.01110    0.38240    8.71310    0.00640    2.05940
 1515.50000   68.77590   67.80930  118.92180   12.51240   -0.01150    0.38430    8.71310    0.00810    2.05470
 1516.00000   68.84280   69.14210  119.80570   11.02550   -0.01150    0.38400    8.71310    0.01010    2.05310
 1516.50000   69.09400   69.61110  120.58090    9.69560   -0.01130    0.38400    8.71310    0.01210    2.05180
 1517.00000   69.57260   69.61240  120.59470    9.00890   -0.01120    0.38600    8.71300    0.01410    2.05050
 1517.50000   69.70100   69.62600  120.60850    8.82900   -0.01110    0.38870    8.71290    0.01600    2.04780
 1518.00000   69.57160   69.64300  120.62230    9.00200   -0.01100    0.39130    8.71280    0.01510    2.04410
 1518.50000   69.30290   69.06500  120.63610    8.83980   -0.01090    0.39400    8.71290    0.01420    2.03980
 1519.00000   69.04870   67.56070  120.64990    7.55940   -0.01150    0.39680    8.71300    0.01250    2.03600
 1519.50000   68.95930   67.67830  120.66370    6.22810   -0.01200    0.39980    8.71310    0.01020    2.03050
 1520.00000   68.68020   68.19670  120.67750    4.57860   -0.01250    0.40270    8.71270    0.00830    2.02590
 1520.50000   68.28810   68.10930  120.69130    3.70510   -0.01260    0.40340    8.71230    0.00660    2.02250
 1521.00000   68.15810   69.48670  121.50630    4.07740   -0.01150    0.40300    8.71230    0.00490    2.02280
 1521.50000   68.52210   70.36760  122.81280    4.50800   -0.00900    0.40330    8.74190    0.00390    2.02360
 1522.00000   69.89690   70.67950  125.35000    5.51480   -0.00150    0.40220    8.78360    0.00420    2.02530
 1522.50000   71.45710   72.38550  128.58440    7.83400    0.00800    0.40060    8.81030    0.00510    2.02700
 1523.00000   73.11930   74.11060  132.56720   11.91210    0.02700    0.39600    8.80900    0.00620    2.03010
 1523.50000   74.18700   74.59800  134.65980   15.61910    0.04800    0.38840    8.77320    0.00700    2.03630
 1524.00000   73.99380   73.74860  133.28620   18.31060    0.05270    0.37940    8.67610    0.00550    2.06410
 1524.50000   71.49320   71.84470  128.76540   19.54320    0.03810    0.33600    8.55930    0.00170    2.12500
 1525.00000   67.56330   69.81690  123.43900   19.64810    0.01800    0.25420    8.49630    0.00390    2.26690
 1525.50000   65.19950   67.75960  118.83840   21.30930    0.00670    0.17240    8.46600    0.01100    2.43130
 1526.00000   64.73200   65.68110  117.34490   24.50280   -0.00050    0.17950    8.50980    0.01190    2.43040
 1526.50000   66.42620   65.71880  119.40260   21.88520   -0.00480    0.23700    8.65820    0.00730    2.28960
 1527.00000   68.71710   66.77830  122.26100   16.96130   -0.00710    0.32330    8.83130    0.00230    2.13560
 1527.50000   69.54130   68.86850  124.61040   12.49500   -0.00910    0.38430    8.86200    0.00190    2.04530
 1528.00000   69.38420   70.38500  122.90110   10.33040   -0.01010    0.40250    8.88620    0.00160    2.02610
 1528.50000   68.74090   70.28390  120.27860   12.09030   -0.01030    0.40330    8.90680    0.00160    2.02180
 1529.00000   68.48000   69.49450  120.83710   13.99730   -0.01060    0.40240    8.90270    0.00160    2.02360
 1529.50000   68.69360   70.41580  121.63240   14.29940   -0.01070    0.40160    8.89860    0.00160    2.02570
 1530.00000   68.91920   69.06440  120.68370   15.16040   -0.01040    0.39920    8.89450    0.00170    2.02770
 1530.50000   68.98220   68.57930  120.54100   16.19000   -0.00960    0.39630    8.89030    0.00150    2.03240
 1531.00000   68.90900   68.37890  120.49130   19.00440   -0.00930    0.38980    8.88620    0.00310    2.04120
 1531.50000   68.77630   67.83330  120.44150   21.66020   -0.00890    0.38270    8.88210    0.00520    2.05410
 1532.00000   68.58560   67.07850  120.64110   22.88530   -0.00860    0.37720    8.87790    0.00720    2.06430
 1532.50000   68.39510   66.57540  121.29850   23.18820   -0.00830    0.37660    8.88260    0.00920    2.06460
 1533.00000   68.19480   66.64930  120.99480   23.24470   -0.00800    0.37830    8.88930    0.00980    2.06320
 1533.50000   68.17260   66.74290  120.01770   23.26110   -0.00790    0.38060    8.89610    0.00870    2.06220
 1534.00000   68.20050   66.73460  118.17090   24.21810   -0.00770    0.37820    8.90290    0.00410    2.06370
 1534.50000   67.84100   65.84620  116.00760   26.84080   -0.00680    0.37330    8.90100    0.00210    2.07040
