~Version ---------------------------------------------------
VERS.   2.0 : CWLS log ASCII Standard -VERSION 2.0
WRAP.    NO : One line per depth step
DLM . SPACE : Column Data Section Delimiter
~Well ------------------------------------------------------
STRT .F                    2.0 : START DEPTH
STOP .F                 2794.0 : STOP DEPTH
STEP .F                    0.5 : STEP
NULL .                -9999.25 : NULL VALUE
COMP .                         : COMPANY
WELL .                         : WELL
FLD  .                         : FIELD
LOC  .                         : LOCATION
PROV .                         : PROVINCE
CNTY .                         : COUNTY
STAT .                         : STATE
CTRY .                         : COUNTRY
SRVC .                         : SERVICE COMPANY
DATE .                         : DATE
UWI  .                         : UNIQUE WELL ID
API  .                         : API NUMBER
SLAT .WGS84 1.8354767251648987 : SURFACE LATITUDE
SLON .WGS84  7.600270196392003 : SURFACE LONGITUDE
DATUM.F                2641.76 : DEPTH DATUM ELEV
~Curve Information -----------------------------------------
DEPT   .F     : 1 MEASURED DEPTH
DT     .US/F  : DELTA-T (INTERVAL TRANSIT TIME)
DTCO   .US/F  : DELTA-T COMPRESSIONAL
DTSM   .US/F  : DELTA-T SHEAR
GRD    .GAPI  : GAMMA RAY FROM DENSITY LOG
NPHI_LS.DEC   : NEUTRON POROSITY LIMESTONE
DPHI_LS.DEC   : DENSITY POROSITY LIMESTONE
CALD   .IN    : CALIPER FROM DENSITY LOG
DRHO   .G/C3  : BULK DENSITY CORRECTION
RHOB   .G/C3  : BULK DENSITY
~Params ----------------------------------------------------
~Other -----------------------------------------------------
~ASCII -----------------------------------------------------
# ...
 2484.00000   85.20260   84.69400  150.28160   58.45470    0.15930    0.19110    8.00970    0.00720    2.37450
 2484.50000   83.82880   83.60730  150.06550   55.20940    0.14940    0.20260    8.00790    0.00860    2.36030
 2485.00000   82.59370   82.89860  152.27470   56.79660    0.14160    0.20520    8.00620    0.00930    2.35780
 2485.50000   81.29690   83.70340  154.14570   58.94370    0.14330    0.20680    8.00440    0.00870    2.35570
 2486.00000   81.43040   85.24180  156.01660   59.47660    0.16470    0.20790    8.00090    0.00940    2.35350
 2486.50000   83.91440   87.18480  157.88760   57.99790    0.18390    0.20930    7.98380    0.01020    2.35060
 2487.00000   87.51610   88.93300  159.58270   56.25050    0.19160    0.21480    7.96660    0.01060    2.34200
 2487.50000   90.78140   90.68110  161.23470   55.53550    0.19360    0.22440    7.94690    0.01100    2.32540
 2488.00000   93.10160   92.33450  162.87570   56.62390    0.19580    0.23170    7.92020    0.01170    2.31080
 2488.50000   93.40530   93.92680  164.26110   58.18200    0.20010    0.23910    7.91410    0.01220    2.29990
 2489.00000   93.40040   95.51910  165.64650   58.58380    0.20380    0.24500    7.91710    0.01260    2.29080
 2489.50000   94.69000   97.11140  167.03190   57.94160    0.20390    0.25320    7.92070    0.00900    2.27700
 2490.00000   96.96160   99.18100  168.08760   58.08970    0.20080    0.26170    7.92160    0.00610    2.25850
 2490.50000   98.73460  101.30190  168.14870   58.54360    0.19760    0.27250    7.92060    0.00370    2.23840
 2491.00000  100.43030  103.30160  168.20990   58.72320    0.19620    0.28260    7.92000    0.00150    2.21950
 2491.50000  101.72360  104.52720  168.27110   58.21200    0.19850    0.28760    7.91970    0.00040    2.21550
 2492.00000  102.30040  105.01330  168.33230   57.84550    0.20400    0.28830    7.92040    0.00170    2.21810
 2492.50000  103.06710  105.82460  168.39340   57.92960    0.20940    0.28640    7.92160    0.00450    2.22090
 2493.00000  104.04100  107.19840  168.36460   58.43270    0.21490    0.28620    7.92000    0.00670    2.21870
 2493.50000  105.03600  108.68100  168.33090   59.51060    0.22720    0.28750    7.91810    0.00740    2.21730
 2494.00000  105.51050  107.57440  168.29730   60.12590    0.24310    0.28820    7.91700    0.00810    2.21640
 2494.50000  104.57720  106.41160  168.26370   60.95410    0.25790    0.28840    7.91610    0.00720    2.21610
 2495.00000  103.77590  105.31260  168.23000   62.20320    0.25990    0.28840    7.91540    0.00500    2.21670
 2495.50000  102.97940  102.55400  168.15870   66.60350    0.26070    0.28580    7.91500    0.00250    2.22410
 2496.00000  101.12560   98.56150  167.35860   73.92900    0.25440    0.26580    7.91460    0.00000    2.24410
 2496.50000   96.50880   93.79420  164.17140   79.40260    0.24630    0.23250    7.91490    0.00290    2.28930
 2497.00000   89.82060   87.79260  155.29940   83.11950    0.22160    0.19930    7.92100    0.00960    2.35670
 2497.50000   84.84410   86.08050  158.57480   83.44450    0.20580    0.16510    7.91480    0.01200    2.41950
 2498.00000   82.20060   85.44590  162.61780   81.26420    0.20740    0.14050    7.91270    0.01380    2.45520
 2498.50000   82.58900   84.61040  164.91790   79.16000    0.22250    0.14580    7.91230    0.01520    2.46630
 2499.00000   83.75950   83.48750  162.99750   77.51350    0.23850    0.15830    7.91310    0.01390    2.44620
 2499.50000   85.52790   85.34510  165.94020   75.09870    0.25160    0.17620    7.91390    0.01130    2.41710
 2500.00000   88.50590   89.22730  164.58200   70.43700    0.24850    0.19550    7.91210    0.00870    2.38430
 2500.50000   91.68310   93.17840  175.36190   67.47780    0.24640    0.21610    7.91060    0.00630    2.34770
 2501.00000   93.03440   93.56830  171.61060   67.98430    0.25230    0.22800    7.91080    0.00430    2.31990
 2501.50000   92.88860   92.43400  167.57900   69.48010    0.25970    0.23470    7.91110    0.00420    2.30660
 2502.00000   91.65360   91.05260  163.38520   70.55470    0.26110    0.23360    7.90810    0.00530    2.31000
 2502.50000   89.12800   89.20670  160.56400   69.64330    0.23500    0.22520    7.90760    0.00660    2.32750
 2503.00000   86.57200   87.20350  158.14160   67.21260    0.21970    0.20570    7.94790    0.00830    2.36280
 2503.50000   83.81960   85.25690  155.67590   64.32610    0.21400    0.18310    7.96560    0.01070    2.40140
 2504.00000   81.90930   83.37370  153.06810   64.28120    0.20840    0.16750    7.98330    0.01010    2.42570
 2504.50000   80.86940   81.67210  151.29210   69.29530    0.20480    0.15580    7.98990    0.00950    2.44280
 2505.00000   79.86160   80.14320  150.49370   75.78760    0.20480    0.14650    7.99200    0.00850    2.46060
 2505.50000   78.38430   79.52070  149.69410   83.43550    0.20590    0.13290    7.99410    0.00760    2.48410
 2506.00000   77.13200   80.62170  150.44560   90.97710    0.21170    0.12120    7.99620    0.00670    2.50300
 2506.50000   78.52310   80.80000  150.38450   96.91140    0.23360    0.11670    7.99830    0.00510    2.51190
 2507.00000   80.31840   80.34450  148.10750  101.41430    0.26200    0.11610    8.00030    0.00320    2.51250
 2507.50000   79.34960   78.46640  148.04580   97.34070    0.28790    0.11130    8.00240    0.00130    2.51610
 2508.00000   75.40880   81.00790  147.60640   83.14110    0.28270    0.09050    7.98330    0.00560    2.54510
 2508.50000   68.52590   76.70600  133.32640   64.17940    0.17940    0.05210    7.95940    0.01440    2.60460
 2509.00000   62.27980   66.51640  121.71130   48.25270    0.12090    0.01210    7.93550    0.02220    2.69030
 2509.50000   57.16650   59.02360  109.35240   39.94270    0.10460   -0.01920    7.91160    0.02360    2.75080
 2510.00000   54.10750   54.79270  107.85530   35.60630    0.10870   -0.03570    7.91100    0.01940    2.76530
 2510.50000   54.20280   54.63980  110.75540   33.75880    0.11540   -0.03530    7.91410    0.01450    2.76910
 2511.00000   55.46300   55.59000  111.23240   33.73370    0.12310   -0.02190    7.90880    0.01240    2.74750
 2511.50000   55.80340   56.54010  112.80660   34.58850    0.13370   -0.00280    7.90940    0.01120    2.70750
 2512.00000   56.93050   57.84880  124.56680   39.36440    0.12960    0.01160    7.91330    0.01220    2.68450
 2512.50000   61.51140   62.95580  141.96750   45.81600    0.12690    0.02590    7.91440    0.01850    2.66270
 2513.00000   67.97700   68.52500  153.83850   58.07570    0.14240    0.04390    7.90650    0.01960    2.63560
 2513.50000   74.53160   73.44260  156.26550   67.29690    0.17260    0.08580    7.90250    0.01990    2.55260
 2514.00000   78.68930   78.47680  155.47110   71.78320    0.18560    0.12810    7.90490    0.02190    2.49770
 2514.50000   82.09830   83.31230  156.32220   70.18520    0.19020    0.15220    7.90610    0.02380    2.45290
 2515.00000   84.62220   86.42210  159.08830   67.39780    0.18780    0.16190    7.90810    0.02170    2.43040
 2515.50000   85.82230   86.31610  158.33820   64.65060    0.19100    0.17020    7.91390    0.01950    2.41760
 2516.00000   85.16000   85.12040  157.34300   63.45930    0.19700    0.17510    7.91420    0.01660    2.41150
 2516.50000   83.89500   83.92470  157.25200   65.33770    0.20040    0.17480    7.91130    0.01350    2.41050
 2517.00000   82.91760   83.85960  156.58760   68.71850    0.20250    0.16780    7.90980    0.01310    2.42180
 2517.50000   82.62260   84.81320  158.09370   73.51330    0.20470    0.16010    7.91200    0.01460    2.43480
 2518.00000   83.05070   84.43110  158.58440   75.62020    0.20620    0.15220    7.91420    0.01730    2.44620
 2518.50000   83.36740   84.06560  157.62090   76.16560    0.20580    0.15640    7.91720    0.01950    2.44520
 2519.00000   83.35070   83.46190  156.65000   76.68410    0.19860    0.16130    7.92310    0.02090    2.43580
 2519.50000   83.25310   82.74630  157.17900   77.07930    0.19220    0.16210    7.91870    0.02450    2.43570
 2520.00000   82.96390   83.60120  156.53840   76.02190    0.19680    0.15910    7.90600    0.02650    2.43810
