~Version ---------------------------------------------------
VERS.   2.0 : CWLS log ASCII Standard -VERSION 2.0
WRAP.    NO : One line per depth step
DLM . SPACE : Column Data Section Delimiter
~Well ------------------------------------------------------
STRT .F                    2.0 : START DEPTH
STOP .F                 2794.0 : STOP DEPTH
STEP .F                    0.5 : STEP
NULL .                -9999.25 : NULL VALUE
COMP .                         : COMPANY
WELL .                         : WELL
FLD  .                         : FIELD
LOC  .                         : LOCATION
PROV .                         : PROVINCE
CNTY .                         : COUNTY
STAT .                         : STATE
CTRY .                         : COUNTRY
SRVC .                         : SERVICE COMPANY
DATE .                         : DATE
UWI  .                         : UNIQUE WELL ID
API  .                         : API NUMBER
SLAT .WGS84 1.8354767251648987 : SURFACE LATITUDE
SLON .WGS84  7.600270196392003 : SURFACE LONGITUDE
DATUM.F                2641.76 : DEPTH DATUM ELEV
~Curve Information -----------------------------------------
DEPT   .F     : 1 MEASURED DEPTH
DT     .US/F  : DELTA-T (INTERVAL TRANSIT TIME)
DTCO   .US/F  : DELTA-T COMPRESSIONAL
DTSM   .US/F  : DELTA-T SHEAR
GRD    .GAPI  : GAMMA RAY FROM DENSITY LOG
NPHI_LS.DEC   : NEUTRON POROSITY LIMESTONE
DPHI_LS.DEC   : DENSITY POROSITY LIMESTONE
CALD   .IN    : CALIPER FROM DENSITY LOG
DRHO   .G/C3  : BULK DENSITY CORRECTION
RHOB   .G/C3  : BULK DENSITY
~Params ----------------------------------------------------
~Other -----------------------------------------------------
~ASCII -----------------------------------------------------
# ...
 1097.00000   71.37870   70.54900  130.78150   19.82580    0.30090    0.15360    8.89350    0.01970    2.44550
 1097.50000   70.74330   69.42210  130.43090   17.92470    0.30650    0.14220    8.87520    0.03500    2.46530
 1098.00000   70.72680   69.88310  130.79880   17.24500    0.32190    0.13810    8.84420    0.05060    2.47650
 1098.50000   70.62680   69.97020  131.88790   16.90140    0.31610    0.14300    8.81830    0.05530    2.46580
 1099.00000   69.70710   69.61940  132.86990   17.33090    0.29840    0.14200    8.82180    0.06050    2.46620
 1099.50000   69.09960   70.25300  134.02700   17.44090    0.28760    0.13410    8.83120    0.07080    2.47670
 1100.00000   69.75240   70.30040  135.88560   16.84100    0.28510    0.12870    8.83620    0.07490    2.48750
 1100.50000   70.85140   71.82620  138.46570   16.39210    0.31010    0.12380    8.84010    0.07450    2.49730
 1101.00000   72.07570   74.09790  141.04570   17.30380    0.32860    0.11730    8.84240    0.07250    2.50670
 1101.50000   73.44460   76.11950  143.40540   19.95670    0.33990    0.12360    8.83160    0.06470    2.50330
 1102.00000   74.19370   76.86170  145.28710   22.98280    0.33720    0.13430    8.82070    0.04770    2.48430
 1102.50000   74.31460   74.77250  144.68640   24.73940    0.32570    0.14620    8.82260    0.02660    2.45970
 1103.00000   74.36570   74.61990  145.94140   24.24970    0.33420    0.16040    8.84170    0.01580    2.44060
 1103.50000   74.83030   75.79460  148.15590   22.61330    0.35120    0.17570    8.86220    0.01120    2.41310
 1104.00000   76.05830   75.11000  148.46910   21.54940    0.36460    0.19110    8.88580    0.00840    2.38280
 1104.50000   78.21260   74.93070  147.17460   20.55610    0.37900    0.20680    8.90950    0.00460    2.35480
 1105.00000   79.89180   76.86610  147.21890   19.56020    0.40100    0.21490    8.90900    0.00230    2.34150
 1105.50000   80.13620   78.73210  147.91560   18.62210    0.42220    0.22070    8.90430    0.00160    2.33170
 1106.00000   79.48910   78.27340  147.55930   18.45420    0.40120    0.22900    8.90660    0.00130    2.31690
 1106.50000   78.47660   78.80680  147.14490   18.36950    0.36750    0.23760    8.91110    0.00130    2.30250
 1107.00000   77.12310   79.81770  146.75950   18.19730    0.33800    0.23600    8.91250    0.00120    2.30570
 1107.50000   76.01490   78.08930  147.04270   17.94290    0.31740    0.21520    8.91170    0.00320    2.33250
 1108.00000   74.49030   76.20400  149.81110   18.23920    0.32270    0.18030    8.91080    0.00560    2.39020
 1108.50000   71.49930   73.97030  148.91610   18.86450    0.33030    0.13690    8.91330    0.00770    2.46170
 1109.00000   69.37840   71.52750  144.44590   19.25980    0.32290    0.12340    8.91900    0.00780    2.49590
 1109.50000   68.50650   69.12410  138.71710   19.30550    0.30840    0.12210    8.94440    0.00620    2.49960
 1110.00000   67.60970   66.72520  133.33410   19.52180    0.29660    0.12070    8.99750    0.00390    2.50470
 1110.50000   66.55410   64.66680  128.96930   19.81660    0.28470    0.11080    9.05060    0.00170    2.51690
 1111.00000   64.69770   64.38520  127.54170   20.23100    0.27100    0.09860    9.10380   -0.00050    2.53690
 1111.50000   64.42860   64.38450  127.69320   21.63760    0.26100    0.09130    9.15690   -0.00020    2.55520
 1112.00000   66.07800   64.63730  127.56960   24.79440    0.24970    0.08860    9.21240    0.00010    2.55840
 1112.50000   68.77250   66.29030  130.24470   30.28250    0.23380    0.08990    9.29070    0.00020    2.55700
 1113.00000   72.19820   69.69740  135.66290   38.98250    0.21760    0.09220    9.35430    0.00020    2.55480
 1113.50000   77.37930   73.34990  141.55040   50.41790    0.21810    0.09610    9.50270    0.00020    2.54770
 1114.00000   81.91900   78.49740  150.74950   60.34780    0.24330    0.11760    9.65110    0.00140    2.51520
 1114.50000   90.16850   86.25970  163.64400   67.28130    0.27230    0.15960    9.85380    0.00350    2.44650
 1115.00000   94.52400   91.69660  162.60730   71.50470    0.30350    0.18970   10.02580    0.01820    2.38480
 1115.50000   98.06570   96.63540  160.76070   73.75810    0.33460    0.21060   10.16300    0.03760    2.34540
 1116.00000   99.12490  100.20380  160.30470   75.25930    0.35230    0.22480   10.29350    0.05240    2.32410
 1116.50000  102.05420  103.05720  160.18200   74.43420    0.36880    0.23250   10.41920    0.06130    2.31080
 1117.00000  105.27480  104.20810  160.15270   71.09400    0.38120    0.23790   10.43940    0.05970    2.30230
 1117.50000  107.16380  105.39850  160.19220   66.24300    0.37800    0.24340   10.41330    0.05070    2.29380
 1118.00000  107.13830  104.57870  160.23170   61.87590    0.35660    0.24890   10.40130    0.03820    2.28270
 1118.50000  105.90750   99.54580  160.27120   59.55220    0.33460    0.25220   10.39040    0.02370    2.27660
 1119.00000  104.29980   96.83140  160.31070   59.63140    0.31780    0.25550   10.38930    0.02180    2.27200
 1119.50000  102.73840   95.57400  160.35020   58.87210    0.32420    0.26010   10.38640    0.02300    2.26250
 1120.00000  101.57010   94.51090  160.47020   55.38320    0.33990    0.27130   10.34710    0.03050    2.24130
 1120.50000  100.42670   93.67280  160.61100   50.99330    0.35720    0.28630   10.30680    0.03750    2.20780
 1121.00000  101.21500   94.88430  161.68850   46.43280    0.38690    0.30350   10.29220    0.04360    2.16780
 1121.50000  103.24680   98.16650  163.95080   42.47260    0.40830    0.33020   10.61210    0.04610    2.13560
 1122.00000  104.04470  100.46220  165.80470   38.68940    0.38670    0.33510   11.12500    0.04860    2.16550
 1122.50000   99.13360   98.92010  166.50330   35.84750    0.31960    0.27530   10.84480    0.05110    2.24220
 1123.00000   95.41110   94.99330  164.05980   35.03110    0.25400    0.23280   10.18860    0.05190    2.32280
 1123.50000   93.25210   92.92370  163.42270   38.75350    0.24990    0.23700   10.00720    0.05150    2.27460
 1124.00000   92.78640   92.36020  162.38100   44.62380    0.29600    0.26390   11.12380    0.04010    2.15850
 1124.50000  111.08600   94.37850  163.48110   49.45940    0.35770    0.41620   12.51480    0.02330    2.04580
 1125.00000  119.88080  101.63180  164.79170   49.99740    0.36830    0.47650   13.37380    0.01490    1.90640
 1125.50000  126.46530  112.88560  165.73480   49.70460    0.37070    0.52320   14.26830    0.00830    1.79750
 1126.00000  128.19810  116.67880  166.16060   48.21380    0.37420    0.57150   14.46490    0.00590    1.70930
 1126.50000  126.86410  119.71040  166.18960   47.01440    0.41020    0.61360   14.39160    0.00800    1.65520
 1127.00000  126.76500  120.92750  166.22250   46.73930    0.41590    0.61890   15.22910    0.02030    1.65560
 1127.50000  126.58200  120.96560  166.25550   46.48130    0.42150    0.60280   15.59000    0.03710    1.68210
 1128.00000  125.55560  119.63730  166.28850   43.77900    0.45150    0.61380   15.45430    0.05000    1.66780
 1128.50000  127.36670  114.93140  166.26700   40.57690    0.47110    0.63650   16.14160    0.05730    1.61750
 1129.00000  130.83040  110.66110  165.61980   38.30620    0.48930    0.66260   16.81150    0.06100    1.57610
 1129.50000  135.51420  111.32810  165.45800   38.19110    0.51030    0.66190   17.23280    0.05670    1.57410
 1130.00000  139.21690  111.90480  166.50660   40.16770    0.50870    0.65760   15.81220    0.04740    1.59280
 1130.50000  135.40860  107.24150  166.15260   42.57360    0.45620    0.63370   13.93260    0.03820    1.62330
 1131.00000  124.54290  101.70610  162.90510   44.37360    0.37370    0.58270   11.99450    0.02400    1.70610
 1131.50000  115.61070   95.75340  159.73190   45.75720    0.31820    0.48530   10.73710    0.01660    1.89440
 1132.00000  104.34600   90.84260  159.53930   45.38980    0.22270    0.40210   10.28030    0.01740    2.03160
 1132.50000   96.24040   90.08430  157.14520   39.63720    0.12440    0.34240   10.13450    0.01930    2.14720
 1133.00000   85.46740   90.19430  152.25130   33.51850    0.08110    0.31460   10.07960    0.02160    2.17060
