~Version ---------------------------------------------------
VERS.   2.0 : CWLS log ASCII Standard -VERSION 2.0
WRAP.    NO : One line per depth step
DLM . SPACE : Column Data Section Delimiter
~Well ------------------------------------------------------
STRT .F                 6050.0 : START DEPTH
STOP .F                 8351.0 : STOP DEPTH
STEP .F                    0.5 : STEP
NULL .                -9999.25 : NULL VALUE
COMP .                         : COMPANY
WELL .                         : WELL
FLD  .                         : FIELD
LOC  .                         : LOCATION
PROV .                         : PROVINCE
CNTY .                         : COUNTY
STAT .                         : STATE
CTRY .                         : COUNTRY
SRVC .                         : SERVICE COMPANY
DATE .                         : DATE
UWI  .                         : UNIQUE WELL ID
API  .                         : API NUMBER
SLAT .WGS84 0.7035093380450093 : SURFACE LATITUDE
SLON .WGS84  6.682146689405002 : SURFACE LONGITUDE
DATUM.F                2501.58 : DEPTH DATUM ELEV
~Curve Information -----------------------------------------
DEPT.F     : 
DTCO.US/F  : COMPRESSIONAL-WAVE INTERVAL TRANSIT TIME ACOUSTIC SLOWNESS
DTSM.US/F  : SHEAR-WAVE INTERVAL TRANSIT TIME DELTA-T
GRN .GAPI  : GAMMA RAY
NPHI.DEC   : NEUTRON POROSITY LIMESTONE
~Params ----------------------------------------------------
~Other -----------------------------------------------------
~ASCII -----------------------------------------------------
# ...
 6193.00000   69.38010  127.21280  110.52080    0.10040
 6193.50000   67.22570  125.75730  111.71240    0.10450
 6194.00000   69.52460  131.86650  114.66800    0.11430
 6194.50000   71.48650  133.83670  117.39200    0.12090
 6195.00000   72.25450  135.46640  118.97720    0.12790
 6195.50000   73.25580  137.09610  119.99220    0.13630
 6196.00000   74.25710  138.72590  118.89320    0.14240
 6196.50000   75.73220  139.14110  117.09010    0.14350
 6197.00000   77.20960  138.94890  116.85920    0.13960
 6197.50000   78.06420  138.43030  116.71720    0.13170
 6198.00000   77.46240  137.76180  116.56720    0.12120
 6198.50000   75.94280  136.29760  116.45870    0.11180
 6199.00000   74.39320  134.83340  116.75110    0.10700
 6199.50000   73.32800  133.36930  118.15070    0.10610
 6200.00000   73.18960  133.93290  119.18440    0.10860
 6200.50000   74.31660  134.79840  120.14530    0.11220
 6201.00000   74.33580  135.66390  120.29850    0.11370
 6201.50000   74.54630  137.41620  120.74010    0.11460
 6202.00000   75.72240  140.40120  121.46170    0.11980
 6202.50000   77.41960  139.64290  122.42340    0.13390
 6203.00000   79.20760  138.83080  122.54820    0.14710
 6203.50000   79.62890  137.34630  121.77190    0.14240
 6204.00000   79.23050  135.59260  119.96700    0.13140
 6204.50000   78.67800  133.75420  118.13900    0.11670
 6205.00000   77.38110  132.24670  118.25210    0.10480
 6205.50000   75.97830  132.11720  120.23200    0.10340
 6206.00000   74.57550  131.90930  123.96350    0.10710
 6206.50000   73.33880  131.70150  127.40430    0.11020
 6207.00000   72.49480  131.49370  127.61170    0.10850
 6207.50000   71.98600  131.17350  124.84150    0.10540
 6208.00000   71.73790  132.87590  121.48630    0.10610
 6208.50000   72.07890  134.88920  119.30680    0.11340
 6209.00000   73.06140  136.90250  119.56140    0.12820
 6209.50000   74.18080  137.19560  120.74050    0.14040
 6210.00000   74.92710  137.12680  121.69710    0.14390
 6210.50000   75.29590  137.76620  122.25010    0.13870
 6211.00000   75.08770  138.40570  123.64970    0.13500
 6211.50000   74.91560  138.59580  125.25010    0.13840
 6212.00000   75.71710  138.59580  126.09720    0.14420
 6212.50000   76.19860  138.59580  124.11820    0.14640
 6213.00000   76.11520  138.59580  119.29980    0.14700
 6213.50000   76.42810  137.58980  115.70250    0.14590
 6214.00000   76.84370  135.18560  114.44360    0.14380
 6214.50000   76.46820  135.45840  115.77050    0.13790
 6215.00000   75.35610  135.97790  117.91390    0.13000
 6215.50000   74.32340  136.49750  120.36730    0.12420
 6216.00000   73.94050  137.50280  121.92990    0.12110
 6216.50000   74.14100  138.99700  122.31220    0.12100
 6217.00000   74.65760  138.77350  121.21070    0.12460
 6217.50000   75.34940  138.45380  120.33790    0.12970
 6218.00000   75.93620  138.39520  119.92510    0.13110
 6218.50000   76.30530  135.28990  118.56950    0.12690
 6219.00000   76.34820  132.17250  116.89710    0.11510
 6219.50000   75.39960  129.05330  115.87530    0.10590
 6220.00000   74.16580  130.56000  116.47410    0.10570
 6220.50000   72.88870  133.07120  117.35930    0.11090
 6221.00000   72.06920  134.78430  117.97760    0.11780
 6221.50000   71.21200  134.01990  116.36010    0.12510
 6222.00000   71.52020  133.26420  114.32620    0.13060
 6222.50000   72.61180  134.51750  113.91910    0.13310
 6223.00000   74.19190  136.02430  114.89920    0.12940
 6223.50000   76.45200  137.53100  114.29310    0.12430
 6224.00000   78.84500  138.99700  111.52270    0.12350
 6224.50000   81.00260  141.13140  111.88130    0.13340
 6225.00000   81.73520  140.60180  115.79560    0.14580
 6225.50000   80.06000  136.04180  120.40080    0.15110
 6226.00000   78.21790  133.01640  124.33330    0.14290
 6226.50000   76.74020  131.63090  125.38630    0.13050
 6227.00000   75.01240  130.57170  124.28490    0.11800
 6227.50000   73.43030  128.94680  118.45730    0.10550
 6228.00000   72.94890  128.04950  112.17750    0.09300
 6228.50000   72.98420  127.81860  105.91020    0.08940
 6229.00000   73.40420  127.69780  100.70670    0.09820
 6229.50000   73.73120  127.58230  101.59720    0.12170
 6230.00000   73.63150  127.56270  105.13410    0.14110
 6230.50000   73.55070  127.76330  107.58750    0.14070
 6231.00000   72.52200  125.30320  108.06780    0.11540
 6231.50000   70.60580  123.05180  106.22950    0.10110
 6232.00000   69.43440  122.74820  104.10420    0.09180
 6232.50000   70.14060  127.40220  103.77400    0.09280
 6233.00000   71.50450  128.96690  106.58950    0.09860
 6233.50000   72.03770  127.85150  111.64010    0.10440
 6234.00000   71.90220  126.81240  117.02960    0.10820
 6234.50000   71.68510  125.79620  117.34720    0.10260
 6235.00000   71.80540  124.27750  111.39630    0.09260
 6235.50000   71.56550  122.75870  104.36920    0.08460
 6236.00000   70.67050  121.73080   99.79450    0.08340
 6236.50000   70.21960  120.74640   97.76020    0.08300
 6237.00000   70.96450  121.46030   98.70730    0.08460
 6237.50000   71.56470  122.24670  101.32740    0.08810
 6238.00000   71.13610  123.02610  103.95840    0.09130
 6238.50000   70.96290  123.80540  106.26500    0.09310
 6239.00000   71.39370  124.33100  105.67840    0.09110
 6239.50000   71.36430  124.25680  103.53660    0.08660
 6240.00000   70.69060  124.18250  101.83320    0.08380
 6240.50000   69.94050  123.68910  101.89270    0.08480
 6241.00000   69.64150  122.90970  102.38020    0.08890
 6241.50000   70.37190  122.55340  102.86630    0.09340
 6242.00000   71.53270  123.35010  103.95570    0.09260
 6242.50000   72.43170  123.35350  105.26950    0.08640
 6243.00000   72.40570  123.35110  106.18280    0.08540
 6243.50000   71.91950  123.34940  106.22250    0.09090
 6244.00000   70.93480  123.28800  104.58920    0.09410
 6244.50000   70.01850  123.04820  100.56080    0.09330
 6245.00000   70.23580  122.80840   97.48470    0.09180
 6245.50000   72.00280  123.79600   97.19950    0.09250
 6246.00000   73.62530  125.19480  100.38370    0.09380
 6246.50000   74.62350  126.59360  104.79530    0.10140
 6247.00000   74.45340  127.99240  109.23360    0.10990
 6247.50000   73.73720  129.39130  113.33140    0.11530
 6248.00000   73.17930  129.41930  113.06240    0.10940
 6248.50000   72.88870  128.94430  111.04620    0.10120
 6249.00000   73.08800  128.72210  110.73320    0.09850
 6249.50000   73.84190  129.47070  112.56510    0.09960
 6250.00000   75.07280  129.81330  115.93580    0.10180
 6250.50000   75.79810  130.09570  117.52130    0.10950
 6251.00000   75.89960  131.39220  115.98930    0.12050
 6251.50000   75.66340  132.67120  113.51590    0.13150
 6252.00000   74.99500  131.63810  112.62320    0.13550
 6252.50000   73.70540  128.92990  114.87180    0.12660
 6253.00000   72.82160  126.21840  115.83710    0.11650
 6253.50000   71.40180  123.50490  113.53860    0.10640
 6254.00000   70.07790  122.14650  109.99410    0.09780
 6254.50000   69.51860  122.48140  108.63510    0.09620
 6255.00000   71.35270  123.55070  111.93130    0.10740
 6255.50000   74.19160  127.73470  118.05060    0.12630
 6256.00000   76.68450  132.08860  122.03980    0.14100
 6256.50000   77.82350  134.58380  121.99800    0.15030
 6257.00000   76.68000  133.98190  116.19850    0.15070
 6257.50000   74.22470  128.64850  110.90290    0.13040
 6258.00000   72.64850  124.76500  105.62290    0.11520
 6258.50000   72.70080  125.45100  100.36750    0.10000
 6259.00000   71.66030  124.23810   97.15710    0.08970
 6259.50000   69.37530  121.49380   97.39620    0.08510
 6260.00000   68.55570  120.47280   99.33320    0.08390
 6260.50000   69.39820  119.88480  100.31650    0.08410
 6261.00000   71.07530  119.33800   99.29050    0.08380
 6261.50000   71.80910  119.33800   97.43600    0.08180
 6262.00000   71.29490  119.33800   97.53340    0.08060
 6262.50000   70.36110  119.33800   98.23180    0.08180
 6263.00000   69.63890  119.33800   98.92330    0.08380
 6263.50000   68.53940  120.14040   99.07410    0.08400
 6264.00000   67.83350  116.61080   99.43210    0.08340
