~Version ---------------------------------------------------
VERS.   2.0 : CWLS log ASCII Standard -VERSION 2.0
WRAP.    NO : One line per depth step
DLM . SPACE : Column Data Section Delimiter
~Well ------------------------------------------------------
STRT .F                 6050.0 : START DEPTH
STOP .F                 8351.0 : STOP DEPTH
STEP .F                    0.5 : STEP
NULL .                -9999.25 : NULL VALUE
COMP .                         : COMPANY
WELL .                         : WELL
FLD  .                         : FIELD
LOC  .                         : LOCATION
PROV .                         : PROVINCE
CNTY .                         : COUNTY
STAT .                         : STATE
CTRY .                         : COUNTRY
SRVC .                         : SERVICE COMPANY
DATE .                         : DATE
UWI  .                         : UNIQUE WELL ID
API  .                         : API NUMBER
SLAT .WGS84 0.7035093380450093 : SURFACE LATITUDE
SLON .WGS84  6.682146689405002 : SURFACE LONGITUDE
DATUM.F                2501.58 : DEPTH DATUM ELEV
~Curve Information -----------------------------------------
DEPT.F     : 
DTCO.US/F  : COMPRESSIONAL-WAVE INTERVAL TRANSIT TIME ACOUSTIC SLOWNESS
DTSM.US/F  : SHEAR-WAVE INTERVAL TRANSIT TIME DELTA-T
GRN .GAPI  : GAMMA RAY
NPHI.DEC   : NEUTRON POROSITY LIMESTONE
~Params ----------------------------------------------------
~Other -----------------------------------------------------
~ASCII -----------------------------------------------------
# ...
 6765.00000   72.10630   79.06560  121.77530    0.13260
 6765.50000   72.10630   76.93680  119.00380    0.13320
 6766.00000   72.10630   75.50070  118.44630    0.12880
 6766.50000   72.10630   75.21780  121.36250    0.12290
 6767.00000   72.10630   75.30460  124.32270    0.12170
 6767.50000   72.10640   76.51450  125.83980    0.12910
 6768.00000   72.10630   77.81340  125.04820    0.13520
 6768.50000   72.10630   76.90110  121.61970    0.14130
 6769.00000   72.06600   81.06080  117.81490    0.14750
 6769.50000   67.90330   91.74300  113.87470    0.15360
 6770.00000   62.64090   97.67300  113.41860    0.15830
 6770.50000   59.58880   94.86460  116.05950    0.15250
 6771.00000   62.84650   97.83070  118.83430    0.14250
 6771.50000   67.32800  108.44580  119.25370    0.13380
 6772.00000   76.53760  119.06100  117.85370    0.13300
 6772.50000   86.40920  129.36810  115.88610    0.14150
 6773.00000   90.94280  131.43830  113.99000    0.15520
 6773.50000   85.51660  126.03480  113.72220    0.16800
 6774.00000   78.41860  114.53230  117.02970    0.17630
 6774.50000   72.28690  106.48950  120.27900    0.16580
 6775.00000   76.55970  110.48290  123.15190    0.15320
 6775.50000   82.86780  121.94580  122.69820    0.14360
 6776.00000   86.91070  125.61860  121.53740    0.13950
 6776.50000   86.18130  126.76030  121.68070    0.14130
 6777.00000   80.64230  117.46260  121.55570    0.14560
 6777.50000   74.18020  109.03740  120.27600    0.14850
 6778.00000   71.41150  105.59050  118.10200    0.14640
 6778.50000   77.03210  111.29390  116.69310    0.14300
 6779.00000   88.39310  124.69490  115.54800    0.14020
 6779.50000   96.66000  134.64900  115.35380    0.13990
 6780.00000  100.03010  136.38540  115.72960    0.14120
 6780.50000   97.17030  135.53380  117.37940    0.14950
 6781.00000   90.07260  134.97950  118.74400    0.15870
 6781.50000   85.60440  137.59780  117.86900    0.16350
 6782.00000   81.13620  140.19060  116.93160    0.16580
 6782.50000   79.44830  142.25480  115.98010    0.16830
 6783.00000   80.64590  143.08450  115.60150    0.17150
 6783.50000   81.91570  144.46390  116.29200    0.16800
 6784.00000   81.91050  145.41620  118.63240    0.15770
 6784.50000   81.44390  144.33630  121.49500    0.14860
 6785.00000   80.82050  142.92880  123.49380    0.14700
 6785.50000   80.08140  141.40420  122.37880    0.14670
 6786.00000   78.76570  139.60360  120.46590    0.14280
 6786.50000   76.90870  137.11530  118.51920    0.13680
 6787.00000   75.95790  134.61130  117.63290    0.13030
 6787.50000   75.79070  134.19420  117.27840    0.13030
 6788.00000   75.23360  133.61620  116.93330    0.13630
 6788.50000   74.93300  132.82270  116.59730    0.14150
 6789.00000   75.53830  133.21160  116.29410    0.14000
 6789.50000   76.01810  133.16920  114.63250    0.13940
 6790.00000   76.14440  132.60320  111.05210    0.14160
 6790.50000   76.63110  132.17030  107.53320    0.15150
 6791.00000   77.35850  132.17650  106.23200    0.16130
 6791.50000   77.46720  133.39820  112.20030    0.16590
 6792.00000   77.05160  135.81810  117.47640    0.15710
 6792.50000   76.98900  138.22850  119.41430    0.14670
 6793.00000   78.12080  140.62660  117.45270    0.14170
 6793.50000   78.66600  146.01930  112.90320    0.14050
 6794.00000   78.06160  144.78410  109.69030    0.14000
 6794.50000   77.33650  142.80840  108.02050    0.13930
 6795.00000   77.76300  143.18960  108.58760    0.13480
 6795.50000   77.70040  143.61080  110.65080    0.12960
 6796.00000   77.52730  142.42230  114.01870    0.12660
 6796.50000   74.09890  137.19200  117.03800    0.12710
 6797.00000   66.31240  113.92180  116.51260    0.12780
 6797.50000   59.35570   93.35760  113.68360    0.12810
 6798.00000   57.42720   80.42130  113.08830    0.12760
 6798.50000   57.40580   82.50780  113.07710    0.12840
 6799.00000   57.42230   85.23570  113.09790    0.13070
 6799.50000   57.44870   92.05620  113.39290    0.13430
 6800.00000   59.26990  108.18230  115.66570    0.13760
 6800.50000   63.65720  121.49320  118.59020    0.13870
 6801.00000   69.27780  133.06760  119.85040    0.14190
 6801.50000   72.28690  141.59080  119.06880    0.15150
 6802.00000   73.30990  145.81740  117.38540    0.15800
 6802.50000   72.34580  140.57000  116.74330    0.15470
 6803.00000   70.79200  134.27310  116.75110    0.14610
 6803.50000   70.48140  130.64790  114.91320    0.13260
 6804.00000   71.38410  132.40120  111.11810    0.12060
 6804.50000   73.32740  136.54160  107.62230    0.11620
 6805.00000   73.95690  138.47540  108.19280    0.12350
 6805.50000   74.30410  138.99700  113.29310    0.13940
 6806.00000   74.92520  141.30740  116.81150    0.15190
 6806.50000   75.24890  142.09030  118.91850    0.16110
 6807.00000   74.91380  141.05520  119.50600    0.16310
 6807.50000   75.61380  141.82990  118.11830    0.16000
 6808.00000   77.05860  144.01520  116.48960    0.15230
 6808.50000   77.70350  144.21260  116.97220    0.14350
 6809.00000   75.88060  139.77130  117.99190    0.13460
 6809.50000   74.94550  137.59280  117.42520    0.12990
 6810.00000   74.99860  137.59280  115.36960    0.13250
 6810.50000   75.53280  137.50650  112.15420    0.13670
 6811.00000   75.59680  136.98900  110.59040    0.13680
 6811.50000   75.59680  136.27420  111.91900    0.13250
 6812.00000   75.39580  134.89400  114.05500    0.12750
 6812.50000   74.81440  133.51390  116.21080    0.12380
 6813.00000   74.70880  132.64430  117.05850    0.12310
 6813.50000   74.94170  132.85130  115.48090    0.12210
 6814.00000   74.98320  133.05840  111.87080    0.12080
 6814.50000   74.89080  132.81460  110.53930    0.11940
 6815.00000   74.81650  131.93480  113.19850    0.12100
 6815.50000   75.01410  131.05500  115.65740    0.12670
 6816.00000   75.35610  130.17510  114.16610    0.13120
 6816.50000   75.13230  129.92860  111.52220    0.13350
 6817.00000   74.87820  130.17050  109.21900    0.13190
 6817.50000   74.27510  129.96590  110.02890    0.12900
 6818.00000   73.91070  129.75890  111.74350    0.12610
 6818.50000   73.36090  129.56870  115.32530    0.12410
 6819.00000   72.32070  131.01250  117.59540    0.12280
 6819.50000   71.92580  132.63910  117.59230    0.12080
 6820.00000   73.24730  134.18260  117.27460    0.11890
 6820.50000   73.59670  134.63370  116.95350    0.11690
 6821.00000   74.37270  134.30510  116.92110    0.11910
 6821.50000   75.25380  131.42990  117.41710    0.12370
 6822.00000   75.52930  129.81540  117.81710    0.12650
 6822.50000   74.27210  129.54360  117.13950    0.12510
 6823.00000   73.51530  130.83750  116.47290    0.11980
 6823.50000   72.88500  131.50870  116.76450    0.11690
 6824.00000   73.23100  131.73880  118.46580    0.11900
 6824.50000   74.29530  133.16830  120.07160    0.12370
 6825.00000   75.65700  135.28590  119.63310    0.12840
 6825.50000   76.01540  137.40120  117.63780    0.13150
 6826.00000   76.36040  139.04010  116.54430    0.13270
 6826.50000   76.51060  140.67900  115.60710    0.13390
 6827.00000   75.63990  140.10330  115.10210    0.13290
 6827.50000   74.28610  138.98190  115.65390    0.13110
 6828.00000   73.70350  138.81820  118.57580    0.12900
 6828.50000   74.23450  140.31340  121.98760    0.12920
 6829.00000   74.84570  140.84650  122.88360    0.13370
 6829.50000   74.68710  139.81140  120.87340    0.13870
 6830.00000   74.42030  140.44130  118.57720    0.14160
 6830.50000   74.78560  142.51150  116.65120    0.14350
 6831.00000   75.35610  144.58180  116.39530    0.13900
 6831.50000   75.10880  146.00570  116.84020    0.13010
 6832.00000   74.06920  145.26430  115.97930    0.12140
 6832.50000   72.57300  143.68820  112.75210    0.11820
 6833.00000   71.16090  142.05380  110.43110    0.12680
 6833.50000   70.84250  140.80240  112.01140    0.13630
 6834.00000   72.68570  142.50950  116.38480    0.13870
 6834.50000   76.05030  148.38720  118.09730    0.13480
 6835.00000   78.78640  149.42830  115.82720    0.13160
 6835.50000   77.22050  144.05600  113.09510    0.12970
 6836.00000   75.76350  137.09770  113.36050    0.12790
