~Version ---------------------------------------------------
VERS.   2.0 : CWLS log ASCII Standard -VERSION 2.0
WRAP.    NO : One line per depth step
DLM . SPACE : Column Data Section Delimiter
~Well ------------------------------------------------------
STRT .F                 6050.0 : START DEPTH
STOP .F                 8351.0 : STOP DEPTH
STEP .F                    0.5 : STEP
NULL .                -9999.25 : NULL VALUE
COMP .                         : COMPANY
WELL .                         : WELL
FLD  .                         : FIELD
LOC  .                         : LOCATION
PROV .                         : PROVINCE
CNTY .                         : COUNTY
STAT .                         : STATE
CTRY .                         : COUNTRY
SRVC .                         : SERVICE COMPANY
DATE .                         : DATE
UWI  .                         : UNIQUE WELL ID
API  .                         : API NUMBER
SLAT .WGS84 0.7035093380450093 : SURFACE LATITUDE
SLON .WGS84  6.682146689405002 : SURFACE LONGITUDE
DATUM.F                2501.58 : DEPTH DATUM ELEV
~Curve Information -----------------------------------------
DEPT.F     : 
DTCO.US/F  : COMPRESSIONAL-WAVE INTERVAL TRANSIT TIME ACOUSTIC SLOWNESS
DTSM.US/F  : SHEAR-WAVE INTERVAL TRANSIT TIME DELTA-T
GRN .GAPI  : GAMMA RAY
NPHI.DEC   : NEUTRON POROSITY LIMESTONE
~Params ----------------------------------------------------
~Other -----------------------------------------------------
~ASCII -----------------------------------------------------
# ...
 7694.50000   73.49050  145.38570  123.81980    0.16960
 7695.00000   75.70510  141.01300  122.01490    0.15980
 7695.50000   77.71270  131.24690  120.96860    0.14780
 7696.00000   78.72620  121.74520  122.28920    0.13930
 7696.50000   78.60580  118.84550  124.05320    0.13350
 7697.00000   77.40220  116.02230  124.81310    0.13450
 7697.50000   76.80040  113.19900  125.40510    0.13550
 7698.00000   77.02550  111.91570  125.11610    0.13530
 7698.50000   77.10130  111.91570  122.80460    0.13750
 7699.00000   76.86060  112.49350  119.70350    0.14070
 7699.50000   76.14240  117.23490  117.76720    0.14230
 7700.00000   75.10130  123.14950  118.26720    0.14050
 7700.50000   74.24530  122.22920  119.78140    0.13870
 7701.00000   73.77720  120.93280  119.69700    0.13970
 7701.50000   74.06700  121.84030  118.30640    0.14110
 7702.00000   75.33350  129.73590  117.87680    0.14190
 7702.50000   76.51890  138.37850  117.54580    0.14270
 7703.00000   77.18570  144.15650  117.23410    0.14430
 7703.50000   77.66920  146.01810  117.28660    0.14870
 7704.00000   77.06370  144.90500  118.46130    0.15370
 7704.50000   75.45460  141.79640  119.69060    0.15470
 7705.00000   74.21870  138.97340  119.39800    0.15200
 7705.50000   73.82550  137.39720  118.75660    0.15190
 7706.00000   73.02100  135.68820  118.83780    0.15700
 7706.50000   72.02430  132.99040  119.82260    0.16410
 7707.00000   72.11500  133.75730  121.97380    0.16490
 7707.50000   74.14390  135.81410  121.83440    0.15910
 7708.00000   75.78590  138.21430  120.36810    0.15510
 7708.50000   77.50850  140.12900  117.91920    0.15910
 7709.00000   79.69410  142.20660  115.98370    0.17690
 7709.50000   82.08210  146.09690  116.63000    0.19030
 7710.00000   84.08230  150.42630  118.10950    0.18940
 7710.50000   82.95330  150.45190  119.30440    0.18720
 7711.00000   81.83030  147.65630  118.23760    0.19940
 7711.50000   81.44540  146.01060  116.16810    0.21150
 7712.00000   82.12760  146.57990  115.63110    0.21420
 7712.50000   83.94990  149.84920  117.21260    0.19520
 7713.00000   86.30890  153.12310  119.18720    0.18760
 7713.50000   87.64010  155.79570  121.18260    0.18880
 7714.00000   88.57470  158.05850  121.51410    0.19560
 7714.50000   88.89670  159.25780  121.43770    0.18670
 7715.00000   86.54970  155.64690  117.79730    0.15880
 7715.50000   82.68920  150.06220  110.50890    0.12880
 7716.00000   78.77470  142.40350  102.43340    0.10430
 7716.50000   76.13840  135.98840   98.80320    0.09300
 7717.00000   74.99500  134.12160  100.43860    0.09180
 7717.50000   74.58340  132.54030  104.17460    0.10180
 7718.00000   74.21360  131.69180  106.51220    0.10860
 7718.50000   73.84380  130.43710  108.16650    0.11060
 7719.00000   73.47410  126.93070  107.67420    0.10690
 7719.50000   73.07120  123.42430  104.85140    0.09850
 7720.00000   72.51630  119.91780  101.00920    0.08600
 7720.50000   71.98600  116.73020   96.97890    0.07280
 7721.00000   70.90850  116.81480   94.16650    0.06170
 7721.50000   69.77370  116.90910   92.14710    0.05730
 7722.00000   69.29780  119.21190   90.59570    0.05580
 7722.50000   69.34850  121.51550   91.56310    0.05810
 7723.00000   69.76170  122.65620   95.95000    0.07180
 7723.50000   70.43210  123.06880  101.53990    0.09170
 7724.00000   71.56190  124.01610  106.84320    0.11030
 7724.50000   72.52760  126.09030  108.75580    0.11540
 7725.00000   72.36710  127.82060  109.08580    0.11080
 7725.50000   72.22670  128.10400  109.82520    0.11120
 7726.00000   72.99850  129.51150  111.65940    0.12000
 7726.50000   74.56110  131.12720  114.48660    0.13060
 7727.00000   76.12370  132.00160  117.39450    0.13870
 7727.50000   77.40220  132.62310  119.48650    0.14630
 7728.00000   78.21540  133.23850  119.79970    0.15070
 7728.50000   78.90670  133.57650  118.06460    0.15100
 7729.00000   79.02710  132.41150  115.47240    0.14650
 7729.50000   77.15150  129.89980  114.37260    0.13720
 7730.00000   74.19040  121.29160  113.11250    0.12210
 7730.50000   71.07830  112.51750  107.22490    0.10510
 7731.00000   68.40040  110.78430   98.49380    0.08070
 7731.50000   67.28470  109.90970   90.44790    0.06150
 7732.00000   67.29190  110.91270   88.60850    0.05630
 7732.50000   69.03710  116.54700   93.51730    0.07960
 7733.00000   71.82220  122.49310   99.98010    0.10250
 7733.50000   74.45310  128.56570  106.51140    0.11250
 7734.00000   76.55970  130.82140  111.96470    0.12280
 7734.50000   75.83170  132.57770  112.49600    0.13320
 7735.00000   74.32940  131.62040  111.66250    0.14070
 7735.50000   72.94890  126.76650  110.80930    0.12990
 7736.00000   71.75570  121.55910  108.89450    0.11140
 7736.50000   70.89890  117.93380  104.50300    0.09120
 7737.00000   70.42130  118.63810   99.83570    0.07940
 7737.50000   71.70010  119.27630   99.70280    0.07860
 7738.00000   73.75090  119.77010  106.11320    0.08680
 7738.50000   76.08350  124.66060  112.93170    0.10230
 7739.00000   77.33970  129.26070  113.06390    0.11680
 7739.50000   77.31350  133.83740  111.03010    0.13130
 7740.00000   76.50230  134.98500  108.97970    0.14400
 7740.50000   75.95790  134.53190  106.98850    0.14870
 7741.00000   74.45780  132.07140  104.24420    0.13650
 7741.50000   72.71170  128.59710  101.11400    0.11470
 7742.00000   71.24260  125.12280   98.04980    0.09300
 7742.50000   70.00000  121.61630   95.42250    0.07750
 7743.00000   70.48140  120.73210   96.84220    0.07130
 7743.50000   72.84470  122.99290  100.16260    0.06990
 7744.00000   75.65700  125.72850  103.48430    0.07500
 7744.50000   74.74790  127.56270  106.70520    0.08830
 7745.00000   73.37010  127.08120  109.19480    0.10790
 7745.50000   72.46440  124.62480  108.52710    0.12560
 7746.00000   73.01090  121.58260  103.16610    0.11680
 7746.50000   75.05810  118.54040   96.98660    0.10080
 7747.00000   77.61890  119.39260   94.17900    0.08940
 7747.50000   78.97590  120.84620  101.70600    0.09820
 7748.00000   79.02710  122.34150  107.76450    0.11310
 7748.50000   76.64150  122.35950  107.99000    0.12100
 7749.00000   73.00710  122.34700  105.03810    0.11480
 7749.50000   70.16030  120.37900  101.12190    0.09320
 7750.00000   68.65560  117.34740   97.22890    0.07720
 7750.50000   68.18610  114.14010   93.19140    0.06810
 7751.00000   68.00460  113.13260   92.74340    0.06670
 7751.50000   67.40980  113.10460   95.62570    0.07040
 7752.00000   66.21330  114.27680   99.72430    0.07570
 7752.50000   65.74300  115.72720  103.02890    0.08060
 7753.00000   66.61270  118.25300  102.62130    0.08110
 7753.50000   68.92040  121.14210  100.93900    0.08360
 7754.00000   71.04960  124.17800  102.51570    0.09370
 7754.50000   72.29410  127.94930  107.79740    0.10630
 7755.00000   73.17750  131.56840  113.30820    0.11890
 7755.50000   73.46230  130.92380  116.26650    0.12160
 7756.00000   73.12900  130.27410  116.89880    0.12080
 7756.50000   72.79560  130.62610  117.46690    0.12170
 7757.00000   72.92720  132.61020  118.52820    0.12540
 7757.50000   74.16750  134.59420  118.28880    0.12940
 7758.00000   75.61830  136.57830  117.33800    0.13430
 7758.50000   76.72950  138.56230  114.16980    0.13920
 7759.00000   77.24690  138.52200  111.61990    0.14430
 7759.50000   77.61040  138.21080  110.83090    0.14470
 7760.00000   78.08020  137.89970  110.84370    0.14520
 7760.50000   77.78150  137.59280  110.82490    0.14550
 7761.00000   76.87300  135.58190  109.94850    0.14050
 7761.50000   76.08910  133.59780  108.54250    0.13160
 7762.00000   75.71710  131.61380  108.43810    0.12070
 7762.50000   75.84950  129.62980  108.09930    0.10990
 7763.00000   75.79590  128.85020  106.81200    0.10410
 7763.50000   74.38390  129.32160  105.54440    0.10180
 7764.00000   72.57800  129.76930  104.07740    0.09750
 7764.50000   70.65830  125.82310  101.40750    0.09070
 7765.00000   68.49320  122.00000   97.51790    0.08220
 7765.50000   67.10580  119.06260   92.64880    0.07550
