~Version ---------------------------------------------------
VERS.   2.0 : CWLS log ASCII Standard -VERSION 2.0
WRAP.    NO : One line per depth step
DLM . SPACE : Column Data Section Delimiter
~Well ------------------------------------------------------
STRT .F                 6050.0 : START DEPTH
STOP .F                 8351.0 : STOP DEPTH
STEP .F                    0.5 : STEP
NULL .                -9999.25 : NULL VALUE
COMP .                         : COMPANY
WELL .                         : WELL
FLD  .                         : FIELD
LOC  .                         : LOCATION
PROV .                         : PROVINCE
CNTY .                         : COUNTY
STAT .                         : STATE
CTRY .                         : COUNTRY
SRVC .                         : SERVICE COMPANY
DATE .                         : DATE
UWI  .                         : UNIQUE WELL ID
API  .                         : API NUMBER
SLAT .WGS84 0.7035093380450093 : SURFACE LATITUDE
SLON .WGS84  6.682146689405002 : SURFACE LONGITUDE
DATUM.F                2501.58 : DEPTH DATUM ELEV
~Curve Information -----------------------------------------
DEPT.F     : 
DTCO.US/F  : COMPRESSIONAL-WAVE INTERVAL TRANSIT TIME ACOUSTIC SLOWNESS
DTSM.US/F  : SHEAR-WAVE INTERVAL TRANSIT TIME DELTA-T
GRN .GAPI  : GAMMA RAY
NPHI.DEC   : NEUTRON POROSITY LIMESTONE
~Params ----------------------------------------------------
~Other -----------------------------------------------------
~ASCII -----------------------------------------------------
# ...
 6622.00000   80.17050  144.05170  124.52390    0.15170
 6622.50000   80.05770  142.73280  124.20540    0.14900
 6623.00000   78.95490  141.41390  121.63630    0.14470
 6623.50000   78.41200  140.09500  119.49320    0.15030
 6624.00000   78.30490  138.77620  120.22040    0.15990
 6624.50000   77.55270  137.33940  122.46120    0.16520
 6625.00000   76.33690  135.55810  122.60420    0.15740
 6625.50000   74.87060  133.77680  120.87850    0.14460
 6626.00000   74.22940  131.43710  119.51290    0.13270
 6626.50000   73.15120  128.64360  120.33970    0.12990
 6627.00000   71.54360  125.85130  121.90320    0.13170
 6627.50000   72.09280  123.91120  122.10890    0.13510
 6628.00000   73.11550  122.96910  121.42240    0.13700
 6628.50000   73.97190  121.58520  120.75780    0.13830
 6629.00000   74.03210  119.34290  121.60190    0.13800
 6629.50000   74.73680  117.10060  124.78250    0.13420
 6630.00000   75.71710  114.85830  127.27190    0.12820
 6630.50000   74.77830  111.26020  128.18290    0.12620
 6631.00000   73.24970  106.99980  127.35590    0.13580
 6631.50000   74.36380  106.66800  125.63610    0.14900
 6632.00000   76.25880  107.09330  123.94280    0.16690
 6632.50000   74.80690  105.01510  122.19650    0.18520
 6633.00000   72.94890  103.49050  121.25790    0.19200
 6633.50000   73.76130  104.60580  120.31760    0.18720
 6634.00000   74.72620  105.64490  118.30550    0.17800
 6634.50000   75.10070  106.10580  116.27790    0.17490
 6635.00000   75.05590  105.89420  115.11410    0.17050
 6635.50000   74.77100  105.66330  115.66780    0.15750
 6636.00000   73.74570  103.80400  117.56050    0.14190
 6636.50000   71.48850  100.31680  120.84910    0.13620
 6637.00000   69.28280   96.79380  121.37880    0.13700
 6637.50000   66.39870   93.25100  120.21410    0.13980
 6638.00000   63.44030   87.30600  119.04970    0.14350
 6638.50000   59.22350   81.36450  120.40880    0.15260
 6639.00000   56.03120   78.76360  121.82620    0.16120
 6639.50000   55.55050   78.30180  122.83570    0.16680
 6640.00000   55.59510   78.41160  124.03930    0.16750
 6640.50000   55.65890   78.62500  125.22210    0.16000
 6641.00000   55.43630   77.56460  126.00130    0.15290
 6641.50000   54.41130   76.27620  124.92700    0.14790
 6642.00000   57.42530   75.17130  121.71610    0.15160
 6642.50000   63.01910   73.20850  117.77020    0.15870
 6643.00000   67.29190   72.05270  115.31360    0.16260
 6643.50000   63.64460   72.19660  115.00700    0.16230
 6644.00000   57.54260   76.95750  115.29750    0.15900
 6644.50000   57.84350   80.73060  114.73920    0.15460
 6645.00000   60.03010   85.81080  115.08810    0.15150
 6645.50000   63.92230   92.25680  116.58180    0.15320
 6646.00000   68.82480   97.83950  118.04640    0.15500
 6646.50000   73.03720  103.55470  118.86990    0.15770
 6647.00000   75.48960  107.81190  118.89800    0.15870
 6647.50000   77.90380  110.91270  118.79000    0.15710
 6648.00000   79.49920  112.16660  118.91630    0.15450
 6648.50000   80.35410  113.52550  119.80360    0.15350
 6649.00000   80.29090  118.49320  121.26760    0.15520
 6649.50000   78.33420  128.58760  122.74030    0.15660
 6650.00000   77.04190  138.68190  122.06640    0.15510
 6650.50000   76.06140  143.81140  121.09300    0.14450
 6651.00000   75.22850  140.11370  120.50590    0.13810
 6651.50000   73.99120  136.79040  120.56440    0.13670
 6652.00000   73.01240  136.85590  120.83860    0.14540
 6652.50000   72.76830  137.19160  120.30530    0.15150
 6653.00000   73.42400  141.48480  119.79120    0.15220
 6653.50000   73.97300  145.41620  119.27010    0.15370
 6654.00000   73.58410  145.37290  117.59450    0.15960
 6654.50000   73.42820  145.30870  115.18320    0.16580
 6655.00000   74.50700  145.24450  112.70220    0.16880
 6655.50000   76.64800  147.11850  112.90080    0.16860
 6656.00000   79.45110  150.57320  116.14530    0.16560
 6656.50000   81.67500  152.63790  123.26330    0.16070
 6657.00000   82.33700  152.43730  125.84860    0.15590
 6657.50000   81.61480  150.89870  125.70650    0.15530
 6658.00000   79.19020  146.52400  124.57470    0.15470
 6658.50000   76.49950  141.76220  122.69660    0.15350
 6659.00000   75.59680  138.60450  121.82970    0.15350
 6659.50000   75.75210  138.52420  120.39900    0.15560
 6660.00000   75.76830  138.47020  119.13670    0.15780
 6660.50000   75.61360  138.41610  118.35830    0.15860
 6661.00000   75.95190  136.62720  119.58800    0.15500
 6661.50000   76.95290  131.74950  121.97440    0.14970
 6662.00000   77.34200  125.70040  124.31840    0.14570
 6662.50000   77.46240  121.12990  125.95310    0.14390
 6663.00000   77.70310  121.24920  127.08810    0.14710
 6663.50000   78.65640  124.78580  128.11910    0.14970
 6664.00000   79.19260  129.16390  127.65050    0.14950
 6664.50000   77.78040  133.54250  126.96310    0.14030
 6665.00000   76.27240  137.92110  126.84690    0.13340
 6665.50000   75.64740  143.37440  127.61020    0.12990
 6666.00000   75.35380  150.12140  127.98340    0.13080
 6666.50000   75.47700  153.24130  126.01530    0.13340
 6667.00000   75.89850  150.48340  123.10120    0.13720
 6667.50000   76.01810  147.40220  120.21950    0.14270
 6668.00000   75.89770  142.57940  118.20920    0.14750
 6668.50000   75.41490  137.16390  118.21930    0.15030
 6669.00000   74.96210  129.79090  120.11550    0.14800
 6669.50000   75.15870  121.10020  121.26940    0.14420
 6670.00000   76.01810  112.85840  120.85790    0.14370
 6670.50000   76.55970  108.69780  118.61450    0.14500
 6671.00000   75.75400  109.26180  114.42020    0.14630
 6671.50000   74.78660  120.21090  110.25320    0.13390
 6672.00000   74.01760  130.82050  107.35010    0.12290
 6672.50000   73.43400  134.98500  107.71550    0.12140
 6673.00000   72.79680  132.10780  113.05860    0.12940
 6673.50000   72.30320  126.20380  119.41930    0.14030
 6674.00000   71.80830  118.42730  122.88400    0.14090
 6674.50000   70.31340  110.65080  124.05820    0.13950
 6675.00000   66.03560  102.87430  122.60470    0.13970
 6675.50000   61.88540   99.07720  121.52550    0.14050
 6676.00000   60.53910  115.31970  122.53950    0.14180
 6676.50000   68.72180  132.23270  124.60930    0.14260
 6677.00000   75.17310  139.94390  126.03700    0.14220
 6677.50000   77.34200  138.20180  126.55800    0.14190
 6678.00000   76.31900  138.19460  124.76280    0.14110
 6678.50000   77.89420  144.20180  121.75140    0.14140
 6679.00000   78.85410  151.28870  118.67010    0.14370
 6679.50000   77.48990  151.43770  118.19610    0.14700
 6680.00000   75.48080  149.03480  120.17360    0.14610
 6680.50000   74.93200  144.68950  121.76620    0.14020
 6681.00000   75.65700  140.34000  121.50350    0.13540
 6681.50000   74.73740  135.80090  119.96470    0.13530
 6682.00000   73.97190  135.64200  117.27430    0.13760
 6682.50000   72.71710  139.59880  114.20170    0.14100
 6683.00000   71.24780  137.89940  112.48310    0.14390
 6683.50000   70.18050  135.93080  113.59690    0.14410
 6684.00000   70.36110  134.62470  116.38430    0.14140
 6684.50000   71.77850  133.97180  117.86050    0.13930
 6685.00000   72.44330  133.32460  117.29410    0.14190
 6685.50000   74.74950  135.71300  116.08330    0.14900
 6686.00000   78.45760  140.00800  115.90820    0.15600
 6686.50000   81.31880  142.72320  116.42520    0.15660
 6687.00000   82.56090  143.15320  117.85920    0.15270
 6687.50000   82.93880  142.60010  120.21140    0.14780
 6688.00000   82.45740  142.00600  123.42870    0.14290
 6688.50000   80.64160  140.75800  125.26580    0.13960
 6689.00000   79.32050  139.41000  124.88910    0.14020
 6689.50000   78.53360  138.06190  123.37570    0.14070
 6690.00000   77.62130  136.71780  121.07050    0.14070
 6690.50000   77.20740  135.37470  119.10930    0.14070
 6691.00000   76.83430  134.38310  118.73760    0.13890
 6691.50000   76.29790  134.71170  119.69110    0.13720
 6692.00000   75.72710  134.78430  120.56170    0.13540
 6692.50000   75.10330  133.84150  121.13130    0.13430
 6693.00000   75.24050  134.40600  121.35860    0.13520
