~Version ---------------------------------------------------
VERS.   2.0 : CWLS log ASCII Standard -VERSION 2.0
WRAP.    NO : One line per depth step
DLM . SPACE : Column Data Section Delimiter
~Well ------------------------------------------------------
STRT .F                 6050.0 : START DEPTH
STOP .F                 8351.0 : STOP DEPTH
STEP .F                    0.5 : STEP
NULL .                -9999.25 : NULL VALUE
COMP .                         : COMPANY
WELL .                         : WELL
FLD  .                         : FIELD
LOC  .                         : LOCATION
PROV .                         : PROVINCE
CNTY .                         : COUNTY
STAT .                         : STATE
CTRY .                         : COUNTRY
SRVC .                         : SERVICE COMPANY
DATE .                         : DATE
UWI  .                         : UNIQUE WELL ID
API  .                         : API NUMBER
SLAT .WGS84 0.7035093380450093 : SURFACE LATITUDE
SLON .WGS84  6.682146689405002 : SURFACE LONGITUDE
DATUM.F                2501.58 : DEPTH DATUM ELEV
~Curve Information -----------------------------------------
DEPT.F     : 
DTCO.US/F  : COMPRESSIONAL-WAVE INTERVAL TRANSIT TIME ACOUSTIC SLOWNESS
DTSM.US/F  : SHEAR-WAVE INTERVAL TRANSIT TIME DELTA-T
GRN .GAPI  : GAMMA RAY
NPHI.DEC   : NEUTRON POROSITY LIMESTONE
~Params ----------------------------------------------------
~Other -----------------------------------------------------
~ASCII -----------------------------------------------------
 6050.00000   79.14740  138.39520  125.98090    0.14790
 6050.50000   79.14740  138.39520  128.22310    0.15270
 6051.00000   77.72060  137.93950  128.03430    0.15200
 6051.50000   76.44720  137.34250  127.09270    0.14310
 6052.00000   76.48470  136.54210  123.85230    0.13180
 6052.50000   76.96030  135.74170  119.63780    0.12070
 6053.00000   77.80480  134.98500  119.05860    0.11710
 6053.50000   78.60580  135.60510  120.51550    0.12050
 6054.00000   78.54560  136.71600  123.84190    0.12480
 6054.50000   77.09320  138.06170  125.42670    0.12850
 6055.00000   76.41180  139.03710  123.60520    0.13010
 6055.50000   76.16580  138.00800  121.35210    0.13330
 6056.00000   76.42080  137.43930  120.76640    0.13630
 6056.50000   76.68000  137.39220  123.92280    0.13490
 6057.00000   77.65260  138.25880  127.19690    0.13080
 6057.50000   79.80940  142.04430  128.73390    0.13010
 6058.00000   82.87860  147.47040  127.07030    0.13570
 6058.50000   83.36010  150.00200  124.67870    0.14370
 6059.00000   82.59540  149.24110  122.64850    0.14720
 6059.50000   81.92910  148.09760  120.94660    0.14200
 6060.00000   80.03640  145.26330  119.64740    0.12770
 6060.50000   77.04900  139.98920  118.39570    0.10780
 6061.00000   74.06170  135.82400  117.32950    0.09770
 6061.50000   72.10090  133.25410  113.73850    0.09520
 6062.00000   71.86530  132.16780  109.46880    0.10020
 6062.50000   72.52760  131.08160  106.07540    0.10660
 6063.00000   73.05540  129.96990  109.58760    0.11230
 6063.50000   73.55860  131.04250  114.65630    0.11460
 6064.00000   73.93700  132.37710  118.91770    0.11910
 6064.50000   73.53700  132.37710  120.59910    0.12760
 6065.00000   73.16150  132.37710  118.60530    0.13470
 6065.50000   73.37010  132.37710  115.20890    0.13100
 6066.00000   73.74770  132.37710  112.33140    0.12270
 6066.50000   74.03210  132.37710  110.63840    0.11450
 6067.00000   74.13770  132.02720  111.11050    0.11180
 6067.50000   74.37740  131.40960  112.26310    0.11660
 6068.00000   74.55560  131.17140  113.60390    0.12260
 6068.50000   74.65020  131.17350  114.61620    0.12260
 6069.00000   74.86500  131.17350  115.44540    0.11950
 6069.50000   75.11800  130.19580  117.07580    0.11560
 6070.00000   75.45350  129.76930  118.19050    0.11280
 6070.50000   75.89890  131.31440  118.59200    0.11050
 6071.00000   76.43930  133.11540  116.99730    0.11150
 6071.50000   76.61990  134.18260  115.59830    0.11570
 6072.00000   76.49930  134.26980  114.85900    0.11870
 6072.50000   76.26240  134.35560  113.89640    0.12040
 6073.00000   75.89340  134.05740  112.58670    0.12030
 6073.50000   75.52970  133.57710  111.64870    0.11820
 6074.00000   75.00670  133.09690  112.82860    0.11750
 6074.50000   74.17640  132.57770  114.37030    0.12130
 6075.00000   73.30990  132.42340  115.55550    0.12810
 6075.50000   72.38740  132.26510  115.79750    0.13070
 6076.00000   71.59840  132.21430  115.66210    0.13070
 6076.50000   71.38410  132.30010  116.67320    0.13060
 6077.00000   73.77850  132.71620  118.71410    0.13000
 6077.50000   75.89770  136.06070  120.63500    0.12980
 6078.00000   76.91430  139.40520  120.14910    0.13410
 6078.50000   77.82050  140.40120  119.02980    0.13990
 6079.00000   78.27070  140.40120  116.89800    0.14310
 6079.50000   78.30490  139.21590  115.86940    0.13770
 6080.00000   77.65600  137.37790  114.62120    0.13090
 6080.50000   76.61990  135.17270  112.73590    0.12390
 6081.00000   75.83750  132.77830  112.24900    0.12150
 6081.50000   75.41630  133.40290  112.84850    0.12100
 6082.00000   75.56410  134.27120  115.20160    0.12180
 6082.50000   75.69080  135.13950  117.51980    0.12360
 6083.00000   75.81740  136.00780  118.11890    0.12550
 6083.50000   75.83110  136.87610  118.02770    0.12720
 6084.00000   75.43970  137.74440  117.95120    0.12950
 6084.50000   75.05520  138.39520  117.86890    0.13190
 6085.00000   75.05520  138.21180  118.04330    0.13860
 6085.50000   75.05520  137.62370  119.19930    0.14610
 6086.00000   75.15230  137.03570  120.74570    0.15040
 6086.50000   75.88730  137.78840  122.30760    0.14630
 6087.00000   77.52740  140.36110  122.59610    0.13830
 6087.50000   79.02710  142.79870  121.71560    0.13060
 6088.00000   79.56870  142.43930  120.25300    0.12670
 6088.50000   79.68820  143.79270  118.77020    0.12750
 6089.00000   79.77690  144.21260  119.15400    0.13620
 6089.50000   79.59020  142.73400  119.72610    0.14310
 6090.00000   78.73900  140.36710  118.72200    0.14520
 6090.50000   77.64290  138.41630  117.46970    0.14540
 6091.00000   76.45260  136.75400  116.97250    0.14400
 6091.50000   75.35060  135.18560  115.75860    0.13790
 6092.00000   74.46240  134.47620  113.38850    0.13040
 6092.50000   74.20330  132.55770  110.97100    0.12330
 6093.00000   74.11110  128.90000  109.98310    0.11870
 6093.50000   74.15350  122.24000  110.77640    0.11550
 6094.00000   74.34050  113.52060  113.78100    0.11580
 6094.50000   74.98720  111.91570  117.20780    0.12230
 6095.00000   75.90970  113.76130  120.03250    0.13210
 6095.50000   76.59040  120.62490  120.31980    0.13690
 6096.00000   76.68000  129.71510  118.84910    0.13630
 6096.50000   77.05780  136.87540  118.01290    0.13090
 6097.00000   77.35860  137.73240  117.03110    0.12680
 6097.50000   76.68910  135.55520  114.31870    0.12270
 6098.00000   75.55600  133.40390  111.35930    0.11870
 6098.50000   74.30380  132.26590  111.46220    0.11460
 6099.00000   73.18960  131.08980  114.33990    0.11440
 6099.50000   72.22670  129.91370  116.30060    0.11990
 6100.00000   72.52880  130.73580  112.71820    0.12360
 6100.50000   72.53660  131.95760  109.77460    0.12040
 6101.00000   72.32600  131.81030  109.49320    0.11050
 6101.50000   72.49300  131.66110  112.88210    0.10150
 6102.00000   73.27310  131.71330  115.72450    0.10360
 6102.50000   74.15250  132.05620  116.52100    0.11140
 6103.00000   73.54100  132.36800  113.56280    0.11890
 6103.50000   72.04610  132.66260  111.21610    0.12330
 6104.00000   71.35610  132.97890  112.10120    0.12780
 6104.50000   71.53220  134.82440  114.60270    0.13230
 6105.00000   72.91180  136.82540  116.03200    0.13570
 6105.50000   74.28290  138.79140  116.31890    0.13390
 6106.00000   75.23400  138.61410  117.13780    0.13150
 6106.50000   75.94240  138.31950  118.70610    0.13030
 6107.00000   76.13840  138.02490  120.85420    0.13390
 6107.50000   77.02300  138.68600  123.07920    0.13930
 6108.00000   78.51320  140.24400  124.90630    0.14420
 6108.50000   79.75250  143.32740  126.81050    0.14590
 6109.00000   80.11270  145.00330  127.28400    0.14540
 6109.50000   80.11350  145.66610  126.38270    0.14650
 6110.00000   80.34060  146.32900  122.97210    0.14890
 6110.50000   80.53160  145.83830  119.68280    0.15130
 6111.00000   80.40160  145.17290  116.80390    0.15090
 6111.50000   79.93580  144.49730  116.41410    0.14910
 6112.00000   79.26110  143.81140  117.81860    0.14790
 6112.50000   78.60580  141.95590  118.75490    0.14600
 6113.00000   78.02010  139.57150  118.88690    0.14270
 6113.50000   77.21070  137.18710  118.15420    0.13830
 6114.00000   76.82240  135.48870  117.18100    0.13230
 6114.50000   76.54350  134.13540  115.47850    0.12420
 6115.00000   76.01810  132.78690  111.83700    0.11460
 6115.50000   74.38640  131.22060  108.14460    0.10500
 6116.00000   72.70810  129.50800  106.74190    0.09980
 6116.50000   71.22230  127.89850  107.56550    0.10050
 6117.00000   70.95910  129.97790  110.85340    0.10470
 6117.50000   71.79440  134.10230  114.60940    0.10970
 6118.00000   72.89510  136.58490  118.29140    0.11570
 6118.50000   74.62530  137.40660  120.89730    0.12240
 6119.00000   76.09370  137.58050  119.30870    0.12910
 6119.50000   77.12240  136.46330  116.55990    0.13020
 6120.00000   76.73770  134.81150  113.86400    0.12120
 6120.50000   76.07570  133.17390  111.68360    0.11190
 6121.00000   75.57070  131.97590  111.21200    0.10900
