~Version ---------------------------------------------------
VERS.   2.0 : CWLS log ASCII Standard -VERSION 2.0
WRAP.    NO : One line per depth step
DLM . SPACE : Column Data Section Delimiter
~Well ------------------------------------------------------
STRT .F                 6050.0 : START DEPTH
STOP .F                 8351.0 : STOP DEPTH
STEP .F                    0.5 : STEP
NULL .                -9999.25 : NULL VALUE
COMP .                         : COMPANY
WELL .                         : WELL
FLD  .                         : FIELD
LOC  .                         : LOCATION
PROV .                         : PROVINCE
CNTY .                         : COUNTY
STAT .                         : STATE
CTRY .                         : COUNTRY
SRVC .                         : SERVICE COMPANY
DATE .                         : DATE
UWI  .                         : UNIQUE WELL ID
API  .                         : API NUMBER
SLAT .WGS84 0.7035093380450093 : SURFACE LATITUDE
SLON .WGS84  6.682146689405002 : SURFACE LONGITUDE
DATUM.F                2501.58 : DEPTH DATUM ELEV
~Curve Information -----------------------------------------
DEPT.F     : 
DTCO.US/F  : COMPRESSIONAL-WAVE INTERVAL TRANSIT TIME ACOUSTIC SLOWNESS
DTSM.US/F  : SHEAR-WAVE INTERVAL TRANSIT TIME DELTA-T
GRN .GAPI  : GAMMA RAY
NPHI.DEC   : NEUTRON POROSITY LIMESTONE
~Params ----------------------------------------------------
~Other -----------------------------------------------------
~ASCII -----------------------------------------------------
# ...
 7837.50000   73.85150  113.80880   56.77640    0.05360
 7838.00000   72.46740  109.74020   54.21310    0.04000
 7838.50000   70.78230  106.04330   51.50290    0.02880
 7839.00000   69.76340  105.81390   51.27430    0.02770
 7839.50000   68.73620  105.69860   52.78540    0.02860
 7840.00000   68.43530  105.58340   54.27650    0.02870
 7840.50000   68.54700  105.30220   55.32280    0.02850
 7841.00000   68.55910  104.46040   55.17300    0.02720
 7841.50000   68.14170  103.18020   54.83710    0.02690
 7842.00000   66.60440  100.85420   52.88450    0.02690
 7842.50000   64.52360   98.53790   49.44600    0.02490
 7843.00000   62.89070   96.22170   47.01070    0.02060
 7843.50000   60.88640   93.89640   44.76350    0.01650
 7844.00000   58.91190   91.60680   42.51720    0.01450
 7844.50000   57.33320   90.27400   41.23730    0.01320
 7845.00000   56.82050   90.71610   41.70710    0.01380
 7845.50000   56.94080   91.13100   43.09490    0.01440
 7846.00000   56.88060   91.54580   44.28410    0.01500
 7846.50000   56.55690   92.04670   44.66310    0.01560
 7847.00000   56.58450   92.80090   43.74230    0.01480
 7847.50000   57.24770   93.79940   42.43440    0.01380
 7848.00000   58.19830   96.48830   42.21680    0.01400
 7848.50000   60.91920   99.19850   44.25640    0.01750
 7849.00000   63.71430  102.27170   48.91090    0.02330
 7849.50000   66.51310  106.78640   51.62030    0.03010
 7850.00000   68.74010  111.28050   53.66260    0.03280
 7850.50000   70.28900  114.32300   55.99340    0.03350
 7851.00000   70.78910  113.93030   61.34450    0.03740
 7851.50000   70.33150  113.17350   67.25230    0.04610
 7852.00000   69.27820  112.38900   70.43810    0.05130
 7852.50000   68.33400  111.61810   67.38640    0.04680
 7853.00000   67.71310  110.81360   63.33480    0.03990
 7853.50000   67.45920  109.82840   61.80010    0.03670
 7854.00000   67.50340  108.84310   64.14390    0.03720
 7854.50000   67.73770  107.85790   66.48070    0.03750
 7855.00000   68.33900  106.87260   66.42990    0.03630
 7855.50000   69.09730  105.88730   65.80370    0.03370
 7856.00000   68.92880  104.90210   63.44180    0.03090
 7856.50000   67.77390  103.91680   56.87960    0.02650
 7857.00000   65.94280  103.10130   51.35250    0.02280
 7857.50000   64.34000  103.16280   47.48630    0.02320
 7858.00000   63.44030  103.85420   47.62390    0.02610
 7858.50000   62.59780  104.51080   56.83560    0.02980
 7859.00000   62.11220  104.98220   63.18790    0.03210
 7859.50000   62.42440  105.53750   67.93290    0.03070
 7860.00000   63.72440  107.24870   67.47730    0.03020
 7860.50000   65.67420  108.96000   65.24420    0.03200
 7861.00000   67.47480  110.67120   65.16030    0.03820
 7861.50000   68.98420  111.91570   67.08820    0.04280
 7862.00000   70.18050  111.04150   68.10690    0.04290
 7862.50000   70.48140  109.77890   66.41130    0.03680
 7863.00000   69.06840  108.51630   61.54670    0.03100
 7863.50000   67.23170  107.25380   56.83200    0.02680
 7864.00000   66.18400  106.29890   53.85010    0.02680
 7864.50000   66.38980  107.18070   54.67210    0.02720
 7865.00000   67.10650  108.02020   55.58250    0.02720
 7865.50000   68.58570  108.86690   54.76260    0.02570
 7866.00000   70.17450  109.70530   53.27680    0.02570
 7866.50000   70.98610  108.91060   53.49060    0.02890
 7867.00000   71.29560  108.09030   56.44820    0.03400
 7867.50000   71.62490  107.27320   61.52340    0.03790
 7868.00000   70.84250  106.45620   63.65450    0.03690
 7868.50000   69.11200  105.64330   61.32890    0.03270
 7869.00000   67.51820  105.56400   57.04380    0.02840
 7869.50000   66.32900  106.28470   55.16180    0.02670
 7870.00000   66.31270  107.00410   56.87250    0.02710
 7870.50000   66.80350  106.84510   59.50460    0.02940
 7871.00000   67.42430  106.46840   60.48080    0.03180
 7871.50000   68.13660  106.01470   59.25970    0.03210
 7872.00000   68.70450  105.56090   56.88970    0.02890
 7872.50000   69.18910  105.29590   55.62650    0.02610
 7873.00000   68.91670  105.29370   55.24980    0.02520
 7873.50000   67.92780  105.30570   56.35270    0.02660
 7874.00000   67.12320  106.68400   57.57190    0.02800
 7874.50000   66.73650  105.87140   58.40790    0.02970
 7875.00000   67.11130  104.99360   58.39920    0.03240
 7875.50000   67.59280  104.44820   59.01430    0.03440
 7876.00000   66.93080  104.32990   59.65560    0.03290
 7876.50000   66.38920  103.76480   58.93000    0.02950
 7877.00000   66.76290  102.98700   56.17750    0.02630
 7877.50000   66.87060  102.88180   53.96940    0.02560
 7878.00000   66.40660  103.98370   54.40250    0.02710
 7878.50000   65.30590  105.08560   55.61530    0.02860
 7879.00000   64.16010  105.28390   54.58590    0.02930
 7879.50000   63.13160  102.95030   50.84160    0.02950
 7880.00000   62.19460  100.48140   46.81050    0.02610
 7880.50000   61.22480   97.78050   42.98410    0.02150
 7881.00000   59.39380   94.91320   41.15820    0.01700
 7881.50000   57.65430   92.04590   39.66370    0.01290
 7882.00000   57.54260   91.37150   39.80400    0.01230
 7882.50000   58.75740   92.06290   39.99600    0.01290
 7883.00000   59.82630   92.18220   40.13540    0.01360
 7883.50000   60.06890   92.07840   40.27140    0.01390
 7884.00000   60.52150   92.56770   40.40860    0.01340
 7884.50000   61.63940   93.43200   40.78270    0.01300
 7885.00000   62.41250   93.75330   42.28810    0.01250
 7885.50000   62.17180   92.61240   43.82610    0.01270
 7886.00000   62.30010   92.52460   44.14160    0.01420
 7886.50000   64.82380   94.51240   42.84410    0.01590
 7887.00000   67.05110   96.46940   43.82640    0.01790
 7887.50000   67.29190   96.68000   45.82460    0.02020
 7888.00000   67.11130   97.16400   48.37190    0.02300
 7888.50000   67.31710   97.64800   50.84390    0.02620
 7889.00000   65.00500   99.40350   51.82560    0.02880
 7889.50000   57.78340  103.08930   52.08100    0.02990
 7890.00000   54.83450  103.65760   52.60320    0.02960
 7890.50000   56.70840  104.56540   57.20890    0.02900
 7891.00000   59.56400  106.49150   65.41570    0.03050
 7891.50000   62.13100  110.81950   79.99640    0.04010
 7892.00000   65.51990  115.43940   92.29060    0.05640
 7892.50000   68.38520  120.00390  101.94680    0.08940
 7893.00000   70.48190  124.58460  111.65380    0.11750
 7893.50000   73.08510  129.92310  120.54030    0.13800
 7894.00000   75.77430  133.87110  125.51900    0.14000
 7894.50000   77.40220  134.56240  126.92060    0.13270
 7895.00000   77.56470  131.37410  125.29620    0.13470
 7895.50000   77.00700  126.20790  123.33400    0.14120
 7896.00000   75.83440  120.83400  120.85360    0.15010
 7896.50000   74.45340  115.47080  118.21520    0.15940
 7897.00000   73.41420  110.01880  115.79460    0.16880
 7897.50000   73.52960  108.50550  113.49300    0.17820
 7898.00000   74.91420  109.30930  111.09180    0.18330
 7898.50000   76.98090  113.11940  106.70670    0.18440
 7899.00000   78.00800  115.03870  103.08100    0.17280
 7899.50000   78.51700  117.42410  103.92760    0.16000
 7900.00000   78.33910  122.10700  107.82340    0.15100
 7900.50000   77.88900  127.76330  111.82720    0.14230
 7901.00000   77.13170  126.57020  114.53210    0.14320
 7901.50000   76.37910  123.53660  117.23870    0.14870
 7902.00000   76.49230  120.37900  119.76220    0.14950
 7902.50000   77.14850  117.20620  119.69240    0.14950
 7903.00000   78.06870  116.65210  118.34220    0.15420
 7903.50000   78.54560  116.55820  118.32770    0.16390
 7904.00000   77.94380  116.73020  120.24180    0.16690
 7904.50000   76.65180  121.94580  122.91610    0.16160
 7905.00000   76.01810  128.99030  124.80650    0.15820
 7905.50000   75.08670  136.37980  125.05090    0.15880
 7906.00000   74.15250  139.19760  123.89130    0.16710
 7906.50000   73.85150  137.06320  123.16990    0.16820
 7907.00000   75.29590  135.98800  121.33160    0.16770
 7907.50000   75.88780  138.84740  119.41520    0.16850
 7908.00000   75.84390  141.60480  117.50880    0.17440
 7908.50000   75.96900  138.25400  116.01110    0.18530
