~Version ---------------------------------------------------
VERS.   2.0 : CWLS log ASCII Standard -VERSION 2.0
WRAP.    NO : One line per depth step
DLM . SPACE : Column Data Section Delimiter
~Well ------------------------------------------------------
STRT .F                 6050.0 : START DEPTH
STOP .F                 8351.0 : STOP DEPTH
STEP .F                    0.5 : STEP
NULL .                -9999.25 : NULL VALUE
COMP .                         : COMPANY
WELL .                         : WELL
FLD  .                         : FIELD
LOC  .                         : LOCATION
PROV .                         : PROVINCE
CNTY .                         : COUNTY
STAT .                         : STATE
CTRY .                         : COUNTRY
SRVC .                         : SERVICE COMPANY
DATE .                         : DATE
UWI  .                         : UNIQUE WELL ID
API  .                         : API NUMBER
SLAT .WGS84 0.7035093380450093 : SURFACE LATITUDE
SLON .WGS84  6.682146689405002 : SURFACE LONGITUDE
DATUM.F                2501.58 : DEPTH DATUM ELEV
~Curve Information -----------------------------------------
DEPT.F     : 
DTCO.US/F  : COMPRESSIONAL-WAVE INTERVAL TRANSIT TIME ACOUSTIC SLOWNESS
DTSM.US/F  : SHEAR-WAVE INTERVAL TRANSIT TIME DELTA-T
GRN .GAPI  : GAMMA RAY
NPHI.DEC   : NEUTRON POROSITY LIMESTONE
~Params ----------------------------------------------------
~Other -----------------------------------------------------
~ASCII -----------------------------------------------------
# ...
 7265.50000   83.65740  147.15630  122.51270    0.14030
 7266.00000   79.03190  137.71730  126.82850    0.13870
 7266.50000   74.06340  128.47220  130.45990    0.15140
 7267.00000   69.09490  119.22710  131.07170    0.15700
 7267.50000   62.29690  109.98190  128.81640    0.15750
 7268.00000   73.37010  100.73450  125.62310    0.15750
 7268.50000  106.28480   91.49170  122.54620    0.15680
 7269.00000  129.93980   82.24660  120.14400    0.14800
 7269.50000  129.93980   75.81340  117.92000    0.13900
 7270.00000  129.96630   74.01630  118.49540    0.13160
 7270.50000  129.93980   76.74910  119.14750    0.12990
 7271.00000  129.93980   77.73760  119.78950    0.13780
 7271.50000  129.93980   76.28600  119.92390    0.14670
 7272.00000  129.93980   74.82190  119.60870    0.14950
 7272.50000  129.93980   73.40020  119.27810    0.14950
 7273.00000  129.93980   73.92980  119.03520    0.15200
 7273.50000  129.94130   76.00400  121.04080    0.15710
 7274.00000  129.94060   78.07820  124.03790    0.16190
 7274.50000  129.93980   80.03220  127.03780    0.16350
 7275.00000  127.88940   81.26640  127.55920    0.16220
 7275.50000  122.11630   82.52200  125.07040    0.16280
 7276.00000  111.59890   83.22970  123.26050    0.16480
 7276.50000  100.09030   79.79090  122.73840    0.16630
 7277.00000   86.70080   77.21160  123.12410    0.16430
 7277.50000   73.22230   83.39370  122.63800    0.16450
 7278.00000   61.60990   92.78870  121.33260    0.16720
 7278.50000   64.04970  102.18370  120.50980    0.17320
 7279.00000   67.69070  110.06220  121.23970    0.17300
 7279.50000   68.85660  113.32000  121.92700    0.16910
 7280.00000   66.39920  109.95270  122.61420    0.15360
 7280.50000   65.48650  108.70610  123.31170    0.14120
 7281.00000   68.21240  111.90770  123.79000    0.13570
 7281.50000   67.95390  111.71510  124.21530    0.13540
 7282.00000   62.47800  103.17840  124.88540    0.14440
 7282.50000   58.20610   90.65200  125.42510    0.14680
 7283.00000   56.07230   90.05010  125.04100    0.15020
 7283.50000   56.02010   93.11550  122.68060    0.15470
 7284.00000   59.38170   96.12320  121.51830    0.15930
 7284.50000   64.73000  111.70140  121.84600    0.16390
 7285.00000   74.93000  126.15850  123.42620    0.16820
 7285.50000   83.11940  107.72050  124.20410    0.16870
 7286.00000   84.94330   90.46920  123.62220    0.16570
 7286.50000   85.28590   90.06940  121.98850    0.16390
 7287.00000   85.37620   90.06610  119.21830    0.16850
 7287.50000   85.46360   90.10580  118.43920    0.17420
 7288.00000   85.55090   90.13250  120.06230    0.17840
 7288.50000   85.63830   90.15840  123.80750    0.17780
 7289.00000   85.72560   90.18440  125.23990    0.17790
 7289.50000   85.81270   90.21040  123.20270    0.17770
 7290.00000   85.87360   90.23620  122.52780    0.17670
 7290.50000   85.97710   90.21120  123.41760    0.17650
 7291.00000   86.00800   90.12100  125.93990    0.17570
 7291.50000   86.00990   90.03080  128.41220    0.17240
 7292.00000   86.00070   89.94060  129.41100    0.16800
 7292.50000   85.92410   89.84950  127.36710    0.16510
 7293.00000   83.06980   90.06100  123.25140    0.16560
 7293.50000   75.85410   90.76870  120.89360    0.16690
 7294.00000   67.83280   91.47770  122.30110    0.16860
 7294.50000   65.48650   94.42980  124.08160    0.16990
 7295.00000   69.20710   98.16680  123.09270    0.17010
 7295.50000   72.04610  102.15570  120.50160    0.16890
 7296.00000   73.67100  104.83690  118.75870    0.16970
 7296.50000   74.57220  105.66660  120.31220    0.17330
 7297.00000   74.99500  106.49630  123.23830    0.17880
 7297.50000   76.40920  108.86120  125.49530    0.17770
 7298.00000   82.05030  115.00410  126.94540    0.17360
 7298.50000   85.68140  121.14700  127.39540    0.17060
 7299.00000   86.12840  122.04260  127.42640    0.17270
 7299.50000   84.70320  120.70080  126.88130    0.17750
 7300.00000   82.75550  119.32870  125.53460    0.18270
 7300.50000   79.98380  115.43970  123.55880    0.18750
 7301.00000   76.46100  110.51590  124.20610    0.18800
 7301.50000   75.77730  107.50250  125.21380    0.18560
 7302.00000   77.97100  109.35210  126.10200    0.18520
 7302.50000   81.48550  113.66530  126.54640    0.19190
 7303.00000   83.75570  122.34700  125.23390    0.19830
 7303.50000   83.93420  131.87460  124.75140    0.19880
 7304.00000   84.01360  143.99400  125.86780    0.19340
 7304.50000   84.44330  156.09370  127.57430    0.18900
 7305.00000   85.44230  168.13780  128.36850    0.18800
 7305.50000   86.24870  174.11270  126.87410    0.19630
 7306.00000   85.25290  175.81460  122.13020    0.20940
 7306.50000   83.32390  176.10830  119.71760    0.21340
 7307.00000   81.22210  174.23870  120.28060    0.19140
 7307.50000   78.79290  170.92440  122.64640    0.17410
 7308.00000   76.86410  166.93350  123.66450    0.16830
 7308.50000   75.73040  163.62830  123.25550    0.17150
 7309.00000   75.72030  161.66500  123.29410    0.17930
 7309.50000   76.98090  156.79590  123.45020    0.18740
 7310.00000   77.73920  151.85060  122.98300    0.19330
 7310.50000   78.32810  146.90520  120.93960    0.19880
 7311.00000   78.85260  142.82050  117.44440    0.20460
 7311.50000   79.85910  142.40720  114.62690    0.21200
 7312.00000   81.12760  150.73440  114.75400    0.21790
 7312.50000   82.45740  157.86610  117.58390    0.22160
 7313.00000   82.63790  164.99780  121.13610    0.22450
 7313.50000   82.93880  171.03410  124.57830    0.22410
 7314.00000   84.68100  174.67800  126.31260    0.22060
 7314.50000   86.88550  177.39460  128.11070    0.20970
 7315.00000   88.40450  178.31940  128.77480    0.19540
 7315.50000   89.57990  178.12360  128.78720    0.18140
 7316.00000   90.98130  177.52680  128.78810    0.16740
 7316.50000   91.36410  176.15880  128.78700    0.15270
 7317.00000   89.33780  174.70410  128.58090    0.14670
 7317.50000   86.92650  171.28690  127.38940    0.14310
 7318.00000   84.84000  167.84320  123.71030    0.15450
 7318.50000   83.15290  165.87760  119.64740    0.17260
 7319.00000   81.91600  167.41200  116.04060    0.19530
 7319.50000   81.35270  169.95700  117.02600    0.20960
 7320.00000   80.78640  169.91580  119.91200    0.20960
 7320.50000   79.47150  169.18700  121.61030    0.18250
 7321.00000   75.28740  165.46050  117.28950    0.15810
 7321.50000   70.89010  155.48090  111.13310    0.12750
 7322.00000   69.62000  148.25120  105.86010    0.10310
 7322.50000   75.51050  154.27280  101.29980    0.08530
 7323.00000   79.20760  161.66500   97.79280    0.07560
 7323.50000   77.22170  154.21770   96.90940    0.07130
 7324.00000   71.67880  142.94910   99.20930    0.08870
 7324.50000   66.44930  131.68050  104.66970    0.13170
 7325.00000   64.88470  121.34400  110.17700    0.17770
 7325.50000   69.89470  124.86360  113.92290    0.22230
 7326.00000   76.33810  134.10430  113.93780    0.24430
 7326.50000   82.31470  141.79040  113.93490    0.24770
 7327.00000   84.88470  144.01200  113.88460    0.24960
 7327.50000   83.97670  139.79550  113.56070    0.26280
 7328.00000   82.33610  133.78910  113.23050    0.27050
 7328.50000   80.71510  128.16450  112.93260    0.26210
 7329.00000   79.62890  128.76630  111.67400    0.23520
 7329.50000   82.62370  141.00730  110.69640    0.22110
 7330.00000   87.09130  157.85360  111.33850    0.21130
 7330.50000   88.60340  162.47590  113.94430    0.20280
 7331.00000   88.77790  163.69880  119.35530    0.19600
 7331.50000   89.03350  164.46230  122.80540    0.20300
 7332.00000   89.28690  165.27580  124.32860    0.21350
 7332.50000   88.27280  164.62050  124.22890    0.21920
 7333.00000   82.55780  161.86560  122.87450    0.21390
 7333.50000   74.08730  146.72790  121.28680    0.19930
 7334.00000   64.84690  125.55100  121.83270    0.19080
 7334.50000   61.57470  106.81100  124.41920    0.18390
 7335.00000   68.55390   90.53230  126.85510    0.17930
 7335.50000   72.10810   80.73240  128.06610    0.17630
 7336.00000   72.12450   80.79180  128.02180    0.17550
 7336.50000   72.14090   84.10830  127.26260    0.17290
