~Version ---------------------------------------------------
VERS.   2.0 : CWLS log ASCII Standard -VERSION 2.0
WRAP.    NO : One line per depth step
DLM . SPACE : Column Data Section Delimiter
~Well ------------------------------------------------------
STRT .F                 6050.0 : START DEPTH
STOP .F                 8351.0 : STOP DEPTH
STEP .F                    0.5 : STEP
NULL .                -9999.25 : NULL VALUE
COMP .                         : COMPANY
WELL .                         : WELL
FLD  .                         : FIELD
LOC  .                         : LOCATION
PROV .                         : PROVINCE
CNTY .                         : COUNTY
STAT .                         : STATE
CTRY .                         : COUNTRY
SRVC .                         : SERVICE COMPANY
DATE .                         : DATE
UWI  .                         : UNIQUE WELL ID
API  .                         : API NUMBER
SLAT .WGS84 0.7035093380450093 : SURFACE LATITUDE
SLON .WGS84  6.682146689405002 : SURFACE LONGITUDE
DATUM.F                2501.58 : DEPTH DATUM ELEV
~Curve Information -----------------------------------------
DEPT.F     : 
DTCO.US/F  : COMPRESSIONAL-WAVE INTERVAL TRANSIT TIME ACOUSTIC SLOWNESS
DTSM.US/F  : SHEAR-WAVE INTERVAL TRANSIT TIME DELTA-T
GRN .GAPI  : GAMMA RAY
NPHI.DEC   : NEUTRON POROSITY LIMESTONE
~Params ----------------------------------------------------
~Other -----------------------------------------------------
~ASCII -----------------------------------------------------
# ...
 6336.00000   79.15530  144.90670  126.58450    0.15940
 6336.50000   81.07320  145.09970  126.06120    0.16520
 6337.00000   81.45780  145.19420  123.63030    0.16900
 6337.50000   81.37730  145.81470  123.74650    0.16760
 6338.00000   81.17440  146.12950  127.68330    0.15950
 6338.50000   80.51670  144.77440  132.22610    0.14900
 6339.00000   79.73320  143.45250  133.23990    0.14290
 6339.50000   78.52490  142.43510  131.65700    0.13700
 6340.00000   77.20510  141.75190  129.91130    0.12920
 6340.50000   76.10500  141.05920  128.95810    0.12140
 6341.00000   75.56160  140.36640  128.27230    0.12450
 6341.50000   74.99190  139.67370  126.13690    0.13410
 6342.00000   75.11410  139.41920  123.31000    0.14490
 6342.50000   75.70880  140.12770  120.54560    0.14610
 6343.00000   76.07330  140.83580  120.87750    0.13350
 6343.50000   76.36170  141.54660  122.69370    0.12950
 6344.00000   76.30520  142.20690  124.44410    0.13230
 6344.50000   76.06370  142.15120  125.58790    0.13590
 6345.00000   76.41530  142.09930  126.04530    0.13560
 6345.50000   77.65740  142.04730  125.24710    0.13690
 6346.00000   78.51190  141.96060  123.47580    0.14090
 6346.50000   78.96690  141.74160  121.32380    0.14630
 6347.00000   78.32520  140.67980  119.60210    0.14870
 6347.50000   76.57850  138.72510  120.40630    0.14240
 6348.00000   75.59680  139.03710  122.78240    0.13440
 6348.50000   74.28330  140.20060  125.10540    0.13060
 6349.00000   73.18960  140.20060  125.58730    0.13360
 6349.50000   73.06920  140.15640  124.60960    0.13870
 6350.00000   76.36680  141.02420  123.46000    0.14470
 6350.50000   80.19190  151.79230  123.01170    0.15290
 6351.00000   83.29990  155.90370  124.90330    0.16110
 6351.50000   84.20320  158.45540  127.10330    0.16470
 6352.00000   83.65620  158.25480  128.60520    0.15570
 6352.50000   81.43190  152.87970  128.46430    0.13790
 6353.00000   78.36080  147.64670  127.54060    0.12010
 6353.50000   76.25460  142.41370  124.28280    0.11060
 6354.00000   75.71820  139.95520  121.20370    0.13280
 6354.50000   75.61480  139.99900  120.22440    0.16380
 6355.00000   75.89400  140.54790  122.22870    0.17840
 6355.50000   76.49830  141.10820  127.41710    0.17570
 6356.00000   76.18020  141.40420  129.63640    0.16110
 6356.50000   75.76660  141.40420  128.95450    0.14830
 6357.00000   75.65700  141.40260  126.84050    0.14230
 6357.50000   76.01810  141.40620  124.80340    0.14270
 6358.00000   77.41110  141.68280  124.83210    0.15140
 6358.50000   78.72620  143.09760  125.76920    0.15990
 6359.00000   78.84650  144.50240  126.25620    0.16190
 6359.50000   78.42530  145.63250  125.42630    0.16190
 6360.00000   78.80440  146.47940  124.95370    0.16190
 6360.50000   78.72620  146.58980  123.79840    0.15890
 6361.00000   77.14950  144.00200  122.61860    0.15010
 6361.50000   76.01930  141.70170  121.29550    0.14210
 6362.00000   75.57710  140.37080  119.68590    0.13550
 6362.50000   76.01560  140.74220  117.75140    0.13430
 6363.00000   77.16150  141.40420  116.70450    0.13760
 6363.50000   76.92080  141.04610  116.17630    0.13870
 6364.00000   76.05430  140.66270  115.64760    0.13730
 6364.50000   75.45050  140.27940  116.02850    0.13500
 6365.00000   74.95890  139.89470  117.32490    0.13740
 6365.50000   74.93480  139.50970  121.61320    0.14220
 6366.00000   75.46990  139.90670  125.03750    0.14440
 6366.50000   76.01810  140.63760  126.78090    0.14170
 6367.00000   75.91940  141.36600  126.82650    0.13790
 6367.50000   75.44930  142.09440  127.80270    0.13630
 6368.00000   75.51650  142.82280  129.07660    0.13740
 6368.50000   76.96720  143.20960  128.48910    0.13670
 6369.00000   78.16930  142.58660  126.20550    0.13300
 6369.50000   77.86670  141.95540  123.88430    0.13230
 6370.00000   76.50120  140.20370  122.93910    0.13680
 6370.50000   75.29490  138.45200  122.34970    0.14410
 6371.00000   75.17550  137.91460  122.55170    0.14900
 6371.50000   75.77730  138.37520  122.88060    0.15050
 6372.00000   76.67520  139.08490  124.19880    0.15160
 6372.50000   78.01450  140.05640  125.81330    0.15290
 6373.00000   79.20760  141.02680  126.81390    0.15230
 6373.50000   79.80940  141.80540  126.79070    0.14880
 6374.00000   78.37140  140.69210  125.29120    0.14560
 6374.50000   76.92080  139.58300  122.36230    0.14230
 6375.00000   76.68000  138.71040  119.38040    0.14210
 6375.50000   76.92080  138.39320  116.41810    0.14280
 6376.00000   76.40140  138.69980  113.81090    0.14350
 6376.50000   75.55010  139.11490  113.97930    0.14310
 6377.00000   75.21660  139.52980  116.09700    0.14250
 6377.50000   76.60890  139.08120  117.60970    0.14090
 6378.00000   76.92130  138.46020  117.79140    0.13870
 6378.50000   76.37910  137.83910  117.85480    0.13410
 6379.00000   76.37910  137.21800  117.84760    0.13090
 6379.50000   76.68000  136.59700  117.44310    0.12790
 6380.00000   76.52770  135.98800  116.21970    0.12890
 6380.50000   76.31480  135.99100  114.30230    0.13190
 6381.00000   76.10190  135.97720  114.32190    0.13380
 6381.50000   75.89770  134.89580  117.26810    0.13050
 6382.00000   75.43490  133.29060  118.37610    0.12640
 6382.50000   75.35610  132.05330  117.64000    0.12500
 6383.00000   75.64010  132.49690  116.08690    0.12830
 6383.50000   75.12400  132.04860  115.14670    0.13220
 6384.00000   73.49510  131.40170  114.53370    0.13350
 6384.50000   71.92130  130.75480  113.87260    0.13110
 6385.00000   71.78620  129.16970  111.70890    0.12750
 6385.50000   71.62500  127.21450  108.56260    0.12100
 6386.00000   70.72220  125.25930  105.38660    0.11460
 6386.50000   71.68510  123.95190  105.75070    0.10870
 6387.00000   73.43030  125.64830  107.62550    0.10480
 6387.50000   74.36310  127.54600  109.47320    0.10470
 6388.00000   74.80890  129.44510  110.58570    0.10790
 6388.50000   75.02330  131.34810  110.90300    0.12150
 6389.00000   74.54240  132.13540  111.24050    0.12550
 6389.50000   74.06710  131.34600  112.42990    0.12100
 6390.00000   72.73520  130.40320  114.66170    0.11470
 6390.50000   69.51860  130.17050  117.64670    0.11280
 6391.00000   70.06960  132.22680  120.46010    0.11920
 6391.50000   73.84600  135.56380  121.50960    0.13070
 6392.00000   77.25790  138.92620  121.49310    0.13950
 6392.50000   79.86960  140.67430  121.86380    0.14790
 6393.00000   80.88060  142.02790  122.36730    0.15270
 6393.50000   81.35730  143.00900  121.45980    0.15270
 6394.00000   80.95290  142.27040  120.48240    0.14090
 6394.50000   78.76600  139.26860  120.11570    0.12920
 6395.00000   76.68000  136.26680  120.32960    0.11740
 6395.50000   75.28420  133.26500  119.34230    0.10910
 6396.00000   73.84370  130.97290  114.08450    0.10780
 6396.50000   72.52760  131.90630  109.74240    0.14020
 6397.00000   72.22670  134.64630  110.09390    0.16100
 6397.50000   74.72720  137.38630  115.17910    0.16930
 6398.00000   76.70710  140.20060  119.07200    0.16090
 6398.50000   78.06300  140.42440  120.40400    0.15110
 6399.00000   78.66600  140.60180  120.36510    0.14990
 6399.50000   78.78640  139.14090  120.90670    0.15230
 6400.00000   77.81630  137.59280  121.43490    0.15430
 6400.50000   76.08360  134.94530  121.19500    0.14830
 6401.00000   74.00200  132.01430  116.88240    0.13700
 6401.50000   71.39920  129.08330  111.43390    0.11770
 6402.00000   70.39720  126.15240  105.95470    0.10060
 6402.50000   70.24070  124.75060  102.17090    0.09140
 6403.00000   70.81240  125.50490  102.62730    0.08740
 6403.50000   72.04870  126.53600  104.68600    0.08900
 6404.00000   73.19990  129.36450  107.82560    0.09220
 6404.50000   73.58320  132.17650  111.99510    0.10430
 6405.00000   74.20700  132.46100  116.14580    0.11670
 6405.50000   74.99820  132.74390  118.20620    0.12590
 6406.00000   75.38590  132.17120  116.98110    0.13140
 6406.50000   75.24420  131.47980  115.14980    0.12800
 6407.00000   75.05520  130.77230  115.37130    0.12390
