~Version ---------------------------------------------------
VERS.   2.0 : CWLS log ASCII Standard -VERSION 2.0
WRAP.    NO : One line per depth step
DLM . SPACE : Column Data Section Delimiter
~Well ------------------------------------------------------
STRT .F                 6050.0 : START DEPTH
STOP .F                 8351.0 : STOP DEPTH
STEP .F                    0.5 : STEP
NULL .                -9999.25 : NULL VALUE
COMP .                         : COMPANY
WELL .                         : WELL
FLD  .                         : FIELD
LOC  .                         : LOCATION
PROV .                         : PROVINCE
CNTY .                         : COUNTY
STAT .                         : STATE
CTRY .                         : COUNTRY
SRVC .                         : SERVICE COMPANY
DATE .                         : DATE
UWI  .                         : UNIQUE WELL ID
API  .                         : API NUMBER
SLAT .WGS84 0.7035093380450093 : SURFACE LATITUDE
SLON .WGS84  6.682146689405002 : SURFACE LONGITUDE
DATUM.F                2501.58 : DEPTH DATUM ELEV
~Curve Information -----------------------------------------
DEPT.F     : 
DTCO.US/F  : COMPRESSIONAL-WAVE INTERVAL TRANSIT TIME ACOUSTIC SLOWNESS
DTSM.US/F  : SHEAR-WAVE INTERVAL TRANSIT TIME DELTA-T
GRN .GAPI  : GAMMA RAY
NPHI.DEC   : NEUTRON POROSITY LIMESTONE
~Params ----------------------------------------------------
~Other -----------------------------------------------------
~ASCII -----------------------------------------------------
# ...
 7051.00000   70.21640   78.36350  115.51430    0.14560
 7051.50000   70.62850   80.22070  115.16270    0.14620
 7052.00000   71.62490   83.27550  116.76510    0.14650
 7052.50000   69.21770   93.81860  119.14570    0.14440
 7053.00000   71.07200  111.51450  120.35900    0.13770
 7053.50000   78.40550  153.44030  117.76320    0.12950
 7054.00000   84.47820  161.61150  114.34830    0.12290
 7054.50000   86.09040  163.99310  111.42290    0.12020
 7055.00000   86.07130  164.15290  111.16300    0.11960
 7055.50000   86.09630  164.30260  112.62900    0.11850
 7056.00000   86.22830  164.45240  115.08330    0.11980
 7056.50000   87.09420  166.39420  117.96530    0.12880
 7057.00000   89.23430  170.01000  120.08270    0.14250
 7057.50000   90.57100  172.69810  120.10470    0.15070
 7058.00000   87.75180  169.31920  120.09740    0.15000
 7058.50000   83.75350  161.24810  120.09420    0.14390
 7059.00000   80.62720  153.17700  120.08800    0.14110
 7059.50000   77.24610  147.22170  120.12510    0.14540
 7060.00000   73.85340  140.60180  121.19080    0.15190
 7060.50000   70.44380  134.40320  122.29770    0.15790
 7061.00000   67.03420  128.20460  122.75070    0.15470
 7061.50000   63.67770  122.00600  121.65890    0.14540
 7062.00000   60.60280  115.80740  119.71210    0.13530
 7062.50000   59.16750  109.60880  118.42240    0.12910
 7063.00000   64.40320  103.41020  119.88520    0.13270
 7063.50000   69.79180  100.84250  121.41800    0.14060
 7064.00000   71.08330  111.92530  122.05620    0.14820
 7064.50000   71.08330  127.42610  120.69420    0.15690
 7065.00000   71.08330  138.70290  119.03590    0.16710
 7065.50000   71.08330  139.69610  117.62540    0.17610
 7066.00000   71.08330  129.68690  116.88800    0.17810
 7066.50000   71.08330  105.49730  116.87810    0.17920
 7067.00000   71.08330   88.88670  117.31070    0.18190
 7067.50000   71.08330   86.32650  119.17430    0.18520
 7068.00000   71.08350   86.92910  120.72380    0.18110
 7068.50000   71.08350   87.53180  121.25050    0.17090
 7069.00000   71.08910   88.13440  119.69420    0.15670
 7069.50000   70.74640   88.73700  118.16680    0.14180
 7070.00000   70.07220   89.13740  118.86720    0.12690
 7070.50000   70.00000   89.44730  119.47780    0.11780
 7071.00000   71.90170   89.75730  117.66880    0.11580
 7071.50000   74.87460   90.06720  114.92380    0.12090
 7072.00000   76.70940   90.44220  113.12750    0.12570
 7072.50000   77.52260   90.91180  113.63500    0.13070
 7073.00000   75.82600   91.25380  115.43660    0.13720
 7073.50000   75.86400   93.03510  115.86510    0.14400
 7074.00000   76.07570   94.68810  114.10470    0.14470
 7074.50000   76.07870   96.06820  111.46330    0.13510
 7075.00000   76.07850   95.11530  111.71250    0.12700
 7075.50000   76.07820   90.28450  116.07770    0.12670
 7076.00000   76.07820   82.67710  121.37750    0.13250
 7076.50000   76.07820   76.92080  122.33140    0.13390
 7077.00000   76.07820   76.50950  119.67100    0.12630
 7077.50000   76.07820   79.21770  114.79150    0.12170
 7078.00000   76.07820   78.09430  111.97080    0.12540
 7078.50000   76.07820   78.53060  109.88090    0.13760
 7079.00000   76.07820   82.82850  109.75700    0.14920
 7079.50000   76.07820  109.90970  111.00800    0.15540
 7080.00000   76.07820  140.66450  113.48710    0.15530
 7080.50000   76.07830  159.69410  117.53060    0.15130
 7081.00000   76.07820  162.26680  120.58870    0.14630
 7081.50000   76.07820  151.52460  122.08640    0.14330
 7082.00000   76.02450  142.22670  121.10560    0.14270
 7082.50000   75.75180  134.95990  118.85980    0.13580
 7083.00000   75.13920  126.17850  116.46310    0.13030
 7083.50000   74.34570  117.39720  115.18520    0.12920
 7084.00000   73.85150  113.44350  114.61590    0.13090
 7084.50000   74.24870  113.31360  114.47750    0.13310
 7085.00000   76.14740  116.24780  114.99430    0.13200
 7085.50000   78.69330  119.53090  115.19220    0.12830
 7086.00000   81.01300  122.81250  114.80410    0.12730
 7086.50000   83.42290  126.06920  114.60380    0.12850
 7087.00000   85.33520  128.95780  115.37260    0.13120
 7087.50000   84.41320  126.21180  116.69150    0.13430
 7088.00000   79.50560  118.95460  116.34280    0.13360
 7088.50000   74.80360  109.12320  115.25650    0.12950
 7089.00000   70.94660  105.30930  113.57290    0.12390
 7089.50000   67.96780  101.57850  114.70290    0.11980
 7090.00000   65.60560   99.47450  116.54470    0.12150
 7090.50000   66.14850  100.92300  118.09560    0.12550
 7091.00000   65.96790  102.98400  118.14700    0.12860
 7091.50000   60.20120  107.95530  117.67020    0.12960
 7092.00000   57.54290  114.40630  117.37080    0.13030
 7092.50000   56.72950  126.17080  117.57180    0.13870
 7093.00000   64.77050  140.69910  118.94310    0.14820
 7093.50000   70.57150  147.95860  121.67140    0.15050
 7094.00000   72.02810  148.48430  123.75970    0.14390
 7094.50000   75.08690  151.20750  122.34320    0.13290
 7095.00000   87.36020  159.25780  117.86420    0.12510
 7095.50000   98.21160  167.52260  113.07550    0.12110
 7096.00000  107.35070  170.89270  110.78650    0.12110
 7096.50000  114.50710  171.02930  111.55750    0.12220
 7097.00000  109.45710  171.15850  113.00340    0.12400
 7097.50000   99.96990  171.29390  114.70590    0.12250
 7098.00000   89.57230  167.88370  116.44750    0.11550
 7098.50000   81.67100  156.28380  117.51390    0.10800
 7099.00000   76.25010  141.53350  117.10110    0.10500
 7099.50000   71.19040  126.71480  116.54750    0.10730
 7100.00000   69.75930  115.01410  115.72810    0.10940
 7100.50000   73.77050  112.43120  114.59210    0.10970
 7101.00000   81.85300  133.94370  113.66340    0.11140
 7101.50000   87.21300  150.13860  114.75000    0.11540
 7102.00000   84.81740  158.69010  115.64480    0.12110
 7102.50000   80.66770  163.67100  115.30810    0.13010
 7103.00000   77.52260  163.26980  112.51320    0.14240
 7103.50000   75.65530  157.28380  111.17850    0.15420
 7104.00000   74.57040  151.84760  112.28240    0.15800
 7104.50000   73.54540  145.40770  114.48050    0.15280
 7105.00000   73.42300  146.91280  115.63640    0.14140
 7105.50000   81.40520  153.54950  117.14490    0.13110
 7106.00000   86.52060  162.41360  120.16900    0.12780
 7106.50000   88.95690  164.74980  123.13860    0.13230
 7107.00000   86.43790  158.54650  124.89020    0.13800
 7107.50000   82.51750  147.21240  125.09340    0.14240
 7108.00000   76.29490  135.87820  123.73960    0.14130
 7108.50000   70.07220  124.54410  122.37330    0.13760
 7109.00000   63.84950  113.12860  120.96060    0.13150
 7109.50000   60.02540   98.16670  118.38250    0.12540
 7110.00000   59.46840  102.59910  113.83950    0.12230
 7110.50000   69.73300  111.02510  109.43760    0.12500
 7111.00000   73.63490  117.70430  109.12550    0.13120
 7111.50000   76.43930  122.26760  109.39400    0.13490
 7112.00000   74.07600  124.09680  108.89560    0.11450
 7112.50000   71.42020  117.27210  107.74010    0.08290
 7113.00000   73.58250  117.09510  104.82900    0.05250
 7113.50000   75.21000  118.73620   99.32210    0.04090
 7114.00000   75.23570  118.45130   96.03930    0.05220
 7114.50000   74.31780  118.10570   98.41430    0.07620
 7115.00000   73.65730  118.19630  103.72320    0.10060
 7115.50000   72.96470  119.04090  109.05300    0.11520
 7116.00000   72.30790  119.59570  113.14760    0.11990
 7116.50000   71.67180  118.73640  115.87910    0.12270
 7117.00000   71.14340  117.93380  116.46300    0.13090
 7117.50000   71.32400  117.77760  114.61850    0.13860
 7118.00000   69.41410  115.76230  109.85550    0.13840
 7118.50000   65.14070  111.71510  105.10790    0.12380
 7119.00000   60.31810  110.51150  101.54040    0.10930
 7119.50000   58.20460  118.62360  103.01280    0.10460
 7120.00000   61.69510  125.42600  106.41110    0.11380
 7120.50000   59.80140  126.52480  109.61380    0.12220
 7121.00000   56.82050  117.94950  109.90560    0.12260
 7121.50000   57.36210  109.74310  110.47940    0.11760
 7122.00000   59.14250  112.77010  112.68810    0.11650
