~Version ---------------------------------------------------
VERS.   2.0 : CWLS log ASCII Standard -VERSION 2.0
WRAP.    NO : One line per depth step
DLM . SPACE : Column Data Section Delimiter
~Well ------------------------------------------------------
STRT .F                 6050.0 : START DEPTH
STOP .F                 8351.0 : STOP DEPTH
STEP .F                    0.5 : STEP
NULL .                -9999.25 : NULL VALUE
COMP .                         : COMPANY
WELL .                         : WELL
FLD  .                         : FIELD
LOC  .                         : LOCATION
PROV .                         : PROVINCE
CNTY .                         : COUNTY
STAT .                         : STATE
CTRY .                         : COUNTRY
SRVC .                         : SERVICE COMPANY
DATE .                         : DATE
UWI  .                         : UNIQUE WELL ID
API  .                         : API NUMBER
SLAT .WGS84 0.7035093380450093 : SURFACE LATITUDE
SLON .WGS84  6.682146689405002 : SURFACE LONGITUDE
DATUM.F                2501.58 : DEPTH DATUM ELEV
~Curve Information -----------------------------------------
DEPT.F     : 
DTCO.US/F  : COMPRESSIONAL-WAVE INTERVAL TRANSIT TIME ACOUSTIC SLOWNESS
DTSM.US/F  : SHEAR-WAVE INTERVAL TRANSIT TIME DELTA-T
GRN .GAPI  : GAMMA RAY
NPHI.DEC   : NEUTRON POROSITY LIMESTONE
~Params ----------------------------------------------------
~Other -----------------------------------------------------
~ASCII -----------------------------------------------------
# ...
 7980.50000   78.92480  152.93480  123.50350    0.12260
 7981.00000   79.78050  153.84150  121.09780    0.12430
 7981.50000   80.35110  153.10420  121.07600    0.13090
 7982.00000   80.27430  151.75950  124.54170    0.13810
 7982.50000   80.19680  150.41480  128.79130    0.14350
 7983.00000   80.37510  147.45100  130.80330    0.14020
 7983.50000   81.11530  139.65240  130.32790    0.13540
 7984.00000   81.55470  131.93940  128.53490    0.13230
 7984.50000   81.07950  124.15250  126.14420    0.13280
 7985.00000   79.99790  127.08980  123.71230    0.13840
 7985.50000   78.87830  134.02710  122.85710    0.14360
 7986.00000   77.49250  146.21950  123.72930    0.14390
 7986.50000   76.07820  143.42330  124.32030    0.13790
 7987.00000   75.30190  140.29960  122.79610    0.13200
 7987.50000   75.35610  139.24220  120.02180    0.13070
 7988.00000   75.23570  138.79640  117.92420    0.13820
 7988.50000   74.80160  142.07620  117.84830    0.14560
 7989.00000   75.26830  145.86480  118.66470    0.15120
 7989.50000   76.99190  148.76950  119.48180    0.15220
 7990.00000   78.31380  150.41020  120.41900    0.15320
 7990.50000   79.44830  152.05090  121.95230    0.15550
 7991.00000   79.85760  153.69160  124.19070    0.15750
 7991.50000   80.24570  153.24020  126.83100    0.15590
 7992.00000   80.35110  149.63380  128.48710    0.15260
 7992.50000   79.83950  146.02750  129.35120    0.14890
 7993.00000   79.08730  142.40720  127.55100    0.14410
 7993.50000   78.42530  141.31460  124.04700    0.13830
 7994.00000   77.81750  140.21780  120.82170    0.13180
 7994.50000   77.02130  139.12090  120.93690    0.12270
 7995.00000   76.52960  138.27080  122.74670    0.11340
 7995.50000   76.14220  136.42590  123.68900    0.11060
 7996.00000   76.14290  132.79220  122.99230    0.11370
 7996.50000   76.24220  125.99800  122.06960    0.11870
 7997.00000   76.53400  119.20380  121.49970    0.12290
 7997.50000   76.79480  115.92780  119.51830    0.12500
 7998.00000   76.74180  115.16260  117.35030    0.12500
 7998.50000   76.83270  115.23180  115.63540    0.12500
 7999.00000   77.06520  115.30110  117.03940    0.12700
 7999.50000   77.10130  115.18380  119.16160    0.13020
 8000.00000   76.92520  114.96200  122.46140    0.13250
 8000.50000   76.61260  114.72420  125.78600    0.13640
 8001.00000   76.68000  122.03640  126.99920    0.14110
 8001.50000   77.65260  134.23070  127.69720    0.14550
 8002.00000   79.10650  145.69840  129.44420    0.14220
 8002.50000   81.01300  148.50450  131.05570    0.13650
 8003.00000   80.37840  147.96280  132.04480    0.13120
 8003.50000   79.02710  147.42120  132.92680    0.13070
 8004.00000   79.08730  146.87960  133.99240    0.13150
 8004.50000   79.92910  146.18170  134.29760    0.13570
 8005.00000   79.92980  145.34830  133.27870    0.13940
 8005.50000   79.50110  144.50850  130.91550    0.14070
 8006.00000   79.16280  144.11840  128.63810    0.14070
 8006.50000   79.32820  144.63290  126.83150    0.14070
 8007.00000   79.80950  145.14740  127.44200    0.14290
 8007.50000   79.87270  145.61690  128.86350    0.14640
 8008.00000   79.69200  145.33700  129.94190    0.14850
 8008.50000   79.61200  145.07970  129.16690    0.14650
 8009.00000   79.32800  144.67320  127.91580    0.14100
 8009.50000   78.86270  144.05580  128.22590    0.13550
 8010.00000   78.51670  143.43830  129.04250    0.12990
 8010.50000   78.37590  142.82090  128.74310    0.13120
 8011.00000   78.84650  144.29290  126.80710    0.13360
 8011.50000   80.20820  146.86560  124.60470    0.13800
 8012.00000   81.92950  149.62890  122.20700    0.14440
 8012.50000   82.81850  148.24990  121.21620    0.15200
 8013.00000   81.17600  141.02130  119.59030    0.15270
 8013.50000   78.72110  132.01310  112.65960    0.13060
 8014.00000   75.69170  123.00400   98.57570    0.09280
 8014.50000   72.73140  116.59060   83.04240    0.05470
 8015.00000   70.48140  111.65090   70.22710    0.03390
 8015.50000   69.68950  110.14660   64.60310    0.02750
 8016.00000   69.77490  110.22010   63.94000    0.02970
 8016.50000   70.02890  110.29360   66.02610    0.03390
 8017.00000   69.92950  110.36710   67.88610    0.03590
 8017.50000   69.67500  110.44060   67.98380    0.03670
 8018.00000   69.50720  110.51150   67.51710    0.03800
 8018.50000   69.23330  108.96850   65.82040    0.04010
 8019.00000   68.37510  107.45570   61.47750    0.03790
 8019.50000   67.60080  107.82180   57.10700    0.03280
 8020.00000   67.18960  108.27820   56.32110    0.03040
 8020.50000   66.94140  108.73550   57.85510    0.03170
 8021.00000   67.11860  109.10730   61.06710    0.03580
 8021.50000   68.17950  109.02220   61.74320    0.03660
 8022.00000   69.15750  108.93650   61.51730    0.03360
 8022.50000   68.77630  108.13870   61.12980    0.03010
 8023.00000   68.40850  106.96260   60.15620    0.02960
 8023.50000   68.33060  105.69710   56.91520    0.02900
 8024.00000   68.01600  105.29590   55.02850    0.02850
 8024.50000   67.64190  105.29590   54.90560    0.02920
 8025.00000   67.50390  105.79740   57.59520    0.03240
 8025.50000   67.42760  106.29890   58.80910    0.03600
 8026.00000   67.56800  106.88160   57.59590    0.03670
 8026.50000   66.84410  107.58320   55.69440    0.03480
 8027.00000   66.02810  108.28760   54.54140    0.03290
 8027.50000   66.08830  108.98630   56.12570    0.03450
 8028.00000   67.52760  109.30790   59.08210    0.03640
 8028.50000   68.58700  108.92480   62.23840    0.03650
 8029.00000   68.56720  107.89570   62.89770    0.03370
 8029.50000   66.82010  106.86660   61.32430    0.03090
 8030.00000   64.63790  105.89770   57.68330    0.02780
 8030.50000   62.45580  101.78270   53.97800    0.02320
 8031.00000   60.98700   98.76000   50.28590    0.01860
 8031.50000   60.85260   97.57410   47.32180    0.01570
 8032.00000   61.36710   97.34670   46.64020    0.01530
 8032.50000   63.79420   98.68310   48.87650    0.01720
 8033.00000   67.23200  100.00400   52.15460    0.02340
 8033.50000   68.97690  101.54760   55.36660    0.02920
 8034.00000   67.98760  103.09130   56.45600    0.03130
 8034.50000   66.49270  104.63490   57.04020    0.02880
 8035.00000   66.14850  105.78880   58.40940    0.02720
 8035.50000   66.02810  106.08280   59.86400    0.03140
 8036.00000   66.01730  106.37680   61.13650    0.03780
 8036.50000   66.25280  106.70010   59.65400    0.04010
 8037.00000   67.02950  109.53580   55.96120    0.03570
 8037.50000   67.65300  112.39580   55.83400    0.03530
 8038.00000   67.59280  114.31480   59.69730    0.04290
 8038.50000   66.84010  114.74160   63.85460    0.05330
 8039.00000   66.11270  114.72420   66.26770    0.05540
 8039.50000   66.14220  111.03950   61.58630    0.04010
 8040.00000   66.49390  104.95850   54.57580    0.02950
 8040.50000   66.24060  101.28390   48.78090    0.02570
 8041.00000   65.52810  102.71210   47.91990    0.02760
 8041.50000   65.30590  105.62790   51.38110    0.03060
 8042.00000   65.46530  108.30490   57.10510    0.03360
 8042.50000   65.60680  108.72240   61.36570    0.03570
 8043.00000   65.78000  107.92110   60.95890    0.03270
 8043.50000   65.84750  106.03440   58.71920    0.02680
 8044.00000   65.50800  104.58780   55.55710    0.02280
 8044.50000   65.06520  105.23810   52.59790    0.02190
 8045.00000   65.06520  106.49950   53.14030    0.02320
 8045.50000   65.06520  110.91000   57.09700    0.02890
 8046.00000   65.72510  114.55490   71.43380    0.03970
 8046.50000   67.77370  117.54870   85.49080    0.05830
 8047.00000   69.39820  120.26320   99.58770    0.07580
 8047.50000   70.72820  122.42430  106.50940    0.08660
 8048.00000   71.45170  124.54560  107.38050    0.09180
 8048.50000   72.04420  126.55970  106.24720    0.09550
 8049.00000   72.11300  127.87360  106.15870    0.09900
 8049.50000   72.40600  129.16170  108.24760    0.10060
 8050.00000   73.30830  130.45180  111.14760    0.10550
 8050.50000   74.30000  131.65540  114.12830    0.11010
 8051.00000   75.45340  132.27760  114.58330    0.11330
 8051.50000   76.31900  132.89990  113.42820    0.11350
