~Version ---------------------------------------------------
VERS.   2.0 : CWLS log ASCII Standard -VERSION 2.0
WRAP.    NO : One line per depth step
DLM . SPACE : Column Data Section Delimiter
~Well ------------------------------------------------------
STRT .F                 6050.0 : START DEPTH
STOP .F                 8351.0 : STOP DEPTH
STEP .F                    0.5 : STEP
NULL .                -9999.25 : NULL VALUE
COMP .                         : COMPANY
WELL .                         : WELL
FLD  .                         : FIELD
LOC  .                         : LOCATION
PROV .                         : PROVINCE
CNTY .                         : COUNTY
STAT .                         : STATE
CTRY .                         : COUNTRY
SRVC .                         : SERVICE COMPANY
DATE .                         : DATE
UWI  .                         : UNIQUE WELL ID
API  .                         : API NUMBER
SLAT .WGS84 0.7035093380450093 : SURFACE LATITUDE
SLON .WGS84  6.682146689405002 : SURFACE LONGITUDE
DATUM.F                2501.58 : DEPTH DATUM ELEV
~Curve Information -----------------------------------------
DEPT.F     : 
DTCO.US/F  : COMPRESSIONAL-WAVE INTERVAL TRANSIT TIME ACOUSTIC SLOWNESS
DTSM.US/F  : SHEAR-WAVE INTERVAL TRANSIT TIME DELTA-T
GRN .GAPI  : GAMMA RAY
NPHI.DEC   : NEUTRON POROSITY LIMESTONE
~Params ----------------------------------------------------
~Other -----------------------------------------------------
~ASCII -----------------------------------------------------
# ...
 6908.00000   74.97810  108.07530  121.53370    0.13750
 6908.50000   73.67100   95.78950  121.92060    0.13370
 6909.00000   73.38580   84.30090  121.65190    0.12990
 6909.50000   73.32680   81.03500  118.81860    0.12800
 6910.00000   76.38210   81.07080  115.48180    0.12710
 6910.50000   93.01980   81.10660  113.63300    0.12450
 6911.00000  106.95090   81.14230  114.95600    0.12370
 6911.50000   99.90970   81.17810  117.42660    0.12390
 6912.00000   82.09590   81.21440  119.62050    0.12720
 6912.50000   75.95630   81.19470  121.52510    0.13400
 6913.00000   76.05070   81.15490  120.89210    0.14030
 6913.50000   76.07420   81.11500  120.64790    0.13980
 6914.00000   76.07020   81.07510  121.47420    0.13520
 6914.50000   76.06630   81.03520  122.93800    0.12930
 6915.00000   76.06230   79.31340  123.86900    0.12950
 6915.50000   76.05840   76.76560  123.44650    0.13190
 6916.00000   76.05440   76.23090  121.02910    0.12940
 6916.50000   76.05050   80.01610  115.76050    0.11880
 6917.00000   76.04650   81.09530  110.51780    0.10720
 6917.50000   76.04260   80.57670  105.23570    0.10380
 6918.00000   76.03860   81.40220  103.52860    0.10720
 6918.50000   76.03470   91.25480  105.97020    0.11240
 6919.00000   76.03070   95.09490  108.65880    0.11580
 6919.50000   76.02680   91.32400  111.35150    0.11680
 6920.00000   76.02290   86.13840  113.24620    0.12060
 6920.50000   76.01890   83.43030  114.08320    0.12540
 6921.00000   75.58600   94.86460  114.94360    0.12870
 6921.50000   74.65070  119.20560  115.79080    0.12970
 6922.00000   74.33300  133.72520  115.89920    0.13240
 6922.50000   75.44430  135.75730  115.65000    0.13660
 6923.00000   75.77800  134.02210  115.31370    0.14090
 6923.50000   74.69640  131.04070  115.13410    0.14250
 6924.00000   72.72620  127.09970  117.22840    0.13840
 6924.50000   70.74190  123.13870  119.58080    0.13030
 6925.00000   69.44330  120.24980  122.03130    0.12140
 6925.50000   68.55570  118.91850  122.87300    0.12020
 6926.00000   69.87520  120.09050  122.57400    0.12460
 6926.50000   71.69230  121.54460  122.39440    0.13370
 6927.00000   71.74520  120.23220  122.81340    0.13850
 6927.50000   72.46740  118.34390  122.52490    0.13750
 6928.00000   75.73990  117.90380  121.62070    0.13130
 6928.50000   80.77230  121.59130  119.84410    0.12380
 6929.00000   84.01220  125.83270  118.41700    0.12220
 6929.50000   82.69890  125.75730  117.63530    0.12590
 6930.00000   81.11390  120.41120  116.61140    0.12910
 6930.50000   80.05340  116.52960  114.57990    0.13190
 6931.00000   79.22210  115.82270  114.51340    0.13090
 6931.50000   78.57210  114.03140  117.04900    0.12880
 6932.00000   78.66600  112.71810  119.57310    0.12670
 6932.50000   79.96990  115.54430  120.76000    0.12650
 6933.00000   81.13340  118.17700  120.06890    0.12620
 6933.50000   79.00420  119.53860  118.93120    0.12430
 6934.00000   76.01750  115.16110  117.06080    0.12310
 6934.50000   73.34130  112.71810  112.73790    0.12520
 6935.00000   72.47250  121.95250  111.05060    0.12990
 6935.50000   71.77710  130.94890  111.99940    0.13110
 6936.00000   71.14340  137.81580  114.97830    0.12770
 6936.50000   70.90270  139.81240  115.84130    0.12350
 6937.00000   71.26380  139.81780  113.70830    0.12500
 6937.50000   71.29820  139.79320  111.14440    0.13310
 6938.00000   70.78230  138.85250  111.11560    0.13960
 6938.50000   70.60290  137.38700  111.12270    0.14040
 6939.00000   72.02390  138.03530  111.11360    0.13960
 6939.50000   73.63950  139.47130  111.52250    0.14040
 6940.00000   74.09230  140.60180  113.28670    0.14150
 6940.50000   72.04610  136.98600  115.09410    0.14170
 6941.00000   69.63890  122.14640  116.44570    0.13440
 6941.50000   67.65300   98.92280  117.25450    0.12650
 6942.00000   68.53880   76.60980  116.42640    0.12060
 6942.50000   70.24870   76.41120  114.02040    0.12220
 6943.00000   70.72220   76.20860  111.70950    0.12550
 6943.50000   69.27780   74.77430  111.49820    0.12670
 6944.00000   67.11130   75.70650  112.22690    0.12780
 6944.50000   61.33140   77.95350  114.41750    0.13130
 6945.00000   63.27580   79.41830  116.63640    0.13420
 6945.50000   69.32130   77.73140  118.83890    0.13470
 6946.00000   70.72220   75.49340  119.70470    0.13190
 6946.50000   67.05110   73.25540  116.96190    0.12570
 6947.00000   65.71350   71.01750  111.60040    0.11580
 6947.50000   64.76430   70.50540  107.79310    0.10770
 6948.00000   64.52360   70.18620  107.08710    0.10360
 6948.50000   64.04210   70.28940  108.61600    0.10600
 6949.00000   63.36750   71.06720  111.23330    0.11460
 6949.50000   63.25260   71.79540  115.86290    0.12750
 6950.00000   63.22230   74.61730  120.35390    0.14150
 6950.50000   61.69510   77.41220  124.04570    0.14280
 6951.00000   59.23150   78.41530  125.18270    0.13770
 6951.50000   56.51960   77.28470  123.37810    0.12940
 6952.00000   55.04950   75.08570  118.24430    0.12120
 6952.50000   54.52460   75.31590  113.14440    0.11340
 6953.00000   54.45180   77.21160  109.79830    0.11710
 6953.50000   55.01500   82.77230  110.68350    0.12530
 6954.00000   58.87770   94.28930  113.56320    0.13040
 6954.50000   65.93060  118.93680  115.94740    0.12990
 6955.00000   69.87960  127.58270  115.64540    0.12620
 6955.50000   72.00590  130.74200  115.00550    0.12090
 6956.00000   74.21850  134.89980  113.37750    0.11580
 6956.50000   75.53660  139.44800  110.44510    0.11100
 6957.00000   75.53660  139.75190  107.54890    0.11070
 6957.50000   68.84390  130.61180  104.91150    0.11120
 6958.00000   60.58930  102.48750  104.12650    0.10760
 6958.50000   54.11230   82.77830  103.71030    0.10130
 6959.00000   53.39020   72.39720  102.02800    0.09100
 6959.50000   53.39020   74.96490   99.81480    0.08300
 6960.00000   53.38920   76.08430   99.99270    0.08700
 6960.50000   53.39020   74.19940  104.03710    0.09850
 6961.00000   53.39020   72.66400  108.06370    0.11500
 6961.50000   53.39020   72.14040  112.07590    0.13810
 6962.00000   53.39010   72.19660  115.84170    0.14990
 6962.50000   53.38990   72.87860  116.83280    0.14800
 6963.00000   53.39020   74.43160  116.95670    0.14470
 6963.50000   53.42060   76.20370  116.37720    0.14150
 6964.00000   53.63090   77.94180  116.68860    0.14110
 6964.50000   57.39320   82.22670  117.44870    0.14080
 6965.00000   61.69510   88.88000  118.60170    0.14040
 6965.50000   62.95890   92.38920  119.77180    0.13870
 6966.00000   68.98720   93.12940  120.89480    0.13750
 6966.50000   77.10810  110.91270  120.75020    0.13790
 6967.00000   81.13340  119.60400  119.78970    0.13990
 6967.50000   78.38190  128.39800  118.44670    0.14190
 6968.00000   74.96020  135.01680  117.03720    0.14110
 6968.50000   71.74520  132.93480  116.92780    0.13800
 6969.00000   71.14340  128.79450  118.11960    0.13470
 6969.50000   75.53660  128.68930  119.55760    0.13130
 6970.00000   75.41630  128.36510  120.00950    0.12940
 6970.50000   61.75530  118.07350  119.16200    0.12920
 6971.00000   53.99200  108.34840  118.32430    0.12910
 6971.50000   54.71410   98.58620  117.45870    0.12910
 6972.00000   54.83450   90.63540  117.47280    0.12930
 6972.50000   54.83450   80.82250  118.33280    0.13190
 6973.00000   54.83450   81.93970  119.33600    0.13510
 6973.50000   54.83450   83.55070  119.59290    0.13710
 6974.00000   54.83450   84.82160  119.59650    0.13790
 6974.50000   55.06740   84.70740  117.76460    0.13830
 6975.00000   56.30890   84.61970  116.50710    0.13530
 6975.50000   58.99960   88.02060  117.37190    0.12960
 6976.00000   64.24790   96.67530  118.96770    0.12530
 6976.50000   66.66560  110.53700  120.57710    0.12580
 6977.00000   67.49240  113.97530  119.80680    0.12650
 6977.50000   66.78020  116.24870  117.64770    0.12350
 6978.00000   63.79960  117.33200  117.36760    0.11760
 6978.50000   60.13040  115.30990  117.94760    0.11300
 6979.00000   61.39420  115.52660  117.86000    0.11300
