~Version ---------------------------------------------------
VERS.   2.0 : CWLS log ASCII Standard -VERSION 2.0
WRAP.    NO : One line per depth step
DLM . SPACE : Column Data Section Delimiter
~Well ------------------------------------------------------
STRT .F                 6050.0 : START DEPTH
STOP .F                 8351.0 : STOP DEPTH
STEP .F                    0.5 : STEP
NULL .                -9999.25 : NULL VALUE
COMP .                         : COMPANY
WELL .                         : WELL
FLD  .                         : FIELD
LOC  .                         : LOCATION
PROV .                         : PROVINCE
CNTY .                         : COUNTY
STAT .                         : STATE
CTRY .                         : COUNTRY
SRVC .                         : SERVICE COMPANY
DATE .                         : DATE
UWI  .                         : UNIQUE WELL ID
API  .                         : API NUMBER
SLAT .WGS84 0.7035093380450093 : SURFACE LATITUDE
SLON .WGS84  6.682146689405002 : SURFACE LONGITUDE
DATUM.F                2501.58 : DEPTH DATUM ELEV
~Curve Information -----------------------------------------
DEPT.F     : 
DTCO.US/F  : COMPRESSIONAL-WAVE INTERVAL TRANSIT TIME ACOUSTIC SLOWNESS
DTSM.US/F  : SHEAR-WAVE INTERVAL TRANSIT TIME DELTA-T
GRN .GAPI  : GAMMA RAY
NPHI.DEC   : NEUTRON POROSITY LIMESTONE
~Params ----------------------------------------------------
~Other -----------------------------------------------------
~ASCII -----------------------------------------------------
# ...
 7408.50000   54.05210   82.33430  119.28980    0.20050
 7409.00000   54.09330   82.08660  117.75130    0.19800
 7409.50000   54.21190   82.64500  117.32610    0.19900
 7410.00000   54.44900   83.20350  119.18090    0.20280
 7410.50000   54.65280   83.43030  121.52830    0.20890
 7411.00000   54.21310   83.43030  122.74070    0.21360
 7411.50000   53.75540   83.43030  123.06250    0.21380
 7412.00000   53.51790   82.67860  123.40210    0.21080
 7412.50000   53.45040   81.83000  123.71120    0.20520
 7413.00000   53.45040   80.98150  124.10470    0.20050
 7413.50000   53.45040   80.13290  124.00550    0.19940
 7414.00000   53.45040   80.02010  122.58110    0.19950
 7414.50000   53.57070   81.70350  120.44680    0.20250
 7415.00000   54.30490   83.30630  118.43660    0.20650
 7415.50000   55.13310   84.90910  118.76520    0.21040
 7416.00000   55.68400   86.51190  120.57880    0.21710
 7416.50000   55.50020   86.63260  122.15440    0.22360
 7417.00000   55.02710   85.78130  121.83200    0.22960
 7417.50000   54.59380   84.74420  121.17100    0.23210
 7418.00000   55.31590   82.57750  120.93920    0.22750
 7418.50000   56.57970   79.81950  120.93660    0.21500
 7419.00000   57.06120   79.15610  120.85830    0.20140
 7419.50000   57.07780   78.64420  120.73050    0.19920
 7420.00000   57.09850   78.77380  119.40470    0.22100
 7420.50000   57.11920   79.36700  117.16290    0.24330
 7421.00000   57.12140   80.51930  114.01110    0.25610
 7421.50000   57.12140   81.67170  111.77320    0.25250
 7422.00000   57.12140   82.82850  111.54310    0.24670
 7422.50000   57.12140   81.79540  111.41480    0.24090
 7423.00000   57.12140   80.75830  111.27370    0.23500
 7423.50000   57.12140   79.72120  111.09260    0.22800
 7424.00000   57.12140   78.68410  112.77200    0.21630
 7424.50000   56.66470   77.81340  115.43430    0.20350
 7425.00000   55.33270   78.37430  117.83170    0.19200
 7425.50000   54.88470   79.17020  118.80300    0.18910
 7426.00000   55.89870   80.44290  119.20850    0.19360
 7426.50000   57.90370   83.63090  119.62500    0.20000
 7427.00000   59.07120   83.29560  119.65220    0.20040
 7427.50000   60.24070   82.92520  118.50700    0.19630
 7428.00000   60.85260   82.42330  117.36970    0.19600
 7428.50000   58.60560   81.38620  116.94690    0.20740
 7429.00000   57.00100   80.90040  117.46840    0.22720
 7429.50000   56.70010   81.21970  117.28230    0.23990
 7430.00000   57.14010   81.22330  115.35240    0.24330
 7430.50000   57.56010   81.22560  112.29390    0.23970
 7431.00000   57.66910   81.56250  109.93900    0.23830
 7431.50000   58.22070   82.13860  110.63090    0.23960
 7432.00000   59.55240   81.87520  112.49650    0.23770
 7432.50000   61.03310   81.46040  115.09850    0.23380
 7433.00000   60.23630   81.02310  117.69480    0.23100
 7433.50000   58.02410   81.02310  120.30310    0.22950
 7434.00000   57.39400   81.02310  120.42640    0.22710
 7434.50000   57.45720   81.02310  120.08780    0.22040
 7435.00000   57.48020   81.02310  117.91080    0.21200
 7435.50000   57.31010   81.02310  115.65450    0.20840
 7436.00000   56.47230   81.02310  115.30650    0.22090
 7436.50000   55.39240   80.88240  116.83640    0.24370
 7437.00000   55.01500   80.32340  120.59020    0.25090
 7437.50000   55.01500   79.48580  123.61830    0.24490
 7438.00000   55.01500   78.64810  124.36430    0.24200
 7438.50000   55.01500   77.81040  123.86810    0.24750
 7439.00000   55.01500   76.97280  122.73760    0.26690
 7439.50000   55.01500   77.64970  120.26930    0.28540
 7440.00000   55.04590   79.48460  117.19960    0.29530
 7440.50000   55.27270   81.22370  113.93700    0.29700
 7441.00000   56.07640   82.05500  111.37230    0.28650
 7441.50000   56.94080   82.15870  110.04960    0.27920
 7442.00000   57.94760   82.69090  109.06230    0.26910
 7442.50000   59.46840   84.03910  109.31580    0.25290
 7443.00000   58.25610   84.21040  114.30050    0.23680
 7443.50000   56.45940   81.32950  120.68850    0.22060
 7444.00000   55.85760   79.99360  126.63360    0.21100
 7444.50000   56.51960   80.35970  127.40230    0.20480
 7445.00000   56.63990   80.72570  127.39480    0.20580
 7445.50000   57.30190   81.50950  127.38350    0.21130
 7446.00000   58.91730   84.10230  127.38440    0.21450
 7446.50000   60.36690   86.04620  127.38200    0.21270
 7447.00000   60.61180   85.83800  127.23690    0.20670
 7447.50000   60.05220   85.27050  126.56370    0.20320
 7448.00000   59.47920   84.53880  126.26420    0.20240
 7448.50000   59.25810   84.23270  126.42090    0.19960
 7449.00000   58.54320   83.37500  127.40920    0.19330
 7449.50000   57.48120   82.30910  128.31780    0.18490
 7450.00000   56.42250   81.24320  127.90570    0.17650
 7450.50000   55.39690   80.17730  125.60160    0.17040
 7451.00000   54.95930   79.11130  121.63650    0.16980
 7451.50000   54.41440   78.04540  120.31930    0.17230
 7452.00000   53.97920   76.97950  121.47180    0.17600
 7452.50000   53.66390   77.76160  123.44130    0.18190
 7453.00000   53.94070   78.91390  124.06280    0.19210
 7453.50000   55.30850   81.87710  124.63350    0.20310
 7454.00000   56.96880   84.84020  125.29730    0.21040
 7454.50000   58.49860   87.25070  126.44360    0.21440
 7455.00000   59.54150   88.80640  127.35260    0.20920
 7455.50000   60.13020   90.25070  126.47450    0.19670
 7456.00000   59.62710   89.25660  124.51430    0.19360
 7456.50000   58.26480   87.80460  122.58690    0.19920
 7457.00000   57.09340   86.35270  120.66670    0.21750
 7457.50000   56.39920   86.09930  118.85470    0.24300
 7458.00000   56.39920   86.20300  118.68850    0.25430
 7458.50000   56.61340   86.30670  119.42400    0.26170
 7459.00000   56.92520   86.42010  120.70630    0.24550
 7459.50000   56.67460   85.27450  123.00820    0.21800
 7460.00000   56.33900   82.61330  125.45710    0.18170
 7460.50000   66.51560   78.20510  127.68710    0.15910
 7461.00000   74.83830   74.00200  128.55230    0.16930
 7461.50000   76.12150   73.82110  126.27860    0.21020
 7462.00000   76.07820   74.60730  121.16460    0.25670
 7462.50000   76.07820   76.46560  115.72430    0.27990
 7463.00000   76.07820   78.04530  113.09420    0.28220
 7463.50000   76.07820   79.63320  113.92860    0.27270
 7464.00000   76.07820   79.94420  115.65300    0.26670
 7464.50000   76.07820   79.63310  116.71360    0.26860
 7465.00000   76.07820   79.46760  115.79070    0.27290
 7465.50000   76.07820   79.62720  114.53460    0.27380
 7466.00000   76.07820   79.78670  114.32750    0.26320
 7466.50000   76.07820   79.35150  113.96330    0.24850
 7467.00000   76.07820   78.61590  112.68660    0.25380
 7467.50000   76.07820   79.59980  112.87630    0.26490
 7468.00000   76.07820   80.33420  114.34480    0.26950
 7468.50000   76.07820   79.60820  120.59360    0.24630
 7469.00000   76.07820   79.01710  124.91460    0.21960
 7469.50000   76.07820   80.35490  127.60880    0.19290
 7470.00000   76.07820   81.62490  127.91380    0.18330
 7470.50000   76.07820   83.36760  126.61510    0.18350
 7471.00000   76.07820   85.01480  125.28590    0.18940
 7471.50000   76.07820   86.66200  125.49650    0.19200
 7472.00000   76.07820   86.82760  126.08920    0.18840
 7472.50000   76.07820   86.45720  125.91400    0.17730
 7473.00000   76.07820   86.08500  124.84610    0.16710
 7473.50000   76.07820   86.16900  123.09130    0.16680
 7474.00000   76.07820   86.31360  122.11860    0.16830
 7474.50000   76.07820   86.22160  122.41710    0.17230
 7475.00000   76.07820   84.86540  124.46160    0.17900
 7475.50000   76.07820   83.50910  127.47430    0.18580
 7476.00000   76.07820   83.52040  128.32030    0.18960
 7476.50000   76.07820   84.28100  127.17640    0.18240
 7477.00000   76.07820   85.04150  124.44030    0.17140
 7477.50000   76.07820   83.91170  122.35750    0.15950
 7478.00000   76.07820   82.13380  121.10700    0.15410
 7478.50000   76.07820   80.42130  118.67290    0.15260
 7479.00000   76.07820   80.80530  118.92510    0.16000
 7479.50000   76.07820   81.17570  120.90680    0.17210
