~Version ---------------------------------------------------
VERS.   2.0 : CWLS log ASCII Standard -VERSION 2.0
WRAP.    NO : One line per depth step
DLM . SPACE : Column Data Section Delimiter
~Well ------------------------------------------------------
STRT .F                 6050.0 : START DEPTH
STOP .F                 8351.0 : STOP DEPTH
STEP .F                    0.5 : STEP
NULL .                -9999.25 : NULL VALUE
COMP .                         : COMPANY
WELL .                         : WELL
FLD  .                         : FIELD
LOC  .                         : LOCATION
PROV .                         : PROVINCE
CNTY .                         : COUNTY
STAT .                         : STATE
CTRY .                         : COUNTRY
SRVC .                         : SERVICE COMPANY
DATE .                         : DATE
UWI  .                         : UNIQUE WELL ID
API  .                         : API NUMBER
SLAT .WGS84 0.7035093380450093 : SURFACE LATITUDE
SLON .WGS84  6.682146689405002 : SURFACE LONGITUDE
DATUM.F                2501.58 : DEPTH DATUM ELEV
~Curve Information -----------------------------------------
DEPT.F     : 
DTCO.US/F  : COMPRESSIONAL-WAVE INTERVAL TRANSIT TIME ACOUSTIC SLOWNESS
DTSM.US/F  : SHEAR-WAVE INTERVAL TRANSIT TIME DELTA-T
GRN .GAPI  : GAMMA RAY
NPHI.DEC   : NEUTRON POROSITY LIMESTONE
~Params ----------------------------------------------------
~Other -----------------------------------------------------
~ASCII -----------------------------------------------------
# ...
 6479.00000   78.58170  149.23020  127.10050    0.15270
 6479.50000   76.69660  146.53880  125.29920    0.14150
 6480.00000   75.94580  143.86990  122.46990    0.12960
 6480.50000   74.95890  141.87850  118.33940    0.12620
 6481.00000   74.06220  140.53890  114.28690    0.15230
 6481.50000   73.73120  140.20290  115.20790    0.16880
 6482.00000   75.92580  140.89680  117.85770    0.17150
 6482.50000   77.47740  144.27530  120.38890    0.16530
 6483.00000   78.14850  145.03110  121.26950    0.16100
 6483.50000   78.29760  144.20460  122.57630    0.15890
 6484.00000   78.22690  143.91980  123.47200    0.15680
 6484.50000   78.27380  144.12640  123.53370    0.15160
 6485.00000   78.30390  144.33300  123.61820    0.14540
 6485.50000   78.30490  145.67700  123.68790    0.14350
 6486.00000   78.60070  147.82350  123.29830    0.14610
 6486.50000   78.82320  146.48550  122.37140    0.14930
 6487.00000   79.12820  144.48810  122.60930    0.15060
 6487.50000   79.47480  142.49080  124.44680    0.15270
 6488.00000   78.86460  142.15270  125.72210    0.15270
 6488.50000   77.93480  142.34640  125.74240    0.14870
 6489.00000   76.52870  142.54010  124.55400    0.14430
 6489.50000   74.84630  144.04790  123.23050    0.14190
 6490.00000   74.15250  146.26160  122.87560    0.14240
 6490.50000   75.71710  148.62590  122.57200    0.14390
 6491.00000   77.94380  147.64290  122.25410    0.14810
 6491.50000   79.71810  145.81740  121.87720    0.15230
 6492.00000   80.17050  146.25590  121.51730    0.15470
 6492.50000   79.20760  146.41930  122.34040    0.15290
 6493.00000   78.16050  144.52360  124.22910    0.14910
 6493.50000   77.10800  142.71570  125.29910    0.14930
 6494.00000   76.52510  140.80240  125.20940    0.15130
 6494.50000   76.08160  141.20360  124.20580    0.15180
 6495.00000   76.37910  142.95890  123.23790    0.15090
 6495.50000   76.55970  144.01200  122.57070    0.15100
 6496.00000   76.42130  139.92980  121.90650    0.15290
 6496.50000   76.11130  135.28080  121.06350    0.15430
 6497.00000   76.09030  134.78430  120.18460    0.15040
 6497.50000   76.57100  137.64290  119.27210    0.14480
 6498.00000   77.21010  140.74220  120.31130    0.14070
 6498.50000   77.33780  143.84150  121.79020    0.13950
 6499.00000   77.79020  146.94080  122.06710    0.13890
 6499.50000   78.54560  147.02110  121.22300    0.13870
 6500.00000   78.72620  144.07450  120.06030    0.13970
 6500.50000   78.59560  142.13960  121.97330    0.14310
 6501.00000   78.51760  141.93220  124.60070    0.14100
 6501.50000   78.17440  142.28930  126.37410    0.13730
 6502.00000   77.64450  143.53380  126.31190    0.13470
 6502.50000   77.64290  144.78810  125.25380    0.13660
 6503.00000   78.69370  145.00860  123.19270    0.14280
 6503.50000   79.80940  144.19060  121.10610    0.14910
 6504.00000   80.11030  143.04640  120.68570    0.15050
 6504.50000   78.95220  141.66370  122.57140    0.14800
 6505.00000   77.75220  140.28080  125.39110    0.14400
 6505.50000   76.85290  139.16550  126.22510    0.14030
 6506.00000   75.92880  138.13280  125.38760    0.14100
 6506.50000   75.47860  138.19460  124.48940    0.14330
 6507.00000   76.02280  140.37000  124.74920    0.14700
 6507.50000   77.82270  142.38790  125.54180    0.14870
 6508.00000   79.70380  143.23160  126.66930    0.14970
 6508.50000   81.29490  144.01440  127.83230    0.15030
 6509.00000   79.93130  143.69660  126.73330    0.14990
 6509.50000   78.22550  142.61810  124.12420    0.14270
 6510.00000   77.94380  140.99030  122.61090    0.13490
 6510.50000   78.84650  139.28920  122.88630    0.12910
 6511.00000   77.19140  137.74520  124.48370    0.13150
 6511.50000   75.68340  137.38960  125.65520    0.13830
 6512.00000   74.75430  138.11560  124.42900    0.14620
 6512.50000   75.53660  138.84150  122.43190    0.15310
 6513.00000   77.68910  139.56750  121.99800    0.15910
 6513.50000   78.84090  140.29350  125.19500    0.16210
 6514.00000   78.61480  141.01950  129.03490    0.16270
 6514.50000   77.94380  140.97770  131.98520    0.15760
 6515.00000   77.88240  140.07020  133.60880    0.14630
 6515.50000   77.82280  139.16270  133.80930    0.13510
 6516.00000   77.25110  137.64720  131.15020    0.13300
 6516.50000   76.70050  135.12150  128.44310    0.13370
 6517.00000   76.40200  132.58300  125.72730    0.13070
 6517.50000   75.89770  130.43570  122.54020    0.12130
 6518.00000   74.99500  129.16750  120.26280    0.11190
 6518.50000   72.99870  129.48780  117.16150    0.10390
 6519.00000   71.20360  130.02610  114.07190    0.10420
 6519.50000   72.14240  131.40890  113.31700    0.11140
 6520.00000   73.47500  133.66320  114.63840    0.12330
 6520.50000   75.11530  137.00500  116.93270    0.13470
 6521.00000   76.80040  138.60250  116.09220    0.13860
 6521.50000   76.20040  138.99700  113.88920    0.13810
 6522.00000   75.24130  138.99700  112.08560    0.13990
 6522.50000   74.30290  138.88160  113.88930    0.14240
 6523.00000   73.87820  138.36310  116.87510    0.14110
 6523.50000   75.99130  138.52760  120.03160    0.13910
 6524.00000   77.42860  139.45490  121.45090    0.14140
 6524.50000   77.70310  140.88090  121.87260    0.14840
 6525.00000   75.71710  142.30690  122.27280    0.15580
 6525.50000   76.86060  143.41020  122.65130    0.15480
 6526.00000   77.76330  141.27150  121.54280    0.15090
 6526.50000   77.88370  138.70070  120.07030    0.14570
 6527.00000   76.23090  138.01170  119.98240    0.14220
 6527.50000   76.16850  138.26280  121.85640    0.14100
 6528.00000   76.80040  138.80040  124.84850    0.13820
 6528.50000   77.61890  139.83750  124.60090    0.13340
 6529.00000   79.00660  140.80240  121.57220    0.13270
 6529.50000   79.99000  140.07540  119.44160    0.13640
 6530.00000   78.24470  139.24570  118.45020    0.13830
 6530.50000   76.58160  138.40650  118.59780    0.13700
 6531.00000   76.40270  137.20730  119.03910    0.13550
 6531.50000   76.00720  135.71070  120.95580    0.13840
 6532.00000   75.47640  135.51370  123.15360    0.14150
 6532.50000   75.78940  136.03840  124.58580    0.13940
 6533.00000   75.97030  136.56020  124.95850    0.13590
 6533.50000   75.91870  138.10440  125.07070    0.13590
 6534.00000   76.37910  140.45520  124.66700    0.13790
 6534.50000   77.58270  142.80600  123.51480    0.14130
 6535.00000   78.08530  143.61080  121.79510    0.14400
 6535.50000   77.51470  141.55480  120.42120    0.14570
 6536.00000   77.10130  139.93690  121.42930    0.14620
 6536.50000   76.87260  138.31900  122.33770    0.14300
 6537.00000   76.64180  136.70110  121.43280    0.13720
 6537.50000   76.80040  135.78740  119.33530    0.13230
 6538.00000   76.81420  135.78740  115.84750    0.13140
 6538.50000   76.02090  137.00620  114.25730    0.13220
 6539.00000   75.73400  138.13350  115.06410    0.13480
 6539.50000   79.38120  139.26080  117.28650    0.13990
 6540.00000   82.51750  140.38810  119.38750    0.14550
 6540.50000   82.10050  139.85030  120.59650    0.15190
 6541.00000   81.67680  137.68180  119.93340    0.15870
 6541.50000   81.73580  135.66690  119.94280    0.15950
 6542.00000   82.07540  133.99150  121.39100    0.15510
 6542.50000   82.93880  132.31620  124.13430    0.14790
 6543.00000   82.87860  130.24050  126.16320    0.14350
 6543.50000   79.38840  126.07370  127.44240    0.13900
 6544.00000   77.44070  118.70860  127.17330    0.12810
 6544.50000   76.43510  113.46840  125.47890    0.11540
 6545.00000   75.99920  111.39420  124.06280    0.12160
 6545.50000   75.05580  111.50850  121.88120    0.13520
 6546.00000   74.33300  112.51750  120.45950    0.14920
 6546.50000   74.33300  117.55990  119.44780    0.16040
 6547.00000   78.12440  123.36770  119.43910    0.16070
 6547.50000   78.54560  126.40300  120.11010    0.15570
 6548.00000   77.88970  126.83740  120.60160    0.15400
 6548.50000   76.36050  132.59330  120.13860    0.15380
 6549.00000   75.05930  137.80140  119.67620    0.15460
 6549.50000   74.63390  139.46070  119.88060    0.15360
 6550.00000   76.55970  138.92400  121.27790    0.15030
