~Version ---------------------------------------------------
VERS.   2.0 : CWLS log ASCII Standard -VERSION 2.0
WRAP.    NO : One line per depth step
DLM . SPACE : Column Data Section Delimiter
~Well ------------------------------------------------------
STRT .F                 6050.0 : START DEPTH
STOP .F                 8351.0 : STOP DEPTH
STEP .F                    0.5 : STEP
NULL .                -9999.25 : NULL VALUE
COMP .                         : COMPANY
WELL .                         : WELL
FLD  .                         : FIELD
LOC  .                         : LOCATION
PROV .                         : PROVINCE
CNTY .                         : COUNTY
STAT .                         : STATE
CTRY .                         : COUNTRY
SRVC .                         : SERVICE COMPANY
DATE .                         : DATE
UWI  .                         : UNIQUE WELL ID
API  .                         : API NUMBER
SLAT .WGS84 0.7035093380450093 : SURFACE LATITUDE
SLON .WGS84  6.682146689405002 : SURFACE LONGITUDE
DATUM.F                2501.58 : DEPTH DATUM ELEV
~Curve Information -----------------------------------------
DEPT.F     : 
DTCO.US/F  : COMPRESSIONAL-WAVE INTERVAL TRANSIT TIME ACOUSTIC SLOWNESS
DTSM.US/F  : SHEAR-WAVE INTERVAL TRANSIT TIME DELTA-T
GRN .GAPI  : GAMMA RAY
NPHI.DEC   : NEUTRON POROSITY LIMESTONE
~Params ----------------------------------------------------
~Other -----------------------------------------------------
~ASCII -----------------------------------------------------
# ...
 8266.50000   68.61590  120.54160  104.30990    0.08910
 8267.00000   70.01930  121.38410  106.64980    0.07950
 8267.50000   70.84050  122.15900   93.05460    0.06070
 8268.00000   70.66750  122.94890   86.00440    0.04890
 8268.50000   70.18410  124.86240   84.42570    0.05180
 8269.00000   70.95420  126.55970   96.10040    0.05840
 8269.50000   71.98600  125.79320  100.67160    0.06510
 8270.00000   72.62990  124.92320  100.62660    0.07130
 8270.50000   73.43030  124.05320   95.90820    0.07700
 8271.00000   76.34110  123.14950   90.23240    0.07700
 8271.50000   79.68890  125.13540   84.81250    0.06110
 8272.00000   81.01250  127.16150   80.77760    0.05330
 8272.50000   77.69210  126.00180   76.80800    0.05180
 8273.00000   74.32470  125.15550   71.21380    0.04940
 8273.50000   72.29510  128.80640   65.26190    0.04180
 8274.00000   72.16650  135.86360   54.91980    0.03380
 8274.50000   74.14100  145.57950   50.95830    0.02580
 8275.00000   77.04110  155.27820   49.63610    0.02110
 8275.50000   78.78640  160.86190   49.29740    0.01760
 8276.00000   78.09110  160.85590   49.84610    0.01640
 8276.50000   77.22170  158.19340   51.82190    0.01710
 8277.00000   75.89290  155.47050   55.01510    0.01970
 8277.50000   73.37010  151.15850   58.58900    0.02240
 8278.00000   71.27860  146.50950   62.19210    0.02470
 8278.50000   69.12460  141.86060   67.91700    0.03050
 8279.00000   66.66250  137.21160   78.69270    0.04470
 8279.50000   66.07280  136.18860  103.13630    0.06600
 8280.00000   68.68090  143.62340  116.14480    0.08720
 8280.50000   71.50450  158.65600  118.42990    0.09780
 8281.00000   71.90290  162.86860  106.55810    0.08200
 8281.50000   71.44280  161.43430   95.57450    0.06810
 8282.00000   70.87720  160.09530   87.38080    0.06120
 8282.50000   70.66000  159.32050   85.00160    0.06130
 8283.00000   71.13610  158.54560   87.67760    0.06610
 8283.50000   71.32400  152.39400   91.61020    0.07250
 8284.00000   70.97160  145.57860   94.63990    0.07160
 8284.50000   70.48940  138.82240   93.88140    0.06690
 8285.00000   70.12040  140.43460   94.23870    0.06330
 8285.50000   70.64450  146.76860   95.24000    0.06570
 8286.00000   71.56050  158.85660   96.40810    0.06850
 8286.50000   72.36900  164.07220   95.88130    0.06830
 8287.00000   72.25550  162.86790   96.52050    0.06870
 8287.50000   71.39490  161.83080  100.55480    0.07380
 8288.00000   70.66180  161.62930  104.52650    0.07890
 8288.50000   70.13920  161.42300  104.51020    0.07860
 8289.00000   69.62440  161.32730   96.83770    0.07060
 8289.50000   69.39100  161.63670   90.04070    0.06080
 8290.00000   69.65700  161.06320   91.49040    0.05670
 8290.50000   70.12040  161.64360   96.82880    0.06060
 8291.00000   70.76020  162.74560  102.56190    0.07350
 8291.50000   71.43590  163.84750  108.42460    0.08660
 8292.00000   72.02700  163.98080  114.27250    0.09870
 8292.50000   72.61810  163.87160  119.57120    0.11090
 8293.00000   73.20930  164.37710  120.45700    0.11420
 8293.50000   73.49050  164.85920  117.35460    0.09860
 8294.00000   73.64660  165.47640  115.86700    0.08420
 8294.50000   75.26970  165.47980  118.83760    0.08060
 8295.00000   78.12440  165.35690  124.06730    0.09260
 8295.50000   77.93470  165.15020  128.18720    0.10500
 8296.00000   76.62950  165.16350  129.28570    0.11150
 8296.50000   74.76270  165.30120  128.38600    0.11580
 8297.00000   73.07400  165.43900  125.77400    0.11160
 8297.50000   72.88870  165.47710  123.18480    0.10240
 8298.00000   73.32650  165.31920  122.04860    0.09460
 8298.50000   73.18960  165.11060  122.52930    0.09260
 8299.00000   73.78500  164.90670  123.10400    0.09760
 8299.50000   75.15070  165.34600  125.53990    0.10370
 8300.00000   75.85210  162.15460  127.59520    0.10980
 8300.50000   73.26400  154.89840  127.14850    0.11620
 8301.00000   70.60180  147.64220  128.00140    0.11540
 8301.50000   69.69910  140.95790  129.02010    0.11060
 8302.00000   69.69910  137.10630  128.36990    0.10410
 8302.50000   72.67300  135.78740  123.20440    0.09800
 8303.00000   78.72920  143.37810  114.99500    0.08570
 8303.50000   85.47990  151.07570  106.79710    0.06500
 8304.00000   90.98630  160.26080  100.89090    0.04780
 8304.50000   96.10700  156.63790   95.53130    0.04570
 8305.00000   98.83820  140.24070   93.82680    0.04930
 8305.50000   99.12740  120.92120   96.10800    0.05290
 8306.00000   91.67900  114.92480  100.81660    0.05470
 8306.50000   81.24470  114.72420  106.98130    0.06270
 8307.00000   74.52900  116.32900  112.87950    0.08220
 8307.50000   72.36610  121.05430   -9999.25    0.09210
 8308.00000   76.59210  124.96350   -9999.25    0.10190
 8308.50000   77.93780  127.16440   -9999.25    0.11700
 8309.00000   79.08900  129.36520   -9999.25    0.13180
 8309.50000   79.82450  130.76950   -9999.25    0.14110
 8310.00000   80.06820  131.17100   -9999.25    0.14030
 8310.50000   79.51960  130.01550   -9999.25    0.12530
 8311.00000   77.47440  127.38070   -9999.25    0.10490
 8311.50000   74.81440  123.81290   -9999.25    0.08070
 8312.00000   72.52760  120.24520   -9999.25    0.05650
 8312.50000   70.63190  116.67740   -9999.25    0.03630
 8313.00000   70.19760  114.72820   -9999.25    0.03170
 8313.50000   71.83620  112.95410   -9999.25    0.03490
 8314.00000   73.74630  112.42080   -9999.25    0.03880
 8314.50000   74.60030  112.31690   -9999.25    0.03870
 8315.00000   72.16650  114.20570   -9999.25    0.03210
 8315.50000   70.78230  116.10180   -9999.25    0.03480
 8316.00000   70.85220  117.13140   -9999.25    0.04450
 8316.50000   71.43810  117.13140   -9999.25    0.04970
 8317.00000   72.05940  116.03020   -9999.25    0.04500
 8317.50000   72.67620  114.45540   -9999.25    0.03530
 8318.00000   73.53260  112.88050   -9999.25    0.03240
 8318.50000   74.03210  112.23010   -9999.25    0.03100
 8319.00000   73.31230  111.85670   -9999.25    0.03070
 8319.50000   72.43330  113.16240   -9999.25    0.03090
 8320.00000   72.03640  116.52190   -9999.25    0.03740
 8320.50000   71.40990  119.87240   -9999.25    0.04830
 8321.00000   70.59780  122.47140   -9999.25    0.05770
 8321.50000   70.46700  123.35010   -9999.25    0.06240
 8322.00000   70.39720  121.88920   -9999.25    0.06130
 8322.50000   68.64760  118.26420   -9999.25    0.05000
 8323.00000   66.40920  114.63920   -9999.25    0.04230
 8323.50000   65.30590  111.11330   -9999.25    0.03460
 8324.00000   65.53490  109.31980   -9999.25    0.02990
 8324.50000   65.74190  107.56120   -9999.25    0.03080
 8325.00000   65.93110  107.91170   -9999.25    0.03390
 8325.50000   66.35640  110.34520   -9999.25    0.03710
 8326.00000   66.49030  112.91880   -9999.25    0.04200
 8326.50000   65.28670  111.94380   -9999.25    0.04690
 8327.00000   63.09390  111.18850   -9999.25    0.04830
 8327.50000   61.09660  110.62830   -9999.25    0.04630
 8328.00000   59.09930  109.81870   -9999.25    0.04270
 8328.50000   57.12970  108.68350   -9999.25    0.03820
 8329.00000   55.71070  107.54830   -9999.25    0.03370
 8329.50000   55.14510  106.41310   -9999.25    0.03050
 8330.00000   -9999.25   -9999.25   -9999.25    0.02990
 8330.50000   -9999.25   -9999.25   -9999.25    0.03210
 8331.00000   -9999.25   -9999.25   -9999.25    0.03980
 8331.50000   -9999.25   -9999.25   -9999.25    0.05280
 8332.00000   -9999.25   -9999.25   -9999.25    0.06210
 8332.50000   -9999.25   -9999.25   -9999.25    0.06130
 8333.00000   -9999.25   -9999.25   -9999.25    0.04100
 8333.50000   -9999.25   -9999.25   -9999.25    0.03320
 8334.00000   -9999.25   -9999.25   -9999.25    0.03240
 8334.50000   -9999.25   -9999.25   -9999.25    0.03550
 8335.00000   -9999.25   -9999.25   -9999.25    0.04260
 8335.50000   -9999.25   -9999.25   -9999.25    0.05080
 8336.00000   -9999.25   -9999.25   -9999.25    0.05370
 8336.50000   -9999.25   -9999.25   -9999.25    0.04970
 8337.00000   -9999.25   -9999.25   -9999.25    0.04070
 8337.50000   -9999.25   -9999.25   -9999.25    0.03240
