~Version ---------------------------------------------------
VERS.   2.0 : CWLS log ASCII Standard -VERSION 2.0
WRAP.    NO : One line per depth step
DLM . SPACE : Column Data Section Delimiter
~Well ------------------------------------------------------
STRT .F                 6050.0 : START DEPTH
STOP .F                 8351.0 : STOP DEPTH
STEP .F                    0.5 : STEP
NULL .                -9999.25 : NULL VALUE
COMP .                         : COMPANY
WELL .                         : WELL
FLD  .                         : FIELD
LOC  .                         : LOCATION
PROV .                         : PROVINCE
CNTY .                         : COUNTY
STAT .                         : STATE
CTRY .                         : COUNTRY
SRVC .                         : SERVICE COMPANY
DATE .                         : DATE
UWI  .                         : UNIQUE WELL ID
API  .                         : API NUMBER
SLAT .WGS84 0.7035093380450093 : SURFACE LATITUDE
SLON .WGS84  6.682146689405002 : SURFACE LONGITUDE
DATUM.F                2501.58 : DEPTH DATUM ELEV
~Curve Information -----------------------------------------
DEPT.F     : 
DTCO.US/F  : COMPRESSIONAL-WAVE INTERVAL TRANSIT TIME ACOUSTIC SLOWNESS
DTSM.US/F  : SHEAR-WAVE INTERVAL TRANSIT TIME DELTA-T
GRN .GAPI  : GAMMA RAY
NPHI.DEC   : NEUTRON POROSITY LIMESTONE
~Params ----------------------------------------------------
~Other -----------------------------------------------------
~ASCII -----------------------------------------------------
# ...
 8123.50000   75.59350  108.52710  114.91140    0.11820
 8124.00000   75.72180  108.88200  113.63770    0.11760
 8124.50000   76.01770  110.25960  111.49060    0.11900
 8125.00000   75.93420  113.50630  111.37290    0.11970
 8125.50000   75.29020  121.56030  112.67910    0.11810
 8126.00000   74.27780  126.17100  112.25400    0.11380
 8126.50000   73.24970  129.20150  110.67110    0.10960
 8127.00000   72.73810  127.96790  108.75610    0.10540
 8127.50000   72.95380  126.74930  109.18770    0.10140
 8128.00000   73.30980  126.89450  111.61920    0.09970
 8128.50000   73.37010  127.29110  112.49260    0.09950
 8129.00000   73.80580  127.68770  111.47730    0.09940
 8129.50000   74.19450  128.08420  109.24420    0.09620
 8130.00000   74.38470  128.48080  109.75840    0.09480
 8130.50000   74.57210  129.64630  111.61170    0.09760
 8131.00000   74.63500  131.02110  111.23000    0.10480
 8131.50000   74.91470  132.39580  110.72800    0.11220
 8132.00000   75.52840  133.77060  110.31370    0.11550
 8132.50000   76.23140  135.14540  110.95800    0.12390
 8133.00000   76.88950  136.15380  112.60710    0.13290
 8133.50000   77.28190  136.86200  113.62030    0.13890
 8134.00000   76.47420  135.07150  113.38120    0.13800
 8134.50000   75.17550  132.62680  113.06460    0.12570
 8135.00000   74.33300  130.17370  112.26040    0.10750
 8135.50000   73.94400  129.25540  111.44140    0.09900
 8136.00000   73.75840  129.82090  111.39670    0.09580
 8136.50000   73.95750  131.96730  111.62030    0.10740
 8137.00000   74.71360  134.10880  112.97030    0.12380
 8137.50000   75.29590  135.18560  114.30920    0.12870
 8138.00000   75.10850  135.58680  114.37990    0.12330
 8138.50000   75.22030  136.56800  114.21660    0.11580
 8139.00000   77.02890  138.22320  115.36700    0.11060
 8139.50000   78.70330  140.58100  117.67690    0.11180
 8140.00000   78.01010  140.29820  121.45320    0.11760
 8140.50000   77.06210  140.00370  124.51080    0.12350
 8141.00000   76.68000  140.93030  124.44910    0.12760
 8141.50000   75.96110  142.21530  122.95520    0.12870
 8142.00000   75.51130  142.20630  122.77400    0.12870
 8142.50000   75.65700  142.20810  123.87540    0.13030
 8143.00000   76.65720  142.20690  123.64320    0.13190
 8143.50000   77.41660  142.08260  122.53770    0.13090
 8144.00000   77.25570  141.84460  120.17760    0.13100
 8144.50000   76.74210  141.60480  117.95910    0.13330
 8145.00000   77.05240  142.11630  116.35180    0.13330
 8145.50000   77.85240  143.90770  114.97330    0.13010
 8146.00000   78.00400  143.81140  114.88100    0.12790
 8146.50000   76.21030  141.02020  115.02600    0.12900
 8147.00000   74.27280  138.07420  115.16790    0.13180
 8147.50000   72.93680  135.38620  115.34490    0.13410
 8148.00000   71.93300  133.63290  116.97600    0.13840
 8148.50000   71.31430  131.80870  118.70280    0.14310
 8149.00000   70.79730  130.77230  120.10760    0.14920
 8149.50000   70.75670  131.19760  120.98230    0.15520
 8150.00000   71.79780  132.77790  119.99870    0.16070
 8150.50000   73.38520  135.66400  118.90230    0.16200
 8151.00000   74.95410  138.55000  118.44570    0.16150
 8151.50000   76.37910  140.68650  119.36920    0.15650
 8152.00000   76.86060  141.40420  119.02370    0.14880
 8152.50000   76.18350  138.85910  117.56520    0.14010
 8153.00000   75.77730  135.83420  115.69520    0.13270
 8153.50000   75.83750  134.18940  114.52470    0.12820
 8154.00000   75.60680  133.59680  115.09640    0.12550
 8154.50000   75.09030  133.00420  117.40500    0.12260
 8155.00000   74.89470  131.90990  119.74990    0.11890
 8155.50000   75.07700  130.50670  119.71220    0.11330
 8156.00000   75.08410  129.10350  116.39420    0.10280
 8156.50000   74.90770  128.03980  112.54520    0.09240
 8157.00000   74.42160  127.66260  112.82850    0.08530
 8157.50000   73.91450  127.28550  116.79570    0.08830
 8158.00000   72.91570  126.92650  119.29250    0.09360
 8158.50000   71.02310  126.54190  117.69000    0.09780
 8159.00000   69.40620  123.08910  114.43650    0.09750
 8159.50000   68.31490  120.20250  112.55990    0.09260
 8160.00000   67.61990  117.99000  113.25820    0.08720
 8160.50000   66.93080  115.77750  113.87170    0.07680
 8161.00000   68.73020  107.78770  111.20960    0.06830
 8161.50000   73.30630   92.40010  108.08560    0.06270
 8162.00000   76.84610   75.93690  107.13710    0.06310
 8162.50000   78.06420   71.89950  110.86110    0.07210
 8163.00000   78.06420   73.71380  117.65550    0.09310
 8163.50000   78.06420   75.38910  124.34470    0.11220
 8164.00000   78.06420   76.20040  128.24350    0.12620
 8164.50000   78.06420   76.50540  128.71790    0.13650
 8165.00000   78.06420   76.81040  126.33460    0.14010
 8165.50000   78.06420   77.01100  123.86940    0.13650
 8166.00000   78.06420   76.88150  122.61700    0.12950
 8166.50000   78.06420   76.53510  124.28430    0.12230
 8167.00000   78.09130   76.20780  126.01160    0.11880
 8167.50000   78.12440   76.20860  129.42510    0.11620
 8168.00000   78.12440   76.81380  130.65100    0.11770
 8168.50000   78.12440   77.67800  130.06790    0.12030
 8169.00000   78.12440   78.54230  128.53100    0.12310
 8169.50000   78.12440   79.40650  128.38870    0.12790
 8170.00000   78.12440   80.22070  128.07200    0.13470
 8170.50000   78.12440   80.22070  127.74620    0.14150
 8171.00000   78.12440   80.07750  127.40150    0.14230
 8171.50000   78.12440   79.91790  128.29130    0.12610
 8172.00000   78.12440   79.63800  129.98720    0.11560
 8172.50000   78.12440   78.68070  132.11540    0.10790
 8173.00000   78.12440   77.72330  133.30630    0.10670
 8173.50000   78.12440   76.76380  133.27170    0.11040
 8174.00000   78.12440   75.81130  132.98410    0.11720
 8174.50000   78.12440   75.09110  131.74990    0.12330
 8175.00000   78.12440   75.70710  129.17430    0.12330
 8175.50000   78.12440   76.31210  126.43210    0.11980
 8176.00000   78.12440   75.84320  124.71740    0.11940
 8176.50000   78.12440   75.27750  125.16670    0.11940
 8177.00000   78.12440   75.78160  125.37060    0.12340
 8177.50000   78.12440   77.27960  125.23250    0.12920
 8178.00000   78.12440   76.94710  124.78670    0.13260
 8178.50000   78.12440   75.24330  123.26250    0.13010
 8179.00000   78.12440   73.53950  121.97740    0.12430
 8179.50000   78.12440   73.15070  120.69560    0.11850
 8180.00000   78.12440   73.37300  120.64310    0.11280
 8180.50000   78.12440   73.60080  120.65270    0.10700
 8181.00000   78.12440   74.07260  120.90890    0.10130
 8181.50000   78.12440   74.55660  122.03230    0.09940
 8182.00000   78.12440   75.00500  124.68910    0.10220
 8182.50000   78.12440   76.39670  127.90990    0.11060
 8183.00000   78.12440   77.02550  130.52060    0.11910
 8183.50000   78.12450   77.12920  129.44270    0.12290
 8184.00000   78.12480   77.21160  125.99190    0.12290
 8184.50000   78.12360   82.98190  121.19830    0.12500
 8185.00000   78.05790   94.86460  120.41680    0.13000
 8185.50000   77.70970  106.66000  122.14450    0.13510
 8186.00000   77.73170  110.01970  123.83430    0.13130
 8186.50000   77.82350  109.68580  123.52480    0.12500
 8187.00000   77.52260  108.93150  121.90050    0.11970
 8187.50000   76.92890  108.05420  120.65660    0.12180
 8188.00000   76.28520  107.01710  119.46070    0.12230
 8188.50000   75.47470  105.97990  116.93070    0.11940
 8189.00000   74.45270  104.89470  113.41250    0.11550
 8189.50000   74.11200  104.94720  112.72010    0.11560
 8190.00000   74.01690  105.01640  115.79740    0.11850
 8190.50000   74.21260  105.07060  118.94150    0.12290
 8191.00000   75.23970  106.47210  119.86720    0.12840
 8191.50000   76.49050  108.06940  120.39230    0.13500
 8192.00000   77.00300  108.88830  121.99000    0.13770
 8192.50000   77.04110  107.90370  123.68660    0.13470
 8193.00000   76.68810  108.03210  124.44680    0.13190
 8193.50000   76.55970  108.16170  123.66670    0.13190
 8194.00000   76.55970  108.29360  122.02380    0.13170
 8194.50000   76.30610  107.79700  120.60820    0.13040
