~Version ---------------------------------------------------
VERS.   2.0 : CWLS log ASCII Standard -VERSION 2.0
WRAP.    NO : One line per depth step
DLM . SPACE : Column Data Section Delimiter
~Well ------------------------------------------------------
STRT .F                 6050.0 : START DEPTH
STOP .F                 8351.0 : STOP DEPTH
STEP .F                    0.5 : STEP
NULL .                -9999.25 : NULL VALUE
COMP .                         : COMPANY
WELL .                         : WELL
FLD  .                         : FIELD
LOC  .                         : LOCATION
PROV .                         : PROVINCE
CNTY .                         : COUNTY
STAT .                         : STATE
CTRY .                         : COUNTRY
SRVC .                         : SERVICE COMPANY
DATE .                         : DATE
UWI  .                         : UNIQUE WELL ID
API  .                         : API NUMBER
SLAT .WGS84 0.7035093380450093 : SURFACE LATITUDE
SLON .WGS84  6.682146689405002 : SURFACE LONGITUDE
DATUM.F                2501.58 : DEPTH DATUM ELEV
~Curve Information -----------------------------------------
DEPT.F     : 
DTCO.US/F  : COMPRESSIONAL-WAVE INTERVAL TRANSIT TIME ACOUSTIC SLOWNESS
DTSM.US/F  : SHEAR-WAVE INTERVAL TRANSIT TIME DELTA-T
GRN .GAPI  : GAMMA RAY
NPHI.DEC   : NEUTRON POROSITY LIMESTONE
~Params ----------------------------------------------------
~Other -----------------------------------------------------
~ASCII -----------------------------------------------------
# ...
 7551.50000   75.60140  122.95360  107.41890    0.12610
 7552.00000   76.21540  120.03660  108.71770    0.12260
 7552.50000   76.61990  117.11960  109.55560    0.11860
 7553.00000   76.37310  116.52960  110.17450    0.11480
 7553.50000   75.85560  121.31440  111.06270    0.11290
 7554.00000   75.71710  125.75420  110.91580    0.11380
 7554.50000   74.75430  127.61150  109.25210    0.11580
 7555.00000   72.16050  124.22770  106.75170    0.11720
 7555.50000   69.15750  123.10380  105.11200    0.11680
 7556.00000   67.67040  122.34700  105.63650    0.11300
 7556.50000   67.73850  120.70710  106.41530    0.10490
 7557.00000   67.96440  119.15750  106.97740    0.09670
 7557.50000   68.19460  119.17750  107.10200    0.09060
 7558.00000   68.83410  120.77870  107.25670    0.09040
 7558.50000   69.45840  123.59620  109.53350    0.09970
 7559.00000   69.51860  125.66700  113.51670    0.11050
 7559.50000   69.26850  125.27960  116.30990    0.12180
 7560.00000   69.21770  125.85760  116.10290    0.13700
 7560.50000   69.94390  126.15850  113.81530    0.15270
 7561.00000   71.45770  124.99770  110.82380    0.15910
 7561.50000   73.57060  122.85920  109.37180    0.16150
 7562.00000   75.97150  120.71760  111.00880    0.16940
 7562.50000   79.12790  119.70640  112.54310    0.18210
 7563.00000   82.28770  124.50700  112.36220    0.18560
 7563.50000   84.08680  129.60640  112.33430    0.17360
 7564.00000   84.70510  134.75630  114.76100    0.16150
 7564.50000   84.03470  138.92180  117.16110    0.14940
 7565.00000   82.03610  140.00000  116.08120    0.13630
 7565.50000   79.21970  135.81840  111.64200    0.12420
 7566.00000   76.62880  131.86930  106.95110    0.11110
 7566.50000   75.33800  130.13400  103.11710    0.10130
 7567.00000   75.11530  129.65850  103.39840    0.09590
 7567.50000   75.11530  130.55580  105.35810    0.09540
 7568.00000   74.83330  131.44420  108.18840    0.10510
 7568.50000   74.49180  132.18340  110.89670    0.11400
 7569.00000   74.64350  132.69810  111.69870    0.12070
 7569.50000   75.05520  133.17950  111.65600    0.12300
 7570.00000   74.53460  130.15280  110.64580    0.11820
 7570.50000   72.93830  126.68450  109.75510    0.11060
 7571.00000   70.93050  123.23440  110.39790    0.10330
 7571.50000   69.68500  121.09750  111.19400    0.09890
 7572.00000   69.69910  121.14340  111.69680    0.09630
 7572.50000   70.18660  126.54970  111.53520    0.09740
 7573.00000   72.04730  131.85290  111.34750    0.10340
 7573.50000   74.21260  136.45350  111.15840    0.11020
 7574.00000   75.46510  135.17390  110.97860    0.11020
 7574.50000   75.77730  133.90460  110.81370    0.10740
 7575.00000   73.63590  132.64310  109.43530    0.10320
 7575.50000   71.92700  129.35910  108.08440    0.10260
 7576.00000   70.99540  125.62270  108.89210    0.10320
 7576.50000   70.09360  122.74480  111.58240    0.10350
 7577.00000   69.16780  123.47040  113.03500    0.09990
 7577.50000   68.23740  124.50350  112.52720    0.09710
 7578.00000   68.13220  123.70110  111.20480    0.09740
 7578.50000   68.63780  121.14660  109.42850    0.10570
 7579.00000   69.28270  116.49170  109.14210    0.10990
 7579.50000   70.00000  111.97730  110.44320    0.11200
 7580.00000   67.54360  102.96390  110.68780    0.10970
 7580.50000   63.84030   93.40770  110.05480    0.10450
 7581.00000   60.73220   86.57570  108.56600    0.10260
 7581.50000   62.15490   82.03010  108.42780    0.10910
 7582.00000   66.38470   79.41830  108.56570    0.12550
 7582.50000   70.79740   83.63090  108.26250    0.14320
 7583.00000   73.91170  106.92080  107.78530    0.14790
 7583.50000   72.94480  121.89570  107.79050    0.13530
 7584.00000   70.98310  128.56570  107.96800    0.11720
 7584.50000   68.31490  127.69390  107.52220    0.10230
 7585.00000   67.23170  126.48120  106.30570    0.09780
 7585.50000   68.43650  125.26840  105.21230    0.09940
 7586.00000   70.56420  124.05560  105.61340    0.10090
 7586.50000   71.71780  122.94890  106.79100    0.10430
 7587.00000   71.98600  124.66200  108.07530    0.11010
 7587.50000   74.33300  127.65800  109.89690    0.11660
 7588.00000   75.53660  128.96690  111.58720    0.12310
 7588.50000   73.95510  127.44610  112.61550    0.12360
 7589.00000   73.30990  126.15850  111.22990    0.12230
 7589.50000   75.52700  128.62060  109.05800    0.12300
 7590.00000   76.60380  130.99060  107.61970    0.12260
 7590.50000   76.74020  133.36070  106.93080    0.11820
 7591.00000   75.89230  133.60600  106.91600    0.10970
 7591.50000   74.77230  129.94440  106.92410    0.10170
 7592.00000   73.55070  127.31750  107.12410    0.09740
 7592.50000   71.75430  126.38410  107.73910    0.09700
 7593.00000   71.08330  126.90070  108.30140    0.10160
 7593.50000   71.88940  126.72350  109.02880    0.10630
 7594.00000   72.84810  126.37660  110.10000    0.10780
 7594.50000   73.55790  126.04090  111.19070    0.10230
 7595.00000   74.52920  127.14040  111.57960    0.09810
 7595.50000   74.69410  128.12600  111.06110    0.09430
 7596.00000   74.13920  127.95390  109.42860    0.09500
 7596.50000   73.85150  127.78170  107.74060    0.10060
 7597.00000   74.21260  127.61100  106.97190    0.10100
 7597.50000   73.85150  126.87600  107.45420    0.09600
 7598.00000   72.60830  125.92730  108.05350    0.09190
 7598.50000   70.92420  125.35610  108.66320    0.09140
 7599.00000   69.24610  123.96520  107.99880    0.09310
 7599.50000   67.95190  121.72690  105.60160    0.09000
 7600.00000   68.55340  120.14040  102.69920    0.08120
 7600.50000   69.43720  120.14040   99.75440    0.07230
 7601.00000   70.30090  120.73370  100.26170    0.07170
 7601.50000   71.73780  122.41930  103.43640    0.07870
 7602.00000   73.53710  123.39300  107.12970    0.08750
 7602.50000   72.73150  124.15340  109.98640    0.09630
 7603.00000   71.30000  124.30890  110.76820    0.10290
 7603.50000   70.41400  124.80080  109.61940    0.10280
 7604.00000   70.63030  125.68250  108.82620    0.10220
 7604.50000   71.24710  126.56430  106.87230    0.10480
 7605.00000   72.10630  127.44600  104.34730    0.11320
 7605.50000   74.18650  128.32780  102.42770    0.12340
 7606.00000   75.80660  128.96690  104.12350    0.12640
 7606.50000   75.85890  127.70500  107.77240    0.12220
 7607.00000   73.43030  125.48730  108.70250    0.11460
 7607.50000   71.26980  123.29770  106.18150    0.10830
 7608.00000   70.48140  121.86360  103.19680    0.10320
 7608.50000   71.30500  123.41630  102.74120    0.10020
 7609.00000   72.62480  124.96890  104.82410    0.10510
 7609.50000   73.92140  126.65700  107.08060    0.11140
 7610.00000   74.68630  128.65100  107.92710    0.11660
 7610.50000   75.29590  128.90970  108.61700    0.11570
 7611.00000   75.35610  128.56300  108.60780    0.11180
 7611.50000   74.56860  127.87290  108.24220    0.10790
 7612.00000   73.66980  127.18290  106.66770    0.10510
 7612.50000   72.82850  127.36210  105.32370    0.10370
 7613.00000   72.34700  127.76330  106.65650    0.10360
 7613.50000   71.32400  127.56270  107.66510    0.10320
 7614.00000   69.82550  125.18410  104.68520    0.09960
 7614.50000   68.72780  122.71960  100.40510    0.09200
 7615.00000   68.56620  120.25510   97.05730    0.08230
 7615.50000   67.97780  117.79050   96.35750    0.07250
 7616.00000   68.56170  117.77980   98.40050    0.07050
 7616.50000   69.96130  118.16800  102.52920    0.07700
 7617.00000   71.07040  119.12140  104.35800    0.08300
 7617.50000   72.17940  120.78230  103.27940    0.08650
 7618.00000   72.82850  122.85260  101.99410    0.08750
 7618.50000   73.31810  124.75480  101.53960    0.09060
 7619.00000   73.73120  124.65190  104.35330    0.09160
 7619.50000   74.60400  124.55810  108.29760    0.09100
 7620.00000   75.71710  126.32740  111.33370    0.09260
 7620.50000   75.02330  128.16450  112.89550    0.09420
 7621.00000   73.69650  127.76330  110.20530    0.09200
 7621.50000   72.46740  126.95790  107.05740    0.08900
 7622.00000   71.56470  126.01760  105.73910    0.08860
 7622.50000   69.57750  124.26170  104.71870    0.08920
