~Version ---------------------------------------------------
VERS.   2.0 : CWLS log ASCII Standard -VERSION 2.0
WRAP.    NO : One line per depth step
DLM . SPACE : Column Data Section Delimiter
~Well ------------------------------------------------------
STRT .FT                1480.0 : START DEPTH
STOP .FT                7241.0 : STOP DEPTH
STEP .FT                   0.5 : STEP
NULL .                -9999.25 : NULL VALUE
COMP .                         : COMPANY
WELL .                         : WELL
FLD  .                         : FIELD
LOC  .                         : LOCATION
PROV .                         : PROVINCE
CNTY .                         : COUNTY
STAT .                         : STATE
CTRY .                         : COUNTRY
SRVC .                         : SERVICE COMPANY
DATE .                         : DATE
UWI  .                         : UNIQUE WELL ID
API  .                         : API NUMBER
SLAT .WGS84  6.930437640000001 : SURFACE LATITUDE
SLON .WGS84 3.4176933500000075 : SURFACE LONGITUDE
DATUM.F                    nan : DEPTH DATUM ELEV
~Curve Information -----------------------------------------
DEPT   .FT    : 
AT10   .OHMM  : ARRAY INDUCTION TWO FOOT RESISTIVITY A10
AT20   .OHMM  : ARRAY INDUCTION TWO FOOT RESISTIVITY A20
AT30   .OHMM  : ARRAY INDUCTION TWO FOOT RESISTIVITY A30
AT60   .OHMM  : ARRAY INDUCTION TWO FOOT RESISTIVITY A60
AT90   .OHMM  : ARRAY INDUCTION TWO FOOT RESISTIVITY A90
DPHZ_LS.DEC   : HGRD STANDARD RESOLUTION DENSITY POROSITY
DTCO   .US/F  : DELTA-T COMPRESSIONAL
DTSM   .US/F  : DELTA-T SHEAR
ECGRS  .GAPI  : ENVIRONMENTALLY CORRECTED GAMMA RAY FROM SONIC LOG
HCALS  .IN    : HRCC CALIPER CALIBRATED FROM SONIC LOG
PEFZ   .B/E   : HRDD STANDARD RESOLUTION FORMATION PHOTOELECTRIC FACTOR
SPHI_LS.DEC   : SONIC POROSITY [LIMESTONE]
TENR   .LBF   : TENSION FROM RESISTIVITY LOG
TENS   .LBF   : TENSION FROM SONIC LOG
TNPH_LS.DEC   : THERMAL NEUTRON POROSITY [LIMESTONE]
~Params ----------------------------------------------------
~Other -----------------------------------------------------
~ASCII -----------------------------------------------------
# ...
 7184.00000   43.22160   45.10790   44.78930   46.91490   48.64970   -9999.25   55.41360   99.51080   -9999.25   -9999.25   -9999.25    0.05510 6819.32740 6859.55740   -9999.25
 7184.50000   45.43640   45.67500   45.63650   48.25230   52.40970   -9999.25   55.41360   99.51340   -9999.25   -9999.25   -9999.25    0.05520 6827.82730 6859.55740   -9999.25
 7185.00000   48.97310   49.84910   51.31840   55.53360   58.67640   -9999.25   55.41360   99.51610   -9999.25   -9999.25   -9999.25    0.05530 6853.72510 6862.20750   -9999.25
 7185.50000   53.44850   55.78120   55.04220   57.11670   60.16100   -9999.25   55.41360   99.51870   -9999.25   -9999.25   -9999.25    0.05520 6862.49710 6869.93660   -9999.25
 7186.00000   56.18730   58.63950   57.68220   57.65440   60.16100   -9999.25   55.40690   99.52130   -9999.25   -9999.25   -9999.25    0.05530 6882.84720 6877.66570   -9999.25
 7186.50000   58.33310   61.64420   58.77330   59.85620   62.45860   -9999.25   55.39570   99.52390   -9999.25   -9999.25   -9999.25    0.05510 6903.19730 6885.39480   -9999.25
 7187.00000   60.56080   64.80290   62.87380   63.91360   72.70340   -9999.25   55.38450   99.52650   -9999.25   -9999.25   -9999.25    0.05520 6882.65660 6869.43680   -9999.25
 7187.50000   63.66410   73.79080   74.99890   80.78360   88.46960   -9999.25   55.37330   99.52920   -9999.25   -9999.25   -9999.25    0.05530 6848.22710 6853.47880   -9999.25
 7188.00000   68.61950   82.77870   86.30110   91.24780   99.16030   -9999.25   55.36210   99.53180   -9999.25   -9999.25   -9999.25    0.05530 6813.23560 6837.52090   -9999.25
 7188.50000   71.24010   88.55930   93.01860   94.73250   99.16030   -9999.25   55.38240   99.53440   -9999.25   -9999.25   -9999.25    0.05510 6780.90790 6821.56290   -9999.25
 7189.00000   73.61460   88.55930   93.89430   95.62430  102.94730   -9999.25   55.41610   99.53700   -9999.25   -9999.25   -9999.25    0.05530 6822.98240 6849.27250   -9999.25
 7189.50000   85.48720   94.26740  102.15560  112.86900  128.46280   -9999.25   55.44990   99.53970   -9999.25   -9999.25   -9999.25    0.05530 6877.70610 6887.89900   -9999.25
 7190.00000  101.37300  130.38300  146.41360  152.12860  166.64790   -9999.25   55.48360   99.83120   -9999.25   -9999.25   -9999.25    0.05540 6920.93520 6926.52550   -9999.25
 7190.50000  121.90570  169.66910  190.67160  191.38810  204.83300   -9999.25   55.50690   99.85140   -9999.25   -9999.25   -9999.25    0.05570 6939.08080 6938.53780   -9999.25
 7191.00000  127.76220  208.95520  234.92970  230.64770  249.95100   -9999.25   55.42760   99.64380   -9999.25   -9999.25   -9999.25    0.05560 6919.60080 6922.79080   -9999.25
 7191.50000  131.98470  248.24130  279.18770  258.16720  296.80210   -9999.25   -9999.25   -9999.25   -9999.25   -9999.25   -9999.25   -9999.25 6900.12090 6907.04390   -9999.25
 7192.00000  135.80050  269.22170  317.41870  283.52600  337.32110   -9999.25   -9999.25   -9999.25   -9999.25   -9999.25   -9999.25   -9999.25 6872.31500 6901.44300   -9999.25
 7192.50000  141.00410  303.16530  345.34660  314.30680  345.85570   -9999.25   -9999.25   -9999.25   -9999.25   -9999.25   -9999.25   -9999.25 6844.50920 6879.85430   -9999.25
 7193.00000  160.30310  337.10890  365.31730  350.33020  398.32130   -9999.25   -9999.25   -9999.25   -9999.25   -9999.25   -9999.25   -9999.25 6827.82570 6862.19720   -9999.25
 7193.50000  178.08630  345.63740  416.52270  359.83480  433.06710   -9999.25   -9999.25   -9999.25   -9999.25   -9999.25   -9999.25   -9999.25 6827.82570 6845.14390   -9999.25
 7194.00000  167.53920  345.63740  432.42960  368.57830  449.60580   -9999.25   -9999.25   -9999.25   -9999.25   -9999.25   -9999.25   -9999.25 6855.02530 6866.65100   -9999.25
 7194.50000  154.07230  345.63740  408.79010  368.57830  449.60580   -9999.25   -9999.25   -9999.25   -9999.25   -9999.25   -9999.25   -9999.25 6909.42490 6893.53490   -9999.25
 7195.00000  148.40110  345.63740  394.34280  372.04800  391.87750   -9999.25   -9999.25   -9999.25   -9999.25   -9999.25   -9999.25   -9999.25 6936.62460 6920.41880   -9999.25
 7195.50000  153.49570  345.63740  381.04910  382.65420  387.01250   -9999.25   -9999.25   -9999.25   -9999.25   -9999.25   -9999.25   -9999.25 6963.82470 6945.30580   -9999.25
 7196.00000  156.88710  358.83720  375.73160  393.56280  409.36730   -9999.25   -9999.25   -9999.25   -9999.25   -9999.25   -9999.25   -9999.25 7004.62430 6962.20510   -9999.25
 7196.50000  158.90310  363.34880  379.26860  404.78230  431.72200   -9999.25   -9999.25   -9999.25   -9999.25   -9999.25   -9999.25   -9999.25 7018.22400 6979.10440   -9999.25
 7197.00000  157.86400  358.83720  358.53520  404.78230  449.60580   -9999.25   -9999.25   -9999.25   -9999.25   -9999.25   -9999.25   -9999.25 7018.22400 6990.59950   -9999.25
 7197.50000  159.30040  324.70840  332.64300  361.73570  427.69080   -9999.25   -9999.25   -9999.25   -9999.25   -9999.25   -9999.25   -9999.25 7004.62430 6980.47770   -9999.25
 7198.00000  159.05190  299.38880  329.54090  358.36220  438.51090   -9999.25   -9999.25   -9999.25   -9999.25   -9999.25   -9999.25   -9999.25 6963.82470 6970.35590   -9999.25
 7198.50000  154.14020  286.57430  311.52590  345.17990  387.01250   -9999.25   -9999.25   -9999.25   -9999.25   -9999.25   -9999.25   -9999.25 6923.02490 6961.15110   -9999.25
 7199.00000  142.23370  245.82970  275.19330  300.45590  329.89530   -9999.25   -9999.25   -9999.25   -9999.25   -9999.25   -9999.25   -9999.25 6923.02490 6928.82580   -9999.25
 7199.50000  135.23960  212.41440  238.86060  260.42270  272.77810   -9999.25   -9999.25   -9999.25   -9999.25   -9999.25   -9999.25   -9999.25 6923.02490 6960.21190   -9999.25
 7200.00000  131.00110  178.99910  202.52800  220.38950  234.80240   -9999.25   -9999.25   -9999.25   -9999.25   -9999.25   -9999.25   -9999.25 6923.02490 6957.86390   -9999.25
 7200.50000  118.85470  145.58380  166.19530  180.35630  182.69100   -9999.25   -9999.25   -9999.25   -9999.25   -9999.25   -9999.25   -9999.25 6936.62630 6919.37700   -9999.25
 7201.00000   95.07670  112.16840  129.86260  140.32310  146.60300   -9999.25   -9999.25   -9999.25   -9999.25   -9999.25   -9999.25   -9999.25 7004.62590 6962.02160   -9999.25
 7201.50000   83.85170  100.34350  106.05690  117.51420  128.90660   -9999.25   -9999.25   -9999.25   -9999.25   -9999.25   -9999.25   -9999.25 7072.62520 6996.88100   -9999.25
 7202.00000   83.74370   97.86750  103.11720  116.41820  118.11240   -9999.25   -9999.25   -9999.25   -9999.25   -9999.25   -9999.25   -9999.25 7099.14500 7031.74030   -9999.25
 7202.50000   83.96730   95.45250  102.15560  114.25700  121.10080   -9999.25   -9999.25   -9999.25   -9999.25   -9999.25   -9999.25   -9999.25 6979.14310 6988.04960   -9999.25
 7203.00000   82.54860   89.67250  100.25900  110.05400  116.64610   -9999.25   -9999.25   -9999.25   -9999.25   -9999.25   -9999.25   -9999.25 6928.33150 6958.94370   -9999.25
 7203.50000   82.70110   88.55930   93.89430  107.00360  109.58280   -9999.25   -9999.25   -9999.25   -9999.25   -9999.25   -9999.25   -9999.25 6918.60990 6929.83790   -9999.25
 7204.00000   83.80240   89.67250   94.77810  113.25470  119.14430   -9999.25   -9999.25   -9999.25   -9999.25   -9999.25   -9999.25   -9999.25 6876.95740 6923.08990   -9999.25
 7204.50000   96.48390   97.13490  101.20290  124.07780  132.78390   -9999.25   -9999.25   -9999.25   -9999.25   -9999.25   -9999.25   -9999.25 6862.45520 6951.38230   -9999.25
 7205.00000  103.63130  109.57210  114.31210  132.73620  142.45550   -9999.25   -9999.25   -9999.25   -9999.25   -9999.25   -9999.25   -9999.25 6880.29660 6942.99880   -9999.25
 7205.50000  116.94150  119.52190  123.20990  134.78310  145.09560   -9999.25   -9999.25   -9999.25   -9999.25   -9999.25   -9999.25   -9999.25 6899.22670 6924.14850   -9999.25
 7206.00000  118.89750  118.88600  125.54050  137.34180  147.73570   -9999.25   -9999.25   -9999.25   -9999.25   -9999.25   -9999.25   -9999.25 6927.11410 6950.52360   -9999.25
 7206.50000  114.87750  118.03820  124.70820  139.90040  150.37580   -9999.25   -9999.25   -9999.25   -9999.25   -9999.25   -9999.25   -9999.25 6967.09630 6966.62930   -9999.25
