~Version ---------------------------------------------------
VERS.   2.0 : CWLS log ASCII Standard -VERSION 2.0
WRAP.    NO : One line per depth step
DLM . SPACE : Column Data Section Delimiter
~Well ------------------------------------------------------
STRT .FT                1480.0 : START DEPTH
STOP .FT                7241.0 : STOP DEPTH
STEP .FT                   0.5 : STEP
NULL .                -9999.25 : NULL VALUE
COMP .                         : COMPANY
WELL .                         : WELL
FLD  .                         : FIELD
LOC  .                         : LOCATION
PROV .                         : PROVINCE
CNTY .                         : COUNTY
STAT .                         : STATE
CTRY .                         : COUNTRY
SRVC .                         : SERVICE COMPANY
DATE .                         : DATE
UWI  .                         : UNIQUE WELL ID
API  .                         : API NUMBER
SLAT .WGS84  6.930437640000001 : SURFACE LATITUDE
SLON .WGS84 3.4176933500000075 : SURFACE LONGITUDE
DATUM.F                    nan : DEPTH DATUM ELEV
~Curve Information -----------------------------------------
DEPT   .FT    : 
AT10   .OHMM  : ARRAY INDUCTION TWO FOOT RESISTIVITY A10
AT20   .OHMM  : ARRAY INDUCTION TWO FOOT RESISTIVITY A20
AT30   .OHMM  : ARRAY INDUCTION TWO FOOT RESISTIVITY A30
AT60   .OHMM  : ARRAY INDUCTION TWO FOOT RESISTIVITY A60
AT90   .OHMM  : ARRAY INDUCTION TWO FOOT RESISTIVITY A90
DPHZ_LS.DEC   : HGRD STANDARD RESOLUTION DENSITY POROSITY
DTCO   .US/F  : DELTA-T COMPRESSIONAL
DTSM   .US/F  : DELTA-T SHEAR
ECGRS  .GAPI  : ENVIRONMENTALLY CORRECTED GAMMA RAY FROM SONIC LOG
HCALS  .IN    : HRCC CALIPER CALIBRATED FROM SONIC LOG
PEFZ   .B/E   : HRDD STANDARD RESOLUTION FORMATION PHOTOELECTRIC FACTOR
SPHI_LS.DEC   : SONIC POROSITY [LIMESTONE]
TENR   .LBF   : TENSION FROM RESISTIVITY LOG
TENS   .LBF   : TENSION FROM SONIC LOG
TNPH_LS.DEC   : THERMAL NEUTRON POROSITY [LIMESTONE]
~Params ----------------------------------------------------
~Other -----------------------------------------------------
~ASCII -----------------------------------------------------
# ...
 1503.00000   -9999.25   -9999.25   -9999.25   -9999.25   -9999.25   -9999.25   -9999.25  239.74540   72.92000   -9999.25   -9999.25   -9999.25   -9999.25   -9999.25    0.62760
 1503.50000   -9999.25   -9999.25   -9999.25   -9999.25   -9999.25   -9999.25   -9999.25  239.71600   73.91550   -9999.25   -9999.25   -9999.25   -9999.25   -9999.25    0.69920
 1504.00000   -9999.25   -9999.25   -9999.25   -9999.25   -9999.25   -9999.25   -9999.25  239.68650   72.88480   -9999.25   -9999.25   -9999.25   -9999.25   -9999.25    0.69930
 1504.50000   -9999.25   -9999.25   -9999.25   -9999.25   -9999.25   -9999.25   -9999.25  239.65710   71.05980   -9999.25   -9999.25   -9999.25   -9999.25   -9999.25    0.63250
 1505.00000   -9999.25   -9999.25   -9999.25   -9999.25   -9999.25   -9999.25   -9999.25  223.85130   69.75890   -9999.25   -9999.25   -9999.25   -9999.25   -9999.25    0.58370
 1505.50000   -9999.25   -9999.25   -9999.25   -9999.25   -9999.25   -9999.25   -9999.25  223.53750   69.05960   -9999.25   -9999.25   -9999.25   -9999.25   -9999.25    0.59620
 1506.00000   -9999.25   -9999.25   -9999.25   -9999.25   -9999.25   -9999.25   -9999.25  223.30220   66.37400   -9999.25   -9999.25   -9999.25   -9999.25   -9999.25    0.63470
 1506.50000   -9999.25   -9999.25   -9999.25   -9999.25   -9999.25   -9999.25   -9999.25  223.71410   62.86030   -9999.25   -9999.25   -9999.25   -9999.25   -9999.25    0.57640
 1507.00000   -9999.25   -9999.25   -9999.25   -9999.25   -9999.25   -9999.25   -9999.25  224.40050   57.60900   -9999.25   -9999.25   -9999.25   -9999.25   -9999.25    0.55590
 1507.50000   -9999.25   -9999.25   -9999.25   -9999.25   -9999.25   -9999.25   -9999.25  225.36150   53.97680   -9999.25   -9999.25   -9999.25   -9999.25   -9999.25    0.53540
 1508.00000    2.49040    7.66520    1.61260    1.25620    1.21390   -0.10080   -9999.25  226.04790   52.81580    8.79340    9.00840   -9999.25 3052.19690 3054.24540    0.52950
 1508.50000    1.88720    4.23510    1.42310    1.25600    1.20060   -0.09970   -9999.25  227.55810   65.40860    8.83150    8.10420   -9999.25 3052.19690 3036.22340    0.51170
 1509.00000    1.12560    1.53630    0.67240    0.57160    0.53590    0.15940   -9999.25  230.16660   80.15840    9.11890    6.21870   -9999.25 3052.91780 3034.77710    0.47520
 1509.50000    0.93790    1.02500    0.81130    0.73790    0.58630    0.24350   -9999.25  232.68350   94.83080    9.26900    4.73130   -9999.25 3052.91780 3033.33080    0.43720
 1510.00000    1.26080    2.32440    1.09040    0.87010    0.73350    0.26030   -9999.25  235.77830  102.55270    9.25440    3.67910   -9999.25 3052.91780 3038.99660    0.41720
 1510.50000    1.45460    1.89040    1.18020    1.04110    1.00730    0.25820   -9999.25  237.00970  107.43230    9.12980    3.36720   -9999.25 3046.64430 3029.27970    0.42460
 1511.00000    1.17220    1.43390    1.03450    0.99580    0.83540    0.24990   -9999.25  238.54360  104.24750    8.99680    3.32410   -9999.25 3039.84430 3019.56290    0.44930
 1511.50000    0.86400    0.99590    0.88880    0.95050    0.71760    0.24120   -9999.25  238.81570  105.12610    8.90780    3.34690   -9999.25 3028.51100 3009.84610    0.45700
 1512.00000    0.55580    0.88960    0.74310    0.90520    0.66450    0.23510   -9999.25  238.00300  105.93050    8.90520    3.28520   -9999.25 3019.44430 3000.12930    0.43920
 1512.50000    0.55580    0.85160    0.64750    0.83160    0.62040    0.23200   -9999.25  236.80800  106.73490    8.93980    3.25560   -9999.25 3026.47870 2990.41250    0.42890
 1513.00000    0.62510    0.80070    0.64110    0.74240    0.62720    0.23410   -9999.25  235.02220  107.37800    8.89410    3.23580   -9999.25 3033.51320 2980.69560    0.42060
 1513.50000    0.68740    0.74970    0.66250    0.70680    0.68690    0.23770   -9999.25  233.22490  104.38760    8.90840    3.21600   -9999.25 3040.54760 2997.25620    0.42060
 1514.00000    0.64310    0.69870    0.68120    0.70680    0.74650    0.24270   -9999.25  233.14310  100.74470    8.92910    3.20110   -9999.25 3047.58210 3020.38620    0.44050
 1514.50000    0.60740    0.64770    0.69990    0.74560    0.80610    0.24740   -9999.25  232.15070   96.45220    8.94970    3.24100   -9999.25 3054.61650 3043.51610    0.45880
 1515.00000    0.59510    0.64290    0.71860    0.79420    0.84630    0.24590   -9999.25  231.15840   87.85020    8.89030    3.33600   -9999.25 3059.48850 3062.02010    0.45700
 1515.50000    0.61270    0.64350    0.73730    0.84280    0.88160    0.23950   -9999.25  230.83600   87.38270    8.93300    3.41500   -9999.25 3055.71080 3062.02010    0.40220
 1516.00000    0.59450    0.64100    0.74290    0.81240    0.87880    0.24420   -9999.25  228.86250   89.95410    8.94490    3.39720   -9999.25 3051.93310 3062.02010    0.40300
 1516.50000    0.54980    0.63850    0.66390    0.76240    0.81890    0.25480   -9999.25  228.11020   98.97110    8.95680    3.36720   -9999.25 3048.15540 3062.02010    0.40930
 1517.00000    0.53990    0.64200    0.66080    0.76130    0.78300    0.26300   -9999.25  226.76550  102.75050    8.96870    3.34690   -9999.25 3047.58220 3062.02010    0.43790
 1517.50000    0.57490    0.65300    0.68630    0.80630    0.84860    0.25040   -9999.25  226.37000  104.48220    8.97590    3.35140   -9999.25 3049.92700 3062.02010    0.43590
 1518.00000    0.60040    0.65950    0.70760    0.85120    0.91430    0.23980   -9999.25  226.57900   99.65230    8.93820    3.33830   -9999.25 3052.27180 3062.02010    0.41300
 1518.50000    0.60280    0.64750    0.71200    0.89620    0.94780    0.23910   -9999.25  226.46950   93.99720    8.88030    3.32530   -9999.25 3054.61660 3062.02010    0.39810
 1519.00000    0.57890    0.63560    0.71170    0.84290    0.91840    0.25400   -9999.25  227.22700   92.87420    8.87230    3.31230   -9999.25 3056.96140 3064.17820    0.37520
 1519.50000    0.55910    0.62360    0.69200    0.81090    0.88910    0.26190   -9999.25  227.57480   96.94460    8.85330    3.31540   -9999.25 3059.30610 3066.62140    0.40860
 1520.00000    0.55370    0.61410    0.67230    0.81090    0.90760    0.26180   -9999.25  227.81430  101.19980    8.82960    3.35890   -9999.25 3063.16070 3069.06460    0.39250
 1520.50000    0.57550    0.64400    0.70560    0.82800    0.94820    0.25510   -9999.25  229.40830  101.48750    8.82240    3.40940   -9999.25 3068.02180 3069.18440    0.39610
 1521.00000    0.59970    0.67400    0.73890    0.85650    0.98880    0.24520   -9999.25  231.46320  100.35470    8.80950    3.44470   -9999.25 3072.88290 3065.81920    0.39100
 1521.50000    0.60840    0.69080    0.73200    0.88500    1.00730    0.24010   -9999.25  234.18240  103.39140    8.78190    3.47120   -9999.25 3053.45520 3062.45400    0.40540
 1522.00000    0.57420    0.65530    0.69810    0.83830    0.93830    0.24310   -9999.25  236.90160  108.40030    8.75420    3.49820   -9999.25 3019.45540 3059.08880    0.44000
 1522.50000    0.55220    0.61970    0.66430    0.77980    0.85200    0.24900   -9999.25  238.83450  111.35530    8.72950    3.50810   -9999.25 3023.98870 3058.20140    0.48130
 1523.00000    0.53690    0.58410    0.63050    0.72140    0.78300    0.25460   -9999.25  239.88750  107.14820    8.73770    3.53040   -9999.25 3069.32170 3058.96570    0.49080
 1523.50000    0.54740    0.60030    0.63580    0.71720    0.78190    0.24910   -9999.25  240.00830  101.50320    8.75690    3.55560   -9999.25 3114.65480 3059.73010    0.50150
 1524.00000    0.56190    0.60700    0.65590    0.74910    0.79430    0.23870   -9999.25   -9999.25  100.84530    8.80800    3.51410   -9999.25 3096.10940 3060.09760    0.45210
 1524.50000    0.57330    0.61370    0.63160    0.75070    0.80670    0.23180   -9999.25   -9999.25  101.25630    8.85910    3.45440   -9999.25 3065.20050 3059.86980    0.46300
 1525.00000    0.56800    0.62040    0.64120    0.73210    0.78330    0.23330   -9999.25   -9999.25  103.25590    8.87960    3.39470   -9999.25 3048.35510 3059.64210    0.45650
 1525.50000    0.58010    0.63080    0.66520    0.74010    0.76600    0.23680   -9999.25   -9999.25  104.70210    8.87900    3.25040   -9999.25 3052.60500 3059.41440    0.48370
