~Version ---------------------------------------------------
VERS.   2.0 : CWLS log ASCII Standard -VERSION 2.0
WRAP.    NO : One line per depth step
DLM . SPACE : Column Data Section Delimiter
~Well ------------------------------------------------------
STRT .FT                1480.0 : START DEPTH
STOP .FT                7241.0 : STOP DEPTH
STEP .FT                   0.5 : STEP
NULL .                -9999.25 : NULL VALUE
COMP .                         : COMPANY
WELL .                         : WELL
FLD  .                         : FIELD
LOC  .                         : LOCATION
PROV .                         : PROVINCE
CNTY .                         : COUNTY
STAT .                         : STATE
CTRY .                         : COUNTRY
SRVC .                         : SERVICE COMPANY
DATE .                         : DATE
UWI  .                         : UNIQUE WELL ID
API  .                         : API NUMBER
SLAT .WGS84  6.930437640000001 : SURFACE LATITUDE
SLON .WGS84 3.4176933500000075 : SURFACE LONGITUDE
DATUM.F                    nan : DEPTH DATUM ELEV
~Curve Information -----------------------------------------
DEPT   .FT    : 
AT10   .OHMM  : ARRAY INDUCTION TWO FOOT RESISTIVITY A10
AT20   .OHMM  : ARRAY INDUCTION TWO FOOT RESISTIVITY A20
AT30   .OHMM  : ARRAY INDUCTION TWO FOOT RESISTIVITY A30
AT60   .OHMM  : ARRAY INDUCTION TWO FOOT RESISTIVITY A60
AT90   .OHMM  : ARRAY INDUCTION TWO FOOT RESISTIVITY A90
DPHZ_LS.DEC   : HGRD STANDARD RESOLUTION DENSITY POROSITY
DTCO   .US/F  : DELTA-T COMPRESSIONAL
DTSM   .US/F  : DELTA-T SHEAR
ECGRS  .GAPI  : ENVIRONMENTALLY CORRECTED GAMMA RAY FROM SONIC LOG
HCALS  .IN    : HRCC CALIPER CALIBRATED FROM SONIC LOG
PEFZ   .B/E   : HRDD STANDARD RESOLUTION FORMATION PHOTOELECTRIC FACTOR
SPHI_LS.DEC   : SONIC POROSITY [LIMESTONE]
TENR   .LBF   : TENSION FROM RESISTIVITY LOG
TENS   .LBF   : TENSION FROM SONIC LOG
TNPH_LS.DEC   : THERMAL NEUTRON POROSITY [LIMESTONE]
~Params ----------------------------------------------------
~Other -----------------------------------------------------
~ASCII -----------------------------------------------------
# ...
 4539.00000    4.74690    4.68240    4.59540    4.53110    4.47870    0.08010   84.91330  163.35400  137.56100    9.02470    3.38520    0.26820 4110.32140 4117.89040    0.30870
 4539.50000    4.72270    4.65850    4.57190    4.50800    4.45580    0.07550   85.53370  163.65930  137.43480    9.04030    3.40800    0.27160 4198.78500 4202.60490    0.30060
 4540.00000    4.69850    4.63460    4.54850    4.48490    4.43300    0.06800   86.49040  163.90420  134.90970    9.05580    3.51000    0.27460 4301.22150 4253.42590    0.28750
 4540.50000    4.68250    4.62670    4.54070    4.47730    4.41790    0.05110   86.43590  164.30570  133.34670    9.04310    3.61210    0.27670 4200.45240 4219.23250    0.28560
 4541.00000    4.69900    4.64280    4.55650    4.49280    4.43350    0.03140   86.28880  163.91870  132.09420    9.01510    3.73690    0.27100 4083.57970 4158.42810    0.28780
 4541.50000    4.71560    4.65880    4.57220    4.50840    4.44910    0.00650   86.26830  164.10810  131.14660    8.94260    3.77110    0.27320 4168.97170 4083.07240    0.29260
 4542.00000    4.73210    4.67490    4.58800    4.52390    4.46480   -0.00020   86.24780  164.06560  127.07090    8.95750    3.73180    0.27330 4216.37110 4184.42200    0.29310
 4542.50000    4.74870    4.69090    4.60380    4.53940    4.48040    0.01750   86.23120  163.67240  125.65720    8.95650    3.65030    0.26860 4281.92950 4319.70910    0.28330
 4543.00000    4.76530    4.70700    4.61950    4.55500    4.49600    0.05210   85.67710  163.40600  127.90290    8.96950    3.56880    0.26910 4112.81480 4200.74850    0.27480
 4543.50000    4.78180    4.72300    4.63530    4.57050    4.51170    0.07100   85.59820  163.22310  131.43830    8.98840    3.48730    0.26750 3992.25170 4200.44120    0.27300
 4544.00000    4.79840    4.73910    4.65100    4.58610    4.52730    0.07470   85.46880  162.90910  133.01340    9.00730    3.41560    0.26620 4249.01950 4200.13270    0.27120
 4544.50000    4.81500    4.75520    4.66680    4.60160    4.54290    0.07560   85.33940  162.59510  130.58170    9.01870    3.45170    0.26570 4296.10900 4291.16260    0.26430
 4545.00000    4.83150    4.77120    4.68260    4.61710    4.55850    0.07790   85.31270  162.29870  130.10210    9.00950    3.48790    0.26510 4132.69730 4214.90600    0.25950
 4545.50000    4.84810    4.78730    4.69830    4.63270    4.57420    0.06960   85.46270  162.45770  129.03860    9.00120    3.52410    0.26780 4124.91680 4064.86420    0.26440
 4546.00000    4.85800    4.79690    4.70780    4.64200    4.58350    0.05470   85.55160  162.56110  129.87870    9.00300    3.55030    0.26780 4135.91140 4089.76150    0.27250
 4546.50000    4.90380    4.84210    4.75210    4.68570    4.62670    0.04710   85.53380  161.96050  132.10640    9.01140    3.54280    0.26730 4169.09330 4139.91010    0.26760
 4547.00000    4.90380    4.84210    4.75210    4.68570    4.62670    0.05420   85.51590  162.36910  130.36020    9.01970    3.50300    0.26840 4152.06270 4190.05860    0.25790
 4547.50000    4.81270    4.75210    4.66380    4.59870    4.54070    0.06560   85.61440  162.52410  128.31220    8.97700    3.46580    0.26990 4136.41060 4164.22620    0.26030
 4548.00000    4.81270    4.75210    4.66380    4.59870    4.54070    0.06700   85.79030  162.44800  127.00710    9.01050    3.46580    0.27150 4121.67750 4167.21370    0.27620
 4548.50000    4.81270    4.75210    4.66380    4.59870    4.54070    0.06540   85.74660  162.27320  130.93600    8.99610    3.44410    0.26930 4156.58160 4226.69170    0.28650
 4549.00000    4.81270    4.75210    4.66380    4.59870    4.54070    0.06990   85.44860  161.56160  134.31030    8.97010    3.41940    0.26600 4212.44230 4175.89150    0.27840
 4549.50000    4.73950    4.67990    4.59290    4.52880    4.47170    0.07500   84.93880  161.03960  135.80220    8.94410    3.38860    0.26470 4215.60700 4125.09130    0.27620
 4550.00000    4.66640    4.60770    4.52200    4.45890    4.40270    0.07580   84.68310  160.51760  132.41610    8.95240    3.39230    0.26310 4205.35050 4125.96480    0.28470
 4550.50000    4.59320    4.53540    4.45110    4.38900    4.33370    0.07360   84.62910  160.14010  130.07960    8.93800    3.40010    0.26070 4193.32670 4126.83840    0.28180
 4551.00000    4.60730    4.54930    4.46480    4.40240    4.34700    0.06710   83.86660  157.95940  129.09990    8.91890    3.40790    0.25460 4128.48190 4127.71190    0.28710
 4551.50000    4.97500    4.91240    4.82110    4.75380    4.69390    0.06350   83.18890  155.54900  129.59950    8.89850    3.41580    0.25160 4123.89120 4160.32110    0.27830
 4552.00000    5.28590    5.21940    5.12240    5.05090    4.98720    0.06530   82.68060  155.44700  126.61650    8.87810    3.42820    0.24800 4148.72160 4226.39040    0.27120
 4552.50000    5.17300    5.10510    5.01020    4.94020    4.84890    0.06810   81.45230  153.44190  123.71280    8.85760    3.42820    0.23970 4173.55190 4279.24580    0.25430
 4553.00000    5.09980    5.03560    4.94210    4.87300    4.62840    0.07140   80.64750  151.53970  122.64040    8.85530    3.42820    0.23520 4199.61460 4189.72660    0.23870
 4553.50000    5.26270    5.23360    5.13640    5.06460    4.68230    0.07470   80.47800  151.10300  120.00600    8.87270    3.42080    0.23340 4184.71540 4081.96440    0.22310
 4554.00000    5.53430    5.48110    5.37930    5.30410    5.03420    0.07410   80.30860  151.16790  114.50140    8.86750    3.44810    0.23070 4184.71540 4148.34700    0.20900
 4554.50000    5.80570    5.73260    5.62610    5.54750    5.47770    0.06510   80.13920  151.34650  111.01870    8.86090    3.46750    0.22860 4193.97620 4179.55060    0.20600
 4555.00000    5.80570    5.73260    5.52160    5.49570    5.47770    0.05620   79.88500  151.48860  115.41670    8.85440    3.46010    0.22860 4202.05710 4210.75410    0.21110
 4555.50000    5.49290    5.40420    5.30380    5.22970    5.11850    0.04710   79.80030  151.81710  123.91360    8.84810    3.43030    0.22990 4186.00260 4183.04970    0.22290
 4556.00000    5.31620    5.24940    5.15180    5.07980    4.80360    0.04790   80.22390  152.23620  122.01390    8.90590    3.42750    0.23080 4169.94810 4152.30010    0.22680
 4556.50000    5.42360    5.35540    5.25580    5.18240    5.08170    0.04800   80.90160  152.91960  118.20870    8.99050    3.42480    0.23430 4153.89360 4121.55050    0.23040
 4557.00000    5.48800    5.36840    5.26860    5.19500    5.17790    0.04840   81.66400  153.66790  116.14480    9.01310    3.42210    0.24100 4137.83910 4143.25370    0.24910
 4557.50000    5.26500    5.19530    5.09870    5.02750    4.96750    0.05030   82.34180  154.16520  126.64730    9.03570    3.41930    0.24480 4121.78460 4166.44410    0.25500
 4558.00000    5.16020    5.07460    4.98030    4.91070    4.86860    0.05520   82.79240  154.66240  134.96300    9.22200    3.39600    0.24660 4196.38040 4140.62340    0.25490
 4558.50000    5.13920    5.02720    4.93380    4.86490    4.84890    0.06430   83.14400  155.15970  134.41820    9.12370    3.33860    0.25070 4243.77650 4136.37270    0.24950
 4559.00000    5.04370    4.98030    4.88770    4.81950    4.75880    0.07040   83.80240  155.45060  132.96510    9.09990    3.30690    0.25570 4284.37190 4200.28220    0.25150
 4559.50000    5.04370    4.98030    4.88770    4.81950    4.75880    0.07640   83.60110  155.07880  131.50060    9.13060    3.33950    0.25410 4304.56820 4251.72140    0.25700
 4560.00000    5.04370    4.98030    4.88770    4.81950    4.75880    0.07820   83.30400  154.75050  129.42750    9.14040    3.37720    0.25140 4298.24910 4285.53700    0.26500
 4560.50000    5.06780    5.01600    4.92280    4.85400    4.78150    0.07410   83.82730  155.08620  127.26310    9.10320    3.42010    0.25590 4239.05300 4282.92660    0.27240
 4561.00000    5.12810    5.07550    4.98120    4.91160    4.83840    0.06560   83.52640  155.45840  124.22660    9.00970    3.44620    0.25320 4308.66070 4313.98150    0.26400
 4561.50000    5.18840    5.13500    5.03960    4.96920    4.89520    0.05450   82.17450  155.67020  122.69830    8.99670    3.45710    0.24430 4351.91820 4345.03640    0.25910
