~Version ---------------------------------------------------
VERS.   2.0 : CWLS log ASCII Standard -VERSION 2.0
WRAP.    NO : One line per depth step
DLM . SPACE : Column Data Section Delimiter
~Well ------------------------------------------------------
STRT .FT                1480.0 : START DEPTH
STOP .FT                7241.0 : STOP DEPTH
STEP .FT                   0.5 : STEP
NULL .                -9999.25 : NULL VALUE
COMP .                         : COMPANY
WELL .                         : WELL
FLD  .                         : FIELD
LOC  .                         : LOCATION
PROV .                         : PROVINCE
CNTY .                         : COUNTY
STAT .                         : STATE
CTRY .                         : COUNTRY
SRVC .                         : SERVICE COMPANY
DATE .                         : DATE
UWI  .                         : UNIQUE WELL ID
API  .                         : API NUMBER
SLAT .WGS84  6.930437640000001 : SURFACE LATITUDE
SLON .WGS84 3.4176933500000075 : SURFACE LONGITUDE
DATUM.F                    nan : DEPTH DATUM ELEV
~Curve Information -----------------------------------------
DEPT   .FT    : 
AT10   .OHMM  : ARRAY INDUCTION TWO FOOT RESISTIVITY A10
AT20   .OHMM  : ARRAY INDUCTION TWO FOOT RESISTIVITY A20
AT30   .OHMM  : ARRAY INDUCTION TWO FOOT RESISTIVITY A30
AT60   .OHMM  : ARRAY INDUCTION TWO FOOT RESISTIVITY A60
AT90   .OHMM  : ARRAY INDUCTION TWO FOOT RESISTIVITY A90
DPHZ_LS.DEC   : HGRD STANDARD RESOLUTION DENSITY POROSITY
DTCO   .US/F  : DELTA-T COMPRESSIONAL
DTSM   .US/F  : DELTA-T SHEAR
ECGRS  .GAPI  : ENVIRONMENTALLY CORRECTED GAMMA RAY FROM SONIC LOG
HCALS  .IN    : HRCC CALIPER CALIBRATED FROM SONIC LOG
PEFZ   .B/E   : HRDD STANDARD RESOLUTION FORMATION PHOTOELECTRIC FACTOR
SPHI_LS.DEC   : SONIC POROSITY [LIMESTONE]
TENR   .LBF   : TENSION FROM RESISTIVITY LOG
TENS   .LBF   : TENSION FROM SONIC LOG
TNPH_LS.DEC   : THERMAL NEUTRON POROSITY [LIMESTONE]
~Params ----------------------------------------------------
~Other -----------------------------------------------------
~ASCII -----------------------------------------------------
# ...
 3021.00000    8.97430    8.66390    8.54720    8.27330    8.08830    0.06290   62.51370  117.26800   44.15100    8.73700    5.00100    0.10470 3777.30270 3774.18970    0.10380
 3021.50000    8.38780    8.09590    7.86730    7.67280    7.44500    0.06490   62.41690  117.39820   41.51470    8.74010    5.00680    0.10460 3783.14700 3781.90500    0.10020
 3022.00000    7.75940    7.48440    7.32810    7.14690    6.93470    0.06170   62.50990  117.54780   41.81280    8.73690    5.01250    0.10580 3764.44920 3782.52970    0.10430
 3022.50000    7.04640    6.79520    6.65320    6.48870    6.29610    0.06140   62.60300  117.46810   45.19400    8.73770    5.01820    0.10660 3765.29340 3783.15430    0.10450
 3023.00000    6.27710    6.10590    5.97840    5.83060    5.65740    0.06740   62.69600  117.48010   50.15290    8.73850    5.02400    0.10670 3786.17820 3783.77900    0.10430
 3023.50000    5.50770    5.51280    5.35710    5.26420    5.10790    0.07680   62.78900  117.89360   50.14810    8.73930    5.02970    0.10640 3795.44720 3784.40370    0.10440
 3024.00000    5.63530    5.45860    5.34460    5.21250    5.05770    0.08240   62.94190  118.16280   49.73080    8.75040    5.03550    0.10970 3790.47820 3785.02830    0.11160
 3024.50000    5.93370    5.80390    5.68270    5.54220    5.37760    0.08330   63.47770  117.97920   50.11190    8.74980    5.04120    0.11380 3805.34810 3785.65300    0.11720
 3025.00000    6.10690    6.08010    5.95320    5.80590    5.63360    0.07570   62.91200  117.87820   53.64250    8.75670    5.01800    0.10780 3776.29380 3786.27760    0.11410
 3025.50000    6.34060    6.17240    6.04350    5.89410    5.71910    0.06740   63.09640  117.77720   62.15720    8.76430    4.94170    0.10830 3747.23960 3786.90230    0.10700
 3026.00000    7.15180    6.84520    6.81830    6.64970    6.45220    0.06470   62.19230  117.67620   67.11760    8.73980    4.91110    0.10250 3770.67090 3787.52700    0.10720
 3026.50000    8.57300    7.91630    7.75100    7.55940    7.33490    0.06280   62.18540  117.49080   66.55460    8.71540    4.91420    0.10390 3813.08970 3822.41820    0.10360
 3027.00000    9.54440    8.99660    8.87530    8.59090    8.33580    0.05540   62.17180  117.29390   60.03470    8.71940    4.93070    0.10040 3827.47960 3813.29450    0.10010
 3027.50000    9.34440    9.13320    8.94250    8.72140    8.46240    0.04760   61.80770  117.08230   57.51710    8.76370    4.94730    0.09810 3823.18360 3804.17080    0.09710
 3028.00000    9.14440    9.16800    8.97650    8.75460    8.49470    0.04500   61.44360  117.02120   58.70910    8.75890    4.96390    0.09820 3818.88760 3795.04720    0.09540
 3028.50000    9.40560    9.34200    9.14690    8.92070    8.65590    0.04290   61.58570  117.29110   60.31740    8.77810    4.98040    0.09850 3809.52490 3785.92350    0.09360
 3029.00000    9.85770    9.70620    9.50350    9.26850    8.99330    0.03770   61.73600  117.24080   60.68680    8.79170    4.99700    0.10150 3792.56200 3776.79980    0.09190
 3029.50000   10.52730    9.99750    9.78870    9.54670    9.26320    0.03600   61.84250  117.49830   58.48840    8.83170    5.01350    0.10160 3785.34360 3767.67610    0.09020
 3030.00000   11.03330   10.38880   10.17190    9.92030    9.62580    0.03480   61.94900  117.39730   57.09370    8.87160    5.03620    0.10170 3743.77160 3758.55250    0.09200
 3030.50000   11.14080   10.70230   10.47880   10.21970    9.91630    0.03650   62.05550  117.59150   59.80990    8.89330    5.00570    0.10210 3698.28890 3749.42880    0.09640
 3031.00000   10.83420   10.46590   10.24740    9.99410    9.69740    0.04200   62.15890  117.67390   65.99370    8.92010    4.97740    0.10270 3733.07130 3740.30510    0.10070
 3031.50000   10.43790   10.08770    9.87700    9.63290    9.34690    0.05100   62.15950  117.75640   68.58130    8.88740    4.95480    0.10250 3767.85370 3731.18140    0.10510
 3032.00000   10.15070    9.70940    9.50670    9.27170    8.99650    0.05970   62.28120  117.83890   66.74130    8.82120    5.00970    0.10330 3766.57080 3719.08800    0.11040
 3032.50000    9.59270    9.33120    9.13640    8.91050    8.64600    0.05500   62.40290  117.95480   64.82210    8.75500    5.04540    0.10350 3778.51240 3719.08800    0.10750
 3033.00000    9.21160    8.95290    8.76600    8.54930    8.29560    0.05290   62.52450  118.20450   62.16910    8.72850    5.07490    0.10420 3781.33110 3719.08800    0.10440
 3033.50000    9.12820    8.74660    8.56410    8.35240    8.10450    0.05040   62.64180  118.63720   58.23840    8.65150    5.11550    0.10650 3692.37410 3724.74710    0.10120
 3034.00000    9.07890    8.68330    8.56650    8.29170    8.04580    0.05910   63.04950  119.52860   54.98780    8.56170    5.14810    0.10970 3727.62800 3734.17890    0.09940
 3034.50000    9.90320    9.50590    9.30750    9.07750    8.80810    0.06420   63.53830  119.83220   59.08640    8.62620    5.07830    0.11400 3762.88200 3743.61070    0.10140
 3035.00000   10.31650   10.02470    9.81510    9.57290    9.28840    0.06050   64.02710  120.35470   69.48540    8.69850    4.90400    0.11620 3742.31070 3720.03690    0.10770
 3035.50000    9.70960    9.13280    8.98680    8.76470    8.50460    0.05490   64.44030  120.57400   77.53320    8.74460    4.72960    0.11800 3746.59670 3709.33710    0.11320
 3036.00000    8.69660    8.24090    8.15800    7.95640    7.72040    0.04940   64.73080  120.96550   79.38660    8.73000    4.65540    0.12190 3742.56280 3698.63730    0.12460
 3036.50000    8.14110    7.75930    7.51030    7.32470    7.10740    0.04470   64.77160  120.89510   74.36700    8.68530    4.67000    0.12440 3715.42720 3687.93750    0.12740
 3037.00000    8.24530    7.79380    7.43650    7.25270    7.03770    0.04480   64.49950  120.89510   69.34740    8.64620    4.72590    0.11940 3696.99320 3721.77380    0.12860
 3037.50000    7.28270    6.94440    6.63040    6.46660    6.27480    0.05090   64.33760  120.89510   63.65850    8.66700    4.77170    0.11940 3751.97900 3736.58170    0.13000
 3038.00000    6.55200    6.26520    5.89180    5.70320    5.53400    0.06080   64.48160  120.78560   53.65930    8.68770    4.80270    0.11920 3763.16210 3751.38960    0.13130
 3038.50000    6.25360    5.99860    5.71860    5.57730    5.41180    0.07820   64.35710  120.74410   42.05510    8.70850    4.90700    0.11900 3746.96950 3754.09630    0.13350
 3039.00000    5.64800    5.42260    5.14820    5.02100    4.87210    0.09450   64.40900  120.41350   34.13310    8.72930    5.01130    0.11840 3725.44100 3723.20650    0.13660
 3039.50000    5.28510    4.84650    4.57780    4.46470    4.33230    0.10840   64.42930  120.34590   30.27190    8.74910    5.11550    0.11850 3719.30750 3692.31670    0.13570
 3040.00000    5.13960    4.57400    4.39830    4.28970    4.16240    0.10760   64.45450  120.23940   32.84310    8.73490    5.19900    0.11860 3757.18310 3699.65340    0.12730
 3040.50000    4.82390    4.56630    4.43420    4.32470    4.19640    0.09090   64.47780  120.51800   39.47540    8.72470    5.17860    0.11810 3804.79290 3725.82380    0.12090
 3041.00000    4.79390    4.58200    4.47010    4.35960    4.23030    0.07370   64.49340  120.89840   48.18770    8.72630    5.09990    0.11770 3802.10990 3751.99420    0.11880
 3041.50000    4.94210    4.65370    4.55660    4.44400    4.31220    0.06830   64.50280  121.00150   52.68220    8.72790    5.03130    0.11890 3799.42690 3778.16460    0.11880
 3042.00000    5.23770    4.94890    4.84560    4.72590    4.58580    0.07150   64.60580  121.06280   53.00650    8.74090    4.96280    0.12020 3783.29920 3734.68340    0.11890
 3042.50000    5.22650    5.04000    4.93490    4.81300    4.67020    0.07480   64.93530  121.37570   50.48460    8.75590    4.89420    0.12240 3656.52870 3691.20220    0.12400
 3043.00000    5.15080    4.90540    4.80310    4.68450    4.54550    0.07690   65.12060  121.68860   48.90590    8.74910    4.84290    0.12540 3681.20860 3680.47970    0.13000
 3043.50000    5.07510    4.77080    4.67130    4.55590    4.42080    0.08030   65.48100  122.00140   47.15290    8.72300    4.81790    0.12660 3800.24260 3713.82980    0.13030
