~Version ---------------------------------------------------
VERS.   2.0 : CWLS log ASCII Standard -VERSION 2.0
WRAP.    NO : One line per depth step
DLM . SPACE : Column Data Section Delimiter
~Well ------------------------------------------------------
STRT .FT                1480.0 : START DEPTH
STOP .FT                7241.0 : STOP DEPTH
STEP .FT                   0.5 : STEP
NULL .                -9999.25 : NULL VALUE
COMP .                         : COMPANY
WELL .                         : WELL
FLD  .                         : FIELD
LOC  .                         : LOCATION
PROV .                         : PROVINCE
CNTY .                         : COUNTY
STAT .                         : STATE
CTRY .                         : COUNTRY
SRVC .                         : SERVICE COMPANY
DATE .                         : DATE
UWI  .                         : UNIQUE WELL ID
API  .                         : API NUMBER
SLAT .WGS84  6.930437640000001 : SURFACE LATITUDE
SLON .WGS84 3.4176933500000075 : SURFACE LONGITUDE
DATUM.F                    nan : DEPTH DATUM ELEV
~Curve Information -----------------------------------------
DEPT   .FT    : 
AT10   .OHMM  : ARRAY INDUCTION TWO FOOT RESISTIVITY A10
AT20   .OHMM  : ARRAY INDUCTION TWO FOOT RESISTIVITY A20
AT30   .OHMM  : ARRAY INDUCTION TWO FOOT RESISTIVITY A30
AT60   .OHMM  : ARRAY INDUCTION TWO FOOT RESISTIVITY A60
AT90   .OHMM  : ARRAY INDUCTION TWO FOOT RESISTIVITY A90
DPHZ_LS.DEC   : HGRD STANDARD RESOLUTION DENSITY POROSITY
DTCO   .US/F  : DELTA-T COMPRESSIONAL
DTSM   .US/F  : DELTA-T SHEAR
ECGRS  .GAPI  : ENVIRONMENTALLY CORRECTED GAMMA RAY FROM SONIC LOG
HCALS  .IN    : HRCC CALIPER CALIBRATED FROM SONIC LOG
PEFZ   .B/E   : HRDD STANDARD RESOLUTION FORMATION PHOTOELECTRIC FACTOR
SPHI_LS.DEC   : SONIC POROSITY [LIMESTONE]
TENR   .LBF   : TENSION FROM RESISTIVITY LOG
TENS   .LBF   : TENSION FROM SONIC LOG
TNPH_LS.DEC   : THERMAL NEUTRON POROSITY [LIMESTONE]
~Params ----------------------------------------------------
~Other -----------------------------------------------------
~ASCII -----------------------------------------------------
# ...
 4907.00000    8.10410    6.89130    6.54200    6.37470    6.23230    0.06430   85.26330  163.94640  123.82950    8.69420    3.86340    0.26990 4346.63640 4368.40500    0.30030
 4907.50000    7.51160    6.46340    6.11930    5.96300    5.82980    0.04720   85.22920  163.96720  119.58440    8.71140    3.95350    0.26590 4335.51920 4378.09580    0.30080
 4908.00000    6.55570    5.80760    5.54850    5.40680    5.28600    0.05100   85.18650  163.50640  121.51340    8.73280    3.94930    0.26280 4322.57200 4348.67720    0.31410
 4908.50000    5.59980    5.21790    4.97760    4.85060    4.74220    0.05130   85.22110  163.29620  117.17910    8.75430    3.94410    0.26620 4306.87980 4319.25850    0.32750
 4909.00000    5.24500    5.15620    4.85770    4.73370    4.62840    0.04210   85.35830  163.60580  104.79510    8.70790    3.91650    0.26810 4291.18760 4295.72360    0.30560
 4909.50000    5.42920    5.18730    4.86080    4.73680    4.63080    0.02870   85.92470  163.77840   97.02560    8.68050    3.87580    0.27180 4301.95820 4301.06520    0.28410
 4910.00000    5.70750    5.15350    4.80300    4.65150    4.57590    0.03400   86.18220  164.72520  103.70930    8.76970    3.81510    0.27290 4325.13980 4307.74210    0.29250
 4910.50000    5.15740    4.71850    4.52550    4.41000    4.31160    0.04850   86.18220  165.83320  116.15080    8.79180    3.77080    0.27430 4341.08860 4314.41910    0.30070
 4911.00000    4.60730    4.31510    4.16870    4.06230    3.97160    0.06070   87.76100  166.29570  125.09190    8.81090    3.80940    0.28270 4346.18820 4322.12810    0.32510
 4911.50000    4.23590    3.99240    3.92960    3.82930    3.74380    0.06660   87.82960  166.75820  129.11850    8.77300    3.81790    0.28610 4327.13880 4299.71790    0.31030
 4912.00000    4.22450    4.02260    3.95290    3.82810    3.74270    0.06300   88.10420  167.01200  130.50850    8.73500    3.76820    0.28580 4303.28950 4277.30780    0.30240
 4912.50000    4.42380    4.17970    4.10280    3.99810    3.90880    0.06020   88.99650  166.80020  129.57710    8.69710    3.69190    0.29090 4246.84110 4254.89760    0.31320
 4913.00000    4.62310    4.33670    4.23280    4.12470    4.03260    0.06470   87.14320  166.42860  129.29670    8.66680    3.70970    0.28040 4287.84500 4260.84080    0.31740
 4913.50000    4.74210    4.49010    4.31040    4.20040    4.10650    0.07660   87.10200  165.63290  129.11850    8.67700    3.77540    0.27960 4328.84880 4278.21630    0.31530
 4914.00000    4.77030    4.54500    4.39070    4.27860    4.20910    0.08360   87.14320  164.79200  129.41190    8.70280    3.82050    0.28010 4327.81980 4295.59180    0.31130
 4914.50000    4.98570    4.76620    4.65620    4.53730    4.43600    0.08350   87.00390  164.08370  124.63950    8.72850    3.87580    0.27740 4326.79080 4302.44350    0.30070
 4915.00000    5.19510    4.99230    4.94100    4.81500    4.70730    0.07180   86.87480  162.25390  122.74970    8.70520    3.87940    0.27880 4325.76180 4320.61380    0.27910
 4915.50000    5.27810    5.11350    5.03330    4.90470    4.79500    0.06040   85.47960  161.39380  117.75110    8.64680    3.92370    0.26910 4309.72520 4338.78420    0.27110
 4916.00000    4.91360    4.76270    4.68040    4.56080    4.45890    0.05180   85.45800  160.53370  119.06910    8.61710    3.95640    0.26830 4345.93580 4356.95460    0.26690
 4916.50000    4.75810    4.48190    4.43900    4.32580    4.22910    0.04610   85.42190  160.08130  119.97210    8.64350    3.98480    0.26460 4408.09430 4372.12810    0.26690
 4917.00000    5.50120    5.11730    4.99290    4.86540    4.75670    0.04370   85.38590  159.61430  121.68030    8.66990    4.02310    0.26430 4387.41480 4374.25840    0.27330
 4917.50000    6.24440    5.75280    5.68550    5.54030    5.41650    0.04730   85.34990  159.00110  124.63490    8.69010    4.08640    0.26460 4376.91020 4376.38860    0.26950
 4918.00000    6.96790    6.38830    6.29400    6.13320    5.99620    0.05930   85.31380  159.37680  126.92840    8.70610    4.09050    0.26620 4402.78200 4373.66070    0.26280
 4918.50000    6.98810    6.58770    6.33170    6.17010    6.03210    0.06800   85.27780  159.97020  128.85590    8.72210    4.05990    0.26660 4408.25780 4351.50020    0.27320
 4919.00000    6.95260    6.55300    6.32990    6.16830    6.03040    0.07150   85.68110  160.33070  128.50030    8.72410    4.02920    0.27010 4398.20820 4329.33960    0.28900
 4919.50000    7.03060    6.82440    6.52920    6.36240    6.22020    0.07130   87.62560  161.52840  130.65630    8.70210    3.99850    0.28150 4337.00860 4307.17910    0.29710
 4920.00000    7.10870    7.01540    6.81940    6.64510    6.49650    0.08600   88.24420  162.62310  138.62880    8.68000    3.94740    0.28960 4340.89000 4311.08140    0.31180
 4920.50000    7.17090    6.92550    6.81670    6.64230    6.49410    0.10620   88.47430  163.54750  150.15600    8.66680    3.77540    0.29000 4393.48880 4332.35900    0.34310
 4921.00000    6.74420    6.52910    6.38590    6.22270    6.08360    0.12630   88.70430  164.11420  157.46490    8.71090    3.62780    0.29000 4391.40040 4353.63660    0.36870
 4921.50000    6.29510    6.08820    5.95530    5.80310    5.67340    0.12080   88.93440  164.89580  161.27470    8.72850    3.49870    0.29180 4343.97090 4327.21870    0.39260
 4922.00000    5.84590    5.64720    5.50620    5.36550    5.24530    0.10010   89.49530  166.18610  160.14210    8.73000    3.48440    0.29580 4312.52920 4311.25900    0.38120
 4922.50000    5.61230    5.43720    5.33490    5.23140    5.11440    0.07190   89.42660  166.85750  150.56630    8.73180    3.57760    0.29810 4341.08890 4295.29930    0.34400
 4923.00000    5.45510    5.35140    5.26710    5.13250    5.01780    0.06770   89.35800  167.65690  143.51470    8.73360    3.78350    0.29940 4369.64850 4337.53870    0.32310
 4923.50000    5.35200    5.28420    5.20020    5.06720    4.92290    0.08120   89.28930  168.00580  143.51470    8.74230    4.02470    0.29530 4326.96290 4310.83290    0.31530
 4924.00000    5.35040    5.21690    5.07000    4.94060    4.83000    0.09950   89.82990  168.72190  150.15580    8.75600    4.16250    0.29680 4264.48760 4284.12710    0.34820
 4924.50000    5.29870    5.14950    5.00560    4.90840    4.79860    0.09520   90.98720  173.07220  153.96410    8.75600    4.17070    0.29960 4304.45710 4266.95790    0.36960
 4925.00000    5.24770    4.95840    4.70170    4.58150    4.47910    0.08420   91.12450  174.24080  150.15440    8.75600    4.12930    0.29960 4426.78210 4288.66240    0.35780
 4925.50000    4.60740    4.34760    4.10000    3.99530    3.90590    0.07100   91.05590  174.71110  144.75030    8.75910    4.12150    0.29960 4421.31340 4310.36680    0.36370
 4926.00000    3.86330    3.66160    3.49840    3.40900    3.33270    0.06050   90.17700  174.82730  149.12630    8.76220    4.10660    0.29960 4346.47910 4332.07120    0.39330
 4926.50000    3.11930    2.97560    2.89670    2.82270    2.75950    0.04690   89.58790  175.99620  156.90600    8.73200    4.08980    0.29990 4292.12940 4333.33930    0.41700
 4927.00000    3.03490    2.85560    2.77570    2.70470    2.66070    0.03840   91.85530  175.64810  161.68650    8.67190    4.05010    0.29990 4325.27880 4334.60740    0.38100
 4927.50000    3.83570    3.57900    3.38670    3.30010    3.22630    0.03250   92.45320  175.46670  154.99380    8.66770    3.93700    0.29980 4364.81540 4335.87550    0.32080
 4928.00000    4.63650    4.30250    4.06290    3.95900    3.87040    0.04930   92.31310  175.25970  150.66920    8.70700    3.82390    0.29970 4357.97540 4359.17510    0.30980
 4928.50000    5.43730    4.82570    4.69080    4.57070    4.46840    0.08310   92.02840  173.06480  155.94330    8.69230    3.63130    0.29970 4361.88960 4387.98250    0.31810
 4929.00000    5.83600    4.94660    4.83820    4.68520    4.60900    0.12290   91.48400  171.19530  171.50260    8.65490    3.43970    0.29960 4416.68980 4425.34150    0.35700
 4929.50000    6.23470    5.32910    5.15670    5.02480    4.91240    0.16720   91.39910  170.05130  182.07370    8.62100    3.32520    0.29950 4415.34470 4382.72670    0.38660
