~Version ---------------------------------------------------
VERS.   2.0 : CWLS log ASCII Standard -VERSION 2.0
WRAP.    NO : One line per depth step
DLM . SPACE : Column Data Section Delimiter
~Well ------------------------------------------------------
STRT .FT                1480.0 : START DEPTH
STOP .FT                7241.0 : STOP DEPTH
STEP .FT                   0.5 : STEP
NULL .                -9999.25 : NULL VALUE
COMP .                         : COMPANY
WELL .                         : WELL
FLD  .                         : FIELD
LOC  .                         : LOCATION
PROV .                         : PROVINCE
CNTY .                         : COUNTY
STAT .                         : STATE
CTRY .                         : COUNTRY
SRVC .                         : SERVICE COMPANY
DATE .                         : DATE
UWI  .                         : UNIQUE WELL ID
API  .                         : API NUMBER
SLAT .WGS84  6.930437640000001 : SURFACE LATITUDE
SLON .WGS84 3.4176933500000075 : SURFACE LONGITUDE
DATUM.F                    nan : DEPTH DATUM ELEV
~Curve Information -----------------------------------------
DEPT   .FT    : 
AT10   .OHMM  : ARRAY INDUCTION TWO FOOT RESISTIVITY A10
AT20   .OHMM  : ARRAY INDUCTION TWO FOOT RESISTIVITY A20
AT30   .OHMM  : ARRAY INDUCTION TWO FOOT RESISTIVITY A30
AT60   .OHMM  : ARRAY INDUCTION TWO FOOT RESISTIVITY A60
AT90   .OHMM  : ARRAY INDUCTION TWO FOOT RESISTIVITY A90
DPHZ_LS.DEC   : HGRD STANDARD RESOLUTION DENSITY POROSITY
DTCO   .US/F  : DELTA-T COMPRESSIONAL
DTSM   .US/F  : DELTA-T SHEAR
ECGRS  .GAPI  : ENVIRONMENTALLY CORRECTED GAMMA RAY FROM SONIC LOG
HCALS  .IN    : HRCC CALIPER CALIBRATED FROM SONIC LOG
PEFZ   .B/E   : HRDD STANDARD RESOLUTION FORMATION PHOTOELECTRIC FACTOR
SPHI_LS.DEC   : SONIC POROSITY [LIMESTONE]
TENR   .LBF   : TENSION FROM RESISTIVITY LOG
TENS   .LBF   : TENSION FROM SONIC LOG
TNPH_LS.DEC   : THERMAL NEUTRON POROSITY [LIMESTONE]
~Params ----------------------------------------------------
~Other -----------------------------------------------------
~ASCII -----------------------------------------------------
# ...
 5298.00000    5.05880    4.82090    4.70880    4.58860    4.48610    0.05160   85.72440  163.00040  138.12430    8.83560    3.70640    0.26950 4666.09700 4690.33750    0.28610
 5298.50000    5.08650    4.79240    4.68640    4.56680    4.46480    0.05050   85.68520  161.33720  135.69880    8.84500    3.68260    0.26820 4738.58160 4664.97270    0.28280
 5299.00000    5.10370    4.76380    4.66400    4.54490    4.44340    0.04830   85.68520  160.05440  134.60590    8.84490    3.70860    0.26860 4804.05930 4678.43750    0.28160
 5299.50000    5.10470    4.73530    4.64150    4.52310    4.42210    0.03830   85.68520  160.06660  135.18690    8.84250    3.76790    0.26780 4751.42710 4691.90230    0.28270
 5300.00000    5.10470    4.70670    4.61910    4.50120    4.40070    0.02860   83.73560  158.23810  135.74730    8.84020    3.85920    0.25310 4698.79490 4667.68800    0.28380
 5300.50000    5.17120    4.91110    4.69280    4.57300    4.47090    0.02360   81.64190  154.87370  136.30770    8.83390    3.87740    0.24170 4646.16270 4588.57790    0.28160
 5301.00000    5.46230    5.26510    5.04550    4.91670    4.80690    0.03330   80.94850  151.75800  134.61390    8.85210    3.84750    0.23650 4593.53050 4544.46450    0.27020
 5301.50000    6.08310    5.77710    5.35050    5.21400    5.09760    0.04320   80.60530  150.73770  132.61010    8.85210    3.88800    0.23290 4663.56800 4608.21810    0.26050
 5302.00000    6.12120    5.77710    5.35050    5.21400    5.09760    0.04450   79.77400  148.60780  124.87210    8.86180    3.94620    0.22680 4698.42320 4668.78970    0.26060
 5302.50000    6.47520    5.88640    5.38410    5.24670    5.12950    0.03590   78.82060  146.40430  116.45000    8.87140    3.94720    0.21850 4679.02910 4669.03850    0.23590
 5303.00000    7.68210    6.89060    6.16380    6.00650    5.87240    0.01670   77.86720  144.57380  111.45780    8.89330    3.93250    0.21220 4595.68860 4651.83700    0.20460
 5303.50000    8.90570    8.19650    7.12070    6.93890    6.78400   -0.00080   77.10450  143.28350  113.39110    8.90700    3.88940    0.20870 4590.93810 4634.63550    0.18960
 5304.00000    8.06990    7.70150    7.23110    7.04660    6.88920    0.00440   76.62430  142.25400  121.35070    8.89580    3.75430    0.20450 4626.09930 4625.65070    0.21600
 5304.50000    7.23410    7.08270    6.79900    6.62550    6.47750    0.02570   75.85210  141.24080  124.82580    8.88730    3.71310    0.19950 4661.26050 4588.34800    0.22920
 5305.00000    7.10850    6.71150    6.45330    6.28860    6.14820    0.04650   75.38870  140.59440  126.03670    8.87240    3.73200    0.19700 4600.99970 4551.04520    0.21110
 5305.50000    7.54040    7.04100    6.68720    6.51650    6.37100    0.04830   75.38520  139.94800  119.47180    8.85740    3.80160    0.19900 4544.76100 4489.25150    0.18610
 5306.00000    7.97230    7.45300    7.24610    7.06110    6.90350    0.04520   75.38170  139.30160  115.48850    8.89540    3.84400    0.19850 4583.91920 4562.66890    0.16840
 5306.50000    8.40410    7.68130    7.37320    7.18510    7.02460    0.04240   75.37810  138.97080  115.03370    8.91010    3.82440    0.19770 4700.12590 4654.44060    0.17480
 5307.00000    8.42850    7.58690    7.31200    7.12540    6.96630    0.04160   75.28580  139.12230  120.22870    8.88920    3.76700    0.19680 4643.82190 4649.94870    0.18550
 5307.50000    8.05750    7.49250    7.28150    7.09560    6.93720    0.04160   75.37710  138.94100  122.76240    8.86970    3.72930    0.19690 4549.98290 4634.67820    0.19300
 5308.00000    8.05750    7.41690    7.25090    7.06590    6.90810    0.04460   75.65690  138.61690  125.71200    8.85690    3.69160    0.19970 4536.81340 4619.40770    0.18870
 5308.50000    8.05750    7.40650    7.22030    7.03610    6.87900    0.04720   76.00770  138.83240  124.44490    8.84420    3.65390    0.20190 4638.24600 4614.59440    0.18360
 5309.00000    8.05750    7.39600    7.18980    7.00630    6.84980    0.04480   75.80060  139.25350  127.16460    8.83440    3.58010    0.19940 4722.97550 4651.61020    0.18150
 5309.50000    8.05750    7.38550    7.15920    6.97650    6.82070    0.04360   75.80060  139.15990  129.30480    8.84720    3.54510    0.19940 4675.34130 4688.62610    0.18560
 5310.00000    8.05750    7.37510    7.12860    6.94670    6.79160    0.04860   75.88230  139.06630  127.39560    8.85730    3.57990    0.19860 4627.70710 4647.25120    0.19070
 5310.50000    8.05750    7.36460    7.09810    6.91690    6.76250    0.05360   76.08640  139.01020  121.28840    8.86860    3.61460    0.20000 4580.07290 4568.86600    0.19300
 5311.00000    8.05750    7.35410    7.06750    6.88710    6.73340    0.05290   76.29060  139.59740  113.92580    8.86170    3.64250    0.20260 4532.43870 4545.35410    0.19330
 5311.50000    7.90890    7.34370    7.04310    6.86330    6.71010    0.04800   76.30220  140.06130  114.74960    8.85480    3.67240    0.20290 4632.39820 4621.32110    0.18110
 5312.00000    7.78580    7.33320    7.04310    6.86330    6.71010    0.04510   76.79490  140.85450  114.20040    8.85210    3.64180    0.20800 4716.03730 4697.28820    0.17820
 5312.50000    7.76110    7.32480    7.04310    6.86330    6.71010    0.04320   76.51130  141.17040  116.60290    8.85210    3.58610    0.20510 4627.85170 4624.88130    0.18700
 5313.00000    8.00740    7.27920    7.04310    6.86330    6.71010    0.04400   77.50590  141.77870  113.11760    8.85210    3.56420    0.21090 4487.96720 4582.91340    0.19880
 5313.50000    8.10800    7.27920    7.13160    6.94960    6.79440    0.04710   76.62960  142.67660  116.95490    8.84570    3.55960    0.20440 4564.32830 4573.52220    0.20570
 5314.00000    7.95350    7.48260    7.28950    7.10350    6.94490    0.04980   76.00630  142.68380  116.19110    8.85700    3.55490    0.20130 4659.77980 4570.58740    0.20340
 5314.50000    7.86370    7.60460    7.35780    7.17010    7.01000    0.05190   76.58290  142.29740  117.63260    8.86820    3.55030    0.20510 4628.31850 4549.43670    0.19530
 5315.00000    7.80980    6.95060    6.67670    6.50630    6.36110    0.05050   75.99390  141.71400  110.67990    8.87270    3.57320    0.20060 4547.73890 4528.28600    0.20350
 5315.50000    7.55600    6.25110    5.91860    5.76760    5.63880    0.04710   74.24950  140.40110  111.40790    8.87270    3.62020    0.18880 4567.51150 4590.03080    0.20750
 5316.00000    7.80980    6.94300    6.33040    6.16880    6.03110    0.04360   72.90050  137.92440  114.32620    8.87270    3.64540    0.17760 4714.69240 4672.49940    0.19540
 5316.50000    9.41240    8.03040    7.35780    7.17010    7.01000    0.04060   70.41200  135.63890  114.60030    8.87270    3.68250    0.16360 4755.24620 4752.20280    0.18120
 5317.00000   10.80700    8.40390    7.31200    7.12540    6.96630    0.03710   69.49010  134.06990  109.61160    8.87270    3.76630    0.15330 4622.85460 4649.23750    0.16690
 5317.50000   13.99800   11.38680   10.06350    9.43820    9.22740    0.01420   69.85790  134.22620   82.07990    8.87270    3.97760    0.15920 4544.16950 4546.27220    0.16740
 5318.00000   15.81920   13.17650   10.62160    9.26290    9.05610   -0.00450   70.22560  134.27410   63.01910    8.88940    4.18780    0.16140 4370.51760 4505.08610    0.16780
 5318.50000   13.64720   10.68650    8.94800    8.27790    8.09300   -0.01790   70.44620  134.86000   56.57370    9.02400    4.37430    0.16310 4520.11620 4604.93160    0.14830
 5319.00000   11.47520    8.19650    7.87330    6.77810    6.62680   -0.00760   70.41190  134.56890   67.18480    9.06490    4.32020    0.16110 4778.51380 4748.45870    0.16340
 5319.50000    9.90200    8.60890    7.50940    7.15860    6.99870    0.01230   69.96570  131.42880   87.25870    9.04540    4.19600    0.16010 4832.91310 4834.57500    0.21930
 5320.00000    9.12970    8.77950    8.14770    7.63220    7.46180    0.03900   68.79880  128.51700  105.58690    9.03990    4.11810    0.15790 4676.51290 4709.76880    0.28220
 5320.50000    8.41770    7.33240    7.14940    6.58480    6.43770    0.04330   67.70060  126.21240  107.85610    9.01790    4.20780    0.14270 4569.07320 4584.96260    0.23650
