~Version ---------------------------------------------------
VERS.   2.0 : CWLS log ASCII Standard -VERSION 2.0
WRAP.    NO : One line per depth step
DLM . SPACE : Column Data Section Delimiter
~Well ------------------------------------------------------
STRT .FT                1480.0 : START DEPTH
STOP .FT                7241.0 : STOP DEPTH
STEP .FT                   0.5 : STEP
NULL .                -9999.25 : NULL VALUE
COMP .                         : COMPANY
WELL .                         : WELL
FLD  .                         : FIELD
LOC  .                         : LOCATION
PROV .                         : PROVINCE
CNTY .                         : COUNTY
STAT .                         : STATE
CTRY .                         : COUNTRY
SRVC .                         : SERVICE COMPANY
DATE .                         : DATE
UWI  .                         : UNIQUE WELL ID
API  .                         : API NUMBER
SLAT .WGS84  6.930437640000001 : SURFACE LATITUDE
SLON .WGS84 3.4176933500000075 : SURFACE LONGITUDE
DATUM.F                    nan : DEPTH DATUM ELEV
~Curve Information -----------------------------------------
DEPT   .FT    : 
AT10   .OHMM  : ARRAY INDUCTION TWO FOOT RESISTIVITY A10
AT20   .OHMM  : ARRAY INDUCTION TWO FOOT RESISTIVITY A20
AT30   .OHMM  : ARRAY INDUCTION TWO FOOT RESISTIVITY A30
AT60   .OHMM  : ARRAY INDUCTION TWO FOOT RESISTIVITY A60
AT90   .OHMM  : ARRAY INDUCTION TWO FOOT RESISTIVITY A90
DPHZ_LS.DEC   : HGRD STANDARD RESOLUTION DENSITY POROSITY
DTCO   .US/F  : DELTA-T COMPRESSIONAL
DTSM   .US/F  : DELTA-T SHEAR
ECGRS  .GAPI  : ENVIRONMENTALLY CORRECTED GAMMA RAY FROM SONIC LOG
HCALS  .IN    : HRCC CALIPER CALIBRATED FROM SONIC LOG
PEFZ   .B/E   : HRDD STANDARD RESOLUTION FORMATION PHOTOELECTRIC FACTOR
SPHI_LS.DEC   : SONIC POROSITY [LIMESTONE]
TENR   .LBF   : TENSION FROM RESISTIVITY LOG
TENS   .LBF   : TENSION FROM SONIC LOG
TNPH_LS.DEC   : THERMAL NEUTRON POROSITY [LIMESTONE]
~Params ----------------------------------------------------
~Other -----------------------------------------------------
~ASCII -----------------------------------------------------
# ...
 2262.00000    2.34370    2.71990    2.93380    3.77690    5.26470   -9999.25   -9999.25   99.51070  115.78520   12.67170    6.44000   -9999.25 3339.05300 3296.30260    0.48510
 2262.50000    2.63920    2.85300    3.05910    4.01270    5.97350   -9999.25   -9999.25  111.91060  113.20830   12.67170    6.92600   -9999.25 3349.51430 3300.00980    0.51130
 2263.00000    2.51870    2.62990    2.89930    3.83460    5.94090   -9999.25   -9999.25  121.66300  113.92070   13.55550    7.32840   -9999.25 3359.97560 3306.77320    0.62640
 2263.50000    2.12070    2.35100    2.69950    3.58610    3.64720   -9999.25   -9999.25  123.08090  120.66990   14.86830    7.51830   -9999.25 3361.37990 3321.82810    0.66780
 2264.00000    1.75790    2.07210    2.47650    3.13490    3.16510   -9999.25   -9999.25  122.17000  118.02220   13.48170    7.79410   -9999.25 3349.19880 3326.46880    0.62120
 2264.50000    1.75790    1.90930    2.19770    2.68360    2.68310   -9999.25   -9999.25  122.66660  113.64870   14.52280    8.29140   -9999.25 3350.84410 3336.68910    0.55180
 2265.00000    1.67210    1.78130    1.91810    2.23230    2.20770   -9999.25   -9999.25  125.59290  109.75120   15.56390    8.58980   -9999.25 3340.54950 3346.90950    0.53900
 2265.50000    1.49430    1.57050    1.63520    1.79220    1.88910   -9999.25   -9999.25  129.42370  108.02260   16.02700    8.50850   -9999.25 3332.81850 3357.12990    0.56400
 2266.00000    1.19790    1.30460    1.35230    1.39670    1.36410   -9999.25   -9999.25  132.48840  106.90690   13.68420    7.86050   -9999.25 3335.34150 3367.35030    0.53850
 2266.50000    1.07930    1.13080    1.21250    1.26990    1.35760   -9999.25   -9999.25  127.74210  101.93020   12.10300    7.06760   -9999.25 3337.86450 3363.90290    0.46760
 2267.00000    1.21920    1.35850    1.52820    1.53190    1.53390   -9999.25   74.84820  124.38840   90.34660   11.18900    6.35310    0.19360 3340.38750 3336.44560    0.37700
 2267.50000    1.69270    2.71570    2.89400    2.99290    3.15460   -9999.25   74.84820  137.13720   73.05870   11.78620    5.95300    0.19360 3342.91060 3314.47970    0.30050
 2268.00000    3.71340    5.73570    4.92010    6.61480    6.81280   -9999.25   74.84820  139.13830   47.21450   12.38340    5.59610    0.19360 3371.66610 3326.94500    0.05040
 2268.50000    6.65610    8.75570    9.83480   10.77710   11.03760   -9999.25   74.02450  139.63310   21.77710   10.33790    5.41200    0.18610 3367.12290 3359.68730    0.00490
 2269.00000    8.99470    9.41790   10.04300   11.32990   12.04950   -9999.25   74.07440  138.28370   18.65730   10.26920    5.37520    0.18770 3362.57970 3379.33260    0.00190
 2269.50000    7.40670    7.91930    8.77420    9.76290    9.90410   -9999.25   74.19920  136.35980   20.02160   10.26920    5.37520    0.18830 3366.01790 3390.57230    0.00630
 2270.00000    6.45390    7.33190    8.42390    8.71310   11.64520   -9999.25   74.23040  132.98790   22.01770   10.29670    5.37520    0.18740 3381.42830 3404.62180    0.01280
 2270.50000   10.51930   20.39440   17.38630   20.40030   23.56290   -9999.25   73.79520  131.21090   21.86620   10.31040    5.34810    0.18420 3396.83870 3418.67130   -0.00080
 2271.00000   23.20200   41.12600   32.42060   31.52540   35.48060   -9999.25   73.39950  130.16270   20.27340   10.14570    5.34810    0.18150 3406.52150 3422.62090   -0.01510
 2271.50000   36.02080   61.85760   47.45490   42.65040   53.71070   -9999.25   73.00380  128.60640   18.22800   10.13190    5.33450    0.17860 3439.35220 3386.17050   -0.02630
 2272.00000   49.04370   92.46330   62.48910  111.33970   75.40940   -9999.25   72.70580  126.70750   18.84870   10.15940    5.19890    0.17350 3407.86100 3349.72020   -0.02550
 2272.50000   62.06670  162.56540  101.38730  180.02900   97.10810   -9999.25   72.02330  125.16360   19.00210   10.18680    5.15820    0.16990 3362.49250 3326.47710   -0.02360
 2273.00000   98.80220  232.66750  146.25150  248.71830  118.80690   -9999.25   71.52420  123.98370   18.37930   10.16750    5.15820    0.16840 3328.14460 3323.04500   -0.02420
 2273.50000  136.40020  302.76960  387.37330  731.97490  150.82870   -9999.25   71.38360  122.86630   16.65780   10.14340    5.19890    0.16960 3350.48050 3319.61280   -0.02630
 2274.00000  177.44760  736.86200  677.55960 1385.80380  254.54780   -9999.25   70.93880  122.15850   16.90170   10.11510    5.26670    0.16520 3375.96650 3334.54430   -0.02620
 2274.50000  182.63370 1120.24060  967.74590 1906.00580  590.16630   -9999.25   70.57960  121.29590   17.76150   10.08080    5.18530    0.16210 3394.53650 3349.21520   -0.02970
 2275.00000  187.81980 1391.30030 1970.02110 1948.44110 1080.38450   -9999.25   70.36420  120.62220   18.07040   10.02590    5.06320    0.15980 3359.28230 3336.98820   -0.03320
 2275.50000  193.00580 1798.16540 1981.33490 1936.34900 1584.45850   -9999.25   69.15570  119.90350   17.80420   10.04940    5.08360    0.15090 3324.02800 3324.76120   -0.03350
 2276.00000  197.17650 1903.19360 1992.64870 1924.25680 1930.04790   -9999.25   69.57650  120.29240   16.65270   10.07880    5.13450    0.15810 3325.78270 3352.06910   -0.03420
 2276.50000  199.82420 1903.19360 2003.96250 1912.16460 1694.17990   -9999.25   69.99720  120.39270   15.88180   10.10830    5.18530    0.15890 3296.95880 3315.59190   -0.03490
 2277.00000  202.47180 1801.25310 2015.27620 1614.90190 1357.42720   -9999.25   70.06540  120.69830   14.20310   10.08910    5.23620    0.15980 3393.64480 3319.71950   -0.03660
 2277.50000  205.11940 1631.35250 1641.72680 1246.34650  967.01840   -9999.25   69.68030  121.04100   13.50200   10.08780    5.26670    0.15570 3445.96070 3301.99200   -0.03690
 2278.00000  204.64030 1461.45180 1268.17740  863.18230  576.60960   -9999.25   69.20090  121.29290   13.45550   10.08640    5.25310    0.15260 3350.17190 3294.48590   -0.03730
 2278.50000  192.53740 1222.69630  894.62800  527.98700  362.54710   -9999.25   68.72150  121.54470   13.14820   10.08510    5.23960    0.15350 3366.25580 3315.07150   -0.03720
 2279.00000  174.07490  966.72710  631.83590  399.27610  266.04890   -9999.25   68.24220  121.31600   12.61830   10.08380    5.21240    0.14960 3330.71050 3335.65710   -0.03730
 2279.50000  169.37940 1679.46660  521.32840  296.30730  181.12260   -9999.25   67.78400  122.44050    9.50650   10.08250    5.21240    0.13980 3293.38350 3335.83540   -0.03790
 2280.00000  162.02230 1199.16180  400.47610  247.48400  142.48450   -9999.25   66.74090  122.46500    9.73020   10.08460    5.21240    0.13900 3356.77220 3375.26840   -0.03890
 2280.50000  123.45910  398.65380  264.10660  198.66080  111.57400   -9999.25   69.54230  123.45880    9.50810   10.08770    5.24600    0.15580 3420.16080 3405.67480   -0.03900
 2281.00000   91.45710  238.85180  184.35730  195.35590  110.35840   -9999.25   71.22510  124.38940   10.37880   10.03570    5.27960    0.16830 3375.11350 3388.59940   -0.03910
 2281.50000   95.64080  196.97720  157.17790  289.19310  114.04780   -9999.25   71.47740  125.49730    9.79700   10.01880    5.31330    0.17110 3349.91190 3383.45120   -0.03920
 2282.00000   99.82450  220.16190  127.33050  288.37140  106.39380   -9999.25   70.71950  126.82520   11.28500   10.00190    5.34690    0.16230 3383.80550 3379.33260   -0.03490
 2282.50000   71.24420  168.79190   85.64780  200.76150   88.98330   -9999.25   71.27040  129.27270   13.90200    9.98500    5.32960    0.16810 3417.69910 3398.47580   -0.02820
 2283.00000   37.07030  117.42200   43.96520  113.15150   65.06850   -9999.25   70.43640  130.81360   17.08250    9.96810    5.27840    0.16260 3429.19710 3407.66040   -0.02090
 2283.50000   19.15660   66.05200   22.42710   25.54160   41.15380   -9999.25   71.57930  131.45880   20.34070    9.95190    5.31540    0.16450 3418.89960 3416.84490   -0.00800
 2284.00000   13.49770   14.68200   15.94040   19.82690   21.09730    0.29870   75.36650  133.90110   21.28290    9.92690    5.35240    0.19860 3408.60210 3410.22220    0.00270
 2284.50000   14.19890   15.96570   17.40990   19.44980   21.39510    0.27280   81.06460  138.82240   21.17700    9.91610    5.38940    0.24220 3400.06580 3396.96060    0.01400
