~Version ---------------------------------------------------
VERS.   2.0 : CWLS log ASCII Standard -VERSION 2.0
WRAP.    NO : One line per depth step
DLM . SPACE : Column Data Section Delimiter
~Well ------------------------------------------------------
STRT .FT                1480.0 : START DEPTH
STOP .FT                7241.0 : STOP DEPTH
STEP .FT                   0.5 : STEP
NULL .                -9999.25 : NULL VALUE
COMP .                         : COMPANY
WELL .                         : WELL
FLD  .                         : FIELD
LOC  .                         : LOCATION
PROV .                         : PROVINCE
CNTY .                         : COUNTY
STAT .                         : STATE
CTRY .                         : COUNTRY
SRVC .                         : SERVICE COMPANY
DATE .                         : DATE
UWI  .                         : UNIQUE WELL ID
API  .                         : API NUMBER
SLAT .WGS84  6.930437640000001 : SURFACE LATITUDE
SLON .WGS84 3.4176933500000075 : SURFACE LONGITUDE
DATUM.F                    nan : DEPTH DATUM ELEV
~Curve Information -----------------------------------------
DEPT   .FT    : 
AT10   .OHMM  : ARRAY INDUCTION TWO FOOT RESISTIVITY A10
AT20   .OHMM  : ARRAY INDUCTION TWO FOOT RESISTIVITY A20
AT30   .OHMM  : ARRAY INDUCTION TWO FOOT RESISTIVITY A30
AT60   .OHMM  : ARRAY INDUCTION TWO FOOT RESISTIVITY A60
AT90   .OHMM  : ARRAY INDUCTION TWO FOOT RESISTIVITY A90
DPHZ_LS.DEC   : HGRD STANDARD RESOLUTION DENSITY POROSITY
DTCO   .US/F  : DELTA-T COMPRESSIONAL
DTSM   .US/F  : DELTA-T SHEAR
ECGRS  .GAPI  : ENVIRONMENTALLY CORRECTED GAMMA RAY FROM SONIC LOG
HCALS  .IN    : HRCC CALIPER CALIBRATED FROM SONIC LOG
PEFZ   .B/E   : HRDD STANDARD RESOLUTION FORMATION PHOTOELECTRIC FACTOR
SPHI_LS.DEC   : SONIC POROSITY [LIMESTONE]
TENR   .LBF   : TENSION FROM RESISTIVITY LOG
TENS   .LBF   : TENSION FROM SONIC LOG
TNPH_LS.DEC   : THERMAL NEUTRON POROSITY [LIMESTONE]
~Params ----------------------------------------------------
~Other -----------------------------------------------------
~ASCII -----------------------------------------------------
# ...
 5666.00000    8.85510    5.10010    4.22770    3.73140    3.64800    0.14110   71.04690  117.53470   85.05960    8.66580    2.75680    0.16540 4990.67210 4944.39400    0.18450
 5666.50000    7.89010    4.71590    3.67410    3.16400    3.07410    0.13660   70.67330  116.68160   83.53040    8.68610    2.76260    0.16340 4977.07200 4907.78410    0.18260
 5667.00000    7.11620    4.47310    3.71840    3.08590    3.01700    0.12210   70.66150  116.21060   90.18860    8.70650    2.83770    0.16390 4841.07330 4862.02160    0.19530
 5667.50000    8.63000    5.07940    4.11120    3.30470    3.23090    0.10150   70.11680  116.27640   96.05040    8.67750    2.91280    0.16120 4824.92350 4862.02170    0.21710
 5668.00000    8.44250    5.16330    4.18910    3.36360    3.23310    0.10090   70.11890  116.21570   97.43080    8.63680    2.93810    0.16030 4888.67300 4930.66520    0.22320
 5668.50000    5.53290    4.06920    3.13310    2.69850    2.30640    0.11730   70.12100  116.15490   74.56870    8.65160    2.90070    0.16070 4952.42240 4971.85180    0.21130
 5669.00000    4.83620    3.46960    2.74790    2.34300    2.10010    0.14010   70.46370  116.09420   54.05680    8.68820    2.77860    0.16220 4990.67210 4977.65210    0.18600
 5669.50000    4.46150    3.13310    2.52570    2.34300    2.07400    0.15360   70.99540  116.22550   37.50490    8.72480    2.64850    0.16470 4977.07230 4983.45240    0.16200
 5670.00000    4.09410    3.10390    2.47880    2.17620    1.90030    0.15410   71.26870  116.57010   37.35040    8.76140    2.59350    0.16750 4960.07250 4989.25270    0.14120
 5670.50000    4.18630    3.21440    2.50210    2.05500    1.90030    0.14720   71.41830  117.35720   51.95470    8.79800    2.57590    0.16850 4943.07270 4995.05300    0.14160
 5671.00000    4.77840    3.44090    2.72160    2.37890    2.14390    0.13050   71.36300  117.42950   69.12280    8.81060    2.60690    0.16670 4985.23240 5000.85330    0.16300
 5671.50000    5.58960    3.59560    3.10880    2.69660    2.54880    0.12050   71.30770  117.13490   85.02720    8.76330    2.65780    0.16830 5014.47190 5006.65360    0.18080
 5672.00000    6.65990    3.90140    3.56360    2.82600    2.66270    0.11700   71.31620  117.55930   92.54750    8.71880    2.69250    0.16810 4929.47280 5012.45390    0.19280
 5672.50000    7.83940    4.20720    4.01830    3.20910    2.91070    0.11530   71.58040  117.74080   89.99060    8.67440    2.72730    0.16900 4881.87280 5018.25420    0.19710
 5673.00000    9.62960    4.88710    4.47310    3.53860    3.31340    0.11390   71.94540  117.14780   93.47460    8.64670    2.74760    0.17310 4909.07260 5024.05450    0.19550
 5673.50000    9.54820    4.88770    4.27760    3.38030    3.33410    0.11630   72.21900  116.53150   98.73820    8.68630    2.74480    0.17510 4977.07220 5029.85480    0.19200
 5674.00000    7.04300    3.99330    3.50590    2.91750    2.83680    0.12230   71.81380  115.80490  102.14550    8.67380    2.71180    0.17140 5045.07170 5035.65510    0.18920
 5674.50000    5.67550    3.70870    3.19240    2.57460    2.54880    0.12890   71.44760  115.05640   95.97140    8.63910    2.65350    0.16880 5099.47140 5041.45540    0.18550
 5675.00000    4.76830    3.53900    3.10390    2.55860    2.50150    0.13720   71.11990  114.94770   74.86070    8.62470    2.57610    0.16840 5026.03200 5047.25560    0.17390
 5675.50000    4.20130    3.34950    3.01780    2.49550    2.45500    0.14400   70.79230  114.75090   49.08030    8.61020    2.50530    0.16420 4949.87240 5053.05590    0.16110
 5676.00000    3.95550    3.05280    2.73340    2.33680    2.27700    0.14660   70.33750  115.93870   41.46980    8.62540    2.46030    0.15890 4997.47220 5058.85620    0.15350
 5676.50000    3.56830    2.75620    2.50210    2.16960    2.09440    0.14390   70.38420  124.35820   40.25490    8.63300    2.43130    0.15930 5073.97160 5064.65650    0.14420
 5677.00000    3.53230    2.62220    2.52410    2.03580    1.93630    0.13130   70.42160  121.85410   43.16680    8.64180    2.45430    0.16080 5150.47090 5070.45680    0.13770
 5677.50000    3.87550    2.80010    2.55150    2.06640    2.01020    0.11720   70.42160  112.45490   45.71970    8.65070    2.46760    0.16120 5128.37080 5066.16030    0.13200
 5678.00000    4.15860    2.93420    2.54950    2.19020    2.01020    0.12350   70.46940  114.76040   50.73320    8.67700    2.48090    0.16210 4932.87270 5059.33950    0.13370
 5678.50000    3.99510    2.60910    2.40620    2.18460    2.01020    0.13390   70.72500  118.08900   59.98630    8.69790    2.49410    0.16520 4967.18120 5052.51880    0.14860
 5679.00000    3.83350    2.54980    2.25710    2.15360    2.04820    0.14120   70.98050  117.63090   66.01030    8.71890    2.50090    0.16530 5109.36190 5045.69800    0.16410
 5679.50000    4.22420    3.14150    2.63040    2.48700    2.24890    0.14380   71.23610  117.29950   66.23760    8.64630    2.54010    0.16710 5194.67030 5038.87720    0.17070
 5680.00000    4.78610    3.47440    3.09700    2.87840    2.66010    0.14620   71.35960  117.60040   64.24050    8.68060    2.54560    0.16860 5058.46360 5032.05650    0.17960
 5680.50000    5.37290    3.81440    3.57230    3.26980    3.07130    0.14780   71.56660  119.11880   67.09360    8.72840    2.55120    0.16970 4922.20510 5025.23570    0.17380
 5681.00000    5.92560    4.07300    3.81440    3.66120    3.48250    0.13930   71.47620  120.19170   73.04770    8.76140    2.56820    0.16840 4889.20120 5018.41490    0.17860
 5681.50000    7.10100    4.47310    4.30790    4.05260    3.89370    0.12320   71.48800  119.98440   82.16630    8.79440    2.66130    0.16980 4943.22230 5011.59420    0.18290
 5682.00000    9.83490    5.07110    4.82560    4.44400    4.30490    0.09240   71.40420  119.77700   96.19500    8.75290    2.83390    0.16840 4975.41830 5004.77340    0.19840
 5682.50000   15.14980    5.71030    5.34320    4.83540    4.71600    0.07000   71.32050  119.55070  117.22600    8.66740    3.00650    0.16590 4966.90360 4999.31680    0.20750
 5683.00000   15.99850    6.04850    5.65370    4.96600    4.85510    0.05690   71.16730  119.24910  125.07680    8.64420    3.17910    0.16680 4925.68440 4958.13060    0.20600
 5683.50000   12.14540    5.24540    5.17930    4.52210    4.42110    0.06750   70.85850  118.94740  112.09790    8.65210    3.21970    0.16360 4884.46510 4883.38580    0.20320
 5684.00000    8.92790    5.54740    4.70490    4.40570    4.28050    0.09680   70.56950  118.69330   98.46720    8.66000    3.04370    0.16190 4843.24590 4807.11530    0.18980
 5684.50000    7.20870    5.92490    4.34910    4.11320    4.07190    0.11960   70.17880  118.62890   74.00800    8.66780    2.80770    0.15860 4810.21700 4836.53390    0.16070
 5685.00000    5.87120    5.47650    4.34910    3.72190    3.63880    0.13790   69.94040  118.66440   52.17740    8.70450    2.64400    0.15710 4972.98220 4885.56490    0.14180
 5685.50000    4.83120    4.82120    3.92320    3.50460    3.42630    0.14220   70.09070  118.99690   35.96030    8.71050    2.57370    0.15760 4986.20280 4934.59590    0.13370
 5686.00000    5.97430    5.43260    4.47310    3.84000    3.75430    0.13490   70.31190  119.18180   47.23500    8.70520    2.65330    0.15910 4917.76290 4958.13060    0.13420
 5686.50000    6.35940    5.66910    4.31570    3.93720    3.87340    0.11110   70.53320  120.86250   72.21610    8.69720    2.73280    0.15820 4890.19260 4964.51240    0.13970
 5687.00000    6.60220    4.39000    3.98330    3.49140    3.41340    0.07250   70.75450  122.58190   99.17880    8.68920    2.87130    0.15970 4896.55920 4975.14870    0.14680
 5687.50000    7.49620    4.22850    3.81440    3.16400    3.07410    0.05030   70.97580  123.29370  127.26510    8.68120    3.10270    0.16580 4923.73510 4985.78500    0.15800
 5688.00000    9.37280    6.21040    5.15890    4.69840    4.61420    0.04570   71.29600  123.33380  134.55500    8.72850    3.18930    0.16790 4935.29990 4996.42130    0.17760
 5688.50000   12.57780    8.22440    6.83960    6.64110    6.53940    0.05260   71.68220  123.37390  133.60630    8.77180    3.20440    0.16990 4946.86460 5007.05760    0.20530
