~Version ---------------------------------------------------
VERS.   2.0 : CWLS log ASCII Standard -VERSION 2.0
WRAP.    NO : One line per depth step
DLM . SPACE : Column Data Section Delimiter
~Well ------------------------------------------------------
STRT .FT                1480.0 : START DEPTH
STOP .FT                7241.0 : STOP DEPTH
STEP .FT                   0.5 : STEP
NULL .                -9999.25 : NULL VALUE
COMP .                         : COMPANY
WELL .                         : WELL
FLD  .                         : FIELD
LOC  .                         : LOCATION
PROV .                         : PROVINCE
CNTY .                         : COUNTY
STAT .                         : STATE
CTRY .                         : COUNTRY
SRVC .                         : SERVICE COMPANY
DATE .                         : DATE
UWI  .                         : UNIQUE WELL ID
API  .                         : API NUMBER
SLAT .WGS84  6.930437640000001 : SURFACE LATITUDE
SLON .WGS84 3.4176933500000075 : SURFACE LONGITUDE
DATUM.F                    nan : DEPTH DATUM ELEV
~Curve Information -----------------------------------------
DEPT   .FT    : 
AT10   .OHMM  : ARRAY INDUCTION TWO FOOT RESISTIVITY A10
AT20   .OHMM  : ARRAY INDUCTION TWO FOOT RESISTIVITY A20
AT30   .OHMM  : ARRAY INDUCTION TWO FOOT RESISTIVITY A30
AT60   .OHMM  : ARRAY INDUCTION TWO FOOT RESISTIVITY A60
AT90   .OHMM  : ARRAY INDUCTION TWO FOOT RESISTIVITY A90
DPHZ_LS.DEC   : HGRD STANDARD RESOLUTION DENSITY POROSITY
DTCO   .US/F  : DELTA-T COMPRESSIONAL
DTSM   .US/F  : DELTA-T SHEAR
ECGRS  .GAPI  : ENVIRONMENTALLY CORRECTED GAMMA RAY FROM SONIC LOG
HCALS  .IN    : HRCC CALIPER CALIBRATED FROM SONIC LOG
PEFZ   .B/E   : HRDD STANDARD RESOLUTION FORMATION PHOTOELECTRIC FACTOR
SPHI_LS.DEC   : SONIC POROSITY [LIMESTONE]
TENR   .LBF   : TENSION FROM RESISTIVITY LOG
TENS   .LBF   : TENSION FROM SONIC LOG
TNPH_LS.DEC   : THERMAL NEUTRON POROSITY [LIMESTONE]
~Params ----------------------------------------------------
~Other -----------------------------------------------------
~ASCII -----------------------------------------------------
# ...
 6816.00000   40.73520   32.66440   26.02170   33.66750   19.96870    0.00810   63.77470  119.01810   46.28800    8.67480    4.02820    0.12260 6073.32620 6061.69420    0.02220
 6816.50000   26.68020   16.28650   13.94340   19.80340    9.97270    0.00520   67.37160  124.06550   60.23150    8.67850    3.80400    0.14300 6057.16270 6066.81580    0.04060
 6817.00000   12.62510    9.50480    8.95400    5.93930    5.72360    0.02180   69.01910  127.25250   81.16230    8.68220    3.57970    0.15020 5984.73400 6076.83580    0.08340
 6817.50000    6.66270    6.46190    5.85040    5.40960    5.05280    0.03910   71.08980  132.05990   99.41810    8.68590    3.38970    0.17110 6040.55180 6090.12160    0.13470
 6818.00000    7.51920    6.85830    6.19080    5.57360    5.24730    0.04400   73.00610  135.83590  102.70780    8.68730    3.35670    0.18320 6105.12880 6103.40730    0.18660
 6818.50000    8.21200    7.25460    6.86500    5.98140    5.58740    0.03510   75.12840  137.02070   93.29290    8.68730    3.30420    0.19430 6135.01340 6109.84520    0.18890
 6819.00000    8.54380    7.65090    7.06250    6.38930    5.87530    0.03170   74.73910  137.08950   90.32110    8.68730    3.25930    0.19160 6117.68770 6098.91590    0.18600
 6819.50000    8.87560    8.04720    7.39470    6.79710    6.02630    0.03890   73.37050  135.76530   94.85530    8.68730    3.27810    0.18130 6100.36190 6087.98660    0.19120
 6820.00000    8.96280    8.44350    7.94710    7.04210    6.18000    0.04070   71.84180  133.46220   95.25720    8.68730    3.29990    0.16740 6093.43160 6077.05730    0.19410
 6820.50000    9.28040    9.00090    8.05760    7.04210    6.49720    0.04010   68.02970  126.29260   92.57700    8.68730    3.36720    0.14260 6120.63120 6067.35860    0.19180
 6821.00000   14.41520   10.41250    8.93230    9.35660    7.36170    0.03660   63.49000  122.66820   80.49820    8.66940    3.57520    0.10990 6032.23220 6062.58260    0.17420
 6821.50000   22.14710   18.83670   21.29940   14.63860   12.55740    0.03330   60.28760  119.63300   65.25130    8.66300    4.04780    0.08820 6011.83230 6057.80660    0.12540
 6822.00000   29.87900   28.97890   33.66640   30.25150   20.91650    0.02020   57.71570  112.78960   50.65890    8.65380    4.57930    0.07140 6025.43230 6053.03050    0.07310
 6822.50000   79.34650  115.54750   46.03340   61.36070   49.53020    0.00710   55.42760  108.62450   32.27960    8.65810    4.94120    0.04950 6066.23190 6048.25450    0.04060
 6823.00000  142.16930  202.11610   95.20750   92.46980   78.14390    0.00240   54.05470  107.73520   25.39140    8.66240    5.12560    0.04480 6079.83160 6043.47840    0.02450
 6823.50000  248.83700  288.68460  144.38160  123.57900  106.75770    0.00570   53.23100  104.42660   21.43360    8.66680    5.23240    0.03770 6047.92530 6038.70240    0.02180
 6824.00000  386.90810  375.25320  397.40730  405.50870  476.68280    0.00680   52.88780  103.76460   20.13230    8.67240    5.29040    0.03510 6052.12350 6035.83680    0.01950
 6824.50000  295.67300  325.39100  605.47440  865.02180 1358.57520    0.00740   52.75050  102.76110   20.54150    8.66680    5.32380    0.03460 6056.32170 6039.31800    0.02010
 6825.00000  204.59910  290.17860  513.89790  878.16100 1959.80160    0.00800   52.81910  102.97780   21.70900    8.66680    5.34070    0.03660 6060.51990 6042.79910    0.02310
 6825.50000  181.70900  290.17860  365.05660  426.64140 1959.80160    0.00730   53.02500  103.87920   23.37560    8.66680    5.35770    0.03850 6064.71810 6052.33000    0.02640
 6826.00000  161.36830  257.46710  303.47560  353.73610  653.95650    0.00440   53.43690  105.54440   23.51120    8.66680    5.37470    0.04000 6068.91630 6061.86770    0.02950
 6826.50000  147.49340  198.68780  219.96230  232.51150  182.95310    0.00170   54.12330  107.25870   23.93940    8.67400    5.35090    0.04490 6073.11450 6055.27710    0.03300
 6827.00000  133.79340  139.90860  136.44900  154.55400  113.35990    0.00170   55.05000  107.93380   23.42970    8.65020    5.28790    0.05470 6077.31270 6048.68660    0.03570
 6827.50000  108.75190  105.47590   83.84940  120.17300   90.73330    0.00170   55.90810  109.46280   22.09680    8.65020    5.18820    0.06210 6079.83160 6065.82200    0.03440
 6828.00000   80.51880   78.09340   70.52280   85.79190   68.10680    0.00360   57.43200  112.58930   22.75010    8.65170    4.99790    0.07110 6107.03160 6053.17680    0.02990
 6828.50000   57.21310   55.48970   59.59430   51.41090   45.48030    0.00550   59.69720  114.68640   31.50730    8.63290    4.77480    0.09140 6093.43160 6040.53150    0.02580
 6829.00000   43.83480   42.51440   48.66580   33.57970   32.48410    0.01060   61.34150  116.09720   42.56880    8.61400    4.41290    0.09930 6093.43160 6027.88630    0.02790
 6829.50000   34.71740   33.67170   37.73730   26.78180   25.90800    0.01510   62.05450  119.57130   54.52010    8.66870    4.01650    0.10210 6090.98390 6091.84080    0.03750
 6830.00000   25.60000   24.82890   26.80880   19.98390   19.33190    0.02300   62.76740  120.96750   62.87410    8.67220    3.81660    0.10950 6086.90440 6113.81220    0.05750
 6830.50000   16.48260   15.98610   15.88020   13.18600   12.75580    0.03780   63.46100  121.92630   71.73440    8.67440    3.70570    0.11260 6082.82500 6108.57380    0.08360
 6831.00000   13.26490   12.86530   12.39200   11.93190   11.54260    0.05090   62.83770  120.50170   73.96420    8.68010    3.85750    0.10680 6078.74550 6096.28180    0.11170
 6831.50000   13.77140   13.52450   12.71240   11.63750   11.25770    0.05240   62.11510  119.87780   67.13600    8.66770    4.19630    0.10210 6048.79450 6076.68430    0.11220
 6832.00000   15.07380   14.61980   13.61690   12.70100   12.28660    0.03200   60.85860  119.21740   61.76260    8.65530    4.52370    0.09280 6010.59480 6057.08680    0.09970
 6832.50000   17.28660   16.76590   16.26470   14.69820   13.98980    0.01060   59.71720  119.16050   56.38910    8.68810    4.87160    0.08580 5992.50300 6037.48930    0.07980
 6833.00000   22.76850   22.08260   19.62350   17.21960   15.85700    0.00570   58.46170  119.41310   48.97870    8.67860    5.02250    0.07660 6046.43050 6017.89190    0.06080
 6833.50000   32.85640   30.19740   25.03660   19.74110   17.72430    0.00540   58.60150  119.77730   41.78010    8.68770    5.07680    0.07880 6056.40810 6013.80840    0.04450
 6834.00000   60.26590   48.43440   42.89500   36.62170   28.84840    0.00390   59.49630  120.25920   38.32880    8.68410    5.09040    0.08630 6066.38570 6054.78990    0.03050
 6834.50000   82.19340   63.20380   42.70900   37.59460   32.96490    0.00120   61.33530  121.01800   39.21480    8.68060    5.04970    0.10170 6076.36320 6075.21860    0.02500
 6835.00000   63.94860   53.73110   33.47500   30.09440   28.73220   -0.00100   63.59780  124.20540   44.81310    8.67700    4.95470    0.11470 6086.34080 6095.56600    0.02740
 6835.50000   35.96100   36.42470   23.54820   22.01170   19.82790    0.00060   65.86040  128.63380   53.06710    8.66850    4.68340    0.12560 6096.31840 6102.22520    0.03670
 6836.00000   19.11380   19.11820   11.75420   11.72480   10.92350    0.00920   67.73930  132.25500   64.05380    8.66990    4.28280    0.14930 6106.29600 6119.18130    0.05770
 6836.50000    8.09320    7.84940    7.47570    6.92990    6.70380    0.01960   71.27490  136.85800   85.16110    8.67600    4.02900    0.16610 6116.27360 6136.13740    0.09530
 6837.00000    6.03800    5.85610    6.14160    5.54670    5.36570    0.03660   74.81040  146.13120   92.38930    8.65340    3.77730    0.19440 6126.25120 6153.09350    0.15130
 6837.50000    5.46370    5.29910    5.04080    5.01920    4.85540    0.04690   77.67230  151.79690   92.13290    8.65240    3.62310    0.21680 6139.12250 6156.32070    0.18820
 6838.00000    4.68330    4.54230    4.37520    4.30230    4.16190    0.04790   84.41990  159.32750   91.84450    8.65140    3.67340    0.25740 6163.56890 6150.95790    0.18550
 6838.50000    3.93420    3.81570    3.67530    3.61410    3.49620    0.04950   85.63690  160.88990   94.06650    8.65040    3.71310    0.26700 6150.76210 6139.71110    0.18770
