~Version ---------------------------------------------------
VERS.   2.0 : CWLS log ASCII Standard -VERSION 2.0
WRAP.    NO : One line per depth step
DLM . SPACE : Column Data Section Delimiter
~Well ------------------------------------------------------
STRT .FT                1480.0 : START DEPTH
STOP .FT                7241.0 : STOP DEPTH
STEP .FT                   0.5 : STEP
NULL .                -9999.25 : NULL VALUE
COMP .                         : COMPANY
WELL .                         : WELL
FLD  .                         : FIELD
LOC  .                         : LOCATION
PROV .                         : PROVINCE
CNTY .                         : COUNTY
STAT .                         : STATE
CTRY .                         : COUNTRY
SRVC .                         : SERVICE COMPANY
DATE .                         : DATE
UWI  .                         : UNIQUE WELL ID
API  .                         : API NUMBER
SLAT .WGS84  6.930437640000001 : SURFACE LATITUDE
SLON .WGS84 3.4176933500000075 : SURFACE LONGITUDE
DATUM.F                    nan : DEPTH DATUM ELEV
~Curve Information -----------------------------------------
DEPT   .FT    : 
AT10   .OHMM  : ARRAY INDUCTION TWO FOOT RESISTIVITY A10
AT20   .OHMM  : ARRAY INDUCTION TWO FOOT RESISTIVITY A20
AT30   .OHMM  : ARRAY INDUCTION TWO FOOT RESISTIVITY A30
AT60   .OHMM  : ARRAY INDUCTION TWO FOOT RESISTIVITY A60
AT90   .OHMM  : ARRAY INDUCTION TWO FOOT RESISTIVITY A90
DPHZ_LS.DEC   : HGRD STANDARD RESOLUTION DENSITY POROSITY
DTCO   .US/F  : DELTA-T COMPRESSIONAL
DTSM   .US/F  : DELTA-T SHEAR
ECGRS  .GAPI  : ENVIRONMENTALLY CORRECTED GAMMA RAY FROM SONIC LOG
HCALS  .IN    : HRCC CALIPER CALIBRATED FROM SONIC LOG
PEFZ   .B/E   : HRDD STANDARD RESOLUTION FORMATION PHOTOELECTRIC FACTOR
SPHI_LS.DEC   : SONIC POROSITY [LIMESTONE]
TENR   .LBF   : TENSION FROM RESISTIVITY LOG
TENS   .LBF   : TENSION FROM SONIC LOG
TNPH_LS.DEC   : THERMAL NEUTRON POROSITY [LIMESTONE]
~Params ----------------------------------------------------
~Other -----------------------------------------------------
~ASCII -----------------------------------------------------
# ...
 4148.00000    4.36570    4.30820    4.22810    4.16900    4.11900    0.08400   87.42190  167.04860  138.33300    8.74810    3.37430    0.28090 3995.64860 4036.52320    0.27680
 4148.50000    4.31530    4.25750    4.17840    4.12000    4.07140    0.08000   87.84750  168.25540  142.60690    8.75770    3.40750    0.28420 4114.64760 4118.21260    0.28410
 4149.00000    4.26480    4.20680    4.12860    4.07090    4.02390    0.07810   88.05690  169.12750  143.97200    8.77010    3.45150    0.28570 4179.32590 4181.36840    0.29950
 4149.50000    4.21440    4.15610    4.07880    4.02180    3.97630    0.08390   88.41810  169.42630  149.96900    8.77050    3.45480    0.28830 4117.24430 4131.62210    0.30510
 4150.00000    4.16400    4.10540    4.02910    3.97280    3.92870    0.08880   89.15990  169.61190  152.00780    8.77100    3.44660    0.29240 4055.16280 4081.87590    0.30790
 4150.50000    4.11360    4.05470    3.97930    3.92370    3.88120    0.09270   89.54130  170.24650  153.14040    8.77140    3.42230    0.29450 4064.45050 4032.12960    0.30140
 4151.00000    4.06320    4.00390    3.92950    3.87460    3.83360    0.09070   88.47540  167.89370  150.93400    8.77170    3.42760    0.28940 4162.92750 4078.69300    0.31710
 4151.50000    4.01280    3.95320    3.87980    3.82560    3.78600    0.08360   87.83740  165.38480  147.08590    8.76970    3.43280    0.28430 4168.77730 4075.30150    0.32410
 4152.00000    3.96230    3.90250    3.83000    3.77650    3.73850    0.08370   88.21630  165.02140  147.91670    8.75360    3.46300    0.28730 4088.36340 4071.91000    0.30890
 4152.50000    3.78480    3.73720    3.66780    3.61650    3.57100    0.08610   86.77330  163.39330  144.21210    8.73760    3.45870    0.27870 4079.19340 4081.20290    0.28310
 4153.00000    3.73600    3.72380    3.62040    3.60350    3.52490    0.08950   85.33020  156.07600  138.93690    8.75760    3.34570    0.26770 4166.33010 4141.23310    0.27090
 4153.50000    4.25080    4.34470    4.26400    4.20440    4.01060    0.09100   83.59180  153.31720  128.05200    8.72860    3.21460    0.25160 4136.29150 4166.73740    0.25870
 4154.00000    4.59220    4.45010    4.40860    4.34700    4.29230    0.09260   82.28760  152.51330  118.68170    8.75160    3.05450    0.24490 3930.48990 4096.95920    0.24280
 4154.50000    4.38180    4.32670    4.24630    4.14790    4.09560    0.09530   81.05200  151.83590  110.66190    8.76970    2.89970    0.23690 4151.55560 4018.96990    0.21520
 4155.00000    4.85800    4.79690    4.70780    4.64200    4.49840    0.09510   80.52220  148.99920  105.59850    8.76970    2.84610    0.23260 4198.68260 4088.43570    0.19280
 4155.50000    5.04370    4.98030    4.88770    4.81950    4.75880    0.09230   79.97630  146.88450  101.68850    8.76970    2.88260    0.22810 4137.01090 4188.31340    0.18620
 4156.00000    4.84360    4.76100    4.67260    4.60730    4.58350    0.09320   78.83160  145.58240  106.06260    8.75940    2.94400    0.22010 4067.85860 3997.46420    0.18050
 4156.50000    4.46080    4.32910    4.24870    4.18930    3.83540    0.09400   77.85080  143.64610  114.60040    8.72630    2.97710    0.21370 3974.60100 3988.24740    0.20030
 4157.00000    4.14430    4.28870    4.20900    3.77300    3.55810    0.09810   76.84900  141.40990  122.34920    8.69600    3.14210    0.20730 3988.38820 4092.91170    0.21530
 4157.50000    6.03890    6.43820    5.77820    5.22110    4.81890    0.08360   75.65890  140.02010  121.99570    8.69260    3.32750    0.19790 4240.78560 4229.91110    0.24610
 4158.00000    7.48300    7.31990    6.83620    6.58220    6.30510    0.07220   73.12360  135.20130  110.86040    8.68930    3.68220    0.17880 4037.93430 4182.05070    0.25280
 4158.50000    7.62470    7.52880    7.38890    6.91980    6.67010    0.05530   68.89510  131.76220   91.43320    8.71600    4.14980    0.14640 3995.56830 4156.43690    0.19680
 4159.00000    9.05710    8.49660    8.48210    8.14140    7.97130    0.04360   64.91420  125.87940   70.42820    8.76970    4.55390    0.11320 4096.33770 4130.82310    0.15000
 4159.50000    9.91470    8.80640    8.48210    8.14140    7.82320    0.03140   63.18290  122.80450   58.56000    8.76970    4.95800    0.10910 4063.83470 4105.20930    0.11810
 4160.00000   14.57700   12.02690    8.88940    8.45260    7.97130    0.00980   62.94080  121.96320   50.43640    8.75450    5.10380    0.10750 4015.59850 4066.64140    0.08610
 4160.50000   31.98340   23.79970   19.01920   15.84640   12.40710   -0.00500   62.94080  122.47470   42.33850    8.73070    5.21120    0.11020 3967.36220 4011.50070    0.07540
 4161.00000   40.48340   22.49730   20.10250   19.17480   12.79530   -0.00920   63.36440  124.33490   39.53870    8.73070    5.29710    0.11810 3997.17640 4024.38840    0.06010
 4161.50000   27.01960   17.38370   14.78460   12.85680    8.42040   -0.00350   68.37470  129.92940   52.66680    8.76460    5.21570    0.14460 4096.14750 4041.83140    0.06250
 4162.00000    9.34400    7.67720    7.15520    5.84200    3.55810    0.00910   74.00220  135.65930   77.29840    8.83150    4.93240    0.18750 4093.87550 4057.24650    0.10330
 4162.50000    5.54280    5.52470    5.42200    4.75760    4.34070    0.02350   79.62970  144.79080  110.81940    8.81140    4.61210    0.23470 3995.89650 4069.61970    0.14920
 4163.00000    7.20750    6.40180    5.99500    5.38850    5.17790    0.03950   87.17230  149.85330  130.24870    8.79820    4.29190    0.27770 3948.27960 4081.99280    0.22450
 4163.50000    5.36310    4.94220    4.52740    4.11920    3.98300    0.05540   88.36260  158.99390  132.97880    8.78240    4.03480    0.28820 4115.33080 4054.37990    0.26110
 4164.00000    3.15740    3.11770    3.03120    2.88350    2.76210    0.05310   90.71270  170.52710  138.46430    8.76970    3.86310    0.29970 4058.84150 3982.40020    0.29770
 4164.50000    3.04110    2.97480    2.91960    2.69180    2.61090    0.06180   91.74920  172.22770  147.84040    8.76970    3.75540    0.29970 3860.40930 3987.63890    0.30300
 4165.00000    2.90180    2.86530    2.78580    2.67500    2.58660    0.07270   92.14420  173.48530  150.15910    8.76970    3.65200    0.29970 4011.47920 3997.79780    0.32750
 4165.50000    2.92910    2.89230    2.83850    2.70540    2.64380    0.09360   92.73860  179.51480  147.79150    8.76970    3.58490    0.29970 4190.57040 4162.68120    0.34530
 4166.00000    2.92910    2.89230    2.83850    2.72570    2.66040    0.09810   93.71670  180.57960  145.23280    8.71490    3.56560    0.29970 4033.84340 4021.87530    0.35520
 4166.50000    2.87470    2.78580    2.73400    2.65830    2.57860    0.10250   94.81340  179.07330  146.98830    8.66010    3.54340    0.29970 3914.35420 3912.67970    0.34720
 4167.00000    2.76890    2.73400    2.68320    2.56050    2.53870    0.10880   94.92420  180.01700  146.09030    8.64620    3.49900    0.29970 4014.70710 4017.70470    0.33820
 4167.50000    2.98460    2.94710    2.83220    2.68760    2.58840    0.11970   93.33070  174.36500  141.76490    8.62560    3.44220    0.29970 4089.15530 4122.72970    0.33810
 4168.00000    3.01270    2.97480    2.91960    2.84760    2.78810    0.13100   92.19930  169.38600  142.60160    8.63270    3.38960    0.29970 4018.97110 4068.62400    0.33600
 4168.50000    2.90180    2.86530    2.73550    2.56800    2.40860    0.12990   91.23530  164.42300  142.04600    8.64320    3.46630    0.29970 3984.65410 3950.56560    0.31830
 4169.00000    3.58600    4.14050    3.13940    2.95470    2.35500    0.09810   91.61220  158.30790  135.76000    8.62850    3.72280    0.29970 3975.42100 3912.23220    0.30150
 4169.50000    7.54140    7.59240    6.18850    5.62640    4.96680    0.04780   90.64990  146.40220  112.43830    8.61380    4.04460    0.29970 3978.38120 4053.76180    0.23560
 4170.00000    9.91470    9.05770    8.01800    7.45900    7.12280    0.02710   84.54310  132.66900   91.07290    8.60500    4.42670    0.27750 3937.07560 4086.06020    0.17280
 4170.50000   11.20030    9.58200    8.80640    7.84160    7.39510    0.01200   71.20050  128.59090   69.70750    8.58790    4.80880    0.17120 3858.85840 4001.35500    0.11030
