~Version ---------------------------------------------------
VERS.   2.0 : CWLS log ASCII Standard -VERSION 2.0
WRAP.    NO : One line per depth step
DLM . SPACE : Column Data Section Delimiter
~Well ------------------------------------------------------
STRT .FT                1480.0 : START DEPTH
STOP .FT                7241.0 : STOP DEPTH
STEP .FT                   0.5 : STEP
NULL .                -9999.25 : NULL VALUE
COMP .                         : COMPANY
WELL .                         : WELL
FLD  .                         : FIELD
LOC  .                         : LOCATION
PROV .                         : PROVINCE
CNTY .                         : COUNTY
STAT .                         : STATE
CTRY .                         : COUNTRY
SRVC .                         : SERVICE COMPANY
DATE .                         : DATE
UWI  .                         : UNIQUE WELL ID
API  .                         : API NUMBER
SLAT .WGS84  6.930437640000001 : SURFACE LATITUDE
SLON .WGS84 3.4176933500000075 : SURFACE LONGITUDE
DATUM.F                    nan : DEPTH DATUM ELEV
~Curve Information -----------------------------------------
DEPT   .FT    : 
AT10   .OHMM  : ARRAY INDUCTION TWO FOOT RESISTIVITY A10
AT20   .OHMM  : ARRAY INDUCTION TWO FOOT RESISTIVITY A20
AT30   .OHMM  : ARRAY INDUCTION TWO FOOT RESISTIVITY A30
AT60   .OHMM  : ARRAY INDUCTION TWO FOOT RESISTIVITY A60
AT90   .OHMM  : ARRAY INDUCTION TWO FOOT RESISTIVITY A90
DPHZ_LS.DEC   : HGRD STANDARD RESOLUTION DENSITY POROSITY
DTCO   .US/F  : DELTA-T COMPRESSIONAL
DTSM   .US/F  : DELTA-T SHEAR
ECGRS  .GAPI  : ENVIRONMENTALLY CORRECTED GAMMA RAY FROM SONIC LOG
HCALS  .IN    : HRCC CALIPER CALIBRATED FROM SONIC LOG
PEFZ   .B/E   : HRDD STANDARD RESOLUTION FORMATION PHOTOELECTRIC FACTOR
SPHI_LS.DEC   : SONIC POROSITY [LIMESTONE]
TENR   .LBF   : TENSION FROM RESISTIVITY LOG
TENS   .LBF   : TENSION FROM SONIC LOG
TNPH_LS.DEC   : THERMAL NEUTRON POROSITY [LIMESTONE]
~Params ----------------------------------------------------
~Other -----------------------------------------------------
~ASCII -----------------------------------------------------
# ...
 1871.00000    1.71500    1.80770    1.98030    2.11970    2.22620    0.13870   99.22920  198.63780   74.03930    9.27710    3.27250   -9999.25 3107.85820 3067.28860    0.41170
 1871.50000    2.04710    2.10740    2.31980    2.51190    2.68290    0.14590   99.99760  199.76650   73.44910    9.34960    3.16460   -9999.25 3114.09840 3059.54380    0.41170
 1872.00000    1.98510    2.11380    2.22850    2.43500    2.44480    0.13750   99.59120  199.48020   68.42040    9.36510    3.13790   -9999.25 3120.33850 3073.09260    0.39220
 1872.50000    1.70270    1.84750    2.02960    1.96520    2.04780    0.12690   98.76200  197.60900   61.30180    9.34660    3.13830   -9999.25 3121.08620 3080.97320    0.36230
 1873.00000    1.60320    1.68770    1.83070    1.84800    1.88900    0.12480   98.04130  195.08360   59.41000    9.32810    3.21460   -9999.25 3113.59520 3088.85370    0.35070
 1873.50000    1.73310    1.78170    1.76860    1.98400    2.07710    0.12870   96.56260  192.32670   61.68610    9.31330    3.26550   -9999.25 3084.30110 3083.03890    0.33510
 1874.00000    1.84720    1.87290    1.88040    2.11990    2.26530    0.12650   94.95740  185.06720   68.29370    9.30000    3.35580   -9999.25 3126.17480 3060.54590    0.32340
 1874.50000    1.80160    1.96230    1.99240    2.17430    2.38860    0.11780   92.57680  178.73440   72.88700    9.40570    3.50800   -9999.25 3178.29890 3038.05290    0.31570
 1875.00000    1.76790    2.05180    2.10430    2.17430    2.43580    0.10740   89.80440  174.59500   76.15420    9.26850    3.59910   -9999.25 2954.49680 3129.64910    0.29990
 1875.50000    1.69940    2.08750    2.21630    2.31460    2.59330    0.10120   92.10390  172.99830   75.48590    9.27330    3.69010   -9999.25 3304.77740 3232.33710    0.27740
 1876.00000    1.80040    2.08850    2.32820    2.46000    2.65370    0.08140   92.55020  173.63140   66.23930    9.28540    3.73040   -9999.25 3158.79140 3180.11930    0.27000
 1876.50000    1.90350    2.22320    2.49600    2.87720    3.45030    0.06160   90.35350  175.70140   56.96450    9.24760    3.65860   -9999.25 3073.03320 3127.90160    0.26030
 1877.00000    1.67620    2.04200    2.80920    3.12480    3.76900    0.05130   96.53150  179.50740   51.90730    9.26760    3.47030   -9999.25 3061.95800 3075.68390    0.24340
 1877.50000    1.37900    1.69500    2.07180    2.64950    2.85160    0.07730   96.70310  184.20840   63.13260    9.35260    3.29140   -9999.25 2997.32640 3074.97740    0.29000
 1878.00000    1.24530    1.55920    1.76860    2.17430    2.35220    0.11530   97.58850  189.44080   78.77750    9.43760    3.15790   -9999.25 2972.26050 3074.27090    0.32400
 1878.50000    1.28590    1.47080    1.88570    2.74810    3.30580    0.15060   99.26020  195.48260   91.85070    9.45910    3.09250   -9999.25 3064.05970 3073.56440    0.35960
 1879.00000    1.38070    1.64580    2.00430    2.88090    3.68720    0.16970  100.58450  200.57240   97.77100    9.65380    3.08750   -9999.25 3051.45830 3079.05700    0.36610
 1879.50000    1.47980    1.74710    2.12910    2.92660    4.41390    0.18060  102.77770  204.03670   99.92990    9.64930    3.07500   -9999.25 3038.85680 3093.84810    0.38900
 1880.00000    1.56620    1.84830    2.25380    3.20030    5.31940    0.17840  103.77490  207.06070   98.49740    9.67970    3.06240   -9999.25 3026.25530 3108.63920    0.40740
 1880.50000    1.69290    1.95810    2.50700    3.67690    6.49300    0.16700  104.09820  209.40090   90.79640    9.65770    3.06390   -9999.25 3054.25190 3100.55890    0.42690
 1881.00000    1.63050    2.14040    2.67780    3.96290    7.19710    0.15140  103.60430  211.59870   85.09310    9.61340    3.14600   -9999.25 3082.24840 3091.21630    0.39130
 1881.50000    1.44710    2.03060    2.36740    3.45930    4.73910    0.14050  103.45310  210.24280   80.56290    9.62320    3.33470   -9999.25 3056.03980 3081.87370    0.34880
 1882.00000    1.34410    1.84770    2.05700    2.82980    2.66950    0.13020  102.70950  204.96390   77.42030    9.63290    3.54480   -9999.25 3038.39610 3072.53110    0.32050
 1882.50000    1.24120    1.66480    1.74660    2.20020    2.15380    0.12730  102.84690  199.84330   74.42540    9.74660    3.73340   -9999.25 3008.35130 3056.64450    0.32950
 1883.00000    1.13820    1.48180    1.59310    1.57070    1.63810    0.12090  100.51300  192.33290   71.22460    9.69150    3.79700   -9999.25 3093.12860 3069.82970    0.34250
 1883.50000    1.08410    1.29890    1.40900    1.35180    1.37450    0.12630   96.66890  188.29730   72.41530    9.80110    3.78540   -9999.25 3091.65380 3083.01480    0.35860
 1884.00000    1.19970    1.27910    1.27770    1.46860    1.54680    0.11560   95.90010  185.01080   74.51230    9.80660    3.77390   -9999.25 3101.99860 3080.54150    0.37910
 1884.50000    1.39620    1.50420    1.51970    1.71790    1.86260    0.09330   94.33500  181.42580   65.29790    9.81210    3.78480   -9999.25 3099.43770 3078.06820    0.36560
 1885.00000    1.65650    1.72930    1.74570    1.96720    2.17840    0.04250   93.30540  182.44270   52.69410    9.62880    3.59460   -9999.25 3096.44910 3075.59490    0.31990
 1885.50000    1.51500    1.67520    1.85930    1.81760    2.02370    0.02450   92.34440  180.89700   43.00930    9.45700    3.39770   -9999.25 3089.46270 3079.39450    0.28460
 1886.00000    1.27700    1.37160    1.62250    1.56830    1.63700    0.04560   93.58000  179.77140   47.22550    9.55410    3.18760   -9999.25 3129.79880 3080.50260    0.29930
 1886.50000    1.19840    1.23460    1.32650    1.36890    1.40500    0.09760   92.19560  178.42640   68.31430    9.65110    3.09340   -9999.25 3170.13490 3078.58540    0.35090
 1887.00000    1.37580    1.36740    1.34320    1.55020    1.60670    0.14080   95.22740  177.05800   81.73190    9.79690    3.24740   -9999.25 3139.12740 3076.66830    0.36180
 1887.50000    1.55320    1.53330    1.61810    1.77690    1.80840    0.13040   94.15190  178.20080   83.10190    9.97750    3.55030   -9999.25 3110.56770 3071.44570    0.34400
 1888.00000    1.73060    1.69930    1.87610    2.00350    2.01010    0.10710   97.69860  179.32940   75.78410    9.90540    4.03300   -9999.25 3060.91600 3061.26510    0.30100
 1888.50000    1.78920    1.86530    1.97930    2.04480    2.13120    0.10020   98.55660  176.38560   71.47630   10.03640    4.49130   -9999.25 2992.50050 3051.08450    0.29280
 1889.00000    1.61380    1.68580    1.78090    1.79800    1.84090    0.13580   99.20870  168.73000   77.38730   10.14110    5.14700    0.29990 3040.54370 3069.53320    0.29930
 1889.50000    1.43840    1.50630    1.58260    1.55120    1.55070    0.15220   81.73180  161.68110   83.10430    9.95890    5.40060    0.24250 3049.05950 3078.61380    0.37680
 1890.00000    1.51260    1.52590    1.48450    1.83020    2.10630    0.09060   69.44410  153.92130   78.77310    9.73130    5.65420    0.13660 3057.57540 3087.69430    0.41930
 1890.50000    2.47720    2.57410    3.32550    2.82730    3.45250   -0.00210   57.68170  146.16150   61.31250    9.50370    5.78990    0.05490 3066.40370 3093.81770    0.30050
 1891.00000    5.38940    6.34860    9.19100   11.27840    8.46430   -0.10010   54.47270  138.40170   33.97380    9.29410    5.78080    0.05140 3087.31020 3088.11280    0.05180
 1891.50000   12.53100   13.19750   18.80690   19.72950   26.70110   -0.09990   54.04940  126.30610   19.76470    9.33960    5.60000    0.04620 3095.43830 3082.40780    0.01440
 1892.00000   19.67260   22.09600   29.69570   32.90870   45.63250   -0.09980   55.94850  120.71840   14.26140    9.32500    5.49850    0.06120 3084.39890 3076.70290    0.00480
 1892.50000   30.55120   31.89540   40.93800   48.63320   53.05190   -0.09970   56.44310  115.37500   11.37790    9.32300    5.45250    0.06280 3061.21350 3077.35930   -0.00480
 1893.00000   40.65490   42.29180   52.98030   59.03800   95.69370   -0.09950   60.39830  104.16040   12.00560    9.31410    5.43210    0.08710 3108.18230 3103.46140   -0.01060
 1893.50000   44.81850   48.17770   58.97870   94.95330  255.04310   -0.09940   62.86350  103.06210   15.89730    9.30520    5.38580    0.10710 3155.15110 3129.56350   -0.00560
