~Version ---------------------------------------------------
VERS.   2.0 : CWLS log ASCII Standard -VERSION 2.0
WRAP.    NO : One line per depth step
DLM . SPACE : Column Data Section Delimiter
~Well ------------------------------------------------------
STRT .FT                1480.0 : START DEPTH
STOP .FT                7241.0 : STOP DEPTH
STEP .FT                   0.5 : STEP
NULL .                -9999.25 : NULL VALUE
COMP .                         : COMPANY
WELL .                         : WELL
FLD  .                         : FIELD
LOC  .                         : LOCATION
PROV .                         : PROVINCE
CNTY .                         : COUNTY
STAT .                         : STATE
CTRY .                         : COUNTRY
SRVC .                         : SERVICE COMPANY
DATE .                         : DATE
UWI  .                         : UNIQUE WELL ID
API  .                         : API NUMBER
SLAT .WGS84  6.930437640000001 : SURFACE LATITUDE
SLON .WGS84 3.4176933500000075 : SURFACE LONGITUDE
DATUM.F                    nan : DEPTH DATUM ELEV
~Curve Information -----------------------------------------
DEPT   .FT    : 
AT10   .OHMM  : ARRAY INDUCTION TWO FOOT RESISTIVITY A10
AT20   .OHMM  : ARRAY INDUCTION TWO FOOT RESISTIVITY A20
AT30   .OHMM  : ARRAY INDUCTION TWO FOOT RESISTIVITY A30
AT60   .OHMM  : ARRAY INDUCTION TWO FOOT RESISTIVITY A60
AT90   .OHMM  : ARRAY INDUCTION TWO FOOT RESISTIVITY A90
DPHZ_LS.DEC   : HGRD STANDARD RESOLUTION DENSITY POROSITY
DTCO   .US/F  : DELTA-T COMPRESSIONAL
DTSM   .US/F  : DELTA-T SHEAR
ECGRS  .GAPI  : ENVIRONMENTALLY CORRECTED GAMMA RAY FROM SONIC LOG
HCALS  .IN    : HRCC CALIPER CALIBRATED FROM SONIC LOG
PEFZ   .B/E   : HRDD STANDARD RESOLUTION FORMATION PHOTOELECTRIC FACTOR
SPHI_LS.DEC   : SONIC POROSITY [LIMESTONE]
TENR   .LBF   : TENSION FROM RESISTIVITY LOG
TENS   .LBF   : TENSION FROM SONIC LOG
TNPH_LS.DEC   : THERMAL NEUTRON POROSITY [LIMESTONE]
~Params ----------------------------------------------------
~Other -----------------------------------------------------
~ASCII -----------------------------------------------------
# ...
 6057.00000   16.82520   16.31840   15.71810   15.45630   14.95200    0.02030   70.01540  123.17390   91.29950    8.58840    3.48840    0.16380 5536.50510 5484.97260    0.15680
 6057.50000   16.92400   16.41420   15.81040   15.54700   15.03970    0.01960   71.09860  123.89990   88.21480    8.62110    3.52370    0.16770 5508.21060 5482.49070    0.15650
 6058.00000   16.78390   16.27830   15.67950   15.41840   14.91530    0.02040   71.81720  124.62590   92.48950    8.65370    3.53730    0.17240 5426.35410 5483.27880    0.15850
 6058.50000   15.89910   15.42020   14.85300   14.60560   14.12900    0.02240   72.36630  125.45900   99.77330    8.65410    3.55990    0.17590 5443.45890 5484.06700    0.16980
 6059.00000   14.61710   14.17680   13.65530   13.42780   12.98970    0.02500   72.91550  125.91030  111.51130    8.61220    3.56890    0.17860 5497.23990 5484.85510    0.18700
 6059.50000   13.26120   12.86170   12.38860   12.18230   11.78480    0.02930   73.05280  126.20890  120.05230    8.61260    3.56180    0.17940 5464.78960 5466.86430    0.20410
 6060.00000   11.90530   11.54670   11.12200   10.93670   10.57980    0.02920   73.00690  125.26370  120.66860    8.62770    3.57600    0.17840 5432.33920 5444.17880    0.20770
 6060.50000   11.63420   11.28370   10.73370   10.68760   10.21050    0.02530   72.98400  124.30770  118.90090    8.64270    3.57250    0.17760 5399.88880 5421.49320    0.20560
 6061.00000   12.25330   11.88420   11.44710   11.27240   10.90460    0.02160   72.64080  124.06040  115.82000    8.67700    3.54200    0.17320 5410.55070 5434.54710    0.19550
 6061.50000   13.28530   12.88510   12.41110   12.24710   11.84750    0.02290   70.30690  123.54040  112.80860    8.71570    3.47780    0.16420 5450.05990 5501.21030    0.18570
 6062.00000   14.31720   13.88600   13.37520   13.22180   12.79040    0.02510   71.54250  122.08430  110.46170    8.72410    3.41230    0.17310 5549.25440 5567.87340    0.17430
 6062.50000   15.34000   14.65540   14.24090   13.63520   13.19030    0.02390   70.97960  120.85590  105.14900    8.72270    3.39090    0.16570 5586.30690 5580.91050    0.16350
 6063.00000   15.40410   14.62240   14.07670   13.46590   13.02650    0.02060   70.27600  120.27560  106.06490    8.70800    3.37430    0.16200 5552.92810 5515.62290    0.15510
 6063.50000   15.46830   14.58950   13.91250   13.46590   13.02650    0.02340   69.57240  119.91070  109.81250    8.69330    3.35010    0.15650 5440.76620 5450.33540    0.15800
 6064.00000   15.50680   14.55650   13.74830   13.46590   13.02650    0.02850   68.86880  119.76060  112.28600    8.68310    3.28980    0.15100 5415.33220 5429.82250    0.16280
 6064.50000   15.97000   14.54330   13.74830   13.46590   13.02650    0.03500   68.10210  119.11260  111.46200    8.69040    3.22950    0.14550 5442.36250 5457.83340    0.16060
 6065.00000   16.50630   14.54330   13.87770   13.46590   13.02650    0.03830   67.31950  117.69520  107.17140    8.68880    3.18720    0.13890 5466.14220 5485.84430    0.15680
 6065.50000   15.89910   14.27330   13.49300   12.65050   12.23770    0.04350   66.53700  115.87170  105.33990    8.72720    3.15750    0.13260 5494.74720 5508.42650    0.14980
 6066.00000   14.19680   13.62000   12.52590   11.59120   11.21300    0.04380   65.75440  113.29650  106.17070    8.72030    3.10820    0.12680 5485.53590 5512.29110    0.14760
 6066.50000   13.01860   12.51860   11.83420   11.16480   10.80050    0.04150   64.97190  110.12500  110.78330    8.71340    3.06380    0.12080 5511.38510 5517.73920    0.14870
 6067.00000   14.74600   13.98750   13.25160   12.52910   11.82770    0.03500   64.10470  106.56050  112.51490    8.69140    3.06500    0.11530 5525.98090 5521.00810    0.14410
 6067.50000   17.35210   16.23930   15.24080   14.23440   13.11170    0.03100   63.21640  105.47590  111.67610    8.71510    3.11690    0.10990 5550.81890 5518.24300    0.13480
 6068.00000   21.69300   20.88270   18.66230   15.93970   14.39570    0.02680   62.32810  108.80080   97.45280    8.68460    3.23740    0.10440 5568.80130 5468.37900    0.11330
 6068.50000   32.51190   35.09250   28.12060   25.33420   22.60720    0.01560   60.97140  111.07940   81.08510    8.68560    3.38750    0.09670 5572.97760 5418.51510    0.08840
 6069.00000   50.03100   49.30230   38.52500   34.72860   32.64530   -0.00560   58.91210  110.58580   59.35920    8.68660    3.67520    0.07740 5610.66690 5550.52450    0.05370
 6069.50000   73.66950   63.51210   52.38150   44.12310   42.68340   -0.02270   57.33320  108.53670   44.24910    8.68690    3.85350    0.06970 5584.71690 5572.35410    0.03790
 6070.00000   90.87080   77.32220   68.24570   62.53820   53.86010   -0.03160   58.06870  107.18780   38.71180    8.68440    3.92870    0.07570 5543.97960 5545.38360    0.03970
 6070.50000  103.37970   91.83030   74.25030   70.71010   60.18250   -0.03670   58.36300  107.66800   38.23330    8.68200    3.89620    0.07630 5503.24240 5518.41320    0.04210
 6071.00000  115.88870   99.27570   80.02970   72.72590   64.46180   -0.03170   58.39730  108.39580   41.23750    8.67960    3.84840    0.07510 5462.50510 5469.11550    0.04490
 6071.50000   98.47170   85.34790   77.81150   62.64470   55.80400   -0.01500   58.43160  108.83230   48.54810    8.67710    3.72760    0.07710 5496.60400 5520.76990    0.05220
 6072.00000   66.49500   59.65830   45.12690   41.64500   36.16020    0.01030   58.63760  109.12430   57.54720    8.67470    3.63610    0.07910 5552.31910 5572.42430    0.06700
 6072.50000   34.51840   33.96880   21.36560   20.64540   16.10880    0.02700   60.01040  110.40630   70.89150    8.67230    3.59240    0.08920 5509.98920 5569.91890    0.07920
 6073.00000   20.66860   18.04070   16.89540   16.44540   15.90880    0.02890   62.51970  115.10250   77.16650    8.68730    3.67040    0.11380 5548.63890 5601.51050    0.08790
 6073.50000   24.92840   23.82910   22.07060   21.56580   19.86420    0.01900   66.21890  121.63120   72.22420    8.64250    3.74830    0.13910 5573.22890 5667.03390    0.08360
 6074.00000   33.22640   31.35710   28.02240   26.68620   24.32810    0.01200   68.32620  124.35500   68.72340    8.62940    3.75120    0.14760 5698.10460 5713.55560    0.07870
 6074.50000   32.60700   28.04370   26.59980   24.10460   21.16950    0.01940   69.27730  127.36110   76.34280    8.63670    3.65540    0.15550 5723.07970 5719.35750    0.08140
 6075.00000   20.99760   19.02220   18.16780   16.10500   14.77370    0.03100   70.23840  129.85750  102.06120    8.64400    3.54570    0.16570 5681.34810 5715.84300    0.12370
 6075.50000   12.53970   12.16200   11.71460   10.88930   10.53400    0.03570   72.98410  133.42640  127.39360    8.65130    3.52630    0.17900 5711.94750 5712.32850    0.17550
 6076.00000   11.20620   10.86860   10.46880    9.97750    9.65190    0.03220   72.64090  135.03460  133.99640    8.68050    3.55450    0.17670 5663.27950 5659.57240    0.21460
 6076.50000   11.34700   11.00520   10.53850   10.07980    9.75090    0.02490   72.84680  137.02180  124.69460    8.66680    3.60690    0.18050 5552.82900 5627.57950    0.21560
 6077.00000   11.78040   11.16310   10.65460   10.25020    9.91570    0.01590   72.57220  138.08120  119.76510    8.61640    3.64080    0.17650 5567.65250 5595.58670    0.20810
 6077.50000   12.00490   11.21170   10.77060   10.42060   10.08060    0.01380   72.74390  138.99060  118.33190    8.61820    3.67240    0.18020 5606.29930 5589.56890    0.19660
 6078.00000   12.19590   11.26030   10.88670   10.54570   10.20160    0.01580   72.86560  138.98140  118.30230    8.64030    3.68130    0.17860 5648.41700 5600.86770    0.19130
 6078.50000   12.38690   11.30890   10.97960   10.35850   10.02050    0.01680   72.61590  138.91850  116.38490    8.66230    3.69020    0.17610 5734.38780 5612.16660    0.18660
 6079.00000   12.38400   11.35750   10.85110   10.35850   10.02050    0.01230   72.36630  140.12320  115.97270    8.65020    3.69920    0.17570 5579.33060 5576.60790    0.18120
 6079.50000   11.92850   11.40610   10.78590   10.35850   10.02050    0.01230   72.69230  140.28610  118.53360    8.64780    3.73950    0.17800 5590.18970 5599.24330    0.18120
