~Version ---------------------------------------------------
VERS.   2.0 : CWLS log ASCII Standard -VERSION 2.0
WRAP.    NO : One line per depth step
DLM . SPACE : Column Data Section Delimiter
~Well ------------------------------------------------------
STRT .FT                1480.0 : START DEPTH
STOP .FT                7241.0 : STOP DEPTH
STEP .FT                   0.5 : STEP
NULL .                -9999.25 : NULL VALUE
COMP .                         : COMPANY
WELL .                         : WELL
FLD  .                         : FIELD
LOC  .                         : LOCATION
PROV .                         : PROVINCE
CNTY .                         : COUNTY
STAT .                         : STATE
CTRY .                         : COUNTRY
SRVC .                         : SERVICE COMPANY
DATE .                         : DATE
UWI  .                         : UNIQUE WELL ID
API  .                         : API NUMBER
SLAT .WGS84  6.930437640000001 : SURFACE LATITUDE
SLON .WGS84 3.4176933500000075 : SURFACE LONGITUDE
DATUM.F                    nan : DEPTH DATUM ELEV
~Curve Information -----------------------------------------
DEPT   .FT    : 
AT10   .OHMM  : ARRAY INDUCTION TWO FOOT RESISTIVITY A10
AT20   .OHMM  : ARRAY INDUCTION TWO FOOT RESISTIVITY A20
AT30   .OHMM  : ARRAY INDUCTION TWO FOOT RESISTIVITY A30
AT60   .OHMM  : ARRAY INDUCTION TWO FOOT RESISTIVITY A60
AT90   .OHMM  : ARRAY INDUCTION TWO FOOT RESISTIVITY A90
DPHZ_LS.DEC   : HGRD STANDARD RESOLUTION DENSITY POROSITY
DTCO   .US/F  : DELTA-T COMPRESSIONAL
DTSM   .US/F  : DELTA-T SHEAR
ECGRS  .GAPI  : ENVIRONMENTALLY CORRECTED GAMMA RAY FROM SONIC LOG
HCALS  .IN    : HRCC CALIPER CALIBRATED FROM SONIC LOG
PEFZ   .B/E   : HRDD STANDARD RESOLUTION FORMATION PHOTOELECTRIC FACTOR
SPHI_LS.DEC   : SONIC POROSITY [LIMESTONE]
TENR   .LBF   : TENSION FROM RESISTIVITY LOG
TENS   .LBF   : TENSION FROM SONIC LOG
TNPH_LS.DEC   : THERMAL NEUTRON POROSITY [LIMESTONE]
~Params ----------------------------------------------------
~Other -----------------------------------------------------
~ASCII -----------------------------------------------------
# ...
 3780.00000    3.30710    3.26580    3.23500    3.19220    3.12030    0.06240   85.13880  174.45420   99.57330    8.91130    4.50400    0.27080 3938.57660 3892.70820    0.29370
 3780.50000    4.00750    4.12230    3.86530    3.64410    3.41440    0.04600   84.95240  173.75110   91.48870    8.93450    4.64550    0.26760 3910.60510 3865.80230    0.25920
 3781.00000    4.50940    4.45260    4.16910    3.91530    3.79960    0.03540   86.30790  172.42360   94.63970    8.92590    4.60430    0.27360 3895.08020 3874.27390    0.21610
 3781.50000    4.22280    4.13080    3.96570    3.74760    3.52490    0.05910   86.56200  171.23950  115.37280    8.89600    4.43730    0.27460 3880.21770 3899.68840    0.23770
 3782.00000    4.06730    4.01620    3.90470    3.84400    3.72900    0.08120   86.47730  169.66320  136.15730    8.85830    4.23040    0.26810 3908.02630 3950.51690    0.26300
 3782.50000    3.91070    3.85660    3.78490    3.73100    3.65970    0.08110   84.10530  166.51820  126.32440    8.82060    4.19400    0.25880 3935.83490 3950.78610    0.28630
 3783.00000    3.70320    3.65660    3.55510    3.45740    3.17940    0.05580   84.02060  163.21450  112.18310    8.83150    4.29780    0.25700 3981.16090 3929.94370    0.23810
 3783.50000    3.00300    2.76850    2.82720    2.71690    2.49360    0.04150   83.76640  162.15790  103.52890    8.87270    4.40570    0.25400 3976.04630 3915.43420    0.24800
 3784.00000    2.49740    2.51270    2.36010    2.30110    2.18480    0.04770   81.37320  158.84120  107.01530    8.85460    4.52060    0.22570 3974.98660 3963.03460    0.26680
 3784.50000    4.43670    4.11530    4.03230    3.36360    2.81440    0.05510   76.23740  154.49420   94.21340    8.85500    4.63560    0.20340 3990.14630 3970.84970    0.23930
 3785.00000    6.32870    5.71780    5.65980    5.01270    4.54070    0.04360   75.21020  150.82960   71.66390    8.86240    4.79490    0.19590 3916.75140 3905.19510    0.14030
 3785.50000    7.91620    7.32040    6.96180    6.66170    6.42450    0.02760   75.29500  148.83690   54.13410    8.86970    4.89310    0.19700 3894.26450 3865.80230    0.08970
 3786.00000    7.34400    7.18390    6.96180    6.62020    6.18800    0.02750   75.21020  147.86570   53.51630    8.86880    4.84130    0.19410 3905.34320 3892.27560    0.07800
 3786.50000    6.62410    6.54070    6.34970    6.32950    5.67270    0.04210   74.10900  147.57550   60.09310    8.81780    4.73040    0.18630 3941.06230 3918.74890    0.09540
 3787.00000    6.01720    5.88150    5.73750    5.48810    5.06270    0.06020   74.27840  147.20830   65.94930    8.75170    4.62860    0.18800 3907.75940 3945.22220    0.11710
 3787.50000    5.41030    5.22230    5.12530    4.84280    4.66470    0.06480   74.53250  148.03140   71.88290    8.75410    4.59750    0.18950 3827.61820 3943.73970    0.14680
 3788.00000    5.14210    5.03000    4.85380    4.69370    4.54070    0.05280   74.70200  148.11510   76.72280    8.75650    4.54300    0.19140 3907.04050 3935.26820    0.16630
 3788.50000    4.99950    4.93660    4.53060    4.32730    4.21250    0.03370   74.78670  146.99740   79.69520    8.82430    4.47940    0.19100 4058.62840 3882.74540    0.17790
 3789.00000    4.50940    4.32910    4.17870    4.03960    3.82250    0.01780   74.19370  145.87970   79.09410    8.85620    4.41580    0.18470 3847.02330 3831.91680    0.17400
 3789.50000    4.62700    4.59640    4.34860    4.09050    3.83540    0.01960   72.56530  142.24710   80.02680    8.82520    4.43570    0.17490 3749.01250 3781.08770    0.18320
 3790.00000    5.53780    5.56500    5.24600    5.02150    4.85460    0.02250   70.82390  136.72530   75.99160    8.77770    4.55870    0.16600 3926.23080 3866.19390    0.18380
 3790.50000    6.44870    6.53370    6.14350    5.99000    5.77590    0.02530   69.95790  128.83140   68.52400    8.72850    4.77020    0.15890 3981.74550 3947.94330    0.13500
 3791.00000   10.07800    9.20070    8.23760    7.42890    6.18800    0.02760   68.14500  127.32120   54.52020    8.67350    4.91630    0.14680 3934.50560 3885.62440    0.07390
 3791.50000   15.51950   13.32280   13.08380   12.49110   10.26600    0.03140   64.24820  123.17260   41.81380    8.69540    5.06240    0.11680 3834.71560 3877.16570    0.05500
 3792.00000   16.45270   15.89510   14.55170   13.50590   12.74080    0.03450   60.86520  117.06010   36.28330    8.72330    5.13440    0.09430 3839.81920 3883.17210    0.05390
 3792.50000   14.42820   13.85140   13.59400   12.68500   11.37000    0.03910   58.69090  112.78590   34.95930    8.75120    5.16150    0.07990 4002.53690 3859.10240    0.05910
 3793.00000   11.59930   10.85390   10.32300    9.75520    9.17550    0.04930   58.20380  111.69130   33.83360    8.77910    5.17390    0.07610 3829.96670 3826.18910    0.06150
 3793.50000   12.65260   11.62750   11.25250   10.15710   10.26850    0.05690   57.67430  110.71490   30.63820    8.77900    5.16480    0.07170 3660.71410 3864.54300    0.06300
 3794.00000   15.41980   14.40910   13.59080   10.38470   12.50400    0.06330   58.01320  111.11870   25.63690    8.86950    5.14740    0.07410 3932.72810 3919.03810    0.05750
 3794.50000   18.18710   17.19080   15.92900   11.69470   14.78150    0.05740   58.69090  112.30670   24.72350    8.86160    5.16250    0.07830 4027.54470 3929.48800    0.05220
 3795.00000   20.22330   19.66040   16.49950   12.60590   15.51440    0.03920   58.43680  113.49480   28.72730    8.85370    5.13070    0.07600 3925.68520 3939.93780    0.04790
 3795.50000   18.37740   16.29980   15.73200   12.29460   14.52860    0.02090   58.94500  114.86080   39.69310    8.85430    5.02400    0.07970 3956.80900 3920.26110    0.05030
 3796.00000   15.16550   12.93910   13.42750   10.91740   12.83560    0.01590   59.62280  115.66940   47.07310    8.82960    4.99370    0.08400 3937.95220 3893.05280    0.06220
 3796.50000   11.95370   10.92270   11.58390   11.42210   11.27830    0.02110   59.45330  116.06620   50.46850    8.78170    4.98710    0.08250 3844.12440 3865.84440    0.07760
 3797.00000   14.26960   11.84770   14.38090   13.50830   12.38730    0.02600   59.19920  116.57360   53.28460    8.80950    4.99400    0.08280 3807.23060 3840.18000    0.07660
 3797.50000   14.56410   11.55500   14.11370   14.04520   12.98200    0.02530   59.28390  117.16700   54.51650    8.83730    4.90380    0.08620 3810.72200 3833.21470    0.07840
 3798.00000   16.45270   12.07200   15.94390   15.86930   13.60530    0.02370   59.83450  117.48880   56.33650    8.80870    4.79980    0.08960 3814.21340 3826.24940    0.08010
 3798.50000   16.45270   11.92200   15.79500   15.57440   13.86300    0.02050   60.46990  117.21640   51.53710    8.76960    4.78170    0.09260 3819.56260 3838.09050    0.08090
 3799.00000   17.21400   11.26960   16.90320   16.66710   14.80760    0.01530   61.10530  117.80970   46.62170    8.76560    4.84950    0.09890 3827.69860 3878.14120    0.07020
 3799.50000   18.58620   11.41140   18.01140   17.75980   15.22610    0.00980   61.91000  118.61940   40.31090    8.76170    4.94450    0.10130 3842.12040 3918.19180    0.06180
 3800.00000   16.45970   11.41140   15.95040   15.77070   13.10440    0.01030   62.24890  119.16890   42.25770    8.75770    4.94450    0.10010 3779.72640 3915.83710    0.05990
 3800.50000   14.16400   10.52390   13.46150   12.43300   11.28170    0.01510   62.16420  119.32170   53.53610    8.75370    4.87670    0.10270 3717.33230 3783.68820    0.07050
 3801.00000   15.12870    9.88850   12.85520   10.79170   10.37120    0.02560   61.48650  119.09240   55.52040    8.75050    4.81560    0.09730 3798.85390 3867.85040    0.08130
 3801.50000   11.42190    9.40860   10.79390   10.39690    9.71510    0.03300   61.14760  118.30020   52.04900    8.76080    4.77520    0.09490 3997.11510 3917.87890    0.07780
 3802.00000   11.31790    9.23640   10.66240   10.11110    9.27250    0.03440   60.97820  117.59180   50.09520    8.76970    4.76200    0.09090 3839.14780 3880.13290    0.06680
 3802.50000   12.31770    9.47260   11.91980   11.83010   10.57610    0.03330   59.48160  117.25460   49.01410    8.76970    4.78430    0.08310 3712.77390 3842.38700    0.05500
