~Version ---------------------------------------------------
VERS.   2.0 : CWLS log ASCII Standard -VERSION 2.0
WRAP.    NO : One line per depth step
DLM . SPACE : Column Data Section Delimiter
~Well ------------------------------------------------------
STRT .FT                1480.0 : START DEPTH
STOP .FT                7241.0 : STOP DEPTH
STEP .FT                   0.5 : STEP
NULL .                -9999.25 : NULL VALUE
COMP .                         : COMPANY
WELL .                         : WELL
FLD  .                         : FIELD
LOC  .                         : LOCATION
PROV .                         : PROVINCE
CNTY .                         : COUNTY
STAT .                         : STATE
CTRY .                         : COUNTRY
SRVC .                         : SERVICE COMPANY
DATE .                         : DATE
UWI  .                         : UNIQUE WELL ID
API  .                         : API NUMBER
SLAT .WGS84  6.930437640000001 : SURFACE LATITUDE
SLON .WGS84 3.4176933500000075 : SURFACE LONGITUDE
DATUM.F                    nan : DEPTH DATUM ELEV
~Curve Information -----------------------------------------
DEPT   .FT    : 
AT10   .OHMM  : ARRAY INDUCTION TWO FOOT RESISTIVITY A10
AT20   .OHMM  : ARRAY INDUCTION TWO FOOT RESISTIVITY A20
AT30   .OHMM  : ARRAY INDUCTION TWO FOOT RESISTIVITY A30
AT60   .OHMM  : ARRAY INDUCTION TWO FOOT RESISTIVITY A60
AT90   .OHMM  : ARRAY INDUCTION TWO FOOT RESISTIVITY A90
DPHZ_LS.DEC   : HGRD STANDARD RESOLUTION DENSITY POROSITY
DTCO   .US/F  : DELTA-T COMPRESSIONAL
DTSM   .US/F  : DELTA-T SHEAR
ECGRS  .GAPI  : ENVIRONMENTALLY CORRECTED GAMMA RAY FROM SONIC LOG
HCALS  .IN    : HRCC CALIPER CALIBRATED FROM SONIC LOG
PEFZ   .B/E   : HRDD STANDARD RESOLUTION FORMATION PHOTOELECTRIC FACTOR
SPHI_LS.DEC   : SONIC POROSITY [LIMESTONE]
TENR   .LBF   : TENSION FROM RESISTIVITY LOG
TENS   .LBF   : TENSION FROM SONIC LOG
TNPH_LS.DEC   : THERMAL NEUTRON POROSITY [LIMESTONE]
~Params ----------------------------------------------------
~Other -----------------------------------------------------
~ASCII -----------------------------------------------------
# ...
 6425.00000   33.64410   35.35520   33.68630   30.48220   29.48760    0.01800   56.43650  114.47300   43.90690    8.60500    4.41890    0.06190 5792.71220 5773.87850    0.04160
 6425.50000   37.64770   32.80200   30.47590   28.63640   27.70200    0.02170   57.84760  116.95150   49.26890    8.63400    4.44550    0.07380 5790.38480 5777.12340    0.04930
 6426.00000   33.03550   28.91400   27.26750   26.70790   25.34650    0.01980   59.68120  118.99790   52.45060    8.64620    4.45000    0.09250 5797.92530 5766.06550    0.05890
 6426.50000   26.12740   23.19100   21.35850   20.07540   17.70540    0.01990   64.49080  122.89480   55.70500    8.64070    4.43150    0.13280 5794.63820 5760.20440    0.07010
 6427.00000   19.21930   17.46800   15.44940   14.09380   13.63390    0.01960   67.12220  125.70780   62.24660    8.62690    4.35400    0.14020 5800.69380 5764.16460    0.08550
 6427.50000   12.31130   11.74500   11.48100   10.71600   10.36630    0.02310   64.65100  127.81620   71.53430    8.61320    4.26700    0.11960 5800.75870 5768.12480    0.09410
 6428.00000   10.39690   10.08370    9.71660    9.46030    9.15160    0.02870   65.85910  129.29340   77.08380    8.60520    4.21660    0.14080 5746.25220 5768.12480    0.10020
 6428.50000    9.52710    9.24010    9.18540    8.75190    8.46640    0.03360   70.69170  131.95960   77.10180    8.58090    4.21840    0.16140 5988.36080 5799.15220    0.10520
 6429.00000    9.33840    9.05710    8.76500    8.38220    8.10870    0.03240   69.25010  134.96090   74.52770    8.63280    4.25700    0.15390 5979.69670 5850.86450    0.10420
 6429.50000    9.22230    8.94450    8.44260    7.94810    7.68880    0.02690   69.79930  138.12020   71.95350    8.62850    4.29420    0.16360 5971.03250 5902.57680    0.10630
 6430.00000    9.06200    8.78900    8.13100    7.51410    7.26890    0.02010   72.40780  140.97340   70.61500    8.63590    4.31040    0.17630 5893.34910 5866.65760    0.10420
 6430.50000    8.17540    7.92910    7.53880    7.14980    6.91650    0.01850   72.68230  142.85670   75.14550    8.64320    4.26970    0.17520 5825.47430 5807.78730    0.11760
 6431.00000    7.07630    6.86310    6.52320    6.32670    6.12030    0.02470   72.47640  145.17820   84.48300    8.63070    4.10690    0.17430 5696.64190 5748.91690    0.14120
 6431.50000    5.97710    5.79700    5.50770    5.40980    5.23320    0.03220   71.78510  142.74180  100.70000    8.60680    3.88060    0.16990 5746.78350 5751.68290    0.16850
 6432.00000    4.87790    4.73100    4.49210    4.49280    4.34620    0.04400   70.81120  139.37140  111.03440    8.60140    3.76730    0.16790 5832.28500 5795.53980    0.19150
 6432.50000    4.42830    4.29490    4.36460    4.37880    4.23590    0.05040   68.23270  135.38660  114.15910    8.59600    3.76950    0.14320 5856.24710 5839.39660    0.20070
 6433.00000    4.83280    4.68720    4.57050    4.48590    4.33950    0.04880   73.18130  131.24870  102.09010    8.59060    3.88610    0.18210 5859.80930 5846.99620    0.19960
 6433.50000   10.91070   10.58190    6.81990    6.40760    5.03800    0.03000   78.52140  126.73780   82.55720    8.60840    4.07780    0.23560 5847.67770 5856.26310    0.14920
 6434.00000   18.28250   17.73160   14.63330   13.35870   11.71100    0.01510   71.10420  122.64460   64.51100    8.62560    4.26950    0.17710 5827.60280 5865.53000    0.08850
 6434.50000   26.28910   25.07530   21.41160   20.30980   19.64680    0.00400   61.26470  119.08140   52.80400    8.62560    4.43740    0.08140 5879.56460 5882.05410    0.05300
 6435.00000   30.23750   25.05940   22.63480   21.07030   20.38250   -0.00630   56.96290  116.56560   53.87730    8.61000    4.54550    0.06500 5865.81170 5895.37360    0.04790
 6435.50000   28.03520   22.94330   21.65840   20.79520   20.11630   -0.00630   61.35610  116.33790   59.30800    8.60220    4.54090    0.09660 5794.61940 5865.74700    0.05470
 6436.00000   26.98380   23.21490   20.39090   19.25530   18.62660    0.00150   61.52770  117.77020   61.99640    8.59440    4.50280    0.09580 5782.24420 5836.12040    0.06410
 6436.50000   28.70350   24.08660   19.62490   17.97560   17.38870    0.00860   60.25780  123.66580   62.14210    8.58660    4.47300    0.08900 5776.24960 5806.49380    0.07080
 6437.00000   20.36900   19.82780   17.69640   16.56970   16.02870    0.01400   64.78830  127.16120   53.80960    8.62560    4.47510    0.13760 5766.12900 5809.31090    0.07160
 6437.50000   15.38770   15.97800   13.47290   11.49790    9.72490    0.01420   71.53830  130.75310   56.97070    8.64620    4.44180    0.17220 5784.82280 5829.90410    0.08000
 6438.00000   11.86230   12.12820    9.24940    8.75730    7.84850    0.01670   79.88990  137.44590   73.66250    8.62850    4.21720    0.24660 5864.98650 5829.90410    0.10290
 6438.50000    8.95520    8.27840    7.71290    7.33260    7.00770    0.02970   94.40400  143.94210  103.76980    8.60640    3.99270    0.30000 5783.73580 5829.90410    0.13130
 6439.00000    7.05170    6.60990    6.26340    5.95040    5.52340    0.06210  106.92460  145.01860  136.71870    8.58440    3.78940    0.30000 5803.54420 5829.90410    0.17980
 6439.50000    5.74600    5.48690    4.81390    4.57460    4.39150    0.09990  108.82950  146.09510  176.00530    8.54190    3.69790    0.30000 5823.35260 5829.90410    0.23440
 6440.00000    4.71920    4.40430    4.11710    3.91690    3.78900    0.14490  108.57210  145.07150  217.32010    8.67240    3.63300    0.30000 5803.71730 5829.90410    0.28900
 6440.50000    4.38300    4.22010    3.93220    3.77650    3.65320    0.19290   98.61880  145.16850  248.62150    8.60700    3.57090    0.30000 5778.72570 5829.90410    0.36030
 6441.00000    4.44290    4.06040    3.79150    3.59640    3.47890    0.22240  100.57510  144.77010  289.80770    8.61730    3.47250    0.30000 5751.06010 5829.90410    0.39940
 6441.50000    3.97370    3.46600    3.27890    3.18150    3.07000    0.24300  107.40520  143.84830  272.41590    8.62760    3.31980    0.30000 5735.14610 5809.31090    0.41620
 6442.00000    3.09350    2.80630    2.59650    2.55590    2.46900    0.23060  100.35770  141.84790  219.43560    8.63590    3.20140    0.30000 5696.59060 5788.71790    0.42380
 6442.50000    2.21340    2.14670    2.08780    2.05600    1.98890    0.17920   92.71540  141.09830  166.45520    8.61500    3.13430    0.30000 5715.18760 5788.71790    0.40240
 6443.00000    2.24360    2.17590    2.23190    2.17230    2.10140    0.12780   85.07300  141.32150  150.59860    8.62560    3.22140    0.24780 5723.86780 5788.71790    0.33960
 6443.50000    3.38570    3.28370    2.96760    2.74440    2.65490    0.08460   80.08490  142.73980   96.31510    8.60990    3.40050    0.22950 5719.84260 5788.71790    0.30240
 6444.00000    4.52780    4.39140    3.57410    3.31660    3.20840    0.07200   78.84930  144.84930   80.94440    8.60900    3.54820    0.21050 5733.79180 5803.36190    0.19270
 6444.50000    4.64690    4.50690    4.07970    3.76240    3.63960    0.06710   74.52480  145.06590   76.08120    8.60810    3.70560    0.18960 5865.48170 5891.45460    0.17550
 6445.00000    4.82920    4.68370    4.52780    4.00950    3.87870    0.06790   78.30020  143.89410   75.26040    8.60730    3.74520    0.21830 5883.96340 5926.69170    0.17830
 6445.50000    4.89540    4.74790    4.57530    4.21910    4.08150    0.06460   76.12650  142.48460   75.30720    8.60400    3.71810    0.20550 5962.99730 5898.05590    0.17310
 6446.00000    5.15120    4.99610    4.62320    4.33080    4.18950    0.05680   74.29600  141.08880   73.12700    8.59310    3.69110    0.18870 5844.60470 5850.32960    0.16750
 6446.50000    5.42190    5.27370    4.81980    4.48560    4.33920    0.05260   72.94600  139.51190   70.04850    8.57520    3.63600    0.18050 5743.64150 5802.60320    0.16520
 6447.00000    5.63430    5.35680    4.90240    4.59240    4.44260    0.05270   72.60270  139.37720   69.75850    8.57080    3.64110    0.17800 5723.35140 5762.50860    0.16300
 6447.50000    5.64050    5.43980    4.98510    4.69920    4.54600    0.05350   73.42650  139.48120   71.25160    8.57690    3.68810    0.17900 5773.08800 5785.91020    0.15830
