~Version ---------------------------------------------------
VERS.   2.0 : CWLS log ASCII Standard -VERSION 2.0
WRAP.    NO : One line per depth step
DLM . SPACE : Column Data Section Delimiter
~Well ------------------------------------------------------
STRT .FT                1480.0 : START DEPTH
STOP .FT                7241.0 : STOP DEPTH
STEP .FT                   0.5 : STEP
NULL .                -9999.25 : NULL VALUE
COMP .                         : COMPANY
WELL .                         : WELL
FLD  .                         : FIELD
LOC  .                         : LOCATION
PROV .                         : PROVINCE
CNTY .                         : COUNTY
STAT .                         : STATE
CTRY .                         : COUNTRY
SRVC .                         : SERVICE COMPANY
DATE .                         : DATE
UWI  .                         : UNIQUE WELL ID
API  .                         : API NUMBER
SLAT .WGS84  6.930437640000001 : SURFACE LATITUDE
SLON .WGS84 3.4176933500000075 : SURFACE LONGITUDE
DATUM.F                    nan : DEPTH DATUM ELEV
~Curve Information -----------------------------------------
DEPT   .FT    : 
AT10   .OHMM  : ARRAY INDUCTION TWO FOOT RESISTIVITY A10
AT20   .OHMM  : ARRAY INDUCTION TWO FOOT RESISTIVITY A20
AT30   .OHMM  : ARRAY INDUCTION TWO FOOT RESISTIVITY A30
AT60   .OHMM  : ARRAY INDUCTION TWO FOOT RESISTIVITY A60
AT90   .OHMM  : ARRAY INDUCTION TWO FOOT RESISTIVITY A90
DPHZ_LS.DEC   : HGRD STANDARD RESOLUTION DENSITY POROSITY
DTCO   .US/F  : DELTA-T COMPRESSIONAL
DTSM   .US/F  : DELTA-T SHEAR
ECGRS  .GAPI  : ENVIRONMENTALLY CORRECTED GAMMA RAY FROM SONIC LOG
HCALS  .IN    : HRCC CALIPER CALIBRATED FROM SONIC LOG
PEFZ   .B/E   : HRDD STANDARD RESOLUTION FORMATION PHOTOELECTRIC FACTOR
SPHI_LS.DEC   : SONIC POROSITY [LIMESTONE]
TENR   .LBF   : TENSION FROM RESISTIVITY LOG
TENS   .LBF   : TENSION FROM SONIC LOG
TNPH_LS.DEC   : THERMAL NEUTRON POROSITY [LIMESTONE]
~Params ----------------------------------------------------
~Other -----------------------------------------------------
~ASCII -----------------------------------------------------
# ...
 2630.00000   63.21770   54.59350   48.39880   34.63520   33.60790   -0.10030   55.20750  101.61030   10.93420    8.83620    5.49030    0.05030 3587.02410 3600.60570   -0.01720
 2630.50000  270.02860  100.54080   83.89430   79.72780   77.36310   -9999.25   53.55310   98.94520   10.50730    8.82560    5.50860    0.04180 3574.05530 3565.69810   -0.02140
 2631.00000  726.54720  272.14010  343.59630  183.90910  161.96400   -9999.25   52.31290   97.26470   11.47370    8.82040    5.54640    0.03200 3551.81090 3530.79050   -0.02390
 2631.50000 1000.45830  473.55300  618.77590  303.37190  213.90420   -9999.25   50.96030   95.58430   12.54000    8.76650    5.58330    0.02420 3529.56640 3506.32740   -0.02170
 2632.00000  557.65180  305.68910  368.00760  266.04120  243.07480   -9999.25   50.96030   93.92690   14.18090    8.76960    5.62020    0.02460 3523.56950 3484.47540   -0.01900
 2632.50000  395.31230  355.01070  393.99570  250.00570  283.56110   -9999.25   50.83160   92.56000   14.37850    8.77270    5.47890    0.02260 3481.88350 3462.62340   -0.01690
 2633.00000  495.10810  447.63980  520.89860  174.98870  218.56790   -9999.25   50.85730   92.78150   15.60780    8.77580    5.35530    0.02370 3495.91180 3440.77150   -0.01470
 2633.50000  301.24090  373.94410  438.21490  147.43790  179.15710   -9999.25   51.06320   93.83590   16.66770    8.77760    5.33570    0.02290 3591.53600 3418.91950   -0.01260
 2634.00000  179.69040  281.82440  364.49310  104.61010  156.00010   -9999.25   50.38750   93.62760   15.12170    8.77730    5.38240    0.02200 3524.69020 3438.80730   -0.01180
 2634.50000  111.94360  210.62380  245.63530   67.22500  138.70390   -9999.25   49.93060   94.58530   13.08870    8.76120    5.45180    0.02120 3365.86300 3461.53580   -0.01280
 2635.00000   71.04320  152.70540  126.77750   55.00470  109.85520   -9999.25   49.93060   95.00510    9.82910    8.75900    5.51680    0.02090 3553.35770 3510.92350   -0.01380
 2635.50000   58.56690  218.09240  336.25410   49.17600  130.35060   -9999.25   50.52970   97.41740   10.08530    8.75690    5.54780    0.02350 3594.71400 3450.03390   -0.01380
 2636.00000   39.89560  148.15440  205.14130   37.02980  125.76510   -9999.25   51.72310  100.60580   12.57740    8.75100    5.52280    0.03010 3416.86250 3433.15330   -0.01350
 2636.50000   31.54510   38.34590   33.83100   24.12390   57.77410   -9999.25   52.91660  105.90340   14.38080    8.73410    5.48000    0.03700 3560.89220 3505.14940   -0.01230
 2637.00000   18.57970   47.06320   67.50130   61.10910   38.86980   -9999.25   52.23020  111.60150   15.02650    8.76160    5.43720   -9999.25 3661.39410 3577.14550   -0.01230
 2637.50000   35.15800   40.72450   53.42100   52.10170   29.04110   -0.09990   50.51410  117.20270   17.13600    8.77460    5.35620   -9999.25 3406.61820 3510.43380   -0.00860
 2638.00000   15.69350   26.52780   16.28130   15.87920   14.10640   -0.09990   49.82760  126.74540   23.42870    8.77460    5.08050   -9999.25 3403.52420 3482.70720    0.00980
 2638.50000    9.75050   12.33110    5.66190    5.52200    4.46610   -0.04820   -9999.25  130.03490   42.84450    8.77460    4.69400   -9999.25 3517.29240 3610.92140    0.05990
 2639.00000    3.80750    3.54590    3.25730    3.17680    3.08260   -0.00810   -9999.25  133.17320   61.06200    8.77460    4.39450   -9999.25 3631.06070 3573.31870    0.12420
 2639.50000    3.12680    2.87790    2.71560    2.64850    2.56990    0.03570   -9999.25  137.06870   73.21960    8.75150    4.17630   -9999.25 3611.82130 3532.49870    0.21990
 2640.00000    2.87370    2.67100    2.61520    2.55060    2.47500    0.03490   -9999.25  136.00590   78.15100    8.80520    4.30120   -9999.25 3563.72290 3497.80080    0.30070
 2640.50000    2.76790    2.75330    2.71560    2.62860    2.56990    0.00640   -9999.25  133.86740   68.05000    8.82030    4.66990   -9999.25 3515.62450 3448.89960    0.27960
 2641.00000    3.23290    3.09100    2.84100    2.79180    2.66850   -0.03080   -9999.25  129.40640   57.98680    8.79380    5.03870   -9999.25 3467.52600 3419.09160    0.26610
 2641.50000    5.33360    7.21240    4.42840    4.42740    4.22930   -0.09950   -9999.25  127.03160   44.64420    8.78040    5.34140   -9999.25 3492.88690 3460.97580    0.13380
 2642.00000   14.82540   15.77020   10.35030   10.15590    9.51120   -0.09950   -9999.25  129.74750   31.30150    8.76150    5.45330   -9999.25 3475.39830 3502.86000    0.03040
 2642.50000   26.41630   24.32790   17.27690   15.88430   14.79310   -0.09950   -9999.25  136.83260   17.95890    8.72850    5.51430   -9999.25 3436.47110 3494.27960   -0.00730
 2643.00000   33.54730   29.46250   20.90310   19.91190   19.01870   -0.09950   -9999.25  137.18690   10.00820    8.70790    5.53470   -9999.25 3493.70410 3500.80670   -0.01420
 2643.50000   25.48360   21.42090   17.69080   14.73500   14.35430   -0.09950   -9999.25  136.47840   14.28940    8.74020    5.49400   -9999.25 3517.78330 3511.11070   -0.00190
 2644.00000   17.32510   15.42350   14.05430   12.45570   11.12270   -0.09950   -9999.25  132.22730   23.59630    8.75630    5.27330   -9999.25 3558.42430 3513.76030    0.02480
 2644.50000   11.16920    8.62600    7.39030    6.02510    5.74910   -0.07290   69.28830  134.94740   38.48340    8.76820    5.02290    0.15180 3619.47980 3504.92830    0.07870
 2645.00000    5.51380    4.60820    4.39300    4.20210    3.49350   -0.01290   66.76560  135.88780   54.21140    8.78020    4.80220    0.13560 3526.59460 3496.09630    0.13930
 2645.50000    3.87960    3.64980    3.37800    3.29460    3.19690   -0.00310   68.48170  136.82830   57.74970    8.84940    4.59880    0.14880 3433.70950 3491.43980    0.20000
 2646.00000    5.00700    4.64000    4.37520    4.12250    4.00020   -0.02100   70.62680  137.76750   59.26450    8.82550    4.59880    0.16180 3504.77090 3489.56700    0.19980
 2646.50000    6.13430    5.82040    5.52530    5.33450    5.17630   -0.05310   69.01370  136.67380   53.97390    8.77900    4.78190    0.14970 3496.44440 3487.69420    0.15450
 2647.00000    6.93970    6.52860    6.21530    6.06180    5.88200   -0.05270   66.41100  132.96710   50.19880    8.75600    4.98530    0.12450 3562.21290 3517.96570    0.11410
 2647.50000    6.15340    5.63530    5.32550    5.19390    5.03990   -0.05760   62.09100  121.70210   46.65380    8.74910    5.17750    0.09570 3606.70940 3556.27330    0.09380
 2648.00000   10.38230    5.65410    5.22720    5.09810    4.94690   -0.08520   61.22610   86.41020   43.63170    8.77660    5.36230    0.10110 3556.94890 3582.61770    0.06760
 2648.50000   22.28240   19.85690   19.44390   12.28160   11.50360   -0.10100   58.94270  112.97940   34.13310    8.82810    5.54700    0.07140 3507.18840 3566.32840    0.02370
 2649.00000   34.18260   34.05970   50.65830   26.01980   23.80010   -0.10090   55.33720  107.07510   22.39500    8.87970    5.73170    0.05070 3538.87740 3550.03910    0.00270
 2649.50000  161.54870   84.01840   81.87260   39.75800   36.09650   -0.10070   51.52670  104.09070   13.27280    8.81340    5.83990    0.03020 3555.75250 3533.74980   -0.00510
 2650.00000  331.71830  173.10380  113.08700  138.29760  110.79670   -0.10050   52.68500  101.24590   12.28870    8.79050    5.87040    0.05180 3572.62750 3538.18580   -0.00720
 2650.50000  501.88800  382.94070  270.56350  236.83720  226.58280   -0.10030   52.35030  100.54000   12.71940    8.76390    5.84980    0.02990 3589.50260 3545.57910   -0.00880
 2651.00000  466.21790  397.98500  220.80960  144.84950  111.62410   -0.10020   52.35030  102.51540   14.53960    8.75100    5.77820    0.03430 3592.66640 3552.97250   -0.01000
 2651.50000  233.32360  223.06580   92.62720   82.77010   80.31560   -0.10000   52.91670  100.96680   15.14070    8.74550    5.63550    0.03810 3556.45370 3531.36420   -0.00910
 2652.00000   92.13330   73.15840   68.78770   59.51760   57.75270   -0.09980   53.32850  101.00890   14.60840    8.74340    5.45030    0.04450 3522.39300 3517.63550   -0.00670
 2652.50000   52.32350   48.87410   43.60740   42.91480   41.64220   -0.09960   54.61560  103.26130   15.50600    8.74910    5.08510    0.05040 3503.94770 3503.90670    0.00270
