~Version ---------------------------------------------------
VERS.   2.0 : CWLS log ASCII Standard -VERSION 2.0
WRAP.    NO : One line per depth step
DLM . SPACE : Column Data Section Delimiter
~Well ------------------------------------------------------
STRT .FT                1480.0 : START DEPTH
STOP .FT                7241.0 : STOP DEPTH
STEP .FT                   0.5 : STEP
NULL .                -9999.25 : NULL VALUE
COMP .                         : COMPANY
WELL .                         : WELL
FLD  .                         : FIELD
LOC  .                         : LOCATION
PROV .                         : PROVINCE
CNTY .                         : COUNTY
STAT .                         : STATE
CTRY .                         : COUNTRY
SRVC .                         : SERVICE COMPANY
DATE .                         : DATE
UWI  .                         : UNIQUE WELL ID
API  .                         : API NUMBER
SLAT .WGS84  6.930437640000001 : SURFACE LATITUDE
SLON .WGS84 3.4176933500000075 : SURFACE LONGITUDE
DATUM.F                    nan : DEPTH DATUM ELEV
~Curve Information -----------------------------------------
DEPT   .FT    : 
AT10   .OHMM  : ARRAY INDUCTION TWO FOOT RESISTIVITY A10
AT20   .OHMM  : ARRAY INDUCTION TWO FOOT RESISTIVITY A20
AT30   .OHMM  : ARRAY INDUCTION TWO FOOT RESISTIVITY A30
AT60   .OHMM  : ARRAY INDUCTION TWO FOOT RESISTIVITY A60
AT90   .OHMM  : ARRAY INDUCTION TWO FOOT RESISTIVITY A90
DPHZ_LS.DEC   : HGRD STANDARD RESOLUTION DENSITY POROSITY
DTCO   .US/F  : DELTA-T COMPRESSIONAL
DTSM   .US/F  : DELTA-T SHEAR
ECGRS  .GAPI  : ENVIRONMENTALLY CORRECTED GAMMA RAY FROM SONIC LOG
HCALS  .IN    : HRCC CALIPER CALIBRATED FROM SONIC LOG
PEFZ   .B/E   : HRDD STANDARD RESOLUTION FORMATION PHOTOELECTRIC FACTOR
SPHI_LS.DEC   : SONIC POROSITY [LIMESTONE]
TENR   .LBF   : TENSION FROM RESISTIVITY LOG
TENS   .LBF   : TENSION FROM SONIC LOG
TNPH_LS.DEC   : THERMAL NEUTRON POROSITY [LIMESTONE]
~Params ----------------------------------------------------
~Other -----------------------------------------------------
~ASCII -----------------------------------------------------
# ...
 3389.00000    2.24240    2.25460    2.20760    2.15320    2.08940    0.08210   80.41620  151.28470   70.80290    8.84560    3.69270    0.22930 3865.32590 3861.49270    0.28450
 3389.50000    2.54340    2.35280    2.17470    2.13700    2.07370    0.08250   79.05190  151.03760   77.73750    8.85680    3.76770    0.22340 3853.42310 3843.71420    0.26590
 3390.00000    2.91960    2.72380    2.62640    2.50530    2.43100    0.07490   78.58860  149.23480   79.29170    8.80350    3.89260    0.20900 3823.12600 3845.37070    0.24430
 3390.50000    3.29590    3.09490    3.06180    2.87350    2.78840    0.07080   75.65870  146.14710   77.57850    8.75020    4.00840    0.18950 3827.17230 3871.86030    0.20760
 3391.00000    3.67210    3.30370    3.07140    2.90480    2.81880    0.06680   73.03500  142.72240   68.05250    8.69690    4.11370    0.18090 3811.07000 3854.83220    0.17820
 3391.50000    3.97320    3.77580    3.39470    3.06720    2.90390    0.06490   71.64310  136.71580   58.98540    8.69660    4.16150    0.17140 3794.96760 3837.80410    0.17600
 3392.00000    3.02880    2.93760    2.61110    2.52510    2.29590    0.06100   69.90260  132.02770   49.17330    8.69110    4.09350    0.15320 3834.66620 3828.98230    0.20150
 3392.50000    2.08440    1.88960    1.80600    1.58270    1.53580    0.05560   66.66350  126.94130   41.69280    8.69070    4.15540    0.13350 3874.36470 3819.52910    0.22500
 3393.00000    2.31810    2.12680    1.98300    1.89540    1.83920    0.04230   65.70520  123.84810   40.38330    8.65090    4.36570    0.12670 3823.70880 3759.89040    0.14890
 3393.50000    4.83180    4.25460    3.56860    3.45800    3.35550    0.03070   64.39040  122.00720   45.44270    8.72200    4.64740    0.11580 3670.94870 3700.25180    0.11250
 3394.00000    9.88550    6.38240    5.15430    5.02060    4.87180    0.02820   63.23000  120.08560   49.54700    8.72570    5.04910    0.11140 3732.03570 3712.22290    0.08430
 3394.50000   12.87960    7.35450    6.19490    6.04180    5.86280    0.03740   62.97080  119.36560   56.08930    8.69900    5.28220    0.10840 3793.12260 3730.52640    0.08300
 3395.00000   10.00310    6.69380    5.83620    5.46930    5.30720    0.05690   62.96850  118.97930   59.29920    8.69400    5.27220    0.10830 3789.63780 3748.82980    0.10080
 3395.50000    7.44210    6.67800    5.38770    4.75350    4.61260    0.07460   63.12080  119.01630   64.31590    8.71080    5.22910    0.10960 3750.73540 3755.77000    0.12100
 3396.00000    6.29040    6.02510    4.93930    4.14960    4.02660    0.08580   63.37640  119.05340   63.87520    8.72760    5.22110    0.11200 3711.79760 3826.17980    0.13990
 3396.50000    5.90590    5.37210    4.49080    4.07310    3.95230    0.09070   63.78600  119.09050   63.28320    8.73570    5.23190    0.11590 3833.81850 3873.61190    0.14070
 3397.00000    5.82730    4.85770    4.26720    3.99760    3.87900    0.09560   64.29900  119.74510   64.81390    8.73800    5.23730    0.11650 3835.97580 3818.48820    0.13470
 3397.50000    5.80250    4.76830    4.04530    3.76790    3.65620    0.10050   64.09100  120.25410   64.81000    8.76750    5.24270    0.11680 3811.64650 3763.36440    0.12600
 3398.00000    6.06490    4.94350    3.97650    3.53820    3.43330    0.10130   64.60370  120.46320   65.97090    8.73800    5.26970    0.11840 3787.31710 3753.08220    0.11870
 3398.50000    6.68640    5.16250    4.03990    3.54290    3.43790    0.09450   64.50590  120.64770   67.11890    8.73500    5.28900    0.11810 3769.55260 3754.01040    0.11260
 3399.00000    7.25760    5.14220    4.07850    3.79470    3.68220    0.07750   64.32000  120.99030   70.37160    8.73200    5.29600    0.11660 3733.88890 3754.93870    0.10770
 3399.50000    5.98540    4.82670    3.93240    3.52000    3.41560    0.06040   64.13420  121.13910   70.40750    8.72890    5.25320    0.11620 3748.97550 3755.86690    0.10980
 3400.00000    5.22770    4.45940    3.69320    3.16850    3.07450    0.06170   64.25210  121.67560   65.21790    8.72590    5.16080    0.11660 3753.79650 3762.67870    0.12360
 3400.50000    4.66910    4.09210    3.51070    3.05780    2.96710    0.08340   64.59590  122.00610   58.85440    8.72930    5.09510    0.11880 3763.43600 3761.65710    0.14100
 3401.00000    4.10540    3.72480    3.36110    2.97880    2.89050    0.10240   65.01230  122.40100   55.45340    8.77180    5.01540    0.12250 3792.34910 3760.63560    0.15640
 3401.50000    3.84410    3.35760    3.15090    2.87330    2.78810    0.11780   65.29980  122.90280   54.82940    8.72630    5.05250    0.12540 3821.26210 3759.61400    0.15450
 3402.00000    3.70230    3.07880    2.96410    2.70380    2.62360    0.11860   65.45220  123.40460   53.41620    8.68070    5.11450    0.12640 3789.14160 3758.59250    0.14190
 3402.50000    3.62780    3.22110    3.06060    2.81870    2.73510    0.10970   65.63030  123.73620   49.37640    8.72800    5.15720    0.12760 3741.75850 3757.57090    0.13630
 3403.00000    3.73180    3.42300    3.21420    3.01050    2.92120    0.10440   65.80830  123.93910   49.00070    8.76970    5.19780    0.12640 3737.10310 3718.65240    0.13960
 3403.50000    3.54040    3.28000    3.19370    2.93600    2.84900    0.10400   64.82830  123.77910   49.85670    8.76970    5.11890    0.12230 3787.72670 3736.24280    0.13520
 3404.00000    3.23480    2.96380    2.55070    2.48770    2.41390    0.08870   64.48640  122.91410   50.72070    8.76500    5.04010    0.11890 3818.10080 3753.83320    0.12230
 3404.50000    3.91560    3.42820    3.07090    2.99510    2.90630    0.07200   64.05170  121.42570   51.00080    8.75710    5.11430    0.11460 3733.33270 3760.25110    0.10880
 3405.00000    4.98280    4.17140    3.93820    3.84100    3.72710    0.06030   62.50510  119.78550   53.24510    8.74910    5.21380    0.10580 3648.56460 3789.86680    0.09590
 3405.50000    5.69960    4.67510    4.31720    4.21060    4.08580    0.04800   62.58910  118.53870   56.93900    8.72860    5.24720    0.10670 3789.81680 3832.58770    0.08490
 3406.00000    6.34530    5.06760    4.83210    4.71280    4.60760    0.03540   62.52700  117.80370   58.42810    8.69180    5.27120    0.10500 3960.89960 3756.77730    0.07850
 3406.50000    7.03620    5.68410    5.24040    5.11110    4.95960    0.02870   61.88140  117.06880   61.96010    8.68740    5.27490    0.10050 3627.40220 3680.96700    0.07590
 3407.00000    7.33520    6.54810    6.28560    6.13040    5.94870    0.03880   61.57020  116.48610   60.39490    8.69820    5.23210    0.09770 3826.01410 3835.41310    0.07340
 3407.50000    7.75060    6.54690    6.28430    6.12910    5.94750    0.04820   61.59100  116.67630   57.87740    8.70900    5.23600    0.09850 3876.99250 3966.86290    0.07500
 3408.00000    7.84040    7.07910    6.62970    6.46600    6.27440    0.05180   61.64620  117.02670   54.01390    8.71990    5.23030    0.09890 3883.63540 3871.68620    0.07650
 3408.50000    8.59810    7.96660    7.24690    7.06820    6.85880    0.04780   61.71870  117.27760   55.75090    8.72780    5.22460    0.10140 3822.49910 3739.65790    0.07930
 3409.00000    8.98080    7.53860    6.80580    6.54500    6.35100    0.04750   62.39310  117.69750   58.38310    8.72400    5.21890    0.10620 3845.79320 3800.39390    0.08470
 3409.50000    6.84580    6.25860    5.84040    5.37110    5.21200    0.04380   62.79570  118.69960   60.34760    8.70290    5.23070    0.10810 3819.26450 3824.32390    0.09090
 3410.00000    5.41040    4.97870    4.87490    4.39870    4.26840    0.04340   63.14730  119.80270   62.86230    8.70790    5.27020    0.11140 3792.01680 3785.02510    0.09550
 3410.50000    6.11110    5.30680    5.07520    4.80590    4.66350    0.04510   64.39630  120.39270   64.86690    8.72060    5.22230    0.12130 3778.56910 3812.20950    0.10690
 3411.00000    5.67450    5.16540    4.92000    4.55080    4.41600    0.05120   65.76920  121.48410   63.58750    8.73320    5.08450    0.13010 3822.11910 3816.41340    0.12020
 3411.50000    4.43900    4.00230    3.66740    3.14630    3.05300    0.05690   66.57580  122.57560   62.97140    8.94110    4.94680    0.13480 3804.98150 3722.18390    0.14370
