~Version ---------------------------------------------------
VERS.   2.0 : CWLS log ASCII Standard -VERSION 2.0
WRAP.    NO : One line per depth step
DLM . SPACE : Column Data Section Delimiter
~Well ------------------------------------------------------
STRT .F                5600.0 : START DEPTH
STOP .F                9451.5 : STOP DEPTH
STEP .F                   0.5 : STEP
NULL .               -9999.25 : NULL VALUE
COMP .                        : COMPANY
WELL .                        : WELL
FLD  .                        : FIELD
LOC  .                        : LOCATION
PROV .                        : PROVINCE
CNTY .                        : COUNTY
STAT .                        : STATE
CTRY .                        : COUNTRY
SRVC .                        : SERVICE COMPANY
DATE .                        : DATE
UWI  .                        : UNIQUE WELL ID
API  .                        : API NUMBER
SLAT .WGS84 2.523163199577695 : SURFACE LATITUDE
SLON .WGS84 6.197941761676006 : SURFACE LONGITUDE
DATUM.F                   nan : DEPTH DATUM ELEV
~Curve Information -----------------------------------------
DEPT    .F     : 
DTCO    .US/F  : DELTA-T COMPRESSIONAL
DTSM    .US/F  : DELTA-T SHEAR
ECGRS   .GAPI  : ENVIRONMENTALLY CORRECTED GAMMA RAY FROM SONIC LOG
HD1_PPC1.IN    : PPC1 HOLE DIAMETER 1
~Params ----------------------------------------------------
~Other -----------------------------------------------------
~ASCII -----------------------------------------------------
# ...
 7101.50000   69.07340  122.22780   74.16450    8.40270
 7102.00000   68.71670  121.77400   70.24290    8.40760
 7102.50000   68.78060  121.77400   76.07530    8.40760
 7103.00000   68.97300  110.98770   79.52610    8.40760
 7103.50000   69.10200  111.39580   87.21990    8.39600
 7104.00000   68.57920  109.06220   93.86750    8.36720
 7104.50000   68.58020  109.40250   98.38210    8.33830
 7105.00000   66.98030  107.26760   99.70690    8.31520
 7105.50000   66.58340  105.96200  100.43790    8.30290
 7106.00000   66.48780  109.78260   97.75030    8.27200
 7106.50000   66.49990  113.60320   86.74140    8.24120
 7107.00000   66.35480  115.61530   69.10270    8.21040
 7107.50000   66.36590  117.54240   59.46680    8.17960
 7108.00000   66.30040  116.16530   59.48940    8.14880
 7108.50000   63.92030  119.13120   64.54990    8.11800
 7109.00000   62.07470  116.81280   64.03610    8.08710
 7109.50000   62.04430  113.25710   61.88410    8.05630
 7110.00000   62.02980  113.27170   56.58300    8.05880
 7110.50000   62.01370  113.09050   52.79800    8.11130
 7111.00000   61.36370  111.60100   52.32860    8.16380
 7111.50000   61.26860  108.35390   56.97840    8.21640
 7112.00000   61.26090  108.23570   62.02930    8.26880
 7112.50000   61.27050  108.16760   61.37780    8.32130
 7113.00000   63.05550  103.54820   55.24350    8.37380
 7113.50000   64.40370  111.61150   51.28700    8.42630
 7114.00000   64.53310  109.92700   49.63790    8.47880
 7114.50000   67.15240  110.77390   56.72710    8.49980
 7115.00000   66.13340  110.90390   66.06050    8.49980
 7115.50000   67.25200  114.30030   72.31820    8.49410
 7116.00000   68.17840  116.13540   74.07210    8.46570
 7116.50000   68.60470  119.22290   71.95260    8.43720
 7117.00000   69.53180  119.16160   68.42010    8.40880
 7117.50000   69.93060  117.01930   66.14460    8.38040
 7118.00000   69.92070  116.83780   64.28230    8.35200
 7118.50000   69.91520  117.11430   67.07520    8.32360
 7119.00000   69.67590  118.44150   67.97510    8.29520
 7119.50000   69.75820  116.80890   69.29480    8.26680
 7120.00000   69.60800  115.30640   69.21070    8.23830
 7120.50000   69.51510  115.35750   71.63480    8.20990
 7121.00000   69.40110  114.50970   74.90750    8.18150
 7121.50000   69.42310  113.85150   76.55900    8.15310
 7122.00000   69.54830  114.44360   75.67200    8.10690
 7122.50000   69.29320  115.03560   75.75150    8.10690
 7123.00000   68.34770  114.44690   75.10190    8.12420
 7123.50000   67.95910  112.71410   73.08100    8.17620
 7124.00000   67.38480  112.37770   73.33890    8.23390
 7124.50000   66.74610  112.12630   74.57660    8.26860
 7125.00000   66.11350  110.97810   76.57350    8.26860
 7125.50000   66.09410  109.49800   74.23060    8.24550
 7126.00000   66.03160  105.42350   81.77320    8.21660
 7126.50000   66.02500  106.06670   90.15350    8.19340
 7127.00000   66.29270  111.50180  100.35840    8.17890
 7127.50000   66.73400  111.83930  100.38730    8.17610
 7128.00000   67.56250  114.43180  102.31530    8.18180
 7128.50000   67.96980  116.84510  100.68510    8.30500
 7129.00000   69.45750  122.62810  101.63790    8.56970
 7129.50000   69.54720  123.47580   99.73380    8.83450
 7130.00000   69.52230  123.62320  103.54530    9.09920
 7130.50000   69.23600  123.56190  103.77320    9.36380
 7131.00000   68.82200  122.77710  101.96450    9.52020
 7131.50000   68.61050  121.37280   99.11920    9.56570
 7132.00000   68.34170  119.96850   96.13610    9.61120
 7132.50000   68.62140  121.16670   94.61670    9.65660
 7133.00000   69.60400  126.71750   90.10740    9.70210
 7133.50000   69.72740  126.14740   95.78190    9.74760
 7134.00000   69.99020  125.93630  102.92950    9.79310
 7134.50000   70.01760  127.69110  108.80430   10.04340
 7135.00000   70.36940  129.05440  109.75270   10.29360
 7135.50000   70.72780  128.91890  111.94940   11.05210
 7136.00000   70.84580  127.58850  109.48560   12.14960
 7136.50000   71.51470  126.11210  105.18300   13.24690
 7137.00000   71.80650  126.98370   97.95810   13.64290
 7137.50000   72.59280  126.91720   93.67540   12.98700
 7138.00000   72.54630  128.58580   90.81270   12.33100
 7138.50000   72.52750  127.19920   92.20650   11.67500
 7139.00000   72.80620  128.02580  100.51450   11.01910
 7139.50000   72.83980  128.19180  104.89910   10.36310
 7140.00000   72.97410  129.34190  105.84700   10.20880
 7140.50000   73.28100  129.94270  103.25930   10.13950
 7141.00000   73.06870  130.30380  100.27020   10.12790
 7141.50000   72.35340  131.32620   97.77140   10.08180
 7142.00000   72.01060  130.60110   98.04040    9.97770
 7142.50000   71.54610  129.71930  102.58400    7.85230
 7143.00000   71.51460  129.28540  103.24100    7.84080
 7143.50000   71.52960  128.42590   98.74450    7.82920
 7144.00000   71.76400  128.76750   91.73200    7.82920
 7144.50000   71.59030  128.55780   88.76990    7.83500
 7145.00000   71.67980  128.33010   91.48820    7.94470
 7145.50000   71.68530  127.93180   97.13000    8.28460
 7146.00000   71.60420  128.44360  101.21930    8.81260
 7146.50000   71.59980  128.47570  103.09780    9.34070
 7147.00000   71.56440  128.87270  101.13620    9.86870
 7147.50000   71.54680  128.29580   99.04820   10.41270
 7148.00000   71.58890  128.21950   95.38870   10.98070
 7148.50000   71.61750  128.34780   93.48900   11.54860
 7149.00000   71.91000  128.37050   91.03390   12.11650
 7149.50000   66.32400  123.52460   91.55600   12.68440
 7150.00000   66.26210  117.86990   94.89370   13.07620
 7150.50000   66.11210  117.67190  101.66280   13.35050
 7151.00000   66.09890  117.64410  107.38800   13.62490
 7151.50000   66.16520  117.73110  108.37780   13.89920
 7152.00000   66.14430  118.06830  104.05660   14.17350
 7152.50000   66.14220  117.80370   94.70390   14.22830
 7153.00000   66.16090  117.64120   90.87240   14.22830
 7153.50000   66.20330  117.75000   92.68410   12.72670
 7154.00000   66.24100  117.43700   99.15910    8.97260
 7154.50000   66.28990  117.22200  102.62130    8.19870
 7155.00000   66.26990  117.42270  102.69210    8.16970
 7155.50000   65.77210  117.16950   93.02890    8.14080
 7156.00000   65.62400  116.43030   77.63310    8.11190
 7156.50000   65.42560  116.48770   61.75920    8.08310
 7157.00000   65.95490  115.95730   57.55050    8.06000
 7157.50000   66.45120  117.61670   58.88260    8.06000
 7158.00000   66.45120  117.78380   62.40090    8.06000
 7158.50000   68.32430  118.10180   67.80600    8.06000
 7159.00000   69.55640  119.09810   77.24110    8.05990
 7159.50000   69.84560  120.68480   94.04730    8.13120
 7160.00000   70.60630  121.60150  107.77780    8.48730
 7160.50000   71.04980  123.71190  111.83680    8.84350
 7161.00000   70.91010  123.93350  109.16010    8.93780
 7161.50000   70.06210  123.93860  104.12230    8.91180
 7162.00000   68.69730  123.73020   97.69130    8.78180
 7162.50000   68.05520  122.12450   90.46370    8.65190
 7163.00000   66.57120  119.66010   81.74600    8.52180
 7163.50000   66.35460  118.60840   78.69760    8.39190
 7164.00000   66.24240  118.61750   73.74910    8.26190
 7164.50000   66.60520  117.19210   70.46920    8.13200
 7165.00000   66.54370  117.31810   71.93070    8.15220
 7165.50000   66.53500  117.02090   78.09790    8.20990
 7166.00000   66.53390  118.00930   85.41970    8.24460
 7166.50000   67.01900  117.96800   92.47440    8.22730
 7167.00000   67.58150  119.30110   97.22910    8.19840
 7167.50000   67.79400  119.23740   98.38150    8.16950
 7168.00000   68.29420  120.40330   92.76210    8.14050
 7168.50000   68.26800  121.46610   89.31240    8.11170
 7169.00000   68.77450  123.46090   89.74640    8.13360
 7169.50000   69.27020  124.12690   90.76530    8.16820
 7170.00000   69.43890  123.85700   89.87310    8.20290
 7170.50000   69.33790  124.01400   87.52380    8.23750
 7171.00000   69.98370  124.25870   86.73490    8.22130
 7171.50000   69.10320  123.73090   88.43770    8.19250
 7172.00000   69.13880  123.04900   90.58100    8.16360
 7172.50000   68.95750  123.57910   93.54750    8.12900
