~Version ---------------------------------------------------
VERS.   2.0 : CWLS log ASCII Standard -VERSION 2.0
WRAP.    NO : One line per depth step
DLM . SPACE : Column Data Section Delimiter
~Well ------------------------------------------------------
STRT .F                5600.0 : START DEPTH
STOP .F                9451.5 : STOP DEPTH
STEP .F                   0.5 : STEP
NULL .               -9999.25 : NULL VALUE
COMP .                        : COMPANY
WELL .                        : WELL
FLD  .                        : FIELD
LOC  .                        : LOCATION
PROV .                        : PROVINCE
CNTY .                        : COUNTY
STAT .                        : STATE
CTRY .                        : COUNTRY
SRVC .                        : SERVICE COMPANY
DATE .                        : DATE
UWI  .                        : UNIQUE WELL ID
API  .                        : API NUMBER
SLAT .WGS84 2.523163199577695 : SURFACE LATITUDE
SLON .WGS84 6.197941761676006 : SURFACE LONGITUDE
DATUM.F                   nan : DEPTH DATUM ELEV
~Curve Information -----------------------------------------
DEPT    .F     : 
DTCO    .US/F  : DELTA-T COMPRESSIONAL
DTSM    .US/F  : DELTA-T SHEAR
ECGRS   .GAPI  : ENVIRONMENTALLY CORRECTED GAMMA RAY FROM SONIC LOG
HD1_PPC1.IN    : PPC1 HOLE DIAMETER 1
~Params ----------------------------------------------------
~Other -----------------------------------------------------
~ASCII -----------------------------------------------------
# ...
 5886.00000   87.78080  148.04990  127.38640    8.02860
 5886.50000   87.65240  148.29060  127.41580    8.04030
 5887.00000   87.73330  148.19360  123.53200    8.05200
 5887.50000   87.14090  148.43140  117.13090    8.06370
 5888.00000   87.06850  146.87670  112.69440    8.07540
 5888.50000   86.29320  146.94330  108.06130    8.08710
 5889.00000   85.97880  146.35130  110.16140    8.09880
 5889.50000   85.55030  145.74020  109.84240    8.11050
 5890.00000   85.41640  145.85550  104.91080    8.12430
 5890.50000   85.14230  145.49780  101.05270    8.13600
 5891.00000   84.84720  144.85970  102.56480    8.14770
 5891.50000   85.10520  145.21170  109.74270    8.15940
 5892.00000   85.16250  144.59500  115.93970    8.17110
 5892.50000   85.63530  145.36250  116.67400    8.18290
 5893.00000   85.75710  145.81950  121.94940    8.18520
 5893.50000   86.56630  146.28770  116.53090    8.17280
 5894.00000   86.84600  147.97020  116.26940    8.16040
 5894.50000   87.58030  148.82950  114.35550    8.14810
 5895.00000   87.74600  150.06030  118.56000    8.13570
 5895.50000   88.02940  150.47710  118.79930    8.12330
 5896.00000   88.11320  150.57340  113.61260    8.11090
 5896.50000   88.05880  150.70290  110.82030    8.09860
 5897.00000   87.71970  149.95290  113.96940    8.08610
 5897.50000   87.08510  149.88940  111.77140    8.07370
 5898.00000   86.61230  149.03770  112.58260    8.06130
 5898.50000   85.34240  146.80370  109.70530    8.04900
 5899.00000   84.02800  144.81110  113.20740    8.04650
 5899.50000   82.58950  142.46080  115.54880    8.04650
 5900.00000   82.25110  141.90350  116.05790    8.04740
 5900.50000   81.46010  138.77920  112.04180    8.04960
 5901.00000   81.28270  138.02650  101.64740    8.05190
 5901.50000   81.43430  137.27380   91.49270    8.05410
 5902.00000   81.73210  138.22530   96.70370    8.05630
 5902.50000   82.20100  138.61130  102.17440    8.05860
 5903.00000   82.77550  139.29800  110.29560    8.06080
 5903.50000   84.13800  141.41960  107.28760    8.06310
 5904.00000   84.61370  141.97550  113.11590    8.06520
 5904.50000   84.76840  143.48550  117.58110    8.06750
 5905.00000   85.44660  143.57740  119.78040    8.06970
 5905.50000   85.51710  145.43070  117.40460    8.07190
 5906.00000   85.72280  145.79450  113.63560    8.07420
 5906.50000   85.94900  145.94640  109.69330    8.07640
 5907.00000   85.98180  146.26750  102.76330    8.07870
 5907.50000   85.95810  147.00480  105.21850    8.08090
 5908.00000   85.73580  145.80810  114.84380    8.08020
 5908.50000   85.78110  146.19570  120.79910    8.07950
 5909.00000   85.97280  146.58340  121.51220    8.07880
 5909.50000   85.66020  144.94660  117.04150    8.07800
 5910.00000   85.96790  144.25350  115.07180    8.07730
 5910.50000   85.73750  144.91310  112.76060    8.07660
 5911.00000   85.84220  144.91840  114.59510    8.07590
 5911.50000   85.76710  144.56580  119.36800    8.07500
 5912.00000   85.57740  144.33720  120.86500    8.07430
 5912.50000   86.12390  146.37140  118.50420    8.07360
 5913.00000   86.37680  145.65870  120.37360    8.07290
 5913.50000   86.93880  146.48570  114.40840    8.07210
 5914.00000   87.32060  146.29960  114.13730    8.07140
 5914.50000   87.87450  147.35460  110.27550    8.07070
 5915.00000   88.19900  147.20050  116.07620    8.07000
 5915.50000   89.07870  148.13910  121.40840    8.06930
 5916.00000   88.74240  149.39160  125.48740    8.07630
 5916.50000   89.10250  148.32000  126.41760    8.08340
 5917.00000   89.04960  148.85200  126.69530    8.09050
 5917.50000   90.07370  150.20750  123.48060    8.09750
 5918.00000   90.30600  150.59570  124.16500    8.10460
 5918.50000   89.69060  148.80580  121.17910    8.11170
 5919.00000   87.14010  149.16810  117.78520    8.11860
 5919.50000   86.42420  149.89820  119.08990    8.12570
 5920.00000   84.90660  148.29020  120.00900    8.13280
 5920.50000   84.42800  147.60510  124.46410    8.13840
 5921.00000   83.79300  146.82990  111.60350    8.13840
 5921.50000   84.07380  146.10720   98.48340    8.13620
 5922.00000   84.62560  146.74530   90.45750    8.13260
 5922.50000   84.79650  146.57690   96.45630    8.12900
 5923.00000   84.45620  147.56490  105.76460    8.12540
 5923.50000   84.87310  147.94250  111.68550    8.12180
 5924.00000   85.72540  148.32010  119.30700    8.11820
 5924.50000   86.04180  148.43960  124.70580    8.11460
 5925.00000   87.42350  148.34080  123.08210    8.11100
 5925.50000   87.57520  148.64870  114.97420    8.10730
 5926.00000   87.84660  148.39970  112.62070    8.10360
 5926.50000   88.02060  148.28260  118.48950    8.10000
 5927.00000   87.98230  147.84490  125.16480    8.09640
 5927.50000   87.81870  148.25940  128.79860    8.09280
 5928.00000   87.59000  148.17090  126.08410    8.09210
 5928.50000   87.18290  148.72680  125.29060    8.09210
 5929.00000   87.23870  148.31160  121.54370    8.09210
 5929.50000   87.00190  148.56270  120.52270    8.09210
 5930.00000   86.61960  148.33410  115.32180    8.09210
 5930.50000   86.91850  148.15040  110.44630    8.09170
 5931.00000   87.05200  148.08490  113.36380    8.09130
 5931.50000   86.13000  147.20910  119.70090    8.09090
 5932.00000   84.57010  144.85520  127.43140    8.09050
 5932.50000   80.41900  144.11650  122.74370    8.09010
 5933.00000   79.59280  143.99110  120.23950    8.08970
 5933.50000   78.48060  141.89890  110.29690    8.08920
 5934.00000   78.30180  142.23650   94.67450    8.08880
 5934.50000   78.40280  142.02350   72.77400    8.08840
 5935.00000   79.34930  142.91710   65.16500    8.08810
 5935.50000   80.55990  143.59590   80.02650    8.08770
 5936.00000   81.52230  146.22910  103.30580    8.08730
 5936.50000   83.87200  146.85430  118.88770    8.08690
 5937.00000   86.99580  149.29270  127.57210    8.08650
 5937.50000   87.56000  150.83340  134.10770    8.08610
 5938.00000   89.53180  152.58300  132.37320    8.08570
 5938.50000   89.82620  152.51070  124.91070    8.08530
 5939.00000   89.98250  153.86150  115.33050    8.08490
 5939.50000   90.18060  153.95940  117.26290    8.08460
 5940.00000   90.04740  152.82900  115.68650    8.08420
 5940.50000   90.10750  152.72530  115.14610    8.08370
 5941.00000   90.33840  152.79490  116.84530    8.08330
 5941.50000   89.53420  151.02000  117.75100    8.08290
 5942.00000   87.70740  151.87440  114.10860    8.08250
 5942.50000   87.02210  151.02990  109.77830    8.08210
 5943.00000   86.79320  151.24570  105.85840    8.08170
 5943.50000   86.53580  150.63090  102.19950    8.08130
 5944.00000   86.44700  151.36890   94.75070    8.08100
 5944.50000   86.37000  150.55220   99.93120    8.08060
 5945.00000   86.62310  151.17570  109.98740    8.08020
 5945.50000   86.81680  151.07760  117.76820    8.07980
 5946.00000   87.25320  151.58140  118.21830    8.07940
 5946.50000   87.65450  151.52360  109.37520    8.07900
 5947.00000   87.85930  152.69740  115.67840    8.07860
 5947.50000   88.45290  152.90150  118.94820    8.07810
 5948.00000   88.22560  152.18910  125.78570    8.07770
 5948.50000   87.97240  151.79330  119.23480    8.07740
 5949.00000   87.64240  151.05290  116.55270    8.07700
 5949.50000   87.32670  151.44200  121.51550    8.07660
 5950.00000   87.00410  150.05890  123.85150    8.08120
 5950.50000   86.81880  150.11760  124.96800    8.08590
 5951.00000   86.81130  150.14670  118.95310    8.09050
 5951.50000   86.99180  151.16400  115.15770    8.09520
 5952.00000   87.38770  151.40410  113.13480    8.09980
 5952.50000   88.20340  152.64370  116.26250    8.10450
 5953.00000   88.51720  153.75580  119.35100    8.10910
 5953.50000   89.22140  154.91200  120.87070    8.11380
 5954.00000   89.43300  155.74790  117.31600    8.11840
 5954.50000   89.94560  156.37120  115.03910    8.12310
 5955.00000   90.13260  156.66240  114.64860    8.12770
 5955.50000   90.59200  157.99780  118.42240    8.13230
 5956.00000   90.67260  157.80040  120.23830    8.13070
 5956.50000   90.99490  158.25620  119.18440    8.10860
 5957.00000   91.16170  156.73480  117.07250    8.08660
