~Version ---------------------------------------------------
VERS.   2.0 : CWLS log ASCII Standard -VERSION 2.0
WRAP.    NO : One line per depth step
DLM . SPACE : Column Data Section Delimiter
~Well ------------------------------------------------------
STRT .F                5600.0 : START DEPTH
STOP .F                9451.5 : STOP DEPTH
STEP .F                   0.5 : STEP
NULL .               -9999.25 : NULL VALUE
COMP .                        : COMPANY
WELL .                        : WELL
FLD  .                        : FIELD
LOC  .                        : LOCATION
PROV .                        : PROVINCE
CNTY .                        : COUNTY
STAT .                        : STATE
CTRY .                        : COUNTRY
SRVC .                        : SERVICE COMPANY
DATE .                        : DATE
UWI  .                        : UNIQUE WELL ID
API  .                        : API NUMBER
SLAT .WGS84 2.523163199577695 : SURFACE LATITUDE
SLON .WGS84 6.197941761676006 : SURFACE LONGITUDE
DATUM.F                   nan : DEPTH DATUM ELEV
~Curve Information -----------------------------------------
DEPT    .F     : 
DTCO    .US/F  : DELTA-T COMPRESSIONAL
DTSM    .US/F  : DELTA-T SHEAR
ECGRS   .GAPI  : ENVIRONMENTALLY CORRECTED GAMMA RAY FROM SONIC LOG
HD1_PPC1.IN    : PPC1 HOLE DIAMETER 1
~Params ----------------------------------------------------
~Other -----------------------------------------------------
~ASCII -----------------------------------------------------
# ...
 6100.50000   84.81860  150.81360  119.57640   10.30240
 6101.00000   81.99460  148.02130  122.45130    9.48280
 6101.50000   81.23550  147.22220  126.93090    8.66330
 6102.00000   81.35280  146.42320  122.52560    8.27620
 6102.50000   81.74390  142.75410  102.57390    8.17750
 6103.00000   80.34270  139.57830   81.54210    8.13460
 6103.50000   80.40710  140.12510   80.91950    8.10580
 6104.00000   82.02520  141.92660  100.15370    8.08840
 6104.50000   82.25350  141.68720  120.57050    8.08840
 6105.00000   82.67880  142.12360  121.73730    8.06530
 6105.50000   83.37220  142.62140  117.06360    8.06530
 6106.00000   84.59060  143.59310  115.87250    8.06530
 6106.50000   85.79770  144.40150  119.05280    8.06530
 6107.00000   86.05050  146.42480  117.48090    8.06520
 6107.50000   86.27050  146.73260  123.27260    8.06520
 6108.00000   86.68380  147.71230  125.67300    8.06520
 6108.50000   86.84370  147.91430  134.36080    8.06800
 6109.00000   86.86650  149.65740  127.76730    8.07260
 6109.50000   86.82800  149.33400  127.84290    8.07720
 6110.00000   86.50500  148.65250  125.36830    8.10000
 6110.50000   86.54000  148.11530  127.76970    8.12270
 6111.00000   86.52700  147.59490  127.85930    8.12560
 6111.50000   86.67620  147.08940  126.84070    8.12840
 6112.00000   87.06620  147.39440  123.00740    8.12470
 6112.50000   86.69290  145.78240  121.62710    8.12090
 6113.00000   86.15510  146.06590  125.60710    8.11720
 6113.50000   85.81490  144.36430  131.68360    8.08410
 6114.00000   85.57050  144.69290  135.27430    8.08340
 6114.50000   85.81640  144.65810  129.80550    8.08290
 6115.00000   85.47860  144.72850  127.09770    8.08230
 6115.50000   85.49610  144.67290  125.42610    8.08170
 6116.00000   85.46740  145.16000  130.95800    8.08120
 6116.50000   85.21650  145.27660  130.39190    8.08060
 6117.00000   85.17010  145.39310  130.21730    8.08000
 6117.50000   84.73040  144.29890  122.53930    8.07950
 6118.00000   84.46750  142.22700  121.80860    8.07890
 6118.50000   84.46610  142.06080  120.40320    8.07830
 6119.00000   84.62830  141.55910  126.77890    8.07780
 6119.50000   84.03230  142.03740  128.99310    8.07720
 6120.00000   83.79800  140.61490  134.70480    8.07670
 6120.50000   83.58050  140.66280  138.66940    8.07610
 6121.00000   83.58310  140.65400  140.86990    8.07550
 6121.50000   83.41560  141.01740  132.31800    8.07490
 6122.00000   83.41320  142.65410  120.27940    8.07430
 6122.50000   83.57020  142.51780  115.90880    8.07370
 6123.00000   83.90530  143.66830  117.45780    8.07320
 6123.50000   84.44500  144.65570  123.87220    8.07260
 6124.00000   84.97660  145.22110  128.29260    8.07200
 6124.50000   85.38370  146.02510  134.83690    8.07150
 6125.00000   85.24740  146.71760  137.12510    8.07090
 6125.50000   84.72210  147.93820  140.41060    8.07030
 6126.00000   84.41420  146.77180  146.71190    8.06980
 6126.50000   84.44830  146.81480  139.57510    8.06920
 6127.00000   84.44060  146.13830  122.99990    8.06860
 6127.50000   84.33520  146.24730  106.10000    8.06810
 6128.00000   84.36400  145.94650  111.88850    8.06750
 6128.50000   84.35130  146.40100  126.05070    8.06690
 6129.00000   84.17180  146.85240  133.75280    8.06630
 6129.50000   84.27760  145.81930  136.10420    8.06570
 6130.00000   84.37990  146.46900  134.84120    8.06520
 6130.50000   85.44780  146.81100  138.98480    8.06460
 6131.00000   85.87870  146.55980  129.99330    8.06330
 6131.50000   85.48020  147.02460  126.51380    8.06900
 6132.00000   85.38600  146.74770  124.47230    8.07470
 6132.50000   85.35200  145.88360  133.95830    8.08040
 6133.00000   85.56610  146.34470  137.14900    8.08610
 6133.50000   86.04660  146.60480  131.63510    8.09180
 6134.00000   86.20970  147.25550  122.08310    8.09750
 6134.50000   86.34440  147.77990  113.42860    8.10320
 6135.00000   86.46590  147.11170  119.10640    8.10890
 6135.50000   86.93310  146.84920  123.43880    8.11460
 6136.00000   86.92960  147.86660  136.51450    8.12020
 6136.50000   87.08750  147.18730  136.94370    8.12590
 6137.00000   86.78880  147.28500  141.15510    8.13160
 6137.50000   86.33370  145.89210  137.06590    8.13390
 6138.00000   85.55560  145.92130  138.84670    8.13390
 6138.50000   85.07620  143.72720  139.16500    8.13390
 6139.00000   84.30720  142.51160  138.05440    8.13390
 6139.50000   83.64630  143.52280  125.98930    8.13390
 6140.00000   83.06790  141.88500  119.77000    8.13390
 6140.50000   83.26290  141.78760  122.25280    8.13390
 6141.00000   83.45750  141.31030  131.30730    8.13390
 6141.50000   83.81000  141.58930  140.17760    8.13390
 6142.00000   84.56920  141.79340  134.46490    8.13390
 6142.50000   84.38570  142.85730  136.44160    8.13390
 6143.00000   84.62660  144.55820  138.44860    8.13390
 6143.50000   84.61480  143.67230  150.05380    8.13380
 6144.00000   84.10780  142.44330  154.22670    8.13380
 6144.50000   83.54480  141.20000  150.31700    8.13380
 6145.00000   82.87540  139.60240  135.51850    8.13380
 6145.50000   82.36840  139.56610  120.36630    8.13390
 6146.00000   82.36050  137.18290  113.24940    8.13430
 6146.50000   82.17900  136.02710  113.23430    8.13460
 6147.00000   81.28400  135.83580  117.94490    8.13500
 6147.50000   80.90390  135.41090  122.56310    8.13540
 6148.00000   79.48420  132.93550  124.87210    8.13570
 6148.50000   78.67570  132.24720  126.43030    8.13610
 6149.00000   78.41980  131.72920  121.34330    8.13650
 6149.50000   78.64860  131.85480  116.13950    8.13680
 6150.00000   76.03170  128.72070  105.16480    8.13720
 6150.50000   76.27290  128.04550   99.27220    8.13760
 6151.00000   75.90870  127.64680  102.04620    8.13780
 6151.50000   75.80710  127.02890  108.33170    8.13820
 6152.00000   74.99940  127.30640  112.65370    8.13860
 6152.50000   75.39290  128.32970  114.03750    8.13890
 6153.00000   75.52620  128.68060  111.02260    8.13930
 6153.50000   75.71420  128.86930  108.90890    8.13970
 6154.00000   78.28240  134.86090  104.15060    8.14000
 6154.50000   79.01510  135.16800  104.87360    8.15010
 6155.00000   79.02720  135.76990  104.01900    8.16020
 6155.50000   78.38520  137.26820  112.53460    8.15910
 6156.00000   78.41480  137.56220  119.56030    8.15790
 6156.50000   78.89780  137.31860  131.23920    8.15680
 6157.00000   78.87180  136.15520  124.64350    8.15570
 6157.50000   78.98220  136.06410  111.14050    8.15460
 6158.00000   79.18130  135.77040   95.98050    8.15340
 6158.50000   79.86210  137.78920   96.83110    8.15230
 6159.00000   80.11700  138.21040  110.24210    8.15120
 6159.50000   80.58740  138.40780  122.21060    8.15010
 6160.00000   81.23220  138.48190  126.65550    8.14900
 6160.50000   81.78650  138.26880  132.73490    8.14780
 6161.00000   82.77320  138.67980  138.77930    8.14670
 6161.50000   83.27410  141.39210  150.61660    8.14560
 6162.00000   83.69340  140.99240  150.59580    8.14450
 6162.50000   83.83580  139.83250  144.12570    8.14340
 6163.00000   83.70100  138.78960  138.08430    8.14230
 6163.50000   83.45710  138.46670  138.15570    8.14120
 6164.00000   82.43480  137.26230  145.03640    8.14010
 6164.50000   82.56950  135.83030  143.00860    8.13900
 6165.00000   82.19150  135.49810  138.60710    8.13770
 6165.50000   81.73920  135.33910  127.59700    8.13660
 6166.00000   81.27160  135.63370  127.06180    8.13550
 6166.50000   81.10540  135.97920  131.74840    8.13440
 6167.00000   81.15990  136.17860  142.47780    8.13330
 6167.50000   81.18900  135.88680  142.24270    8.13330
 6168.00000   81.11840  137.25520  137.88210    8.13330
 6168.50000   80.91080  137.88590  134.09930    8.13330
 6169.00000   80.37350  137.17790  139.91180    7.02460
 6169.50000   79.75420  136.82520  138.15640    6.97840
 6170.00000   79.14640  135.65040  126.24780    6.97840
 6170.50000   78.82950  135.44950  106.15510    6.97840
 6171.00000   78.50780  135.01330  101.38400    6.97840
 6171.50000   78.59420  134.48750  105.85750    6.97830
