~Version ---------------------------------------------------
VERS.   2.0 : CWLS log ASCII Standard -VERSION 2.0
WRAP.    NO : One line per depth step
DLM . SPACE : Column Data Section Delimiter
~Well ------------------------------------------------------
STRT .F                5600.0 : START DEPTH
STOP .F                9451.5 : STOP DEPTH
STEP .F                   0.5 : STEP
NULL .               -9999.25 : NULL VALUE
COMP .                        : COMPANY
WELL .                        : WELL
FLD  .                        : FIELD
LOC  .                        : LOCATION
PROV .                        : PROVINCE
CNTY .                        : COUNTY
STAT .                        : STATE
CTRY .                        : COUNTRY
SRVC .                        : SERVICE COMPANY
DATE .                        : DATE
UWI  .                        : UNIQUE WELL ID
API  .                        : API NUMBER
SLAT .WGS84 2.523163199577695 : SURFACE LATITUDE
SLON .WGS84 6.197941761676006 : SURFACE LONGITUDE
DATUM.F                   nan : DEPTH DATUM ELEV
~Curve Information -----------------------------------------
DEPT    .F     : 
DTCO    .US/F  : DELTA-T COMPRESSIONAL
DTSM    .US/F  : DELTA-T SHEAR
ECGRS   .GAPI  : ENVIRONMENTALLY CORRECTED GAMMA RAY FROM SONIC LOG
HD1_PPC1.IN    : PPC1 HOLE DIAMETER 1
~Params ----------------------------------------------------
~Other -----------------------------------------------------
~ASCII -----------------------------------------------------
# ...
 8102.50000   55.94720   99.91210   33.54540    8.06890
 8103.00000   56.59590  103.73830   29.30840    8.07370
 8103.50000   57.24470  107.88960   31.46920    8.08800
 8104.00000   57.89340  111.92110   46.82740    8.09890
 8104.50000   58.54220  120.53800   65.61300    8.11980
 8105.00000   59.19090  122.99230   91.36380    8.96690
 8105.50000   59.83970  124.06450  108.94510    8.96690
 8106.00000   60.48840  125.13670  111.57500    8.96680
 8106.50000   61.13720  122.87740  102.33000    8.91010
 8107.00000   61.01590  122.86960   94.21550    8.76830
 8107.50000   60.88800  120.17570   77.00590    8.62640
 8108.00000   61.00610  115.49750   59.12090    8.48460
 8108.50000   59.05480  113.77290   50.51570    8.34270
 8109.00000   59.54550  107.21910   62.41530    8.20080
 8109.50000   57.83350  105.42220   66.61650    8.05890
 8110.00000   56.23490  100.72070   56.37370    8.02790
 8110.50000   55.38700   99.85190   34.30830    8.01420
 8111.00000   54.09230   99.19970   22.21350    7.99240
 8111.50000   53.66130   96.30400   13.54730    7.99240
 8112.00000   52.09830   96.72920   13.92300    7.99530
 8112.50000   51.57650   93.80390   13.15710    7.99900
 8113.00000   51.42270   96.24100   13.14070    8.00260
 8113.50000   53.97070   96.85310   12.55490    8.00630
 8114.00000   55.48770   99.89910   12.03190    8.01000
 8114.50000   56.55360  106.03670   17.19680    8.01370
 8115.00000   65.16870  110.44230   24.09880    8.01730
 8115.50000   73.78390  114.30250   31.08460    8.02090
 8116.00000   82.39900  119.56770   57.72580    8.02460
 8116.50000   79.25380  122.40610   87.92870    8.02820
 8117.00000   74.32130  128.62900  120.08270    8.03190
 8117.50000   75.09570  131.11510  125.77250    8.03560
 8118.00000   62.20810  131.69110  129.66410    8.03920
 8118.50000   61.33720  131.96370  118.95890    8.04290
 8119.00000   64.69440  131.86180   96.94710    8.04660
 8119.50000   65.05770  128.88430   65.60860    8.05020
 8120.00000   66.35590  126.27100   44.25710    8.05390
 8120.50000   66.59500  125.18670   34.86650    8.05760
 8121.00000   66.80780  121.21610   38.18120    8.06130
 8121.50000   66.92860  120.63400   51.13010    8.06490
 8122.00000   67.99180  120.17680   61.49680    8.06860
 8122.50000   68.08010  123.35470   61.87240    8.07230
 8123.00000   69.47650  124.14970   56.99710    8.07590
 8123.50000   70.28310  123.57620   59.47140    8.07960
 8124.00000   71.42380  125.53900   63.43490    8.08330
 8124.50000   70.54030  125.74080   64.45060    8.08690
 8125.00000   70.75470  125.37220   63.45680    8.08260
 8125.50000   72.01380  125.84100   75.60470    8.07650
 8126.00000   72.69290  125.46880   92.96130    8.07030
 8126.50000   72.49820  125.48420   96.94370    8.06420
 8127.00000   72.58010  125.66520   81.68080    8.05800
 8127.50000   72.31770  123.05060   68.34800    8.05190
 8128.00000   71.62730  121.72440   69.65100    8.04780
 8128.50000   69.74370  120.39820   80.16650    8.04420
 8129.00000   69.76330  120.56160   78.78640    8.04060
 8129.50000   67.28560  119.61370   74.98800    8.03700
 8130.00000   66.10670  116.03830   68.75560    8.03340
 8130.50000   64.68490  116.47900   65.07010    8.02980
 8131.00000   62.07380  114.84340   56.84380    8.02620
 8131.50000   60.58410  110.44370   43.27010    8.02260
 8132.00000   59.29570  109.93960   36.89860    8.01900
 8132.50000   58.35190  109.28700   38.44920    8.01540
 8133.00000   58.51300  108.22330   46.22940    8.01180
 8133.50000   59.70250  107.76830   44.47130    8.00830
 8134.00000   67.09550  117.25930   37.37390    8.00870
 8134.50000   74.48850  123.89940   32.17500    8.01010
 8135.00000   81.88140  125.38910   41.49570    8.01880
 8135.50000   89.27440  130.82770   61.93300    8.02930
 8136.00000   88.90030  141.53960   84.69210    8.03980
 8136.50000   88.99590  142.88950  106.01130    8.06080
 8137.00000   88.83240  151.00990  118.95210    8.08440
 8137.50000   88.39350  155.15230  126.01730    8.10800
 8138.00000   88.77290  160.83800  126.93710    8.13160
 8138.50000   89.12160  159.63310  124.30170    8.15520
 8139.00000   89.40030  162.17470  124.28620    8.17880
 8139.50000   87.91050  160.77130  120.76700    8.20240
 8140.00000   87.75280  160.49850  119.37080    8.22600
 8140.50000   87.90880  160.52990  113.34840    8.24010
 8141.00000   87.56120  160.83390  112.19190    8.22790
 8141.50000   88.15930  160.85930  111.58670    8.21260
 8142.00000   88.70970  161.43050  115.35430    8.19730
 8142.50000   88.33100  161.03020  113.33050    8.18200
 8143.00000   88.43950  160.98050  109.07180    8.16670
 8143.50000   88.11240  161.16980  104.30400    8.15140
 8144.00000   87.32330  159.84250   97.01020    8.13610
 8144.50000   86.53830  158.36750   92.22320    8.12080
 8145.00000   86.39560  158.23410   89.17930    8.10560
 8145.50000   86.97380  159.98470   89.14670    8.09030
 8146.00000   86.23700  160.52300   92.37450    8.08720
 8146.50000   88.20650  161.29990   96.42760    8.15270
 8147.00000   89.43380  163.40050  100.70340    8.26180
 8147.50000   89.26070  164.27510  101.52510    8.37100
 8148.00000   89.52470  164.54550  102.55870    8.39290
 8148.50000   89.89250  164.14140  107.70590    8.36070
 8149.00000   89.63090  162.93800  114.94760    8.30740
 8149.50000   89.46240  161.78340  113.72830    8.25400
 8150.00000   88.03070  161.17340  105.67000    8.20070
 8150.50000   81.08820  153.76270  101.10220    8.14720
 8151.00000   69.56100  146.35200   88.26810    8.09380
 8151.50000   67.57840  138.94130   76.12800    8.04050
 8152.00000   79.76320  131.53060   60.53160    8.02970
 8152.50000   79.81980  126.68440   60.66610    8.01540
 8153.00000   80.11980  124.12180   57.83260    8.00790
 8153.50000   80.60460  125.06180   46.32840    7.99420
 8154.00000   81.50500  126.67550   33.40100    7.99150
 8154.50000   81.67500  127.29590   37.25150    7.99150
 8155.00000   82.10440  131.93220   53.94110    8.18250
 8155.50000   83.48140  134.19260   76.28010    8.42130
 8156.00000   83.25510  137.75600   84.88250    8.46910
 8156.50000   82.44640  139.42560   88.37510    8.48340
 8157.00000   78.97810  144.10150   84.06260    8.33530
 8157.50000   79.54220  146.07370   85.58350    8.14420
 8158.00000   79.81590  145.66360   84.57310    8.10600
 8158.50000   81.63060  152.06460   85.55350    8.10600
 8159.00000   81.93200  151.02880   86.64080    8.10600
 8159.50000   81.95450  151.37340   87.72320    8.10600
 8160.00000   81.84280  151.41960   87.62520    8.10600
 8160.50000   80.72840  145.36770   84.40170    8.10600
 8161.00000   79.38200  143.42310   84.37070    8.10600
 8161.50000   78.84490  141.58290   81.98600    8.12030
 8162.00000   78.51260  139.78430   74.63150    8.12510
 8162.50000   78.67300  136.21960   59.58000    8.12500
 8163.00000   76.43480  130.51790   52.57820    8.10860
 8163.50000   73.41390  118.74420   47.24440    8.02680
 8164.00000   71.90290  112.42310   42.01550    7.99130
 8164.50000   60.37540  110.30300   29.13990    7.99130
 8165.00000   60.71730  109.70370   23.05210    7.99130
 8165.50000   60.64230  109.79540   22.38640    7.99120
 8166.00000   64.06240  114.39490   35.28580    7.99120
 8166.50000   66.73240  118.99440   48.47690    7.99120
 8167.00000   66.49320  119.55630   63.86710    7.99760
 8167.50000   72.37470  123.35590   66.38310    8.02460
 8168.00000   73.97460  130.05940   68.84380    8.02940
 8168.50000   75.46100  134.56110   68.27980    8.09520
 8169.00000   81.12230  137.13200   69.22310    8.20490
 8169.50000   85.56410  141.29760   65.96970    8.31450
 8170.00000   85.00490  146.08610   74.52840    8.42420
 8170.50000   81.87040  148.80730   88.14650    8.53390
 8171.00000   83.89120  149.62160  105.96230    8.62160
 8171.50000   83.55180  151.48970  110.34360    8.62160
 8172.00000   85.82980  154.22500  111.91210    8.47640
 8172.50000   86.32020  158.17790  106.59420    8.29490
 8173.00000   86.00180  159.24460  103.68150    8.27770
 8173.50000   87.42720  160.35580  106.78730    8.29200
