~Version ---------------------------------------------------
VERS.   2.0 : CWLS log ASCII Standard -VERSION 2.0
WRAP.    NO : One line per depth step
DLM . SPACE : Column Data Section Delimiter
~Well ------------------------------------------------------
STRT .F                5600.0 : START DEPTH
STOP .F                9451.5 : STOP DEPTH
STEP .F                   0.5 : STEP
NULL .               -9999.25 : NULL VALUE
COMP .                        : COMPANY
WELL .                        : WELL
FLD  .                        : FIELD
LOC  .                        : LOCATION
PROV .                        : PROVINCE
CNTY .                        : COUNTY
STAT .                        : STATE
CTRY .                        : COUNTRY
SRVC .                        : SERVICE COMPANY
DATE .                        : DATE
UWI  .                        : UNIQUE WELL ID
API  .                        : API NUMBER
SLAT .WGS84 2.523163199577695 : SURFACE LATITUDE
SLON .WGS84 6.197941761676006 : SURFACE LONGITUDE
DATUM.F                   nan : DEPTH DATUM ELEV
~Curve Information -----------------------------------------
DEPT    .F     : 
DTCO    .US/F  : DELTA-T COMPRESSIONAL
DTSM    .US/F  : DELTA-T SHEAR
ECGRS   .GAPI  : ENVIRONMENTALLY CORRECTED GAMMA RAY FROM SONIC LOG
HD1_PPC1.IN    : PPC1 HOLE DIAMETER 1
~Params ----------------------------------------------------
~Other -----------------------------------------------------
~ASCII -----------------------------------------------------
# ...
 6601.00000   70.19690  119.44490   98.92640    8.07260
 6601.50000   70.26750  118.68590  103.69160    8.07300
 6602.00000   70.47150  118.44300  109.44910    8.07330
 6602.50000   70.19660  118.44490  108.96410    8.07370
 6603.00000   70.42990  117.65730  110.52110    8.07400
 6603.50000   70.30580  117.10290  108.12850    8.07430
 6604.00000   70.20530  117.47250  102.91000    8.07470
 6604.50000   70.02990  117.57660  100.33320    8.07500
 6605.00000   70.00550  117.58800   99.95900    8.07540
 6605.50000   70.20280  118.55210  104.18700    8.07570
 6606.00000   70.23900  118.48200  102.79840    8.08740
 6606.50000   70.39290  119.71240   99.85000    8.13320
 6607.00000   70.67030  119.45660   97.49330    8.13290
 6607.50000   70.58570  120.40110   97.38200    8.13250
 6608.00000   70.19600  120.12180  108.02410    8.13210
 6608.50000   69.74450  119.54330  112.71580    8.13170
 6609.00000   68.85860  118.56770  114.20500    8.13130
 6609.50000   67.68320  118.24390  101.35370    8.13100
 6610.00000   66.91890  117.82670   86.68100    8.13060
 6610.50000   64.90930  116.35100   73.87630    8.13030
 6611.00000   64.11360  115.79930   65.75610    8.12990
 6611.50000   63.50240  115.18690   60.71230    8.12960
 6612.00000   63.65810  115.05990   59.61710    8.12430
 6612.50000   64.15330  114.89220   64.09280    8.10520
 6613.00000   65.55670  114.72450   64.50850    8.10900
 6613.50000   66.17000  114.23880   66.78350    8.11280
 6614.00000   68.26460  114.47460   66.97920    8.11660
 6614.50000   69.27890  115.83770   70.50750    8.12040
 6615.00000   69.85210  116.80130   72.63870    8.12420
 6615.50000   69.81300  116.94750   73.41910    8.12790
 6616.00000   69.44900  117.09370   77.61050    8.13160
 6616.50000   67.77710  116.36920   78.41230    8.13540
 6617.00000   66.17770  116.76630   81.62690    8.13920
 6617.50000   64.63450  117.43280   80.34530    8.14130
 6618.00000   62.90150  117.25670   80.16730    8.13650
 6618.50000   62.39540  117.25850   65.62020    8.13170
 6619.00000   61.80300  116.78590   50.07690    8.12690
 6619.50000   61.64760  117.46350   36.80750    8.12210
 6620.00000   61.42390  114.63450   44.32370    8.11740
 6620.50000   61.10100  114.73460   61.72900    8.11360
 6621.00000   61.30690  113.46310   74.35430    8.11390
 6621.50000   62.08480  114.20160   74.56750    8.11430
 6622.00000   62.44700  113.02300   67.63870    8.11460
 6622.50000   63.86070  115.48760   61.99630    8.10820
 6623.00000   64.10600  114.36040   59.35050    8.08110
 6623.50000   64.24810  114.90760   66.32920    8.07900
 6624.00000   64.89660  115.86250   73.48910    8.08210
 6624.50000   65.43350  116.81740   80.81380    8.10630
 6625.00000   66.57310  117.77230   77.52850    8.12580
 6625.50000   67.48160  118.72730   81.27120    8.12660
 6626.00000   68.11360  119.68220   86.47230    8.12740
 6626.50000   68.82640  120.63710   95.21270    8.12820
 6627.00000   69.10940  121.59200   99.89130    8.12910
 6627.50000   69.40160  122.54690  103.37680    8.12990
 6628.00000   69.81950  122.62560  113.42960    8.13070
 6628.50000   69.26180  123.06530  114.17890    8.13150
 6629.00000   69.30280  122.91270  108.66590    8.13230
 6629.50000   69.55790  124.65020   90.67050    8.13310
 6630.00000   69.51040  125.10960   76.84140    8.13390
 6630.50000   69.73920  125.56900   72.66830    8.13470
 6631.00000   70.02900  125.50480   76.91630    8.13700
 6631.50000   70.24880  125.02330   81.11160    8.14530
 6632.00000   70.70580  126.09350   84.54110    8.15370
 6632.50000   70.93500  127.16380   85.07020    8.16060
 6633.00000   71.31540  126.07720   83.74680    8.16180
 6633.50000   71.45210  125.33580   85.78870    8.16290
 6634.00000   71.34430  124.51960   85.45180    8.16410
 6634.50000   71.27430  123.80410   89.70080    8.17070
 6635.00000   70.94660  122.77510   83.39850    8.19440
 6635.50000   70.63210  121.87890   80.61400    8.20100
 6636.00000   70.53830  121.03370   75.96580    8.20770
 6636.50000   70.62860  120.94360   79.69510    8.21430
 6637.00000   70.74490  120.84740   79.66220    8.22100
 6637.50000   70.61240  120.30210   83.27580    8.22760
 6638.00000   70.52510  120.05790   83.59130    8.23670
 6638.50000   70.41290  119.73880   84.65660    8.25570
 6639.00000   70.25010  119.46620   81.47810    8.27170
 6639.50000   70.34830  118.71270   76.87990    8.27560
 6640.00000   70.37440  117.50600   72.74350    8.27970
 6640.50000   70.56780  118.11040   73.61260    8.27680
 6641.00000   70.63070  118.49080   73.53500    8.24640
 6641.50000   70.85050  118.69830   80.44320    8.21600
 6642.00000   70.90850  120.19710   86.78490    8.18550
 6642.50000   71.29740  120.39560  101.42950    8.16100
 6643.00000   71.67770  118.84670  111.50350    8.15990
 6643.50000   71.47550  120.84300  117.07070    8.15890
 6644.00000   71.31120  121.33200  117.78000    8.15840
 6644.50000   71.15760  120.82890  115.20580    8.16010
 6645.00000   70.03110  120.16640  109.99750    8.16170
 6645.50000   68.92810  119.42460   95.35500    8.16590
 6646.00000   68.50100  118.32620   82.54630    8.18070
 6646.50000   67.06780  117.22780   75.27800    8.19210
 6647.00000   65.56830  114.99790   72.43990    8.18570
 6647.50000   64.62890  113.49280   67.83850    8.16540
 6648.00000   63.81940  113.30750   63.04400    8.16430
 6648.50000   63.97160  112.20280   60.00150    8.16310
 6649.00000   63.91210  112.60050   59.22070    8.16200
 6649.50000   65.66200  112.28720   57.83480    8.15940
 6650.00000   65.77980  113.59110   64.37650    8.15120
 6650.50000   65.76690  115.26940   78.60850    8.14300
 6651.00000   66.47910  115.08680   88.79100    8.13480
 6651.50000   67.42490  115.53860   95.99600    8.12660
 6652.00000   68.14460  117.18310   93.22160    8.11840
 6652.50000   68.47380  117.34270   95.54750    8.11020
 6653.00000   68.55220  119.00490   96.86920    8.10400
 6653.50000   68.78370  119.24830   92.80300    8.10610
 6654.00000   68.75630  120.18150   91.87430    8.10820
 6654.50000   69.08970  119.73650   90.64970    8.11030
 6655.00000   69.10550  120.42490   97.05420    8.10480
 6655.50000   69.83040  119.71500   97.23890    8.07430
 6656.00000   69.87380  119.87300   94.07730    8.06410
 6656.50000   69.96990  119.21350   88.31610    8.05400
 6657.00000   70.10510  118.70890   92.35780    8.04520
 6657.50000   69.24110  117.29170   95.78300    8.04210
 6658.00000   68.76490  117.09620  106.25800    8.03890
 6658.50000   67.81060  113.71580  103.99770    8.03580
 6659.00000   66.38980  112.29270  100.80460    8.03260
 6659.50000   65.29100  111.40670   86.76060    8.02950
 6660.00000   63.18440  108.08080   74.97150    8.02950
 6660.50000   63.50090  107.62190   67.22110    8.04200
 6661.00000   62.17260  106.97770   61.70640    8.05450
 6661.50000   62.26810  107.34950   59.60100    8.06690
 6662.00000   62.59500  106.41280   60.63970    8.07940
 6662.50000   63.69310  108.02280   65.14980    8.09190
 6663.00000   64.39730  108.88910   68.51820    8.10440
 6663.50000   66.32820  112.08180   70.18630    8.11690
 6664.00000   67.05010  112.39250   75.62350    8.12700
 6664.50000   68.96140  116.08230   87.29160    8.12800
 6665.00000   69.76460  118.09720  108.46070    8.12890
 6665.50000   70.23010  119.42910  119.46890    8.12980
 6666.00000   69.99860  119.39330  128.77710    8.13080
 6666.50000   69.73680  117.93310  121.79570    8.13160
 6667.00000   67.91390  118.67610  114.89070    8.13250
 6667.50000   67.01940  116.52650  102.50180    8.13350
 6668.00000   66.10200  114.34530   86.00080    8.13440
 6668.50000   66.01860  114.57520   70.74170    8.13530
 6669.00000   66.25850  114.44170   59.19370    8.13620
 6669.50000   66.60630  115.05950   60.79800    8.13520
 6670.00000   66.92150  115.67730   73.82250    8.12640
 6670.50000   68.17710  117.32190   90.07990    8.11770
 6671.00000   69.37480  118.18370  105.74220    8.10890
 6671.50000   70.32630  118.90390  117.44130    8.10010
 6672.00000   70.97770  119.58630  120.04110    8.09130
