~Version ---------------------------------------------------
VERS.   2.0 : CWLS log ASCII Standard -VERSION 2.0
WRAP.    NO : One line per depth step
DLM . SPACE : Column Data Section Delimiter
~Well ------------------------------------------------------
STRT .F                5600.0 : START DEPTH
STOP .F                9451.5 : STOP DEPTH
STEP .F                   0.5 : STEP
NULL .               -9999.25 : NULL VALUE
COMP .                        : COMPANY
WELL .                        : WELL
FLD  .                        : FIELD
LOC  .                        : LOCATION
PROV .                        : PROVINCE
CNTY .                        : COUNTY
STAT .                        : STATE
CTRY .                        : COUNTRY
SRVC .                        : SERVICE COMPANY
DATE .                        : DATE
UWI  .                        : UNIQUE WELL ID
API  .                        : API NUMBER
SLAT .WGS84 2.523163199577695 : SURFACE LATITUDE
SLON .WGS84 6.197941761676006 : SURFACE LONGITUDE
DATUM.F                   nan : DEPTH DATUM ELEV
~Curve Information -----------------------------------------
DEPT    .F     : 
DTCO    .US/F  : DELTA-T COMPRESSIONAL
DTSM    .US/F  : DELTA-T SHEAR
ECGRS   .GAPI  : ENVIRONMENTALLY CORRECTED GAMMA RAY FROM SONIC LOG
HD1_PPC1.IN    : PPC1 HOLE DIAMETER 1
~Params ----------------------------------------------------
~Other -----------------------------------------------------
~ASCII -----------------------------------------------------
# ...
 6887.00000   67.07410  119.75310   70.13830    8.29320
 6887.50000   68.33760  109.01600   70.83030    8.28750
 6888.00000   68.32980  117.93150   74.83430    8.29360
 6888.50000   68.31380  116.90130   74.19800    8.29970
 6889.00000   68.34640  115.87120   73.30570    8.30340
 6889.50000   68.33550  115.14130   70.60580    8.30340
 6890.00000   68.37470  115.57530   71.18700    8.30340
 6890.50000   68.43710  115.03900   69.20490    8.30340
 6891.00000   68.37730  115.37230   69.65810    8.30340
 6891.50000   68.35650  115.55660   68.19780    8.30340
 6892.00000   68.37000  115.05350   71.01000    8.30340
 6892.50000   68.35260  115.62440   72.70740    8.30340
 6893.00000   68.38470  115.77020   71.87710    8.30340
 6893.50000   68.40400  125.09270   73.04570    8.30170
 6894.00000   68.35070  125.12240   70.77070    8.29750
 6894.50000   68.34680  125.10530   76.38060    8.29330
 6895.00000   68.30970  125.10900   76.17780    8.28910
 6895.50000   68.35490  120.76950   79.98430    8.28490
 6896.00000   69.97250  116.42990   78.81340    8.28070
 6896.50000   69.98020  112.09040   83.50420    8.27650
 6897.00000   69.97410  111.43500   84.28050    8.27240
 6897.50000   70.00930  112.08130   89.72890    8.26820
 6898.00000   70.03140  111.90950   91.72150    8.26400
 6898.50000   69.99490  110.36640   89.66310    8.26350
 6899.00000   69.99810  111.92290   81.02800    8.26860
 6899.50000   70.00220  112.37070   68.05130    8.27360
 6900.00000   69.96800  112.65400   60.82000    8.27860
 6900.50000   69.98020  113.21270   57.52550    8.28360
 6901.00000   69.99870  110.22910   61.61970    8.28870
 6901.50000   70.00460  111.82910   63.76530    8.28730
 6902.00000   69.98400  112.03840   67.38260    8.28540
 6902.50000   70.01190  111.06060   69.49850    8.29720
 6903.00000   70.01210  111.04400   72.03570    8.30900
 6903.50000   69.97770  111.73040   72.76220    8.35710
 6904.00000   69.96780  112.56610   73.67820    8.45980
 6904.50000   70.00700  111.97270   71.25970    8.56230
 6905.00000   69.98460  110.95230   70.69660    8.64830
 6905.50000   69.96520  111.39150   70.40980    8.66640
 6906.00000   69.95260  110.48940   83.39070    8.67370
 6906.50000   69.97220  111.91530   92.81610    8.65270
 6907.00000   69.98770  112.38070  101.11360    8.59620
 6907.50000   69.97520  111.82480  103.22760    8.55930
 6908.00000   69.95660  112.41370  105.25510    8.51480
 6908.50000   69.97180  111.13270  102.11770    8.44650
 6909.00000   69.95330  109.78960   97.40980    8.42620
 6909.50000   69.89990  112.48140   94.51430    8.40580
 6910.00000   69.93790  112.18670   98.00030    8.38830
 6910.50000   69.92190  111.30210   98.23250    8.37500
 6911.00000   69.96110  110.65050  100.22040    8.36170
 6911.50000   69.86850  111.55150  103.08040    8.34850
 6912.00000   69.78690  114.11930  108.83670    8.33520
 6912.50000   69.78750  114.75930  112.24460    8.32200
 6913.00000   69.74090  115.03230  110.42030    8.30870
 6913.50000   69.87600  116.36810  106.10210    8.29550
 6914.00000   69.86310  120.80470   99.71080    8.28220
 6914.50000   69.90960  120.71480   97.16030    8.27310
 6915.00000   70.07060  120.82950   95.67390    8.27030
 6915.50000   70.29080  119.61850  100.58130    8.26740
 6916.00000   70.56750  118.35840  104.06760    8.26440
 6916.50000   70.72270  116.03370  106.70560    8.26160
 6917.00000   70.64120  116.22510  102.89260    8.25840
 6917.50000   70.59500  115.21890  104.66560    8.25480
 6918.00000   70.57080  114.14230  106.85690    8.25120
 6918.50000   70.49950  112.36320  109.71840    8.24770
 6919.00000   70.18050  111.97680  109.41500    8.24660
 6919.50000   70.79640  115.00770  108.41710    8.24950
 6920.00000   70.92940  116.49400  107.24600    8.25240
 6920.50000   70.53480  118.76650  108.61400    8.25520
 6921.00000   70.52080  121.03890  111.62110    8.25810
 6921.50000   70.35470  120.36980  112.03090    8.25980
 6922.00000   69.98930  120.11840  112.34280    8.25810
 6922.50000   70.02640  120.49720  112.29080    8.25370
 6923.00000   69.80970  117.67370  107.06710    8.24920
 6923.50000   69.67920  117.42030  101.30410    8.24670
 6924.00000   69.37670  117.88290  102.04040    8.24690
 6924.50000   69.65420  117.53050  105.48720    8.24720
 6925.00000   69.56060  117.38610  101.96330    8.24740
 6925.50000   69.30470  114.27770   94.26770    8.24760
 6926.00000   69.05480  114.10830   95.29140    8.24790
 6926.50000   68.13610  114.16090   99.24540    8.24810
 6927.00000   67.84150  111.57490  106.14100    8.24830
 6927.50000   67.85560  110.13580  107.64520    8.25460
 6928.00000   67.77610  108.63660   98.74670    8.26990
 6928.50000   68.56970  106.05630   82.16430    8.29500
 6929.00000   70.78530  106.91580   72.64060    8.33480
 6929.50000   70.45360  107.86600   82.90160    8.37470
 6930.00000   71.30260  111.26200  102.60320    8.39870
 6930.50000   71.68930  112.56920  118.06710    8.37740
 6931.00000   72.46070  113.76440  121.39350    8.32390
 6931.50000   72.67550  124.98370  117.92000    8.27030
 6932.00000   72.86700  126.06450  109.31470    8.22790
 6932.50000   72.21860  131.21670  106.18960    8.21490
 6933.00000   72.23550  132.89720   96.96810    8.22100
 6933.50000   72.09310  135.73000   92.58520    8.22710
 6934.00000   71.29270  136.07960   92.33150    8.23310
 6934.50000   71.44020  134.42480  102.74450    8.23920
 6935.00000   71.65330  131.16310  109.01970    8.24530
 6935.50000   71.39300  130.24050  112.26930    8.25140
 6936.00000   71.41850  127.97070  109.12950    8.25740
 6936.50000   71.68020  123.20980  110.79100    8.26350
 6937.00000   71.99630  120.77150  111.79740    8.26840
 6937.50000   72.89810  117.79500  108.48520    8.26840
 6938.00000   73.14180  115.71180  102.20840    8.26830
 6938.50000   73.12800  111.38260   99.32180    8.20230
 6939.00000   73.48790  109.72170  103.48630    8.11980
 6939.50000   73.90870  112.21900  112.00150    8.03730
 6940.00000   73.07410  110.23940  113.17330    7.95470
 6940.50000   72.80860  110.78270  112.91800    7.87220
 6941.00000   72.37970  115.19360  112.01910    7.80620
 6941.50000   72.28320  116.27080  111.09470    7.80620
 6942.00000   72.32340  120.00870  103.80930    7.80620
 6942.50000   71.49550  127.11210   90.90690    7.86570
 6943.00000   71.35330  122.49880   83.74250    7.94010
 6943.50000   71.31930  120.84540   79.13240    8.01440
 6944.00000   71.31110  120.89590   83.70200    8.08880
 6944.50000   71.42710  120.15460   92.94980    8.16320
 6945.00000   71.48080  117.39020  107.50400    8.23750
 6945.50000   72.05010  116.45130  116.90030    8.33430
 6946.00000   72.56230  111.91120  114.66820    8.42910
 6946.50000   72.67710  113.62300  113.10980    8.45530
 6947.00000   72.27220  115.87180  111.91580    8.42830
 6947.50000   72.19950  115.97530  109.57540    8.35360
 6948.00000   71.59790  115.99350  108.40960    8.27430
 6948.50000   71.23620  118.44940  108.38480    8.19500
 6949.00000   70.45690  118.74150  110.07930    8.14230
 6949.50000   70.29250  120.78710  107.88140    8.13790
 6950.00000   69.80570  123.66390  106.31440    8.14620
 6950.50000   69.75870  119.26100  104.20690    8.15470
 6951.00000   69.36950  118.03780  100.62580    8.16320
 6951.50000   69.27950  121.12250   93.95770    8.17170
 6952.00000   69.31350  118.96340   90.89210    8.18020
 6952.50000   69.31860  123.05210   89.57900    8.18870
 6953.00000   69.36630  122.58750   85.70410    8.19720
 6953.50000   69.44860  124.21950   82.73170    8.20570
 6954.00000   69.64120  125.30450   86.29750    8.21420
 6954.50000   69.58990  122.80730   99.60640    8.22270
 6955.00000   69.65500  122.77020  114.74040    8.23120
 6955.50000   69.68310  124.08830  118.77040    8.23970
 6956.00000   69.57360  119.97490  122.68940    8.24480
 6956.50000   69.57580  115.86150  124.71960    8.24480
 6957.00000   69.31970  111.74810  119.72530    8.24480
 6957.50000   68.66070  108.01720  107.20530    8.23470
 6958.00000   68.70650  101.49300   92.16440    8.18410
