~Version ---------------------------------------------------
VERS.   2.0 : CWLS log ASCII Standard -VERSION 2.0
WRAP.    NO : One line per depth step
DLM . SPACE : Column Data Section Delimiter
~Well ------------------------------------------------------
STRT .F                5600.0 : START DEPTH
STOP .F                9451.5 : STOP DEPTH
STEP .F                   0.5 : STEP
NULL .               -9999.25 : NULL VALUE
COMP .                        : COMPANY
WELL .                        : WELL
FLD  .                        : FIELD
LOC  .                        : LOCATION
PROV .                        : PROVINCE
CNTY .                        : COUNTY
STAT .                        : STATE
CTRY .                        : COUNTRY
SRVC .                        : SERVICE COMPANY
DATE .                        : DATE
UWI  .                        : UNIQUE WELL ID
API  .                        : API NUMBER
SLAT .WGS84 2.523163199577695 : SURFACE LATITUDE
SLON .WGS84 6.197941761676006 : SURFACE LONGITUDE
DATUM.F                   nan : DEPTH DATUM ELEV
~Curve Information -----------------------------------------
DEPT    .F     : 
DTCO    .US/F  : DELTA-T COMPRESSIONAL
DTSM    .US/F  : DELTA-T SHEAR
ECGRS   .GAPI  : ENVIRONMENTALLY CORRECTED GAMMA RAY FROM SONIC LOG
HD1_PPC1.IN    : PPC1 HOLE DIAMETER 1
~Params ----------------------------------------------------
~Other -----------------------------------------------------
~ASCII -----------------------------------------------------
# ...
 6386.50000   71.60510  123.97340  107.52840    8.46320
 6387.00000   71.48750  123.79550  105.13250    8.45450
 6387.50000   71.25810  123.98690  104.55000    8.44600
 6388.00000   71.09020  123.85350   97.62250    8.43740
 6388.50000   70.81340  123.15590   98.28280    8.42880
 6389.00000   70.39500  122.58990   90.17660    8.42030
 6389.50000   70.38820  122.94720   89.52480    8.41170
 6390.00000   70.31850  122.30940   90.78430    8.40310
 6390.50000   70.40000  122.71910   95.33960    8.39460
 6391.00000   70.63920  123.12890   96.99110    8.38290
 6391.50000   71.20090  122.29210   92.63800    8.37130
 6392.00000   71.72160  121.56200   90.36180    8.37280
 6392.50000   72.13080  122.80980   91.17770    8.37420
 6393.00000   72.75420  123.17470   93.10000    8.37560
 6393.50000   73.42580  123.93130   98.09470    8.37700
 6394.00000   73.53820  124.19300  106.58560    8.35550
 6394.50000   72.73550  124.45480  112.85480    8.33410
 6395.00000   72.25760  123.54300  121.42000    8.31260
 6395.50000   71.43280  121.87560  122.20970    8.29110
 6396.00000   71.06770  121.88060  118.94040    8.26960
 6396.50000   70.77290  121.56670  102.57610    8.24810
 6397.00000   70.73270  121.10220   91.74950    8.24810
 6397.50000   70.65570  119.04750   92.25030    8.25250
 6398.00000   70.73510  118.01320  100.81130    8.25680
 6398.50000   71.02470  117.09540  112.26250    8.26120
 6399.00000   71.44020  117.59580  113.55600    8.27220
 6399.50000   71.77130  118.72320  114.70890    8.28320
 6400.00000   72.43990  119.83410  111.62630    8.29420
 6400.50000   72.54470  121.67990  111.05340    8.30530
 6401.00000   72.47670  122.39520  113.41880    8.30530
 6401.50000   72.25110  122.80970  110.17010    8.30530
 6402.00000   71.47320  124.69690  111.92420    8.30530
 6402.50000   71.93580  124.11770  111.44530    8.30530
 6403.00000   71.90880  127.47150  111.97160    8.30240
 6403.50000   71.65020  127.12500  107.18260    8.29950
 6404.00000   71.30740  126.71600   98.37160    8.29660
 6404.50000   70.46790  126.57010   87.85420    8.34620
 6405.00000   70.46310  126.53820   75.45290    8.50210
 6405.50000   70.34130  125.96960   67.84850    8.50210
 6406.00000   70.53040  125.66050   66.53830    8.50210
 6406.50000   70.68970  127.29160   66.06110    8.44430
 6407.00000   70.77810  127.78490   69.61430    8.38370
 6407.50000   71.24410  129.08430   72.21250    8.36920
 6408.00000   71.58980  129.08500   82.30170    8.36340
 6408.50000   71.64170  129.48160   89.38860    8.36340
 6409.00000   72.05820  128.94850   97.79160    8.36340
 6409.50000   71.98030  128.43840  105.94310    8.36340
 6410.00000   72.23850  127.61730  113.28610    8.36340
 6410.50000   71.99370  126.92460  120.26630    8.36350
 6411.00000   71.52720  125.80130  118.04150    8.36350
 6411.50000   70.81840  123.88830  105.87050    8.36350
 6412.00000   69.88920  123.76600   90.06840    8.36360
 6412.50000   67.96510  119.34360   78.31390    8.36360
 6413.00000   66.31560  114.07180   69.71630    8.36580
 6413.50000   63.82570  112.23500   63.90130    8.37670
 6414.00000   63.34850  111.25570   54.98130    8.38760
 6414.50000   62.70290  109.05030   50.25210    8.39860
 6415.00000   62.87630  109.21010   42.88100    8.40940
 6415.50000   64.08250  109.47980   43.69960    8.42030
 6416.00000   64.63280  109.76550   48.08890    8.43120
 6416.50000   66.44580  110.38190   56.06290    8.44210
 6417.00000   68.04200  112.42400   63.72040    8.45300
 6417.50000   69.00880  114.88090   64.92680    8.46170
 6418.00000   70.38680  116.16840   73.59700    8.46120
 6418.50000   70.32060  117.37300   90.97800    8.45830
 6419.00000   70.40000  119.18810  108.13730    8.44090
 6419.50000   70.34460  118.93660  110.15170    8.40500
 6420.00000   69.53040  118.63410   99.01940    8.36910
 6420.50000   69.19240  119.49610   89.06760    8.33970
 6421.00000   67.86700  118.87630   80.17730    8.33630
 6421.50000   67.19890  118.76520   72.12930    8.33280
 6422.00000   66.66690  115.77730   68.37190    8.32950
 6422.50000   66.30390  116.04810   67.25320    8.32610
 6423.00000   66.21780  116.31890   67.64560    8.31970
 6423.50000   66.41070  115.73350   63.78630    8.30480
 6424.00000   66.68660  114.67350   65.31440    8.30270
 6424.50000   67.91080  118.08360   65.28090    8.29230
 6425.00000   68.24600  118.98170   70.36380    8.28410
 6425.50000   68.51490  119.78560   78.17660    8.28900
 6426.00000   69.77350  120.62040   88.01440    8.30910
 6426.50000   70.53730  121.99280   99.92610    8.32920
 6427.00000   71.46900  123.66410  103.18120    8.34360
 6427.50000   71.90360  124.80710  112.50710    8.33560
 6428.00000   72.16510  126.37850  119.61340    8.32760
 6428.50000   72.28510  126.97260  127.99670    8.31940
 6429.00000   72.09980  126.79860  126.06180    8.31140
 6429.50000   72.16210  127.02630  125.02280    8.30330
 6430.00000   71.92450  126.98780  123.10740    8.29530
 6430.50000   71.38560  125.48060  120.38510    8.28730
 6431.00000   70.74910  122.61420  113.11870    8.27920
 6431.50000   69.59780  121.66020  110.60660    8.27120
 6432.00000   68.28120  119.42730  106.30690    8.26320
 6432.50000   66.75930  116.48040  107.80020    8.25510
 6433.00000   65.93940  116.37730  101.86840    8.24710
 6433.50000   64.47580  114.03180   93.98550    8.23860
 6434.00000   64.10810  112.20680   75.43710    8.23110
 6434.50000   64.06180  110.28540   63.16690    8.23540
 6435.00000   64.08560  110.71010   56.30720    8.23950
 6435.50000   64.19820  109.70600   57.47840    8.24380
 6436.00000   64.70940  108.88960   68.40060    8.24720
 6436.50000   65.11120  109.26220   82.29420    8.24720
 6437.00000   65.95480  109.97390   95.52230    8.24720
 6437.50000   66.14040  110.89800   94.56140    8.24720
 6438.00000   66.58820  109.86400   88.99020    8.24720
 6438.50000   66.91640  110.78130   89.40630    8.24720
 6439.00000   66.85990  110.94730   91.52380    8.24720
 6439.50000   67.51110  111.11330   94.36210    8.24720
 6440.00000   67.57360  112.00790   88.15810    8.24720
 6440.50000   67.97940  113.97000   85.31870    8.24720
 6441.00000   68.20290  112.54500   89.39610    8.24720
 6441.50000   68.12770  113.90800   95.66360    8.24720
 6442.00000   68.01790  114.33140  104.06700    8.25190
 6442.50000   68.37890  113.97830  109.27150    8.27500
 6443.00000   68.72880  113.80130  109.39070    8.29830
 6443.50000   69.21360  115.13300  106.17680    8.32160
 6444.00000   69.19630  116.91640   99.05070    8.34480
 6444.50000   69.39550  117.40250   98.50280    8.36810
 6445.00000   69.29380  117.54260  100.54560    8.39140
 6445.50000   69.26050  117.68280   99.35990    8.41460
 6446.00000   68.88050  118.40480   96.46370    8.43330
 6446.50000   68.84050  117.90060   87.27040    8.43290
 6447.00000   68.48630  116.15100   82.24190    8.42390
 6447.50000   68.58400  116.48730   77.87360    8.38570
 6448.00000   68.24850  116.21250   75.45710    8.34750
 6448.50000   67.15000  115.56830   70.55370    8.31490
 6449.00000   66.64960  114.07140   67.39330    8.30510
 6449.50000   65.65250  111.04060   68.34960    8.29520
 6450.00000   65.18390  111.65790   76.39910    8.28530
 6450.50000   64.39750  110.02760   74.23520    8.27540
 6451.00000   64.17160  108.39720   70.93330    8.26550
 6451.50000   64.01960  108.41460   68.07060    8.25660
 6452.00000   64.28910  110.46190   71.37720    8.25160
 6452.50000   64.60360  112.50910   67.34550    8.24980
 6453.00000   65.23320  114.55640   65.71130    8.26080
 6453.50000   65.62830  116.60360   67.54280    8.27190
 6454.00000   67.32110  118.65090   80.42060    8.28300
 6454.50000   67.50600  121.53870   88.63910    8.29400
 6455.00000   68.87160  122.64730   96.83080    8.30510
 6455.50000   69.27290  124.33740   95.43020    8.31620
 6456.00000   70.23840  125.95440   89.97510    8.32720
 6456.50000   70.36840  125.95900   84.66170    8.33830
 6457.00000   70.63100  125.96350   84.23880    8.34760
 6457.50000   70.54430  124.89240   88.90940    8.34970
