~Version ---------------------------------------------------
VERS.   2.0 : CWLS log ASCII Standard -VERSION 2.0
WRAP.    NO : One line per depth step
DLM . SPACE : Column Data Section Delimiter
~Well ------------------------------------------------------
STRT .F                5600.0 : START DEPTH
STOP .F                9451.5 : STOP DEPTH
STEP .F                   0.5 : STEP
NULL .               -9999.25 : NULL VALUE
COMP .                        : COMPANY
WELL .                        : WELL
FLD  .                        : FIELD
LOC  .                        : LOCATION
PROV .                        : PROVINCE
CNTY .                        : COUNTY
STAT .                        : STATE
CTRY .                        : COUNTRY
SRVC .                        : SERVICE COMPANY
DATE .                        : DATE
UWI  .                        : UNIQUE WELL ID
API  .                        : API NUMBER
SLAT .WGS84 2.523163199577695 : SURFACE LATITUDE
SLON .WGS84 6.197941761676006 : SURFACE LONGITUDE
DATUM.F                   nan : DEPTH DATUM ELEV
~Curve Information -----------------------------------------
DEPT    .F     : 
DTCO    .US/F  : DELTA-T COMPRESSIONAL
DTSM    .US/F  : DELTA-T SHEAR
ECGRS   .GAPI  : ENVIRONMENTALLY CORRECTED GAMMA RAY FROM SONIC LOG
HD1_PPC1.IN    : PPC1 HOLE DIAMETER 1
~Params ----------------------------------------------------
~Other -----------------------------------------------------
~ASCII -----------------------------------------------------
# ...
 9389.50000   83.24110  151.75250  118.50730   -9999.25
 9390.00000   82.22970  150.93770  118.50730   -9999.25
 9390.50000   82.01310  150.52420  118.50730   -9999.25
 9391.00000   81.58270  150.47430  118.50730   -9999.25
 9391.50000   81.44300  149.46650  118.50730   -9999.25
 9392.00000   81.45240  151.04690  118.50730   -9999.25
 9392.50000   81.26540  150.83320  118.50730   -9999.25
 9393.00000   81.19820  151.57680  118.50730   -9999.25
 9393.50000   81.38910  151.99200  118.50730   -9999.25
 9394.00000   82.04800  152.82530  118.50730   -9999.25
 9394.50000   82.49790  155.28460  118.50730   -9999.25
 9395.00000   83.49260  156.27770  118.50730   -9999.25
 9395.50000   84.61070  159.48190  118.50730   -9999.25
 9396.00000   85.54270  160.08740  118.50730   -9999.25
 9396.50000   86.28300  161.71900  118.50730   -9999.25
 9397.00000   86.93700  163.80460  118.50730   -9999.25
 9397.50000   87.36160  162.62180  118.50730   -9999.25
 9398.00000   87.36550  162.65500  118.50730   -9999.25
 9398.50000   87.30390  161.08900  118.50730   -9999.25
 9399.00000   87.37620  161.15900  118.50730   -9999.25
 9399.50000   87.03760  160.25630  118.50730   -9999.25
 9400.00000   87.00970  161.01580  118.50730   -9999.25
 9400.50000   87.03110  162.33130  118.50730   -9999.25
 9401.00000   87.03220  160.57050  118.50730   -9999.25
 9401.50000   87.02110  161.35920  118.50730   -9999.25
 9402.00000   87.02200  160.83430  118.50730   -9999.25
 9402.50000   87.02200  160.83430  118.50730   -9999.25
 9403.00000   87.02200  160.83430  118.50730   -9999.25
 9403.50000   87.02200  160.83430  118.50730   -9999.25
 9404.00000   87.02200  160.83430  118.50730   -9999.25
 9404.50000   87.02200  160.83430  118.50730   -9999.25
 9405.00000   87.02200  160.83430  118.50730   -9999.25
 9405.50000   87.02200  160.83430  118.50730   -9999.25
 9406.00000   87.02200  160.83430  118.50730   -9999.25
 9406.50000   87.02200  160.83430  118.50730   -9999.25
 9407.00000   87.02200  160.83430  118.50730   -9999.25
 9407.50000   87.02200  160.83430  118.50730   -9999.25
 9408.00000   87.02200  160.83430  118.50730   -9999.25
 9408.50000   87.02200  160.83430  118.50730   -9999.25
 9409.00000   87.02200  160.83430  118.50730   -9999.25
 9409.50000   87.02200  160.83430  118.50730   -9999.25
 9410.00000   87.02200  160.83430  118.50730   -9999.25
 9410.50000   87.02200  160.83430  118.50730   -9999.25
 9411.00000   87.02200  160.83430  118.50730   -9999.25
 9411.50000   87.02200  160.83430  118.50730   -9999.25
 9412.00000   87.02200  160.83430  118.50730   -9999.25
 9412.50000   87.02200  160.83430  118.50730   -9999.25
 9413.00000   87.02200  160.83430  118.50730   -9999.25
 9413.50000   87.02200  160.83430  118.50730   -9999.25
 9414.00000   87.02200  160.83430  118.50730   -9999.25
 9414.50000   87.02200  160.83430  118.50730   -9999.25
 9415.00000   87.02200  160.83430  118.50730   -9999.25
 9415.50000   87.02200  160.83430  118.50730   -9999.25
 9416.00000   87.02200  160.83430  118.50730   -9999.25
 9416.50000   87.02200  160.83430  118.50730   -9999.25
 9417.00000   87.02200  160.83430  118.50730   -9999.25
 9417.50000   87.02200  160.83430  118.50730   -9999.25
 9418.00000   87.02200  160.83430  118.50730   -9999.25
 9418.50000   87.02200  160.83430  118.50730   -9999.25
 9419.00000   87.02200  160.83430  118.50730   -9999.25
 9419.50000   87.02200  160.83430  118.50730   -9999.25
 9420.00000   87.02200  160.83430  118.50730   -9999.25
 9420.50000   87.02200  160.83430  118.50730   -9999.25
 9421.00000   87.02200  160.83430  118.50730   -9999.25
 9421.50000   87.02200  160.83430  118.50730   -9999.25
 9422.00000   87.02200  160.83430  118.50730   -9999.25
 9422.50000   87.02200  160.83430  118.50730   -9999.25
 9423.00000   87.02200  160.83430  118.50730   -9999.25
 9423.50000   87.02200  160.83430  118.50730   -9999.25
 9424.00000   87.02200  160.83430  118.50730   -9999.25
 9424.50000   87.02200  160.83430  118.50730   -9999.25
 9425.00000   87.02200  160.83430  118.50730   -9999.25
 9425.50000   87.02200  160.83430  118.50730   -9999.25
 9426.00000   87.02200  160.83430  118.50730   -9999.25
 9426.50000   87.02200  160.83430  118.50730   -9999.25
 9427.00000   87.02200  160.83430  118.50730   -9999.25
 9427.50000   87.02200  160.83430  118.50730   -9999.25
 9428.00000   87.02200  160.83430  118.50730   -9999.25
 9428.50000   87.02200  160.83430  118.50730   -9999.25
 9429.00000   87.02200  160.83430  118.50730   -9999.25
 9429.50000   87.02200  160.83430  118.50730   -9999.25
 9430.00000   87.02200  160.83430  118.50730   -9999.25
 9430.50000   87.02200  160.83430  118.50730   -9999.25
 9431.00000   87.02200  160.83430  118.50730   -9999.25
 9431.50000   87.02200  160.83430  118.50730   -9999.25
 9432.00000   87.02200  160.83430  118.50730   -9999.25
 9432.50000   87.02200  160.83430  118.50730   -9999.25
 9433.00000   87.02200  160.83430  118.50730   -9999.25
 9433.50000   87.02200  160.83430  118.50730   -9999.25
 9434.00000   87.02200  160.83430  118.50730   -9999.25
 9434.50000   87.02200  160.83430  118.50730   -9999.25
 9435.00000   87.02200  160.83430  118.50730   -9999.25
 9435.50000   87.02200  160.83430  118.50730   -9999.25
 9436.00000   87.02200  160.83430  118.50730   -9999.25
 9436.50000   87.02200  160.83430  118.50730   -9999.25
 9437.00000   87.02200  160.83430  118.50730   -9999.25
 9437.50000   87.02200  160.83430  118.50730   -9999.25
 9438.00000   87.02200  160.83430  118.50730   -9999.25
 9438.50000   87.02200  160.83430  118.50730   -9999.25
 9439.00000   87.02200  160.83430  118.50730   -9999.25
 9439.50000   87.02200  160.83430  118.50730   -9999.25
 9440.00000   87.02200  160.83430  118.50730   -9999.25
 9440.50000   87.02200  160.83430  118.50730   -9999.25
 9441.00000   87.02200  160.83430  118.50730   -9999.25
 9441.50000   87.02200  160.83430  118.50730   -9999.25
 9442.00000   87.02200  160.83430  118.50730   -9999.25
 9442.50000   87.02200  160.83430  118.50730   -9999.25
 9443.00000   87.02200  160.83430  118.50730   -9999.25
 9443.50000   87.02200  160.83430  118.50730   -9999.25
 9444.00000   87.02200  160.83430  118.50730   -9999.25
 9444.50000   87.02200  160.83430  118.50730   -9999.25
 9445.00000   87.02200  160.83430  118.50730   -9999.25
 9445.50000   87.02200  160.83430  118.50730   -9999.25
 9446.00000   87.02200  160.83430  118.50730   -9999.25
 9446.50000   87.02200  160.83430  118.50730   -9999.25
 9447.00000   87.02200  160.83430  118.50730   -9999.25
 9447.50000   87.02200  160.83430  118.50730   -9999.25
 9448.00000   87.02200  160.83430  118.50730   -9999.25
 9448.50000   87.02200  160.83430  118.50730   -9999.25
 9449.00000   87.02200  160.83430  118.50730   -9999.25
 9449.50000   87.02200  160.83430  118.50730   -9999.25
 9450.00000   87.02200  160.83430  118.50730   -9999.25
 9450.50000   87.02200  160.83430  118.50730   -9999.25
 9451.00000   87.02200  160.83430  118.50730   -9999.25
 9451.50000   87.02200  160.83430  118.50730   -9999.25
