~Version ---------------------------------------------------
VERS.   2.0 : CWLS log ASCII Standard -VERSION 2.0
WRAP.    NO : One line per depth step
DLM . SPACE : Column Data Section Delimiter
~Well ------------------------------------------------------
STRT .F                5600.0 : START DEPTH
STOP .F                9451.5 : STOP DEPTH
STEP .F                   0.5 : STEP
NULL .               -9999.25 : NULL VALUE
COMP .                        : COMPANY
WELL .                        : WELL
FLD  .                        : FIELD
LOC  .                        : LOCATION
PROV .                        : PROVINCE
CNTY .                        : COUNTY
STAT .                        : STATE
CTRY .                        : COUNTRY
SRVC .                        : SERVICE COMPANY
DATE .                        : DATE
UWI  .                        : UNIQUE WELL ID
API  .                        : API NUMBER
SLAT .WGS84 2.523163199577695 : SURFACE LATITUDE
SLON .WGS84 6.197941761676006 : SURFACE LONGITUDE
DATUM.F                   nan : DEPTH DATUM ELEV
~Curve Information -----------------------------------------
DEPT    .F     : 
DTCO    .US/F  : DELTA-T COMPRESSIONAL
DTSM    .US/F  : DELTA-T SHEAR
ECGRS   .GAPI  : ENVIRONMENTALLY CORRECTED GAMMA RAY FROM SONIC LOG
HD1_PPC1.IN    : PPC1 HOLE DIAMETER 1
~Params ----------------------------------------------------
~Other -----------------------------------------------------
~ASCII -----------------------------------------------------
# ...
 8603.00000   81.65890  137.02600  105.43770    8.03640
 8603.50000   81.18350  137.06930   97.02270    8.02840
 8604.00000   79.85240  131.74410   84.66940    8.02040
 8604.50000   78.50070  129.51030   76.80610    8.01240
 8605.00000   78.49230  128.28540   78.26520    8.00690
 8605.50000   78.11580  128.39500   82.19310    8.01150
 8606.00000   78.74830  127.11010   87.80110    8.01610
 8606.50000   79.05890  129.55620   88.74700    8.02070
 8607.00000   79.26280  129.10600   90.58420    8.02530
 8607.50000   80.08760  129.54380   95.49110    8.02990
 8608.00000   80.63970  131.16560  104.06800    8.03430
 8608.50000   80.94190  133.53990  111.85830    8.03890
 8609.00000   81.34560  134.60530  110.12290    8.04350
 8609.50000   81.29290  136.10220  102.48130    8.04810
 8610.00000   81.31650  136.67850   92.79230    8.05270
 8610.50000   81.33850  137.08060   94.50250    8.05730
 8611.00000   81.06700  137.17390  103.15240    8.06600
 8611.50000   80.43920  137.08240  111.89040    8.09100
 8612.00000   80.60960  136.87600  115.55900    8.11110
 8612.50000   80.11760  137.19360  112.38920    8.10610
 8613.00000   80.06740  136.66570  107.18370    8.08130
 8613.50000   79.89340  136.17270  102.68300    8.06090
 8614.00000   79.93190  134.56110   99.47320    8.05830
 8614.50000   80.15580  132.94940   97.63220    8.05570
 8615.00000   80.43500  132.19990   91.31360    8.05420
 8615.50000   80.85190  132.44550   88.57810    8.05680
 8616.00000   82.41900  132.71300   84.44900    8.05930
 8616.50000   84.47230  136.77680   83.84430    8.06660
 8617.00000   85.57810  138.16110   84.94150    8.09230
 8617.50000   85.67500  138.73740   94.91750    8.11350
 8618.00000   86.03360  140.67070  106.22480    8.11640
 8618.50000   86.71300  143.74300  107.59840    8.11870
 8619.00000   86.63130  144.34750  106.38880    8.11810
 8619.50000   86.53760  145.03110  109.33820    8.11600
 8620.00000   86.33750  145.07360  112.36400    8.11380
 8620.50000   85.79110  144.49470  112.79030    8.11160
 8621.00000   85.79900  144.44870  106.34890    8.10940
 8621.50000   85.52370  144.40270  106.10540    8.10720
 8622.00000   85.48570  143.61950  104.85570    8.10510
 8622.50000   85.11670  141.46780  106.82540    8.10290
 8623.00000   84.45340  141.42310  107.16580    8.10070
 8623.50000   84.23280  139.35420  109.99290    8.09850
 8624.00000   78.80370  137.73120  110.44610    8.09630
 8624.50000   77.95770  136.10830  112.14050    8.09410
 8625.00000   77.60060  133.62390  109.53330    8.08580
 8625.50000   77.98100  134.05560   92.30350    8.05890
 8626.00000   78.08660  134.19960   72.39880    8.05640
 8626.50000   78.59020  135.67310   64.87230    8.05870
 8627.00000   81.48730  136.42970   81.59180    8.06580
 8627.50000   82.02110  137.50030  101.93660    8.09240
 8628.00000   82.20550  136.64990  109.01130    8.11530
 8628.50000   84.62850  140.85950  104.69330    8.12340
 8629.00000   84.92890  142.60010  106.18700    8.12560
 8629.50000   85.45870  143.58470  111.30310    8.10460
 8630.00000   85.13020  143.75590  118.94660    8.08360
 8630.50000   84.34930  141.09100  114.67180    8.07140
 8631.00000   83.60700  140.40740  114.13500    8.09390
 8631.50000   84.09880  137.15630  115.25380    8.11280
 8632.00000   84.24280  136.09960  123.03790    8.11250
 8632.50000   83.92920  130.23370  124.63790    8.09650
 8633.00000   53.79470  125.46020  111.51070    8.08050
 8633.50000   58.02450  121.71930   85.26310    8.06450
 8634.00000   59.37190  115.02550   52.76810    8.04850
 8634.50000   65.04450  114.81940   29.20460    8.03250
 8635.00000   64.64170  111.39610   22.29180    8.01650
 8635.50000   64.81880  110.93310   27.17540    8.00370
 8636.00000   65.73880  112.19390   44.96320    8.00390
 8636.50000   65.76580  112.91990   61.55150    8.00490
 8637.00000   72.87090  118.32360   72.89590    8.00600
 8637.50000   75.50420  127.23430   71.33020    8.01120
 8638.00000   76.05290  128.34390   69.32330    8.03360
 8638.50000   79.18890  131.92620   74.31690    8.05590
 8639.00000   79.86410  136.24290   88.47520    8.07820
 8639.50000   80.70620  137.69230   97.75370    8.10050
 8640.00000   82.84650  141.87490  105.03980    8.12280
 8640.50000   83.09680  143.04680  102.15830    8.13730
 8641.00000   83.84340  145.12850  106.65520    8.12070
 8641.50000   84.32920  145.52240  105.54990    8.10410
 8642.00000   84.23840  145.99520  105.60080    8.08750
 8642.50000   84.17500  145.95270   99.21060    8.07090
 8643.00000   84.19590  144.75740   99.55400    8.06420
 8643.50000   83.91310  144.55760   96.18790    8.06420
 8644.00000   83.60430  144.37130  101.79200    8.06420
 8644.50000   83.58450  143.36220  101.18780    8.06420
 8645.00000   83.74480  142.00150  105.07860    8.06410
 8645.50000   83.62060  141.80360  104.12770    8.06410
 8646.00000   83.71400  141.60560  100.98810    8.06640
 8646.50000   84.43120  143.17860  100.04410    8.07000
 8647.00000   84.88830  143.01380   95.54400    8.07370
 8647.50000   84.67180  142.61070   96.00240    8.07740
 8648.00000   82.26070  141.84520   98.39700    8.08110
 8648.50000   80.91350  139.91680   98.01680    8.08480
 8649.00000   78.97110  138.43600   95.03850    8.08840
 8649.50000   76.92750  137.81520   90.75590    8.09210
 8650.00000   77.51110  138.89650   81.69500    8.09580
 8650.50000   78.27270  140.04840   75.69150    8.09950
 8651.00000   78.98370  141.15450   81.52690    8.10320
 8651.50000   81.72180  141.52460   94.24880    8.10810
 8652.00000   82.45480  142.57970  108.61850    8.11790
 8652.50000   82.55460  143.63490  111.82020    8.12770
 8653.00000   83.57680  144.61640  116.85310    8.13760
 8653.50000   83.30280  146.08620  116.61800    8.14420
 8654.00000   83.06570  146.32410  117.70720    8.13810
 8654.50000   79.41510  146.72200  118.99210    8.13200
 8655.00000   75.97860  140.74520  116.13050    8.12590
 8655.50000   75.60610  139.91490  110.26450    8.11990
 8656.00000   75.86280  139.02560   92.33880    8.10980
 8656.50000   76.62600  138.13620   81.31060    8.08970
 8657.00000   76.80580  139.17290   72.69380    8.09330
 8657.50000   78.25050  142.21080   79.26920    8.09690
 8658.00000   82.16630  145.24860   81.02140    8.10050
 8658.50000   82.65740  147.00700   92.26560    8.10400
 8659.00000   83.65400  147.94100   99.34840    8.10760
 8659.50000   87.08030  154.54940  114.43700    8.11120
 8660.00000   87.64440  155.14750  113.66960    8.11480
 8660.50000   87.34720  156.52470  115.18440    8.11520
 8661.00000   87.23510  157.90200  109.32350    8.10350
 8661.50000   86.82350  154.42880  106.67220    8.09180
 8662.00000   85.87440  155.56160  108.22760    8.08010
 8662.50000   85.00290  153.86230  108.29580    8.06840
 8663.00000   84.71650  153.43140  108.66720    8.06370
 8663.50000   84.71800  151.47540   94.48580    8.06370
 8664.00000   85.21400  152.37280   93.23870    8.06370
 8664.50000   85.16840  152.56690   91.94610    8.08130
 8665.00000   84.45220  153.41110  100.69260    8.10330
 8665.50000   83.94200  151.95370  106.06260    8.12100
 8666.00000   83.34820  152.27700  112.79640    8.10570
 8666.50000   83.35720  153.21790  116.73430    8.08010
 8667.00000   83.50230  151.31490  114.73970    8.05460
 8667.50000   83.13620  150.89190  105.16630    8.02920
 8668.00000   83.63780  149.56480  101.43950    8.00370
 8668.50000   83.68240  150.08730   96.82040    7.97820
 8669.00000   83.85950  151.77040  106.03010    7.96810
 8669.50000   84.25920  150.02730  105.40890    7.96810
 8670.00000   84.68570  151.54110  108.78340    7.97660
 8670.50000   85.72660  151.00390  102.80100    7.99100
 8671.00000   86.62600  150.95610  105.93160    8.00530
 8671.50000   86.64840  152.90190  103.83590    8.01960
 8672.00000   86.91410  152.17030  109.03410    8.03390
 8672.50000   86.81420  149.82930  109.37930    8.04820
 8673.00000   85.87600  149.27780  108.68450    8.06250
 8673.50000   84.46890  147.61560  107.12330    8.07680
 8674.00000   83.05200  145.79710  104.42190    8.07290
