~Version ---------------------------------------------------
VERS.   2.0 : CWLS log ASCII Standard -VERSION 2.0
WRAP.    NO : One line per depth step
DLM . SPACE : Column Data Section Delimiter
~Well ------------------------------------------------------
STRT .F                5600.0 : START DEPTH
STOP .F                9451.5 : STOP DEPTH
STEP .F                   0.5 : STEP
NULL .               -9999.25 : NULL VALUE
COMP .                        : COMPANY
WELL .                        : WELL
FLD  .                        : FIELD
LOC  .                        : LOCATION
PROV .                        : PROVINCE
CNTY .                        : COUNTY
STAT .                        : STATE
CTRY .                        : COUNTRY
SRVC .                        : SERVICE COMPANY
DATE .                        : DATE
UWI  .                        : UNIQUE WELL ID
API  .                        : API NUMBER
SLAT .WGS84 2.523163199577695 : SURFACE LATITUDE
SLON .WGS84 6.197941761676006 : SURFACE LONGITUDE
DATUM.F                   nan : DEPTH DATUM ELEV
~Curve Information -----------------------------------------
DEPT    .F     : 
DTCO    .US/F  : DELTA-T COMPRESSIONAL
DTSM    .US/F  : DELTA-T SHEAR
ECGRS   .GAPI  : ENVIRONMENTALLY CORRECTED GAMMA RAY FROM SONIC LOG
HD1_PPC1.IN    : PPC1 HOLE DIAMETER 1
~Params ----------------------------------------------------
~Other -----------------------------------------------------
~ASCII -----------------------------------------------------
# ...
 9103.50000   90.26670  161.55860  106.32900    8.22230
 9104.00000   90.48270  160.49340  105.96700    8.21380
 9104.50000   90.79510  160.85190  107.76130    8.19950
 9105.00000   90.34720  161.29680  106.15440    8.18510
 9105.50000   89.40620  158.53040  112.39550    8.17080
 9106.00000   88.81820  157.82100  111.59500    8.15650
 9106.50000   88.41580  157.84560  112.18550    8.14220
 9107.00000   88.40140  157.40150  103.19470    8.13420
 9107.50000   88.46200  157.41570   93.18320    8.12780
 9108.00000   88.75450  156.69170   89.94180    8.12110
 9108.50000   88.96040  156.24090   97.49840    8.11420
 9109.00000   89.04230  155.99410  105.50250    8.10730
 9109.50000   88.67140  152.07340  112.58350    8.08940
 9110.00000   88.27030  152.73220  116.18230    8.06890
 9110.50000   89.72250  151.11970  120.52080    8.04830
 9111.00000   90.75100  147.24460  117.73380    8.02780
 9111.50000   89.99520  140.50900  104.96290    8.00730
 9112.00000   89.94490  137.21810   81.84530    7.98670
 9112.50000   74.54190  137.21810   62.56310    7.96620
 9113.00000   74.14640  129.28940   49.61380    7.94570
 9113.50000   74.28890  128.66750   52.59610    7.94500
 9114.00000   74.11530  126.09380   68.47290    7.94940
 9114.50000   76.49580  125.52660   91.99650    7.97900
 9115.00000   80.10920  129.29310  105.01870    7.99100
 9115.50000   82.45100  131.78720  104.04700    7.99710
 9116.00000   84.02530  135.24120   88.40060    8.00310
 9116.50000   88.24380  138.53770   86.44260    8.00920
 9117.00000   88.86160  141.74130   98.60930    8.01330
 9117.50000   89.78660  142.39940  117.33310    8.01690
 9118.00000   90.60750  144.29210  131.97120    8.02040
 9118.50000   90.71550  144.75950  130.68470    8.02400
 9119.00000   91.22650  146.34010  128.94240    8.02460
 9119.50000   91.97900  149.12480  119.40260    8.02460
 9120.00000   91.97200  150.97850  116.16620    8.04600
 9120.50000   91.79800  151.28350  117.75200    8.07260
 9121.00000   91.59650  150.59090  124.17970    8.08380
 9121.50000   91.16810  150.68760  127.38690    8.10880
 9122.00000   91.10640  150.11170  125.88020    8.13820
 9122.50000   91.13290  150.93530  122.37860    8.16750
 9123.00000   91.13230  151.32950  123.11400    8.17560
 9123.50000   91.00570  152.02590  124.60530    8.17850
 9124.00000   90.81910  152.11970  124.47270    8.18130
 9124.50000   90.68850  151.57800  122.22750    8.18420
 9125.00000   90.09960  151.83460  122.00400    8.18700
 9125.50000   89.69910  150.36860  123.36290    8.18980
 9126.00000   90.02740  150.13180  113.96100    8.19270
 9126.50000   90.19400  150.14450  104.96440    8.19550
 9127.00000   90.66140  150.56980   97.90890    8.19840
 9127.50000   92.17940  150.69410  102.55500    8.20120
 9128.00000   92.62450  152.23680  109.62010    8.20410
 9128.50000   92.64510  153.79320  118.12150    8.20680
 9129.00000   92.65040  154.03460  124.98480    8.20970
 9129.50000   92.60280  153.22110  130.44010    8.21250
 9130.00000   92.71400  154.47150  134.38610    8.21540
 9130.50000   92.72020  153.99420  137.31840    8.21820
 9131.00000   92.53400  154.84860  125.21130    8.22110
 9131.50000   91.53440  154.32430  113.24060    8.22400
 9132.00000   89.65670  154.06920  101.72460    8.22510
 9132.50000   87.83980  151.11720   98.67630    8.22570
 9133.00000   86.63540  148.63530  101.43220    8.22640
 9133.50000   86.46340  146.15340   97.10120    8.22710
 9134.00000   86.32830  146.15460   96.90470    8.23450
 9134.50000   86.66290  146.68180   91.81490    8.24350
 9135.00000   87.10800  146.97350   94.21550    8.25250
 9135.50000   87.85980  147.42030   98.18010    8.26140
 9136.00000   88.71760  147.80590   99.18540    8.29280
 9136.50000   90.14630  148.81790  103.09100    8.30340
 9137.00000   90.67130  150.24680  109.61020    8.30760
 9137.50000   91.45080  150.26480  120.64430    8.31180
 9138.00000   93.02670  152.42990  124.66780    8.31590
 9138.50000   92.91540  152.54700  127.02470    8.32010
 9139.00000   92.46480  154.00980  122.87090    8.32430
 9139.50000   92.11380  151.78110  121.01350    8.32830
 9140.00000   91.22450  151.45160  118.99640    8.31240
 9140.50000   91.26950  151.25760  118.35610    8.29140
 9141.00000   91.57340  151.82490  119.76330    8.27040
 9141.50000   91.99310  151.60290  113.50260    8.24950
 9142.00000   92.10260  151.50180  115.63360    8.22840
 9142.50000   92.41220  153.65660  118.95370    8.22420
 9143.00000   92.43150  153.37160  131.98460    8.22960
 9143.50000   93.35800  153.88280  145.90090    8.23630
 9144.00000   93.63490  154.29940  157.42530    8.24310
 9144.50000   93.79320  154.67950  153.38890    8.24980
 9145.00000   93.28280  154.41620  142.13030    8.25660
 9145.50000   92.27140  153.90300  129.78740    8.27660
 9146.00000   91.48290  152.28690  127.76630    8.28130
 9146.50000   90.21300  150.86170  126.40120    8.22630
 9147.00000   88.86900  149.91940  119.38460    8.19900
 9147.50000   88.28230  148.10810  107.30370    8.15490
 9148.00000   88.53410  147.84690   95.60790    8.13450
 9148.50000   88.92190  148.10910   93.91880    8.12150
 9149.00000   89.15640  148.05680   97.92070    8.11970
 9149.50000   89.69970  148.47620  107.02220    8.12080
 9150.00000   90.19940  149.75880  114.11350    8.12170
 9150.50000   90.87240  149.75760  121.91510    8.12270
 9151.00000   92.57930  152.16130  124.28290    8.12370
 9151.50000   93.25760  152.68550  122.40500    8.12740
 9152.00000   93.29710  152.35790  124.20030    8.13180
 9152.50000   93.35860  153.02290  123.51520    8.13620
 9153.00000   92.46490  153.20990  132.99980    8.14060
 9153.50000   92.52050  151.87780  133.70050    8.14490
 9154.00000   92.34280  152.07820  133.34420    8.14930
 9154.50000   93.13840  153.06070  120.57110    8.15370
 9155.00000   93.71460  153.39730  117.20930    8.15810
 9155.50000   94.26550  154.20750  121.91560    8.16250
 9156.00000   94.27320  154.93190  138.79320    8.16690
 9156.50000   94.26700  155.31660  151.51800    8.17130
 9157.00000   91.48750  155.57740  161.37050    8.17570
 9157.50000   89.01340  152.43040  166.95070    8.18010
 9158.00000   88.90040  152.62300  158.36800    8.18130
 9158.50000   88.77600  150.10040  144.10250    8.18060
 9159.00000   87.80350  149.34180  121.41940    8.17980
 9159.50000   86.73470  148.96620  106.24510    8.17910
 9160.00000   85.55080  147.05400   96.28810    8.17830
 9160.50000   84.96040  145.74450   95.35160    8.17760
 9161.00000   84.77260  144.87060  103.50000    8.17690
 9161.50000   85.17500  145.83070  105.61780    8.17620
 9162.00000   85.19530  146.13510  104.43270    8.17550
 9162.50000   85.28660  145.85190  100.91860    8.17480
 9163.00000   86.40550  148.67660  106.73520    8.17400
 9163.50000   84.00250  146.41070  108.68230    8.17330
 9164.00000   83.93510  146.26580  108.73700    8.17260
 9164.50000   83.83900  145.25860  106.27640    8.17190
 9165.00000   82.26520  143.27910  100.97010    8.15680
 9165.50000   81.24580  140.06720  100.07020    8.14870
 9166.00000   79.48250  138.96030   93.52790    8.14340
 9166.50000   77.01640  136.28020   93.19620    8.13800
 9167.00000   76.68610  132.86030   88.49130    8.13260
 9167.50000   76.23040  132.18620   85.30880    8.12720
 9168.00000   77.60500  132.68350   80.57370    8.12190
 9168.50000   78.84360  134.47710   74.37580    8.11650
 9169.00000   79.04560  136.05910   80.38740    8.11110
 9169.50000   80.67060  136.50510   91.47150    8.10910
 9170.00000   82.62920  140.26540  103.61260    8.10790
 9170.50000   74.41880  139.54710  104.17110    8.10680
 9171.00000   69.49490  140.28560  102.31710    8.10560
 9171.50000   64.57110  137.48430  102.46910    8.10450
 9172.00000   59.64720  130.88600   97.54770    8.08340
 9172.50000   54.72340  124.66940   84.61180    8.05740
 9173.00000   49.79950  120.35400   61.49400    8.04530
 9173.50000   50.00180  116.82890   41.00340    8.03660
 9174.00000   52.14530  113.55750   26.61100    8.02790
 9174.50000   56.78230  106.42040   20.96080    8.02930
