~Version ---------------------------------------------------
VERS.   2.0 : CWLS log ASCII Standard -VERSION 2.0
WRAP.    NO : One line per depth step
DLM . SPACE : Column Data Section Delimiter
~Well ------------------------------------------------------
STRT .F                5600.0 : START DEPTH
STOP .F                9451.5 : STOP DEPTH
STEP .F                   0.5 : STEP
NULL .               -9999.25 : NULL VALUE
COMP .                        : COMPANY
WELL .                        : WELL
FLD  .                        : FIELD
LOC  .                        : LOCATION
PROV .                        : PROVINCE
CNTY .                        : COUNTY
STAT .                        : STATE
CTRY .                        : COUNTRY
SRVC .                        : SERVICE COMPANY
DATE .                        : DATE
UWI  .                        : UNIQUE WELL ID
API  .                        : API NUMBER
SLAT .WGS84 2.523163199577695 : SURFACE LATITUDE
SLON .WGS84 6.197941761676006 : SURFACE LONGITUDE
DATUM.F                   nan : DEPTH DATUM ELEV
~Curve Information -----------------------------------------
DEPT    .F     : 
DTCO    .US/F  : DELTA-T COMPRESSIONAL
DTSM    .US/F  : DELTA-T SHEAR
ECGRS   .GAPI  : ENVIRONMENTALLY CORRECTED GAMMA RAY FROM SONIC LOG
HD1_PPC1.IN    : PPC1 HOLE DIAMETER 1
~Params ----------------------------------------------------
~Other -----------------------------------------------------
~ASCII -----------------------------------------------------
# ...
 7602.00000   57.66570   99.79380   36.22990    8.07410
 7602.50000   57.73340   98.55220   42.27530    8.06900
 7603.00000   58.38000   98.48470   46.02060    8.06390
 7603.50000   58.48100   99.29570   48.07460    8.05880
 7604.00000   58.62190  100.30150   44.68570    8.05480
 7604.50000   58.72740  100.64990   43.72050    8.05480
 7605.00000   58.78910  100.16830   41.34680    8.05480
 7605.50000   58.77740  100.59010   44.67810    8.05480
 7606.00000   58.86880  100.24540   44.45470    8.05480
 7606.50000   58.70930  100.45000   47.29960    8.05480
 7607.00000   58.84320  100.62290   45.33440    8.05480
 7607.50000   58.71900  100.01630   43.81920    8.05480
 7608.00000   58.54810  100.95420   40.88590    8.05480
 7608.50000   58.53580   99.82330   40.76340    8.05470
 7609.00000   58.52540   99.85770   38.86960    8.05410
 7609.50000   58.61080   99.84580   40.00520    8.05280
 7610.00000   58.51460   99.07490   37.27930    8.05140
 7610.50000   58.50940   99.06130   39.52710    8.05010
 7611.00000   58.61020   99.28250   41.94720    8.04870
 7611.50000   58.48190   99.77470   47.72290    8.04740
 7612.00000   58.48140   99.50300   44.48620    8.04600
 7612.50000   58.86830   99.99030   42.46390    8.04470
 7613.00000   59.25330   99.80800   36.81690    8.04330
 7613.50000   59.60270   99.94530   38.40460    8.04200
 7614.00000   59.86070  101.01270   39.67040    8.04070
 7614.50000   60.82570  100.88590   46.00800    8.03930
 7615.00000   61.06850  101.79460   51.02650    8.04220
 7615.50000   62.40310  102.18640   57.63270    8.04790
 7616.00000   64.23560  104.30520   58.58980    8.05370
 7616.50000   64.78280  105.54410   64.90860    8.07730
 7617.00000   66.51250  107.13250   74.96280    8.11290
 7617.50000   67.39220  107.48150   89.18970    8.14830
 7618.00000   67.82980  109.87220   97.45900    8.17410
 7618.50000   68.52480  111.63890   95.35720    8.19340
 7619.00000   69.37650  111.44170   97.30210    8.21270
 7619.50000   69.72950  114.16550   95.39080    8.21910
 7620.00000   70.59440  114.43050   97.46990    8.21670
 7620.50000   71.10460  115.63820   90.97920    8.21440
 7621.00000   71.24100  116.26730   93.50780    8.21220
 7621.50000   71.74100  116.50770   98.79880    8.20990
 7622.00000   71.63330  116.77590  103.31690    8.20760
 7622.50000   71.76470  117.18050  104.35000    8.20540
 7623.00000   71.85150  116.30090  100.30880    8.20310
 7623.50000   71.47480  116.57030  100.63190    8.20080
 7624.00000   71.36260  116.00530   95.29610    8.19860
 7624.50000   70.97360  115.86880   90.80820    8.19630
 7625.00000   70.43200  114.45350   84.97130    8.19400
 7625.50000   70.11330  113.61400   81.65900    8.19180
 7626.00000   69.75170  113.67370   80.18210    8.18950
 7626.50000   69.54300  113.49140   74.98750    8.18710
 7627.00000   69.08400  112.38130   74.78990    8.18490
 7627.50000   68.90280  112.03360   74.63500    8.18260
 7628.00000   68.74450  111.73640   79.47940    8.18740
 7628.50000   67.86070  110.77870   81.17820    8.19700
 7629.00000   68.04050  110.45520   83.60220    8.20660
 7629.50000   67.86520  110.46540   84.28200    8.26400
 7630.00000   68.36150  111.56190   85.99210    8.35340
 7630.50000   68.75990  111.78080   83.78480    8.44680
 7631.00000   69.62600  112.59480   86.93820    8.53610
 7631.50000   70.07460  113.14670   86.20210    8.58970
 7632.00000   70.50170  114.63950   90.05960    8.54640
 7632.50000   71.49080  115.47690   92.78050    8.47420
 7633.00000   72.15300  116.21030  104.01090    8.40200
 7633.50000   72.43670  117.64770  106.30220    8.32980
 7634.00000   72.38180  118.06270  106.55620    8.25760
 7634.50000   72.15380  118.53160   94.93260    8.22470
 7635.00000   72.38850  118.15580   95.09450    8.22000
 7635.50000   71.72890  117.57760   96.06910    8.23650
 7636.00000   71.74740  117.86930   94.02730    8.31900
 7636.50000   72.05730  118.54360   87.55410    8.40150
 7637.00000   72.20920  118.62150   85.92150    8.48400
 7637.50000   72.42670  119.19800  103.04860    8.56660
 7638.00000   72.55060  119.42750  118.05880    8.64900
 7638.50000   72.57980  117.63700  126.26370    8.60580
 7639.00000   72.83120  118.47000  123.25730    8.47870
 7639.50000   72.45030  118.39270  117.99390    8.35160
 7640.00000   72.46940  118.31680  109.14490    8.22450
 7640.50000   71.24520  118.08270   98.59750    8.15640
 7641.00000   71.17320  117.48200   92.62440    8.15050
 7641.50000   70.60740  117.31960   92.51950    8.14470
 7642.00000   69.57190  114.99230   95.19730    8.12740
 7642.50000   68.56110  114.33870   97.82580    8.12740
 7643.00000   68.46140  113.34870   94.43180    8.10430
 7643.50000   68.36670  113.35370   91.64910    8.10140
 7644.00000   68.16860  113.27470   86.55010    8.08700
 7644.50000   68.17070  111.63640   88.93120    8.06390
 7645.00000   68.20040  112.60830   89.19060    8.05810
 7645.50000   68.13400  111.55500   89.92620    8.05800
 7646.00000   68.08290  110.38960   87.45240    8.05800
 7646.50000   68.14160  111.96110   88.69580    8.05790
 7647.00000   67.98190  111.19740   87.88870    8.05770
 7647.50000   67.97700  111.36880   85.81050    8.05760
 7648.00000   67.83680  110.73180   85.26760    8.05740
 7648.50000   67.81920  111.41020   85.94850    8.05730
 7649.00000   67.80290  111.23710   87.11760    8.05710
 7649.50000   66.80310  109.56230   84.70660    8.05700
 7650.00000   66.45210  109.41970   83.72250    8.05680
 7650.50000   66.46030  109.59630   82.77290    8.05670
 7651.00000   66.11380  109.39870   80.18050    8.05650
 7651.50000   66.12870  109.78200   78.53520    8.05460
 7652.00000   66.12250  108.91800   75.60470    8.05140
 7652.50000   66.13860  108.87030   76.05500    8.04820
 7653.00000   66.04650  108.36920   75.03750    8.04510
 7653.50000   66.06070  108.42450   75.84490    8.04190
 7654.00000   66.00990  108.74200   77.22920    8.03880
 7654.50000   66.00550  108.64190   76.86930    8.03570
 7655.00000   66.01630  108.37620   73.41610    8.03250
 7655.50000   65.82040  108.97440   70.98260    8.03140
 7656.00000   65.87940  108.80180   70.27730    8.03150
 7656.50000   65.86560  109.13630   73.52080    8.03170
 7657.00000   65.93680  109.15870   75.92860    8.03180
 7657.50000   65.87120  109.08820   75.76450    8.03200
 7658.00000   65.86360  108.76610   76.45370    8.03210
 7658.50000   66.01300  108.08190   75.16080    8.03230
 7659.00000   66.08200  108.36950   75.15620    8.03240
 7659.50000   66.19800  108.79350   76.21450    8.03250
 7660.00000   66.41700  108.95420   72.60040    8.03260
 7660.50000   66.48230  109.19520   74.34180    8.03280
 7661.00000   66.48070  108.90100   73.09640    8.03300
 7661.50000   66.57350  109.19840   79.78970    8.03310
 7662.00000   66.64310  109.69350   75.92730    8.03330
 7662.50000   66.73480  109.69900   75.14540    8.03340
 7663.00000   66.73090  108.35330   70.90250    8.03360
 7663.50000   67.28230  110.58180   76.41810    8.03370
 7664.00000   67.44570  110.28320   78.04090    8.03390
 7664.50000   67.61770  109.61100   80.00430    8.03400
 7665.00000   68.50940  111.85390   76.77860    8.03420
 7665.50000   68.50990  112.41250   78.40550    8.03430
 7666.00000   69.55980  112.81010   81.93710    8.03450
 7666.50000   69.78120  113.26130   85.62680    8.03450
 7667.00000   70.10300  113.54180   91.35650    8.03470
 7667.50000   70.15830  113.67100   94.31790    8.03480
 7668.00000   69.79500  114.38110   98.03080    8.03500
 7668.50000   69.63310  113.64020   99.84300    8.03510
 7669.00000   68.63450  113.08540   96.29000    8.03530
 7669.50000   68.55620  112.57920   95.50100    8.02910
 7670.00000   67.58670  111.60060   78.23090    8.01880
 7670.50000   67.07240  110.45680   70.44340    8.00840
 7671.00000   66.59320  110.32490   65.20120    7.99240
 7671.50000   66.23340  109.95030   74.33350    7.98440
 7672.00000   65.48840  108.47640   78.28920    7.98730
 7672.50000   65.32150  108.15390   75.87440    7.99190
 7673.00000   64.65330  107.92980   70.89820    7.99670
