~Version ---------------------------------------------------
VERS.   2.0 : CWLS log ASCII Standard -VERSION 2.0
WRAP.    NO : One line per depth step
DLM . SPACE : Column Data Section Delimiter
~Well ------------------------------------------------------
STRT .F                5600.0 : START DEPTH
STOP .F                9451.5 : STOP DEPTH
STEP .F                   0.5 : STEP
NULL .               -9999.25 : NULL VALUE
COMP .                        : COMPANY
WELL .                        : WELL
FLD  .                        : FIELD
LOC  .                        : LOCATION
PROV .                        : PROVINCE
CNTY .                        : COUNTY
STAT .                        : STATE
CTRY .                        : COUNTRY
SRVC .                        : SERVICE COMPANY
DATE .                        : DATE
UWI  .                        : UNIQUE WELL ID
API  .                        : API NUMBER
SLAT .WGS84 2.523163199577695 : SURFACE LATITUDE
SLON .WGS84 6.197941761676006 : SURFACE LONGITUDE
DATUM.F                   nan : DEPTH DATUM ELEV
~Curve Information -----------------------------------------
DEPT    .F     : 
DTCO    .US/F  : DELTA-T COMPRESSIONAL
DTSM    .US/F  : DELTA-T SHEAR
ECGRS   .GAPI  : ENVIRONMENTALLY CORRECTED GAMMA RAY FROM SONIC LOG
HD1_PPC1.IN    : PPC1 HOLE DIAMETER 1
~Params ----------------------------------------------------
~Other -----------------------------------------------------
~ASCII -----------------------------------------------------
# ...
 7387.50000   69.10640  112.10940   89.20720    8.15510
 7388.00000   69.06990  112.64360   99.66690    8.15240
 7388.50000   69.99670  113.80860  106.59980    8.14720
 7389.00000   70.35680  115.70960  103.45430    8.14190
 7389.50000   71.35780  116.00900  103.12240    8.13670
 7390.00000   72.31140  118.58020  105.51820    8.13140
 7390.50000   72.45490  119.57510  111.98970    8.12860
 7391.00000   73.17500  120.44620  113.51360    8.12740
 7391.50000   73.26930  119.68580  113.73620    8.12610
 7392.00000   73.14660  119.39200  122.29600    8.12490
 7392.50000   72.64240  119.90210  128.28380    8.12360
 7393.00000   71.89370  119.11060  122.46910    8.12230
 7393.50000   71.63530  118.63640  118.05260    8.12110
 7394.00000   71.39400  117.55700  114.76810    8.11980
 7394.50000   71.27690  116.48660  105.28710    8.10810
 7395.00000   69.85050  115.62030   89.48740    8.10170
 7395.50000   69.73170  115.50060   85.20240    8.10360
 7396.00000   69.91430  113.80820   92.56890    8.10550
 7396.50000   70.54320  114.43380   99.40060    8.10740
 7397.00000   71.25360  115.45310   91.51350    8.10930
 7397.50000   71.64190  116.22920   84.31580    8.11120
 7398.00000   72.07650  116.85170   87.32270    8.11310
 7398.50000   72.20920  116.87360  102.02900    8.11500
 7399.00000   72.03640  116.74740  115.20060    8.11690
 7399.50000   71.57800  116.92180  119.70310    8.11880
 7400.00000   70.31350  114.83430  115.19530    8.12070
 7400.50000   69.78140  114.14860  112.50770    8.12250
 7401.00000   68.16390  112.99330  103.91430    8.12440
 7401.50000   67.77340  111.99770   95.32490    8.12630
 7402.00000   67.73660  111.53220   81.75070    8.12820
 7402.50000   67.90290  111.33850   74.22070    8.13010
 7403.00000   69.15730  113.26770   73.31990    8.13200
 7403.50000   69.41550  114.48750   78.00730    8.13390
 7404.00000   70.66980  116.57420   92.37840    8.16570
 7404.50000   72.08670  117.84590  110.12260    8.18800
 7405.00000   74.53770  121.87080  127.69160    8.19070
 7405.50000   74.71930  122.65540  126.72190    8.18250
 7406.00000   76.83140  124.30550  125.13280    8.16710
 7406.50000   77.35510  127.02540  122.83910    8.15160
 7407.00000   77.28750  127.01660  127.91120    8.13620
 7407.50000   77.09560  126.93540  129.08860    8.12980
 7408.00000   76.08770  126.96930  131.79250    8.12940
 7408.50000   75.87750  125.81600  129.39810    8.12910
 7409.00000   75.54080  125.31640  130.99580    8.13000
 7409.50000   75.05370  123.12990  120.88450    8.13180
 7410.00000   74.91140  123.50990  113.83160    8.13360
 7410.50000   73.91210  121.92830  104.29740    8.13540
 7411.00000   73.43900  121.23390  102.32740    8.13720
 7411.50000   72.22730  119.15280  108.45790    8.13890
 7412.00000   71.69210  117.37280  112.29870    8.14070
 7412.50000   70.59130  116.49820  117.67120    8.14250
 7413.00000   70.33010  114.63990  110.05050    8.15220
 7413.50000   70.37970  114.24680  103.44150    8.16710
 7414.00000   70.84200  115.32160   94.32440    8.18200
 7414.50000   71.52010  116.39640   91.96500    8.18760
 7415.00000   71.49320  117.32310   96.90590    8.17160
 7415.50000   72.27380  117.70290  105.52320    8.15720
 7416.00000   72.91470  119.81040  114.60250    8.15080
 7416.50000   73.78090  120.13790  118.38040    8.14440
 7417.00000   73.89390  122.99230  119.21600    8.13650
 7417.50000   75.51540  123.54160  120.75970    8.12770
 7418.00000   75.52290  124.63710  120.56370    8.11900
 7418.50000   75.23160  125.34450  119.08770    8.09260
 7419.00000   75.02430  124.40300  117.07180    8.06900
 7419.50000   74.20250  123.57500  115.38260    8.08260
 7420.00000   73.88670  121.31310  118.59420    8.11440
 7420.50000   73.33860  121.23490  110.36970    8.13990
 7421.00000   73.19010  121.44780  103.64030    8.16130
 7421.50000   71.96780  121.20240   96.90950    8.17410
 7422.00000   71.25870  119.47250  105.49330    8.17410
 7422.50000   71.19200  118.73540  114.44390    8.17410
 7423.00000   70.80010  117.93730  115.68510    8.41790
 7423.50000   70.72400  117.57030  113.68810    8.61300
 7424.00000   70.84100  117.62830  101.68010    8.61300
 7424.50000   71.27520  117.15700  108.25320    8.61300
 7425.00000   71.22270  117.15590  111.87450    8.52520
 7425.50000   70.47480  116.34230  124.63620    8.41540
 7426.00000   70.24480  115.47050  118.97030    8.30570
 7426.50000   70.14510  114.04650  114.27000    8.19590
 7427.00000   70.00580  114.12500  101.77010    8.17400
 7427.50000   70.36170  113.72530   97.20730    8.15090
 7428.00000   70.54530  113.89900   94.62480    8.15090
 7428.50000   71.19840  114.02770   97.03620    8.15090
 7429.00000   71.60860  114.43010  101.83220    8.15090
 7429.50000   72.24910  115.70650  107.99860    8.14980
 7430.00000   72.96100  116.14950  117.85080    8.14440
 7430.50000   73.13730  117.56920  125.97850    8.13910
 7431.00000   74.06040  118.05250  126.96960    8.13380
 7431.50000   74.38340  120.83880  125.68360    8.12850
 7432.00000   75.32490  121.15870  123.83590    8.12320
 7432.50000   75.53520  122.14560  125.86940    8.11790
 7433.00000   75.95270  122.22370  130.38190    8.11260
 7433.50000   75.94000  122.72300  132.80240    8.10720
 7434.00000   75.48000  121.84350  136.92780    8.10190
 7434.50000   74.32330  120.87540  139.52050    8.08640
 7435.00000   72.42600  118.30560  139.08810    8.07580
 7435.50000   71.60740  117.61560  129.56290    8.07290
 7436.00000   70.86950  116.74150  106.86510    8.07000
 7436.50000   70.27860  115.61510   84.69340    8.06930
 7437.00000   69.50510  113.94170   73.69830    8.07000
 7437.50000   69.96040  113.70520   80.90650    8.07080
 7438.00000   69.96550  115.28540   92.74250    8.09940
 7438.50000   70.93860  114.40140  103.39340    8.11880
 7439.00000   71.84350  118.70930  109.72720    8.11950
 7439.50000   72.38440  119.09340  120.99920    8.12030
 7440.00000   73.24460  120.61200  130.50560    8.12110
 7440.50000   73.68840  121.41920  140.54990    8.12180
 7441.00000   73.50940  121.96920  137.84110    8.12260
 7441.50000   73.33870  122.51920  127.29960    8.12340
 7442.00000   73.57360  122.25010  111.41370    8.12410
 7442.50000   73.52970  122.00010  103.60640    8.12490
 7443.00000   73.51390  121.62640  109.58790    8.12570
 7443.50000   73.07930  121.63770  120.98640    8.12640
 7444.00000   72.72770  121.72180  131.02710    8.12710
 7444.50000   72.73420  121.46160  132.00010    8.12790
 7445.00000   73.02930  121.77090  128.14070    8.13320
 7445.50000   73.68830  122.24110  121.06050    8.14160
 7446.00000   73.66090  122.28820  115.74510    8.15000
 7446.50000   71.98910  121.89670  120.32930    8.15840
 7447.00000   71.34170  119.97140  124.69190    8.16680
 7447.50000   69.96920  117.25440  132.44300    8.17510
 7448.00000   64.57500  115.58700  139.29690    8.18350
 7448.50000   63.20420  112.55460  134.10840    8.19190
 7449.00000   61.83460  111.52580  102.35390    8.20030
 7449.50000   56.98110  107.32430   57.89970    8.20870
 7450.00000   55.89680  105.15300   27.08710    8.21710
 7450.50000   54.19450  103.33050   16.44380    8.21150
 7451.00000   54.55470  100.24750   12.74030    8.19340
 7451.50000   53.70900   98.74270   10.48280    8.17290
 7452.00000   53.37080   98.48220   10.24120    8.16350
 7452.50000   53.47020   98.04290   12.38300    8.16870
 7453.00000   53.57760   98.16350   14.14450    8.17850
 7453.50000   53.68300   99.13650   16.50560    8.18820
 7454.00000   53.65300   98.51520   17.13880    8.18900
 7454.50000   53.58880   97.86530   16.90460    8.18370
 7455.00000   53.46970   97.95480   16.88530    8.17840
 7455.50000   53.57450   98.03670   16.91020    8.17310
 7456.00000   53.66810   97.61300   20.37530    8.15090
 7456.50000   53.69190   97.60320   23.00410    8.11750
 7457.00000   53.81400   97.35360   28.04830    8.08410
 7457.50000   54.31300   97.38490   33.89480    8.06970
 7458.00000   54.52710   97.10930   40.19990    8.06830
 7458.50000   55.65270   97.56950   48.46030    8.06690
