~Version ---------------------------------------------------
VERS.   2.0 : CWLS log ASCII Standard -VERSION 2.0
WRAP.    NO : One line per depth step
DLM . SPACE : Column Data Section Delimiter
~Well ------------------------------------------------------
STRT .F                5600.0 : START DEPTH
STOP .F                9451.5 : STOP DEPTH
STEP .F                   0.5 : STEP
NULL .               -9999.25 : NULL VALUE
COMP .                        : COMPANY
WELL .                        : WELL
FLD  .                        : FIELD
LOC  .                        : LOCATION
PROV .                        : PROVINCE
CNTY .                        : COUNTY
STAT .                        : STATE
CTRY .                        : COUNTRY
SRVC .                        : SERVICE COMPANY
DATE .                        : DATE
UWI  .                        : UNIQUE WELL ID
API  .                        : API NUMBER
SLAT .WGS84 2.523163199577695 : SURFACE LATITUDE
SLON .WGS84 6.197941761676006 : SURFACE LONGITUDE
DATUM.F                   nan : DEPTH DATUM ELEV
~Curve Information -----------------------------------------
DEPT    .F     : 
DTCO    .US/F  : DELTA-T COMPRESSIONAL
DTSM    .US/F  : DELTA-T SHEAR
ECGRS   .GAPI  : ENVIRONMENTALLY CORRECTED GAMMA RAY FROM SONIC LOG
HD1_PPC1.IN    : PPC1 HOLE DIAMETER 1
~Params ----------------------------------------------------
~Other -----------------------------------------------------
~ASCII -----------------------------------------------------
# ...
 8388.50000   60.73160  113.53650   16.63950    7.97170
 8389.00000   67.42280  115.93770   20.38580    7.97170
 8389.50000   74.11400  119.86770   30.36990    8.03890
 8390.00000   80.80520  122.31290   48.51030    8.15100
 8390.50000   87.49650  133.52770   66.13530    8.26320
 8391.00000   90.54110  147.00710   84.99960    8.37530
 8391.50000   90.72770  147.31550  100.42470    8.48750
 8392.00000   92.42580  156.96040  111.21410    8.48750
 8392.50000   88.64310  166.51630  119.07830    8.08620
 8393.00000   88.65870  166.78090  122.21020    8.11170
 8393.50000   90.02750  168.72190  125.29770    8.12440
 8394.00000   91.23010  169.14640  128.21980    8.79310
 8394.50000   91.54040  170.70440  121.99040    9.06870
 8395.00000   91.41920  168.36920  115.43440    9.07960
 8395.50000   90.58740  167.15910  106.32040    9.07960
 8396.00000   90.42220  164.54400  107.65520    8.95220
 8396.50000   89.54510  163.42870  112.85760    8.31530
 8397.00000   88.45970  159.73240  114.29600    8.30260
 8397.50000   87.85250  157.44880  111.35180    8.27330
 8398.00000   87.73990  154.96330  107.45630    8.26700
 8398.50000   87.64150  153.05360  110.26980    8.26060
 8399.00000   87.66290  151.26970  116.95240    8.25420
 8399.50000   82.25250  146.16200  117.57840    8.24780
 8400.00000   82.45330  143.62670  113.63760    8.24140
 8400.50000   81.86130  143.25470  109.80380    8.23500
 8401.00000   81.44070  143.79470  109.39690    8.22860
 8401.50000   81.28680  143.59480  113.73010    8.22230
 8402.00000   81.78200  144.71030  112.69690    8.21590
 8402.50000   82.64430  147.65160  109.79480    8.20950
 8403.00000   83.41990  150.29800  103.15260    8.20320
 8403.50000   83.50330  152.39070  102.85400    8.20060
 8404.00000   84.20980  153.04940  106.98600    8.20060
 8404.50000   85.15200  155.62670  111.96990    8.20060
 8405.00000   85.80060  157.08090  115.07890    8.22210
 8405.50000   85.98940  158.32490  107.89630    8.32950
 8406.00000   85.77000  158.06280  103.57320    8.43690
 8406.50000   85.50340  158.51590  101.53120    8.54440
 8407.00000   85.97510  160.22340  107.65060    8.56990
 8407.50000   87.12920  160.57370  106.04010    8.60170
 8408.00000   87.59930  160.67250  100.64700    8.62720
 8408.50000   87.92460  161.35900   93.76850    8.63990
 8409.00000   88.22720  160.15660   96.26900    8.63990
 8409.50000   88.40410  159.91380  104.07370    8.63990
 8410.00000   88.73600  157.71680  112.63940    8.63990
 8410.50000   87.91870  155.76880  114.73430    8.63990
 8411.00000   87.88790  153.85110  112.39820    8.32600
 8411.50000   87.93920  154.22030  115.85260    8.18130
 8412.00000   84.23410  150.32820  116.27000    8.13670
 8412.50000   83.96520  148.52650  118.39490    8.10490
 8413.00000   83.30160  148.32230  108.14140    8.10490
 8413.50000   83.65450  148.96820  102.31380    8.10490
 8414.00000   83.80310  149.59200   95.18690    8.10490
 8414.50000   83.80630  149.35400  103.43450    8.10490
 8415.00000   84.58650  150.03550  116.04160    8.11660
 8415.50000   84.59860  149.17060  124.35700    8.17540
 8416.00000   85.89590  142.18910  120.98430    8.23410
 8416.50000   88.00360  143.01030  118.45340    8.27670
 8417.00000   89.11810  141.49500  105.64300    8.29580
 8417.50000   89.88250  140.04820   88.06360    8.22710
 8418.00000   92.06650  138.58490   61.80370    8.11240
 8418.50000   84.27520  135.55390   49.45790    8.06650
 8419.00000   76.48390  135.64180   56.44580    8.05290
 8419.50000   76.49720  136.08870   79.24250    8.04740
 8420.00000   77.62120  137.25940  100.66390    8.04740
 8420.50000   80.53170  137.27360  111.22510    8.04740
 8421.00000   80.18040  137.28790  111.55120    8.06570
 8421.50000   81.35220  138.92940  114.36890    8.08400
 8422.00000   81.86740  142.15080  113.35950    8.10230
 8422.50000   81.90470  144.95490  109.91100    8.12060
 8423.00000   82.82830  146.35050  105.64250    8.13880
 8423.50000   83.65280  149.15550  104.18380    8.15710
 8424.00000   85.97840  150.83730  101.22610    8.17540
 8424.50000   86.51750  153.27330  104.96870    8.19370
 8425.00000   87.21200  155.00310  109.47260    8.21200
 8425.50000   87.07670  156.73290  119.33270    8.22770
 8426.00000   87.16090  158.46260  119.15660    8.24170
 8426.50000   87.25890  157.23990  115.75190    8.23830
 8427.00000   87.80900  157.99440  104.26500    8.23490
 8427.50000   88.89970  159.99680   93.34190    8.23850
 8428.00000   88.94450  161.27360   89.58590    8.24190
 8428.50000   89.16870  161.13950   98.02880    8.24550
 8429.00000   88.84790  161.22790  108.82130    8.24910
 8429.50000   89.23410  161.91570  118.05530    8.26630
 8430.00000   88.97090  161.96550  116.52750    8.28350
 8430.50000   90.02660  162.31960  116.97830    8.30060
 8431.00000   90.62150  164.35860  115.62140    8.31780
 8431.50000   90.87480  164.33360  114.05100    8.33500
 8432.00000   91.06740  162.60310  114.50000    8.33500
 8432.50000   90.91110  163.49090  115.91080    8.33500
 8433.00000   89.47640  159.81020  122.74780    8.28790
 8433.50000   88.32600  159.12230  122.07750    8.25400
 8434.00000   88.22900  158.22320  119.07750    8.22010
 8434.50000   87.66150  156.40070  113.05190    8.18610
 8435.00000   87.55070  154.39910  112.13500    8.17450
 8435.50000   87.37300  153.60020  110.18120    8.16300
 8436.00000   86.08910  152.82480  116.21540    8.16620
 8436.50000   85.86440  151.28810  114.77040    8.16930
 8437.00000   85.61160  151.38090  119.46820    8.17250
 8437.50000   84.74560  149.84780  118.58460    8.17570
 8438.00000   84.55110  149.85860  121.16090    8.17890
 8438.50000   84.46910  148.84510  119.81400    8.18200
 8439.00000   84.22500  149.81630  115.67640    8.18520
 8439.50000   84.46330  152.02050  111.34640    8.18840
 8440.00000   85.21070  152.13370  104.16870    8.19150
 8440.50000   85.92090  156.16620  105.94970    8.19470
 8441.00000   85.89220  157.66890  105.53110    8.19780
 8441.50000   85.96010  156.97410  110.42660    8.22440
 8442.00000   86.17700  155.27060  109.36630    8.25100
 8442.50000   86.30580  156.19550  115.87000    8.27750
 8443.00000   86.46680  158.11140  112.54580    8.27750
 8443.50000   86.22610  158.27960  104.44490    8.25880
 8444.00000   86.20020  156.80740   95.17140    8.24010
 8444.50000   85.82310  156.47410   92.04560    8.23800
 8445.00000   84.09600  150.67030   98.67740    8.23590
 8445.50000   84.07090  149.34130  103.16540    8.23380
 8446.00000   83.57030  150.08160  110.85150    8.23170
 8446.50000   83.27630  150.02870  112.60020    8.22960
 8447.00000   83.56500  149.92600  111.86520    8.22750
 8447.50000   85.03080  152.76510  115.42990    8.22540
 8448.00000   85.20880  154.77080  119.72340    8.22330
 8448.50000   86.45580  154.52650  123.84500    8.22120
 8449.00000   87.63270  157.51090  118.13980    8.21900
 8449.50000   89.01560  159.31810  112.14100    8.27490
 8450.00000   89.49370  160.33690  111.64850    8.33070
 8450.50000   89.69800  160.07160  113.57890    8.41710
 8451.00000   89.53890  160.18850  117.44680    8.48610
 8451.50000   89.36220  160.24160  115.52170    8.48610
 8452.00000   87.36240  157.64390  114.68090    8.44230
 8452.50000   87.09510  155.83180  109.12760    8.39840
 8453.00000   86.86380  154.67730  110.12990    8.35450
 8453.50000   85.94350  153.69400  112.96680    8.31050
 8454.00000   85.20790  152.19570  115.68020    8.26670
 8454.50000   84.49390  153.47380  116.29860    8.22280
 8455.00000   83.70390  151.98300  109.23900    8.17880
 8455.50000   84.46580  151.41460  108.05790    8.14220
 8456.00000   84.50740  152.64530  105.23640    8.14220
 8456.50000   84.24800  153.30020  109.30910    8.27890
 8457.00000   84.75830  152.09840  111.87010    8.50670
 8457.50000   85.17530  150.95780  110.16000    8.73450
 8458.00000   85.89260  155.91520  109.18280    8.69920
 8458.50000   86.08970  154.51930  102.39700    8.61800
 8459.00000   86.13640  156.79840  102.74540    8.53700
 8459.50000   85.93260  155.46300  106.08550    8.45590
