~Version ---------------------------------------------------
VERS.   2.0 : CWLS log ASCII Standard -VERSION 2.0
WRAP.    NO : One line per depth step
DLM . SPACE : Column Data Section Delimiter
~Well ------------------------------------------------------
STRT .F                5600.0 : START DEPTH
STOP .F                9451.5 : STOP DEPTH
STEP .F                   0.5 : STEP
NULL .               -9999.25 : NULL VALUE
COMP .                        : COMPANY
WELL .                        : WELL
FLD  .                        : FIELD
LOC  .                        : LOCATION
PROV .                        : PROVINCE
CNTY .                        : COUNTY
STAT .                        : STATE
CTRY .                        : COUNTRY
SRVC .                        : SERVICE COMPANY
DATE .                        : DATE
UWI  .                        : UNIQUE WELL ID
API  .                        : API NUMBER
SLAT .WGS84 2.523163199577695 : SURFACE LATITUDE
SLON .WGS84 6.197941761676006 : SURFACE LONGITUDE
DATUM.F                   nan : DEPTH DATUM ELEV
~Curve Information -----------------------------------------
DEPT    .F     : 
DTCO    .US/F  : DELTA-T COMPRESSIONAL
DTSM    .US/F  : DELTA-T SHEAR
ECGRS   .GAPI  : ENVIRONMENTALLY CORRECTED GAMMA RAY FROM SONIC LOG
HD1_PPC1.IN    : PPC1 HOLE DIAMETER 1
~Params ----------------------------------------------------
~Other -----------------------------------------------------
~ASCII -----------------------------------------------------
# ...
 7888.00000   55.50180   99.96930   39.19050    7.98370
 7888.50000   54.83860   98.94000   29.38450    7.98420
 7889.00000   54.44820   98.11900   25.40390    7.98480
 7889.50000   55.11750   97.93210   23.30430    7.98530
 7890.00000   57.37640   99.18650   22.17160    8.01880
 7890.50000   58.08430  100.12760   24.96730    8.02830
 7891.00000   59.79860  100.62630   29.43720    8.02960
 7891.50000   65.84190  107.26530   44.48150    8.03100
 7892.00000   67.55520  112.32440   64.79650    8.03250
 7892.50000   68.50060  113.37040   81.88010    8.03390
 7893.00000   71.72060  115.46400   93.47020    8.03530
 7893.50000   73.79070  119.72100  101.63830    8.03680
 7894.00000   74.23720  120.83950  116.29960    8.03350
 7894.50000   75.24880  123.83830  121.06030    8.02900
 7895.00000   75.90170  125.47570  123.13700    8.02460
 7895.50000   76.06950  126.21700  119.85930    8.02370
 7896.00000   75.38580  126.03060  115.70520    8.02640
 7896.50000   75.49140  126.12840  118.83310    8.02970
 7897.00000   74.41580  126.06670  121.70480    8.03300
 7897.50000   73.79500  123.95700  135.10470    8.03640
 7898.00000   73.75500  123.41900  133.25450    8.03700
 7898.50000   73.27830  122.55300  117.17130    8.03360
 7899.00000   72.37820  121.85000   97.10550    8.02940
 7899.50000   72.08270  119.48690   80.40320    8.02530
 7900.00000   70.86620  118.67210   82.97920    8.02110
 7900.50000   68.56510  116.73360   90.61930    8.01690
 7901.00000   66.48060  115.62400   92.17600    8.01730
 7901.50000   64.81010  115.26600   85.35520    8.01870
 7902.00000   65.25840  112.34450   72.53510    8.02020
 7902.50000   66.18700  113.79240   62.03500    8.02170
 7903.00000   67.44460  113.83920   53.94560    8.02320
 7903.50000   67.50340  112.65510   48.18590    8.02460
 7904.00000   66.53860  112.81560   61.71390    8.02610
 7904.50000   65.64020  112.79670   84.30520    8.02760
 7905.00000   65.33330  110.80990  104.22640    8.02910
 7905.50000   64.93810  110.62670  114.69770    8.03040
 7906.00000   65.15360  112.26910   98.87190    8.02280
 7906.50000   65.48080  110.69320   71.58260    8.01300
 7907.00000   65.60320  111.26590   41.21580    8.01060
 7907.50000   65.51850  110.71050   28.25000    8.01010
 7908.00000   66.09320  110.84650   42.11380    8.00960
 7908.50000   66.30770  112.31540   67.18450    8.00920
 7909.00000   70.68310  113.52780   88.78880    8.00870
 7909.50000   70.46210  115.87010   96.00600    8.00820
 7910.00000   70.68100  115.83420   92.05110    8.00880
 7910.50000   71.96450  116.64390   94.05450    8.00960
 7911.00000   70.67440  116.77810   92.79070    8.01040
 7911.50000   69.35420  115.80810   90.12560    8.01120
 7912.00000   65.35510  114.27310   83.80690    8.01200
 7912.50000   52.66200  111.92730   72.03520    8.01280
 7913.00000   52.53900  106.48520   60.52700    8.01360
 7913.50000   52.48890  105.00920   41.25320    8.01450
 7914.00000   55.94030  103.97500   30.56210    8.01530
 7914.50000   55.50960  100.22010   20.12060    8.01610
 7915.00000   55.78800  100.70270   17.69530    8.01700
 7915.50000   56.46660   98.78010   21.31580    8.01780
 7916.00000   58.28030   99.06830   32.95230    8.01860
 7916.50000   59.24520  101.43120   45.92590    8.01950
 7917.00000   59.70960  101.69960   53.41100    8.02030
 7917.50000   60.35340  103.26270   63.02440    8.02110
 7918.00000   61.41340  104.33850   65.29640    8.02190
 7918.50000   62.42180  106.33890   61.76610    8.02280
 7919.00000   63.36520  107.10100   45.02190    8.02360
 7919.50000   63.19720  108.35460   34.77870    8.02430
 7920.00000   63.25550  109.47600   34.58930    8.02940
 7920.50000   63.31180  109.51390   61.37500    8.03010
 7921.00000   63.90690  109.32310   85.46190    8.03090
 7921.50000   64.80800  110.32400   97.24830    8.03180
 7922.00000   66.09680  110.24070   79.59810    8.03260
 7922.50000   66.02990  110.80330   63.13070    8.03340
 7923.00000   66.30000  110.68550   61.04660    8.03430
 7923.50000   67.16950  111.92490   71.43310    8.03510
 7924.00000   67.07870  112.25800   72.71150    8.03590
 7924.50000   68.39630  112.38190   65.44810    8.03670
 7925.00000   69.49380  113.70310   56.42550    8.03760
 7925.50000   70.54870  113.82880   66.71960    8.03840
 7926.00000   71.29690  116.49300   79.68820    8.03920
 7926.50000   72.01650  118.01210   91.57390    8.04010
 7927.00000   72.67310  118.01800   95.69160    8.04090
 7927.50000   73.77750  119.31780   99.00430    8.04170
 7928.00000   75.69550  122.30720   92.02210    8.04250
 7928.50000   75.29630  122.08440   88.62970    8.04330
 7929.00000   74.84970  122.37490   93.77700    8.04410
 7929.50000   74.23160  122.32800  107.57320    8.04500
 7930.00000   70.96660  121.79020  119.08530    8.04580
 7930.50000   70.54640  122.15770  115.32390    8.04660
 7931.00000   70.60130  119.73900  100.18000    8.04750
 7931.50000   70.15800  119.96710   81.65070    8.04830
 7932.00000   70.30280  119.37740   64.70860    8.04910
 7932.50000   70.52790  119.54810   56.14430    8.04990
 7933.00000   71.97190  119.55590   53.79120    8.05080
 7933.50000   72.42680  119.30710   71.41730    8.05160
 7934.00000   72.67070  120.55270   88.81040    8.05240
 7934.50000   73.58570  121.79840   95.73710    8.05330
 7935.00000   73.78660  122.04920   96.39280    8.05410
 7935.50000   73.96980  121.43710   96.94770    8.05480
 7936.00000   73.96660  122.47340   98.16040    8.05570
 7936.50000   73.84210  122.36600   87.28440    8.05650
 7937.00000   73.26230  121.60540   76.79420    8.05730
 7937.50000   72.00730  120.76950   70.45850    8.05820
 7938.00000   71.96000  120.42050   74.72270    8.05900
 7938.50000   71.87960  119.97750   80.63480    8.05980
 7939.00000   69.65490  118.31980   88.33320    8.06060
 7939.50000   68.76350  118.06450   88.78730    8.06150
 7940.00000   68.73290  117.63640   82.28250    8.06230
 7940.50000   68.56060  116.79360   74.30890    8.06310
 7941.00000   69.42300  116.99070   64.15910    8.06400
 7941.50000   69.89640  118.82730   61.59690    8.06480
 7942.00000   70.57060  119.22520   63.06070    8.06560
 7942.50000   71.88080  120.43190   75.43820    8.06650
 7943.00000   72.14560  121.65830   92.62580    8.06730
 7943.50000   73.09100  122.07460  109.83480    8.06800
 7944.00000   74.10500  124.51220  122.68130    8.06890
 7944.50000   74.86720  126.01950  118.76260    8.06970
 7945.00000   75.65010  125.98930  108.50220    8.07050
 7945.50000   74.67720  125.95900  101.55900    8.07130
 7946.00000   74.11820  126.26590   99.44310    8.07220
 7946.50000   73.97480  126.53400   99.51110    8.07300
 7947.00000   70.87890  124.33450   94.65640    8.07380
 7947.50000   70.27250  124.48770   92.60350    8.07470
 7948.00000   70.41780  124.07160   95.62060    8.07550
 7948.50000   70.23310  124.18410   95.38820    8.07630
 7949.00000   70.10260  124.20780   95.97820    8.07720
 7949.50000   70.70190  123.48200   87.61840    8.07800
 7950.00000   71.30050  124.64700   84.72420    8.07880
 7950.50000   72.00160  125.48130   85.66730    8.07900
 7951.00000   74.60910  127.68610   92.63250    8.07890
 7951.50000   74.94650  128.96010   94.93010    8.07890
 7952.00000   78.45520  130.82420   99.85850    8.09110
 7952.50000   78.16080  132.59850  101.93370    8.07350
 7953.00000   77.64610  134.18200  107.54630    8.06190
 7953.50000   77.38390  134.43230  111.36230    8.05490
 7954.00000   76.55460  132.10320  113.25910    8.04790
 7954.50000   75.93440  132.63910  108.49860    8.04080
 7955.00000   75.43220  128.94090   93.33930    8.03380
 7955.50000   73.40540  129.19170   80.46400    8.02680
 7956.00000   72.97530  126.32500   78.82770    8.01970
 7956.50000   72.43500  122.24780   87.93430    8.01260
 7957.00000   71.75710  122.88760   94.69210    8.01120
 7957.50000   71.07460  119.15100   88.48530    8.01120
 7958.00000   70.00350  120.82370   78.17710    8.01120
 7958.50000   69.71690  120.08860   82.86110    8.01120
 7959.00000   70.00740  119.24180   92.30550    8.01120
