~Version ---------------------------------------------------
VERS.   2.0 : CWLS log ASCII Standard -VERSION 2.0
WRAP.    NO : One line per depth step
DLM . SPACE : Column Data Section Delimiter
~Well ------------------------------------------------------
STRT .F                5600.0 : START DEPTH
STOP .F                9451.5 : STOP DEPTH
STEP .F                   0.5 : STEP
NULL .               -9999.25 : NULL VALUE
COMP .                        : COMPANY
WELL .                        : WELL
FLD  .                        : FIELD
LOC  .                        : LOCATION
PROV .                        : PROVINCE
CNTY .                        : COUNTY
STAT .                        : STATE
CTRY .                        : COUNTRY
SRVC .                        : SERVICE COMPANY
DATE .                        : DATE
UWI  .                        : UNIQUE WELL ID
API  .                        : API NUMBER
SLAT .WGS84 2.523163199577695 : SURFACE LATITUDE
SLON .WGS84 6.197941761676006 : SURFACE LONGITUDE
DATUM.F                   nan : DEPTH DATUM ELEV
~Curve Information -----------------------------------------
DEPT    .F     : 
DTCO    .US/F  : DELTA-T COMPRESSIONAL
DTSM    .US/F  : DELTA-T SHEAR
ECGRS   .GAPI  : ENVIRONMENTALLY CORRECTED GAMMA RAY FROM SONIC LOG
HD1_PPC1.IN    : PPC1 HOLE DIAMETER 1
~Params ----------------------------------------------------
~Other -----------------------------------------------------
~ASCII -----------------------------------------------------
 5600.00000   -9999.25   -9999.25   -9999.25    8.69330
 5600.50000   54.08160  102.92790   24.20270    8.55970
 5601.00000   53.86830  102.76490   21.70510    8.53240
 5601.50000   53.80310  103.25980   21.11100    8.51330
 5602.00000   54.07190  104.60340   21.25740    8.48010
 5602.50000   54.30350  105.24630   24.19500    8.46420
 5603.00000   54.42740  104.63330   23.58170    8.43690
 5603.50000   54.27860  106.08620   24.00290    8.40680
 5604.00000   54.20360  106.26730   24.85430    8.41050
 5604.50000   54.12710  106.31410   26.04090    8.41410
 5605.00000   54.21800  110.16800   25.65210    8.41780
 5605.50000   54.17450  109.12780   21.54150    8.42150
 5606.00000   53.97770  107.53310   19.94220    8.42520
 5606.50000   53.69270  108.15810   21.06350    8.42890
 5607.00000   53.83600  107.93380   22.55830    8.43260
 5607.50000   53.51720  107.52950   22.75360    8.43630
 5608.00000   53.73350  107.59090   21.02100    8.44000
 5608.50000   53.78640  107.50450   19.64560    8.44370
 5609.00000   54.02720  106.96070   21.56470    8.44740
 5609.50000   53.91950  106.35660   22.88990    8.44700
 5610.00000   54.04960  103.59790   23.75730    8.40990
 5610.50000   54.10700  103.30350   21.13980    8.39190
 5611.00000   53.98500  103.12330   20.37420    8.38100
 5611.50000   54.23650  107.36250   19.62570    8.37010
 5612.00000   54.52930  107.10560   21.12270    8.35910
 5612.50000   54.21350  106.49400   21.22510    8.35660
 5613.00000   54.18300  106.59140   22.07430    8.35650
 5613.50000   54.31000  107.09480   23.20970    8.35990
 5614.00000   54.25080  107.50280   24.07940    8.36420
 5614.50000   54.27230  107.85470   23.29890    8.36850
 5615.00000   54.56530  109.18220   21.85480    8.37280
 5615.50000   54.42620  108.62010   23.46580    8.38380
 5616.00000   54.56040  108.23090   25.47790    8.39650
 5616.50000   54.97090  105.55620   25.78350    8.40910
 5617.00000   54.69200  104.58960   24.52720    8.41320
 5617.50000   54.65320  102.57990   22.73670    8.41060
 5618.00000   54.47870  102.23020   23.60420    8.40680
 5618.50000   54.47750  101.25750   24.86020    8.40300
 5619.00000   54.36220   99.26670   27.13720    8.38570
 5619.50000   54.41820   97.44650   26.20130    8.36500
 5620.00000   54.43160   94.88890   24.63810    8.36280
 5620.50000   54.44680   91.74970   23.70300    8.36530
 5621.00000   54.56920   89.13030   25.37160    8.36780
 5621.50000   54.47810   87.90580   25.28720    8.37030
 5622.00000   54.75630   85.46540   24.49320    8.37280
 5622.50000   54.76320   86.59290   24.33750    8.37530
 5623.00000   55.40920   86.98900   22.70620    8.37780
 5623.50000   55.36900   88.46110   24.38480    8.38020
 5624.00000   55.16700   94.39850   25.09170    8.38270
 5624.50000   54.97110   96.66960   28.53910    8.38520
 5625.00000   55.13240   95.78120   29.22420    8.38770
 5625.50000   55.43570  103.46550   25.66210    8.39020
 5626.00000   55.58500  103.80730   20.85500    8.40310
 5626.50000   55.61550  106.29170   18.06600    8.41850
 5627.00000   56.07480  106.17420   22.48320    8.43400
 5627.50000   56.24910  106.55050   30.21790    8.44940
 5628.00000   57.51660  106.33600   32.11780    8.46490
 5628.50000   58.00370  106.34290   26.17070    8.48030
 5629.00000   58.48250  107.26920   17.04270    8.49580
 5629.50000   59.34470  106.86840   10.70070    8.50200
 5630.00000   59.32220  107.52250    9.34140    8.50200
 5630.50000   59.88210  108.05170    8.98530    8.50190
 5631.00000   60.20510  107.81130   10.99380    8.47640
 5631.50000   60.42240  108.60040   10.81890    8.45090
 5632.00000   60.67300  108.80610   12.55210    8.42540
 5632.50000   60.95960  108.76000   11.17510    8.40000
 5633.00000   61.47600  109.30860   11.31610    8.37450
 5633.50000   61.62840  109.53170   11.99940    8.34900
 5634.00000   61.87830  109.43920   13.35890    8.32360
 5634.50000   62.36230  110.11550   14.85420    8.29810
 5635.00000   62.50130  110.23700   13.52620    8.27270
 5635.50000   62.81860  111.09610   12.58290    8.24720
 5636.00000   62.81730  111.59100   10.23810    8.22170
 5636.50000   63.02250  112.09680    8.41980    8.19630
 5637.00000   63.29690  111.87580    7.10500    8.21090
 5637.50000   63.29520  112.77060    7.42770    8.28440
 5638.00000   63.18010  112.49560    8.66780    8.35780
 5638.50000   63.09760  113.40700    8.29220    8.43130
 5639.00000   63.17650  112.72720    9.10420    8.50470
 5639.50000   62.91490  112.62950    9.12160    8.57820
 5640.00000   62.79210  111.81920   10.08960    8.57820
 5640.50000   62.61970  112.19320    9.02220    8.57820
 5641.00000   62.67590  111.56730    7.71360    8.52510
 5641.50000   62.61640  111.70360    7.22810    8.47210
 5642.00000   62.48370  111.52240    7.26310    8.41900
 5642.50000   62.37130  111.45360    7.36510    8.36600
 5643.00000   61.98210  111.27060    7.47750    8.31280
 5643.50000   61.27200  110.55760    7.32010    8.29160
 5644.00000   60.33450  109.89830    7.36460    8.29160
 5644.50000   59.80080  108.54410    8.83270    8.30350
 5645.00000   59.52730  107.80660   11.77550    8.32340
 5645.50000   59.85110  108.53900   14.29740    8.34330
 5646.00000   61.33610  109.37700   16.82070    8.36320
 5646.50000   63.18910  112.78220   23.91370    8.38110
 5647.00000   67.26320  116.20350   35.87800    8.38460
 5647.50000   67.26320  122.78540   59.83220    8.40580
 5648.00000   86.96770  124.78320   87.84410    8.43230
 5648.50000   85.16400  131.99410  114.11690    8.43800
 5649.00000   82.64570  135.10160  123.39010    8.43870
 5649.50000   83.11690  137.64780  121.67720    8.43930
 5650.00000   84.26370  138.92840  118.82660    8.43990
 5650.50000   84.87310  139.51690  122.82040    8.44050
 5651.00000   84.96160  139.12860  126.28940    8.44110
 5651.50000   84.60390  138.06050  126.23110    8.44170
 5652.00000   83.56440  137.90530  122.55910    8.45180
 5652.50000   83.38510  137.17340  119.01180    8.46420
 5653.00000   83.15510  137.94700  115.15220    8.47670
 5653.50000   82.74750  138.69100  115.95280    8.48910
 5654.00000   82.30270  139.34880  116.36140    8.50160
 5654.50000   81.84630  139.18510  122.03660    8.51400
 5655.00000   81.71210  138.54960  124.58870    8.52650
 5655.50000   81.74450  139.13770  126.03680    8.53890
 5656.00000   81.63080  139.96100  119.13490    8.55140
 5656.50000   81.68900  141.53220  113.23560    8.56380
 5657.00000   81.65410  141.75540  108.79420    8.57630
 5657.50000   81.76970  141.62150  112.13730    8.58870
 5658.00000   82.03570  140.98800  112.15860    8.60120
 5658.50000   82.31650  139.98690  115.33470    8.61350
 5659.00000   82.94490  140.05520  115.87870    8.62600
 5659.50000   84.36060  141.53000  120.15340    8.63840
 5660.00000   84.71530  142.10350  127.95520    8.65090
 5660.50000   84.49850  140.32310  133.02130    8.66330
 5661.00000   84.22270  140.65910  135.64800    8.67330
 5661.50000   83.69290  137.93440  127.10290    8.65420
 5662.00000   83.04230  138.48330  123.43080    8.62490
 5662.50000   81.75580  136.95590  113.03380    8.59550
 5663.00000   80.83430  135.63580  106.79500    8.56620
 5663.50000   79.72110  134.48920   97.09640    8.53690
 5664.00000   78.66720  134.19920   91.66000    8.50750
 5664.50000   76.89220  131.64090   95.02090    8.47820
 5665.00000   75.57960  130.58920   93.74160    8.44890
 5665.50000   73.85540  128.39090   93.11830    8.41950
 5666.00000   72.81550  128.10840   82.34700    8.39020
 5666.50000   71.53430  126.01800   78.24530    8.38220
 5667.00000   71.21990  124.72080   73.64980    8.37960
 5667.50000   71.05590  123.83930   70.28110    8.37700
 5668.00000   71.26800  123.74210   67.38850    8.37440
 5668.50000   71.99980  124.80720   72.36240    8.37180
 5669.00000   72.47090  125.74100   82.81540    8.37730
 5669.50000   73.77920  127.47190   94.18980    8.38490
 5670.00000   74.75690  128.52510   99.22220    8.39240
 5670.50000   76.30940  131.65300   98.70560    8.39990
 5671.00000   76.87550  131.70710   98.94970    8.40740
