~Version ---------------------------------------------------
VERS.   2.0 : CWLS log ASCII Standard -VERSION 2.0
WRAP.    NO : One line per depth step
DLM . SPACE : Column Data Section Delimiter
~Well ------------------------------------------------------
STRT .F                5600.0 : START DEPTH
STOP .F                9451.5 : STOP DEPTH
STEP .F                   0.5 : STEP
NULL .               -9999.25 : NULL VALUE
COMP .                        : COMPANY
WELL .                        : WELL
FLD  .                        : FIELD
LOC  .                        : LOCATION
PROV .                        : PROVINCE
CNTY .                        : COUNTY
STAT .                        : STATE
CTRY .                        : COUNTRY
SRVC .                        : SERVICE COMPANY
DATE .                        : DATE
UWI  .                        : UNIQUE WELL ID
API  .                        : API NUMBER
SLAT .WGS84 2.523163199577695 : SURFACE LATITUDE
SLON .WGS84 6.197941761676006 : SURFACE LONGITUDE
DATUM.F                   nan : DEPTH DATUM ELEV
~Curve Information -----------------------------------------
DEPT    .F     : 
DTCO    .US/F  : DELTA-T COMPRESSIONAL
DTSM    .US/F  : DELTA-T SHEAR
ECGRS   .GAPI  : ENVIRONMENTALLY CORRECTED GAMMA RAY FROM SONIC LOG
HD1_PPC1.IN    : PPC1 HOLE DIAMETER 1
~Params ----------------------------------------------------
~Other -----------------------------------------------------
~ASCII -----------------------------------------------------
# ...
 8889.00000   85.44080  151.40100  107.19170    8.19130
 8889.50000   83.93300  148.21550   98.26550    8.19910
 8890.00000   83.31420  148.22810   92.06330    8.20680
 8890.50000   83.13850  147.86850   92.22830    8.21460
 8891.00000   83.18150  147.68690   93.29580    8.22250
 8891.50000   84.99190  150.22480   96.25930    8.22780
 8892.00000   85.33130  151.37630   98.31700    8.22930
 8892.50000   85.31060  151.48830   99.84050    8.23080
 8893.00000   86.19480  152.59870  103.43820    8.24260
 8893.50000   87.31650  153.43720  105.74280    8.26970
 8894.00000   87.08150  153.56480  104.65900    8.28770
 8894.50000   87.14610  154.01030  103.37590    8.29190
 8895.00000   86.90920  153.72750   95.60640    8.28790
 8895.50000   86.97330  153.12560   94.08860    8.27140
 8896.00000   86.78340  153.18500   92.93050    8.25500
 8896.50000   86.58200  152.54680   98.31160    8.23860
 8897.00000   86.45890  152.64770   97.79870    8.22870
 8897.50000   86.15620  152.22900  101.27420    8.22870
 8898.00000   86.58720  151.87380  100.28870    8.22870
 8898.50000   86.71720  153.05200  103.60550    8.22960
 8899.00000   86.96620  152.11780   99.78730    8.23180
 8899.50000   87.11370  154.49960  105.05200    8.23400
 8900.00000   87.78310  154.54340  105.26130    8.23610
 8900.50000   88.07700  155.28690  105.32330    8.23830
 8901.00000   88.13320  153.85980  107.04590    8.24050
 8901.50000   88.21610  153.92850  106.53850    8.24270
 8902.00000   88.68040  155.92850  108.42580    8.24490
 8902.50000   88.28470  154.13930  103.80990    8.24710
 8903.00000   88.36730  153.99370  102.39240    8.24930
 8903.50000   88.23910  153.88230  104.96180    8.25150
 8904.00000   87.97910  153.17890  108.03450    8.25370
 8904.50000   87.97200  152.99210  105.45840    8.25580
 8905.00000   87.98010  152.76930  104.81730    8.24740
 8905.50000   88.22000  153.28350  101.23730    8.22330
 8906.00000   88.31880  153.20810  104.18100    8.19910
 8906.50000   87.54600  152.22420  102.66970    8.17480
 8907.00000   86.35660  152.14990  104.30970    8.15060
 8907.50000   86.04330  150.30470  104.09230    8.12640
 8908.00000   85.54390  152.12510  102.39630    8.11140
 8908.50000   84.95490  151.06310  103.96800    8.10980
 8909.00000   84.95090  151.79030   99.26520    8.09830
 8909.50000   84.97760  151.10410   93.83550    8.07160
 8910.00000   84.85570  151.44400   88.62590    8.05420
 8910.50000   85.05450  153.06010   93.87260    8.05090
 8911.00000   85.69040  152.87620  101.26540    8.04990
 8911.50000   85.77590  153.51640  107.28650    8.05230
 8912.00000   85.93300  153.75230  110.44820    8.05470
 8912.50000   87.57710  155.18960  117.63420    8.06730
 8913.00000   87.63460  155.28330  120.70970    8.08810
 8913.50000   87.62690  154.44030  121.48310    8.09800
 8914.00000   87.60190  155.02060  117.53960    8.10790
 8914.50000   87.90510  154.96390  112.70350    8.11380
 8915.00000   88.24470  154.75240  114.71120    8.11380
 8915.50000   88.34440  155.58560  115.85970    8.11060
 8916.00000   88.65230  157.29820  116.57310    8.10280
 8916.50000   89.19980  157.79530  116.55490    8.09500
 8917.00000   89.45680  158.84770  115.97180    8.08720
 8917.50000   88.94920  158.14650  121.70690    8.07940
 8918.00000   87.77720  156.48090  122.94020    8.07160
 8918.50000   87.21680  156.60990  117.61810    8.06370
 8919.00000   84.71340  150.24470  109.76290    8.05590
 8919.50000   82.43480  148.93110   99.67150    8.04810
 8920.00000   71.40360  142.67880   92.87770    8.04030
 8920.50000   71.83330  139.03770   81.20520    8.03250
 8921.00000   75.92700  138.61320   73.30500    8.02690
 8921.50000   76.83490  138.91220   69.13760    8.02450
 8922.00000   77.87950  139.59440   65.35650    8.03160
 8922.50000   80.16160  141.87790   67.38750    8.04480
 8923.00000   81.55550  144.48470   79.68810    8.04600
 8923.50000   91.74880  148.40960  102.20410    8.05960
 8924.00000   92.72080  153.25940  121.31650    8.09160
 8924.50000   89.91910  156.32250  128.15030    8.11140
 8925.00000   89.81500  162.16410  125.23190    8.11280
 8925.50000   90.27630  162.67890  118.90950    8.12010
 8926.00000   89.99220  162.81930  117.95830    8.13650
 8926.50000   89.62740  162.10050  124.81630    8.15300
 8927.00000   88.58710  161.05000  127.87100    8.16950
 8927.50000   88.21870  158.46770  125.79260    8.18580
 8928.00000   87.68320  158.05080  116.67580    8.19820
 8928.50000   86.69360  157.75330  112.83650    8.20450
 8929.00000   86.29510  155.56740  108.02400    8.21070
 8929.50000   86.27910  156.23280  106.38370    8.21700
 8930.00000   86.34910  156.12220  104.46470    8.22330
 8930.50000   88.33170  158.73030  104.51910    8.22940
 8931.00000   88.59890  159.04860  103.31840    8.23570
 8931.50000   88.39490  159.16760  105.39920    8.24190
 8932.00000   89.74780  162.64670  107.51180    8.24820
 8932.50000   92.33980  164.41720  115.68290    8.25450
 8933.00000   92.96370  165.07690  125.09890    8.26070
 8933.50000   93.75710  163.38030  132.94770    8.26690
 8934.00000   96.37550  166.55910  133.31500    8.26260
 8934.50000   97.09060  167.16700  130.29620    8.24250
 8935.00000   97.59980  166.94540  135.07800    8.22950
 8935.50000   97.82430  167.53590  142.08930    8.22720
 8936.00000   97.94500  166.24540  148.71090    8.21670
 8936.50000   97.40630  165.06310  147.03050    8.19390
 8937.00000   97.12050  164.85020  146.69560    8.17100
 8937.50000   96.13830  163.12010  144.24030    8.14810
 8938.00000   94.80190  161.33870  137.83850    8.12520
 8938.50000   91.99900  159.17980  128.07000    8.11460
 8939.00000   91.35420  157.02090  115.49950    8.11210
 8939.50000   88.51120  153.50940  113.00680    8.10960
 8940.00000   86.67440  149.57250  102.62710    8.09460
 8940.50000   86.53910  150.14060  101.40340    8.07130
 8941.00000   86.27970  149.52060   92.68970    8.04790
 8941.50000   86.43510  148.82620   99.49160    8.02790
 8942.00000   86.51930  149.33670   97.43870    8.02580
 8942.50000   86.76040  149.43460  103.35240    8.03410
 8943.00000   86.88760  149.57390  102.94000    8.04220
 8943.50000   87.17340  150.82380  107.67170    8.05050
 8944.00000   87.29410  150.47710  102.10840    8.05880
 8944.50000   87.39580  150.13120   98.98160    8.06710
 8945.00000   87.35470  150.89160   94.02080    8.07540
 8945.50000   87.26640  150.41780   97.61260    8.08370
 8946.00000   87.10040  151.18100   92.42230    8.09190
 8946.50000   86.61010  150.49560   92.97290    8.10020
 8947.00000   86.47130  150.36530   92.65880    8.10840
 8947.50000   86.49980  150.60720   96.08830    8.11090
 8948.00000   86.37700  150.73060   96.69880    8.10940
 8948.50000   86.41180  150.21690   95.32920    8.09980
 8949.00000   86.36090  150.19670   99.38420    8.08470
 8949.50000   86.25860  150.86310  101.01640    8.06960
 8950.00000   86.20920  150.34070  103.51250    8.05440
 8950.50000   85.61410  149.98660  104.20380    8.04770
 8951.00000   85.57140  149.98550  105.47150    8.04960
 8951.50000   85.47050  147.93630  106.58270    8.05370
 8952.00000   85.45110  148.06040  107.83500    8.07090
 8952.50000   85.80130  149.37100  103.42570    8.09670
 8953.00000   86.19270  150.29360  102.11010    8.10810
 8953.50000   86.55320  150.31800   99.74990    8.10780
 8954.00000   86.99020  151.19680  104.18210    8.09210
 8954.50000   87.43640  151.72480  105.77110    8.06710
 8955.00000   88.03270  153.00380  108.57310    8.05710
 8955.50000   88.68650  154.51080  112.20680    8.07080
 8956.00000   89.18590  155.73080  114.58410    8.09370
 8956.50000   90.41430  158.50590  110.85860    8.09160
 8957.00000   90.64520  160.15070  110.48050    8.08190
 8957.50000   91.29120  160.87910  114.62200    8.07820
 8958.00000   92.57500  163.16150  123.61820    8.07440
 8958.50000   93.35910  165.69560  125.38110    8.07060
 8959.00000   94.04490  166.26700  126.72570    8.06680
 8959.50000   94.77420  166.44340  124.62950    8.06300
 8960.00000   95.84970  167.23460  127.60490    8.05930
