~Version ---------------------------------------------------
VERS.   2.0 : CWLS log ASCII Standard -VERSION 2.0
WRAP.    NO : One line per depth step
DLM . SPACE : Column Data Section Delimiter
~Well ------------------------------------------------------
STRT .F                  163.0 : START DEPTH
STOP .F                 3833.0 : STOP DEPTH
STEP .F                    0.5 : STEP
NULL .                -9999.25 : NULL VALUE
COMP .                         : COMPANY
WELL .                         : WELL
FLD  .                         : FIELD
LOC  .                         : LOCATION
PROV .                         : PROVINCE
CNTY .                         : COUNTY
STAT .                         : STATE
CTRY .                         : COUNTRY
SRVC .                         : SERVICE COMPANY
DATE .                         : DATE
UWI  .                         : UNIQUE WELL ID
API  .                         : API NUMBER
SLAT .WGS84 2.7612299791547983 : SURFACE LATITUDE
SLON .WGS84   8.83024560873001 : SURFACE LONGITUDE
DATUM.F                3219.63 : DEPTH DATUM ELEV
~Curve Information -----------------------------------------
DEPT.F     : 
RHOB.G/C3  : BULK DENSITY
GRD .GAPI  : GAMMA RAY
NPHI.DEC   : NEUTRON POROSITY LIMESTONE
PEF .B/E   : PHOTOELECTRIC FACTOR
DPHI.DEC   : DENSITY POROSITY LIMESTONE
DRHO.G/C3  : DENSITY CORRECTION
AT10.OHMM  : 10-IN. RESISTIVITY, 2-FT RESOLUTION
AT30.OHMM  : 30-IN. RESISTIVITY, 2-FT RESOLUTION
AT90.OHMM  : 90-IN. RESISTIVITY, 2-FT RESOLUTION
CALR.IN    : CALIPER FROM RESISTIVITY
SPR .MV    : SPONTANEOUS POTENTIAL FROM RES.
DT  .US/F  : INTERVAL TRANSIT TIME
DTL .US/F  : DELTA-T LONG SPACING
DTCO.US/F  : COMPRESSIONAL-WAVE INTERVAL TRANSIT TIME ACOUSTIC SLOWNESS
DTSM.US/F  : SHEAR-WAVE INTERVAL TRANSIT TIME DELTA-T
~Params ----------------------------------------------------
~Other -----------------------------------------------------
~ASCII -----------------------------------------------------
# ...
 2877.00000    2.32100   62.88520    0.23540    2.29740    0.22840   -0.00420    2.72100    1.65100    1.56430    8.03760    2.61390   84.54620   82.52190   82.94540  156.09660
 2877.50000    2.31580   62.56570    0.23790    2.31590    0.23280   -0.00470    2.99010    1.67520    1.57700    8.04000    1.60110   84.35430   82.85600   83.22650  155.80880
 2878.00000    2.30860   62.14560    0.23990    2.31490    0.23440   -0.00430    3.58720    1.76190    1.60550    8.03250   -0.32060   83.98040   83.11740   83.69010  155.75940
 2878.50000    2.30860   61.91330    0.24060    2.27940    0.23440   -0.00230    4.28670    1.86970    1.61940    8.00610   -1.75090   83.60660   82.30080   84.05290  155.66700
 2879.00000    2.31990   61.69310    0.23780    2.24390    0.23300   -0.00040    5.01080    2.01290    1.63970    7.97970   -2.51290   81.95950   80.72730   84.05260  155.12210
 2879.50000    2.33860   62.21330    0.23190    2.21640    0.22130   -0.00040    5.91440    2.18310    1.75830    7.95330   -2.75540   80.17950   79.15380   83.54770  152.85770
 2880.00000    2.36370   63.35770    0.21210    2.28040    0.19880   -0.00040    7.30270    2.36770    1.90110    7.92680   -2.82420   78.45310   77.58030   82.48860  148.51350
 2880.50000    2.39750   64.54570    0.19270    2.37400    0.18330   -0.00040    8.14210    2.56780    2.05560    7.90040   -2.81460   77.06310   76.00690   81.08730  145.22520
 2881.00000    2.44460   65.48800    0.17310    2.49890    0.15570    0.00100    8.75270    2.76800    2.13780    7.85250   -3.27300   75.77530   74.43340   78.41520  141.28510
 2881.50000    2.45970   66.29460    0.15950    2.53380    0.14640    0.00340    9.12390    2.90490    2.19520    7.82510   -4.57550   75.29970   73.50640   76.53450  138.34280
 2882.00000    2.45050   67.60750    0.17660    2.49700    0.15130    0.00540    9.97680    3.00790    2.34830    7.81650   -5.77350   75.31480   73.54840   75.69980  136.45920
 2882.50000    2.42970   69.21440    0.19820    2.36140    0.16900    0.00720    9.80700    2.93960    2.38710    7.80170   -5.41410   75.78080   74.29850   75.14440  136.93230
 2883.00000    2.40350   71.01610    0.21010    2.31760    0.17860    0.00740    8.52970    2.80460    2.27120    7.80170   -5.05480   76.72900   75.42270   75.79060  138.35330
 2883.50000    2.40450   70.64970    0.21220    2.37140    0.17840    0.00730    7.41870    2.67580    2.15910    7.82360   -4.76090   77.56250   76.09800   76.32940  139.47950
 2884.00000    2.40720   68.22880    0.20910    2.44520    0.17790    0.00590    6.83750    2.59090    2.10830    7.81850   -3.90680   77.66770   76.33720   76.51540  139.25380
 2884.50000    2.40950   66.06930    0.19850    2.51890    0.17660    0.00410    7.16000    2.57290    2.18230    7.81210   -2.64150   77.70520   76.52110   76.68890  139.21830
 2885.00000    2.41170   66.25300    0.19340    2.54840    0.17530    0.00360    7.66150    2.69880    2.19740    7.80280   -1.28570   77.74880   76.63530   76.83000  140.14130
 2885.50000    2.41210   67.95460    0.19380    2.52010    0.17500    0.00540    8.12880    2.68070    2.12030    7.79860   -1.14730   77.79250   76.75520   76.87850  141.06430
 2886.00000    2.40810   69.66380    0.20130    2.44470    0.17880    0.00680    8.49530    2.59750    2.04440    7.79990   -2.59970   77.84940   77.30010   76.93130  141.62710
 2886.50000    2.39620   69.88770    0.21710    2.40140    0.18840    0.00680    8.63520    2.51510    1.97010    7.80010   -4.46330   78.31540   77.85830   77.29520  142.18990
 2887.00000    2.38350   70.00380    0.22320    2.41260    0.19430    0.00630    8.52330    2.43530    1.89770    7.81510   -6.32690   78.84880   78.41640   78.04530  143.00680
 2887.50000    2.37600   70.17120    0.22650    2.43110    0.19750    0.00460    8.38160    2.37190    1.82790    7.83130   -7.24860   79.38220   78.97460   78.70440  144.74580
 2888.00000    2.36960   70.46640    0.22850    2.43680    0.20160    0.00060    8.57670    2.33250    1.78280    7.83840   -7.18590   79.91560   79.53270   79.35640  145.88350
 2888.50000    2.35960   71.20680    0.23140    2.43010    0.20880   -0.00390    8.80200    2.29380    1.76120    7.84350   -6.66310   80.46990   79.94490   80.00170  146.66990
 2889.00000    2.34870   72.13490    0.23470    2.38550    0.21290   -0.00660    9.02990    2.25580    1.73580    7.84910   -6.67180   80.75600   80.10180   80.82030  147.36550
 2889.50000    2.34350   72.86560    0.23700    2.37380    0.21530   -0.00860    8.94980    2.24320    1.71520    7.85470   -6.80760   80.95240   80.25870   81.55610  147.68290
 2890.00000    2.34150   72.74920    0.23690    2.36220    0.21630   -0.00850    8.98460    2.26110    1.71840    7.86020   -6.86870   81.07170   80.35190   81.66530  147.68400
 2890.50000    2.34000   71.49490    0.23280    2.36000    0.21660   -0.00860    9.35440    2.31990    1.74250    7.86580   -6.86870   81.08440   80.37550   81.70740  147.68720
 2891.00000    2.33920   70.01770    0.23050    2.36030    0.21710   -0.00850    9.73950    2.37670    1.78050    7.87140   -6.86870   80.98530   80.39900   81.75220  147.77890
 2891.50000    2.33960   68.05300    0.23030    2.37010    0.21690   -0.00810    9.97560    2.43500    1.81970    7.87690   -6.86870   80.86420   80.42260   81.90300  148.02910
 2892.00000    2.34380   67.57650    0.23010    2.38000    0.21550   -0.00770    9.46560    2.43220    1.81810    7.87820   -6.48720   80.72350   80.42300   81.80080  148.15300
 2892.50000    2.34870   67.82880    0.22940    2.42900    0.20930   -0.00730    8.66940    2.37360    1.79260    7.87820   -5.16700   80.60800   80.31060   81.02930  148.24130
 2893.00000    2.35390   70.07750    0.22540    2.42670    0.20710   -0.00690    7.94450    2.28700    1.76580    7.87820   -3.83540   80.49240   80.15660   80.22150  147.97670
 2893.50000    2.35920   72.13800    0.22230    2.38100    0.20490   -0.00640    7.29310    2.20350    1.73940    7.87820   -3.71600   80.37680   79.97290   80.57320  147.50330
 2894.00000    2.36480   71.78970    0.22000    2.34620    0.20000   -0.00560    6.78440    2.17730    1.71680    7.88070   -3.57840   80.22790   79.78920   80.72220  146.94220
 2894.50000    2.36710   69.83820    0.22000    2.31550    0.19880   -0.00490    7.08980    2.21370    1.72630    7.88750   -4.14340   80.06000   79.60550   79.18520  146.35170
 2895.00000    2.36750   68.37720    0.22090    2.29260    0.20050   -0.00390    7.81420    2.30520    1.78880    7.89440   -5.00180   79.89210   79.42190   78.94920  145.63550
 2895.50000    2.36330   68.97040    0.22230    2.26970    0.20360   -0.00280    8.46540    2.38800    1.85420    7.90440   -5.86020   79.72430   79.23820   80.01960  145.47900
 2896.00000    2.35770   69.91230    0.22650    2.24670    0.20640   -0.00170    8.91690    2.38800    1.84110    7.91450   -6.71860   79.53390   79.05450   80.78560  145.63320
 2896.50000    2.35720   69.94210    0.22850    2.23400    0.20600   -0.00060    8.83150    2.35910    1.81440    7.92450   -7.56850   79.33560   78.87080   80.18360  145.79420
 2897.00000    2.36190   69.43940    0.22500    2.23180    0.20270   -0.00040    8.51840    2.32590    1.78810    7.93450   -7.95960   79.14170   78.70860   79.16680  145.07750
 2897.50000    2.36790   68.48270    0.22140    2.25140    0.19950   -0.00040    8.22020    2.32010    1.77220    7.94460   -8.26340   79.11070   78.67010   78.33200  144.34660
 2898.00000    2.37220   67.25900    0.22070    2.30800    0.19980   -0.00040    8.25260    2.35990    1.79410    7.95460   -8.60370   79.56240   78.95580   78.25990  144.75400
 2898.50000    2.36400   65.00190    0.22110    2.39680    0.20520   -0.00040    8.65650    2.40330    1.82120    7.96460   -8.74790   80.06580   79.28320   78.25030  145.84800
 2899.00000    2.35490   62.56240    0.22370    2.43230    0.21130   -0.00020    9.32160    2.44740    1.84870    7.97470   -8.22610   80.56920   79.61060   78.88460  147.35950
 2899.50000    2.34630   62.48340    0.22890    2.41060    0.21710   -0.00010    9.41150    2.45790    1.86800    7.98530   -7.70420   80.75400   79.93800   79.57080  148.46120
