~Version ---------------------------------------------------
VERS.   2.0 : CWLS log ASCII Standard -VERSION 2.0
WRAP.    NO : One line per depth step
DLM . SPACE : Column Data Section Delimiter
~Well ------------------------------------------------------
STRT .F                  163.0 : START DEPTH
STOP .F                 3833.0 : STOP DEPTH
STEP .F                    0.5 : STEP
NULL .                -9999.25 : NULL VALUE
COMP .                         : COMPANY
WELL .                         : WELL
FLD  .                         : FIELD
LOC  .                         : LOCATION
PROV .                         : PROVINCE
CNTY .                         : COUNTY
STAT .                         : STATE
CTRY .                         : COUNTRY
SRVC .                         : SERVICE COMPANY
DATE .                         : DATE
UWI  .                         : UNIQUE WELL ID
API  .                         : API NUMBER
SLAT .WGS84 2.7612299791547983 : SURFACE LATITUDE
SLON .WGS84   8.83024560873001 : SURFACE LONGITUDE
DATUM.F                3219.63 : DEPTH DATUM ELEV
~Curve Information -----------------------------------------
DEPT.F     : 
RHOB.G/C3  : BULK DENSITY
GRD .GAPI  : GAMMA RAY
NPHI.DEC   : NEUTRON POROSITY LIMESTONE
PEF .B/E   : PHOTOELECTRIC FACTOR
DPHI.DEC   : DENSITY POROSITY LIMESTONE
DRHO.G/C3  : DENSITY CORRECTION
AT10.OHMM  : 10-IN. RESISTIVITY, 2-FT RESOLUTION
AT30.OHMM  : 30-IN. RESISTIVITY, 2-FT RESOLUTION
AT90.OHMM  : 90-IN. RESISTIVITY, 2-FT RESOLUTION
CALR.IN    : CALIPER FROM RESISTIVITY
SPR .MV    : SPONTANEOUS POTENTIAL FROM RES.
DT  .US/F  : INTERVAL TRANSIT TIME
DTL .US/F  : DELTA-T LONG SPACING
DTCO.US/F  : COMPRESSIONAL-WAVE INTERVAL TRANSIT TIME ACOUSTIC SLOWNESS
DTSM.US/F  : SHEAR-WAVE INTERVAL TRANSIT TIME DELTA-T
~Params ----------------------------------------------------
~Other -----------------------------------------------------
~ASCII -----------------------------------------------------
# ...
 2969.00000    2.41240   60.79130    0.19960    2.43820    0.17310   -0.00170    4.07980    3.23100    3.04820    7.62970   13.29020   74.90820   72.81110   75.50580  135.80430
 2969.50000    2.41560   61.00220    0.19990    2.43030    0.17050   -0.00080    4.14080    3.38790    3.20320    7.62640   14.17470   74.70710   71.74140   75.08280  136.52670
 2970.00000    2.41980   60.73170    0.19920    2.42210    0.16800    0.00010    4.22240    3.55250    3.39560    7.61770   13.91760   74.49990   71.93860   75.35950  137.14720
 2970.50000    2.42390   58.70980    0.19490    2.41600    0.16610    0.00050    4.48790    3.70000    3.44370    7.61360   13.48430   74.23270   73.67030   75.91000  137.48710
 2971.00000    2.42780   56.49750    0.18880    2.41470    0.16450    0.00090    4.77830    3.74370    3.35780    7.61160   13.36950   73.96550   73.78340   76.02860  136.82680
 2971.50000    2.43300   54.81380    0.17500    2.41340    0.15940    0.00120    5.14250    3.91640    3.48300    7.60790   13.18100   73.68110   72.90230   75.26070  133.85500
 2972.00000    2.45050   54.60270    0.15800    2.41670    0.15240    0.00160    5.61630    4.14470    3.74880    7.60850   12.86210   72.78260   71.92240   74.20210  127.07190
 2972.50000    2.46220   55.82210    0.15730    2.40520    0.14620    0.00190    6.08090    4.38590    3.94910    7.60900   12.56690   71.36450   71.70320   73.81450  125.91960
 2973.00000    2.45570   58.45990    0.17360    2.37190    0.14880    0.00190    5.97440    4.43670    3.81880    7.60960   12.73040   71.54380   71.96570   73.60750  127.97950
 2973.50000    2.43860   60.55970    0.18170    2.35400    0.15730    0.00200    5.48190    4.07610    3.46960    7.61010   13.17460   71.95910   72.40580   73.87830  130.32720
 2974.00000    2.43300   60.83190    0.17460    2.36200    0.16050    0.00200    5.17320    3.90600    3.32000    7.61070   13.61870   72.37410   72.46320   74.18960  131.34250
 2974.50000    2.44370   60.28990    0.15670    2.53870    0.15480    0.00180    5.03900    4.21720    3.39680    7.61020   13.88510   72.13020   71.84220   74.00390  131.27780
 2975.00000    2.47070   58.67140    0.14410    2.70150    0.13780    0.00160    5.52830    4.74030    3.90650    7.60820   14.61290   70.73150   70.06440   72.67370  128.52640
 2975.50000    2.49340   57.92050    0.13450    2.77420    0.12140    0.00140    6.58770    5.54860    4.85820    7.61430   15.63410   69.07980   69.07790   70.93740  126.66370
 2976.00000    2.51450   58.20640    0.14470    2.76280    0.11470    0.00130    7.68700    6.28500    5.92440    7.62150   16.79890   67.65450   68.16030   69.94420  125.90290
 2976.50000    2.49940   58.68520    0.15030    2.70320    0.12790    0.00000    7.59660    6.28970    5.68220    7.62860   17.43240   67.94270   68.08170   70.23230  126.20300
 2977.00000    2.47520   58.46990    0.16160    2.64960    0.13960   -0.00290    6.55610    5.66190    5.12850    7.62880   17.45840   68.94140   69.56730   70.63780  127.37260
 2977.50000    2.46110   57.76760    0.16800    2.61110    0.14530   -0.00320    5.93650    5.09680    4.69110    7.62870   17.55810   69.94000   71.24840   70.91410  129.38630
 2978.00000    2.45920   58.09530    0.17460    2.57010    0.14690   -0.00130    5.40920    4.56460    4.30220    7.62900   17.56520   71.39000   72.92950   71.82710  131.21410
 2978.50000    2.45250   60.61650    0.18600    2.50720    0.14910    0.00130    4.90800    4.07490    3.76270    7.62920   17.02020   72.66840   74.61060   72.92910  133.00160
 2979.00000    2.43630   63.13780    0.19350    2.42850    0.15610    0.00090    4.61140    3.63770    3.26760    7.62830   15.07580   74.84280   76.15670   74.06240  135.28920
 2979.50000    2.40650   64.51440    0.19900    2.35430    0.17640   -0.00060    4.65050    3.24740    2.91190    7.62540   13.17030   77.68540   77.03650   75.27240  137.99130
 2980.00000    2.39550   63.36270    0.20110    2.27920    0.18790   -0.00250    4.73820    2.90650    2.73940    7.62690   11.26480   78.28740   77.91630   76.33860  140.71740
 2980.50000    2.38490   60.30410    0.20320    2.20400    0.19290   -0.00550    4.79340    2.78460    2.57710    7.62820    9.52900   78.88940   78.79610   77.15390  141.84670
 2981.00000    2.37600   58.42970    0.20530    2.19450    0.19520   -0.00680    4.94480    2.66770    2.46040    7.62900    8.22840   79.49140   79.67590   77.59710  142.60070
 2981.50000    2.37150   58.57550    0.20780    2.24390    0.19640   -0.00580    5.16390    2.60660    2.43720    7.62960    7.39020   80.05700   79.92430   78.02720  143.32100
 2982.00000    2.36810   60.45080    0.21370    2.30340    0.19870   -0.00350    5.37600    2.58970    2.43720    7.62930    6.63250   80.44110   79.98610   78.31770  144.22940
 2982.50000    2.36480   63.02030    0.22370    2.31390    0.20290   -0.00110    5.32630    2.57290    2.41570    7.62900    6.16410   80.82530   80.04140   78.60830  145.03190
 2983.00000    2.35670   63.24410    0.22620    2.31390    0.20770    0.00080    5.15160    2.55620    2.38450    7.62900    6.26450   81.20950   80.03530   79.17080  146.11300
 2983.50000    2.34170   62.97510    0.22500    2.31390    0.21380   -0.00020    4.99750    2.56790    2.35270    7.62900    6.71140   81.41510   79.95980   79.91900  147.31340
 2984.00000    2.33050   62.96020    0.22220    2.33370    0.21460   -0.00380    5.10550    2.61300    2.35610    7.62900    8.22070   81.14640   79.80590   80.16330  147.62460
 2984.50000    2.33010   64.52520    0.22030    2.37590    0.21410   -0.00630    5.31960    2.76680    2.52470    7.62830   10.23030   80.36360   79.55330   80.14500  146.24960
 2985.00000    2.34600   73.18350    0.21970    2.42250    0.21030   -0.00730    5.61260    2.97410    2.73070    7.63000   12.24000   79.54950   79.24600   79.27810  143.14140
 2985.50000    2.36490   81.31610    0.22110    2.46910    0.19800   -0.00730    5.90620    3.19700    2.96080    7.62930   14.24290   79.02710   78.92600   77.80570  140.89040
 2986.00000    2.39040   84.79950    0.22590    2.48860    0.18720   -0.00730    5.98340    3.38920    3.18540    7.63000   14.72300   78.70080   78.60610   76.49960  138.63920
 2986.50000    2.39040   81.07370    0.22810    2.49260    0.18940   -0.00730    5.88520    3.33870    3.13430    7.63150   14.31130   78.58850   78.28610   75.84820  137.63640
 2987.00000    2.38070   73.27940    0.21690    2.48720    0.19260   -0.00670    5.51800    3.15100    2.82810    7.62990   12.19310   78.46740   77.96610   76.17160  137.57670
 2987.50000    2.37880   68.05810    0.20230    2.45450    0.19390   -0.00510    5.16110    2.97390    2.67570    7.62910   10.16740   78.15650   77.58700   77.44230  137.55190
 2988.00000    2.38150   65.33770    0.19660    2.41620    0.18850   -0.00360    4.86250    2.80670    2.56600    7.62920    8.34150   77.84450   77.20260   78.66810  137.46050
 2988.50000    2.39560   63.62090    0.19890    2.37360    0.18320   -0.00200    4.58120    2.73890    2.55610    7.62930    7.77090   77.19950   76.81820   77.77780  137.07440
 2989.00000    2.39810   62.93800    0.20400    2.35410    0.18180   -0.00060    4.31610    2.72070    2.59000    7.62680    8.81060   76.76840   76.43380   75.57660  136.88000
 2989.50000    2.40060   62.04950    0.20740    2.35410    0.18110    0.00000    4.06640    2.74750    2.62430    7.62410    9.85480   76.36840   76.04940   74.51140  136.91770
 2990.00000    2.40310   60.94500    0.20440    2.36230    0.18070    0.00060    3.99100    2.86370    2.74630    7.62900   10.57910   75.96840   75.66500   74.49650  136.79780
 2990.50000    2.40560   59.81320    0.19460    2.37920    0.17940    0.00120    3.97790    3.11140    2.92710    7.63000   11.30340   75.56840   75.28060   74.72450  135.47020
 2991.00000    2.41290   59.01420    0.18740    2.39950    0.17580    0.00180    4.06820    3.45400    3.12590    7.62820   12.07400   75.16840   74.89620   74.80430  132.05530
 2991.50000    2.42310   58.84090    0.18240    2.41980    0.16560    0.00240    4.21340    3.77910    3.38260    7.62980   13.02180   74.97900   74.74600   74.85380  128.98800
