~Version ---------------------------------------------------
VERS.   2.0 : CWLS log ASCII Standard -VERSION 2.0
WRAP.    NO : One line per depth step
DLM . SPACE : Column Data Section Delimiter
~Well ------------------------------------------------------
STRT .F                  163.0 : START DEPTH
STOP .F                 3833.0 : STOP DEPTH
STEP .F                    0.5 : STEP
NULL .                -9999.25 : NULL VALUE
COMP .                         : COMPANY
WELL .                         : WELL
FLD  .                         : FIELD
LOC  .                         : LOCATION
PROV .                         : PROVINCE
CNTY .                         : COUNTY
STAT .                         : STATE
CTRY .                         : COUNTRY
SRVC .                         : SERVICE COMPANY
DATE .                         : DATE
UWI  .                         : UNIQUE WELL ID
API  .                         : API NUMBER
SLAT .WGS84 2.7612299791547983 : SURFACE LATITUDE
SLON .WGS84   8.83024560873001 : SURFACE LONGITUDE
DATUM.F                3219.63 : DEPTH DATUM ELEV
~Curve Information -----------------------------------------
DEPT.F     : 
RHOB.G/C3  : BULK DENSITY
GRD .GAPI  : GAMMA RAY
NPHI.DEC   : NEUTRON POROSITY LIMESTONE
PEF .B/E   : PHOTOELECTRIC FACTOR
DPHI.DEC   : DENSITY POROSITY LIMESTONE
DRHO.G/C3  : DENSITY CORRECTION
AT10.OHMM  : 10-IN. RESISTIVITY, 2-FT RESOLUTION
AT30.OHMM  : 30-IN. RESISTIVITY, 2-FT RESOLUTION
AT90.OHMM  : 90-IN. RESISTIVITY, 2-FT RESOLUTION
CALR.IN    : CALIPER FROM RESISTIVITY
SPR .MV    : SPONTANEOUS POTENTIAL FROM RES.
DT  .US/F  : INTERVAL TRANSIT TIME
DTL .US/F  : DELTA-T LONG SPACING
DTCO.US/F  : COMPRESSIONAL-WAVE INTERVAL TRANSIT TIME ACOUSTIC SLOWNESS
DTSM.US/F  : SHEAR-WAVE INTERVAL TRANSIT TIME DELTA-T
~Params ----------------------------------------------------
~Other -----------------------------------------------------
~ASCII -----------------------------------------------------
# ...
 3498.00000    2.45400   86.85510    0.19480    2.47860    0.15000   -0.00060    6.79450    6.63570    6.39590    7.59570   16.19280   73.75620   74.12160   74.69610  123.77740
 3498.50000    2.46310   90.44680    0.19520    2.53950    0.14570   -0.00330    6.98140    6.78360    6.63330    7.59600   18.27120   73.32670   73.84960   74.19400  123.74830
 3499.00000    2.47230   94.40160    0.19140    2.61580    0.14020   -0.00550    7.83900    7.35230    7.11470    7.59600   20.34960   72.89710   73.67100   73.74460  122.81820
 3499.50000    2.47560   95.56390    0.18650    2.63470    0.13550   -0.00660    8.78040    8.37830    7.95670    7.59600   22.12460   72.89230   73.73090   73.44940  123.22870
 3500.00000    2.46860   91.23470    0.18460    2.59360    0.13610   -0.00720    8.82010    8.13650    7.72210    7.59370   19.08590   72.98530   74.06200   73.17840  125.06560
 3500.50000    2.45480   81.20070    0.18480    2.51990    0.14990   -0.00660    7.70310    7.05620    5.91610    7.59010   12.37110   73.17670   74.39310   73.49570  126.02110
 3501.00000    2.43960   73.64250    0.18730    2.48520    0.16230   -0.00490    5.83840    5.25110    4.53480    7.58660    5.65630   73.32990   74.72430   73.65310  126.35700
 3501.50000    2.42190   67.84280    0.18860    2.46480    0.17050   -0.00170    4.34090    4.06030    3.72540    7.58310   -0.35740   73.40540   74.82320   73.81170  127.08570
 3502.00000    2.41780   65.00590    0.18870    2.45320    0.17190    0.00090    3.85940    3.50560    3.35460    7.57960   -5.17160   73.32200   74.39560   73.99290  129.09250
 3502.50000    2.42560   65.86830    0.18900    2.51420    0.16350    0.00130    3.87720    3.64260    3.42800    7.57610   -7.73010   73.01910   73.96180   74.17410  129.90790
 3503.00000    2.44860   75.99760    0.19200    2.57940    0.14590    0.00180    4.56200    4.38040    3.95290    7.57260   -0.15020   72.34210   73.52810   74.42140  127.10830
 3503.50000    2.47230   86.45270    0.20010    2.60950    0.12940    0.00160    6.25340    5.48700    5.07670    7.56900    9.52740   71.77520   73.09430   74.40850  124.02010
 3504.00000    2.50790   95.06320    0.20100    2.60010    0.11990   -0.00060    8.10600    7.11010    6.77010    7.56550   17.49430   71.83360   72.88920   74.03890  123.27580
 3504.50000    2.49940   97.64370    0.19610    2.49210    0.12570   -0.00250    8.81710    8.03710    7.67870    7.56200   23.34200   72.05810   73.12340   73.60900  124.19150
 3505.00000    2.48460   93.28520    0.19250    2.44350    0.13190   -0.00390    7.56950    7.15940    6.48310    7.55850   19.43360   72.23730   73.43360   73.36880  125.43540
 3505.50000    2.48450   85.05840    0.19630    2.53440    0.13240   -0.00420    6.18100    5.98530    5.01330    7.55560   15.72250   72.23730   73.52240   73.20940  125.89680
 3506.00000    2.50290   81.63950    0.20580    2.69450    0.11830   -0.00300    5.66910    5.33780    4.84480    7.55560   16.50860   71.33930   72.89200   73.11870  123.90490
 3506.50000    2.52550   81.79730    0.20920    2.77200    0.10390   -0.00230    6.59840    6.28140    6.23670    7.55420   21.84320   70.48540   72.22210   72.54390  120.45040
 3507.00000    2.54700   80.48530    0.19760    2.74930    0.09470   -0.00390    7.67640    7.91000    8.71400    7.55630   25.80140   69.69650   71.55210   71.66660  117.94670
 3507.50000    2.54750   74.92840    0.17520    2.64780    0.09970   -0.00560    8.39280    8.97280    9.55260    7.55590   23.80510   69.14890   71.17140   70.90060  117.96860
 3508.00000    2.52090   70.10660    0.17110    2.54630    0.13010   -0.00660    6.32850    7.11990    7.89790    7.55560   19.35630   70.03390   71.63030   70.36480  120.58210
 3508.50000    2.48450   68.61840    0.17610    2.51710    0.14770   -0.00730    5.16310    5.42950    5.71870    7.55560   14.41760   70.78600   72.35920   70.96230  123.19560
 3509.00000    2.45160   68.97590    0.17920    2.52860    0.15820   -0.00800    4.64590    4.80220    4.93570    7.55560   11.26500   72.12260   73.08820   72.91520  123.92930
 3509.50000    2.43480   69.83100    0.17780    2.55360    0.15990   -0.00730    4.33310    4.45000    4.61030    7.55560    8.11610   72.87530   73.81710   73.44870  124.46760
 3510.00000    2.43510   70.54720    0.17650    2.53480    0.15970   -0.00390    4.03880    4.14720    4.32740    7.55560    5.13140   73.48770   74.51020   73.72880  125.63530
 3510.50000    2.43830   70.15020    0.17610    2.45980    0.15920    0.00010    3.76140    3.86500    4.07570    7.55560    2.42360   73.44950   74.73310   74.03230  126.50230
 3511.00000    2.43960   68.67080    0.17600    2.38760    0.15910    0.00430    3.51720    3.60200    3.75330    7.55590   -0.26790   73.38400   74.95600   74.33030  126.81220
 3511.50000    2.43960   66.15370    0.17610    2.35960    0.15930    0.00660    3.31020    3.36740    3.44470    7.55590   -2.95940   73.40000   75.17890   74.40230  126.73330
 3512.00000    2.43890   65.88840    0.17660    2.36460    0.15950    0.00690    3.14580    3.21660    3.25600    7.55410   -4.84470   73.61410   75.24930   74.47960  127.63590
 3512.50000    2.43820   67.51830    0.18180    2.41120    0.15970    0.00350    3.09300    3.07260    3.08750    7.55560   -4.08370   73.98770   75.30840   74.84550  129.63400
 3513.00000    2.43770   71.16300    0.19250    2.47340    0.15990   -0.00090    3.12870    2.98780    3.04510    7.55570   -1.89290   74.20210   75.23500   75.14940  131.63220
 3513.50000    2.43740   76.14840    0.20020    2.55230    0.16010   -0.00530    3.28610    3.31050    3.43450    7.55590    1.33600   74.10870   75.12470   75.36860  131.87130
 3514.00000    2.43840   83.57290    0.20530    2.63110    0.15900   -0.00920    3.66020    3.93830    4.20710    7.55700    7.56120   73.92830   75.00630   75.29780  129.57740
 3514.50000    2.44310   90.77960    0.20790    2.69320    0.15500   -0.01190    4.57780    5.01070    5.56100    7.55630   14.38930   73.78550   74.87870   75.18010  127.28350
 3515.00000    2.45130   97.08520    0.21000    2.72550    0.15080   -0.01290    6.36550    7.77580    8.65040    7.55560   20.30190   73.67470   74.74210   74.86140  126.47450
 3515.50000    2.46190  104.49520    0.21070    2.78320    0.14360   -0.01310    9.64840   10.94730   12.78090    7.55560   25.76140   73.56400   74.60550   74.58910  126.35770
 3516.00000    2.47580  113.21680    0.20810    2.84920    0.13470   -0.01150   13.15600   14.07580   14.82810    7.56920   28.99170   73.45330   74.13290   74.10060  126.18960
 3516.50000    2.49430  120.09010    0.20550    2.87650    0.12560   -0.00840   15.28960   15.78670   17.40820    7.59130   32.32440   73.26050   73.76930   73.63790  125.22890
 3517.00000    2.49930  121.91010    0.20460    2.83410    0.12440   -0.00520   15.67600   17.28880   18.54880    7.59380   33.74800   73.04370   73.77900   73.38940  124.64400
 3517.50000    2.50370  121.59270    0.20420    2.78720    0.12360   -0.00470   15.23590   17.18640   18.48040    7.59620   34.41990   72.82690   74.08790   73.08370  124.05900
 3518.00000    2.51100  118.33500    0.20380    2.74360    0.12190   -0.00470   14.71430   16.84950   18.36200    7.59620   34.43610   72.50610   74.24670   72.62410  123.47400
 3518.50000    2.51860  115.37360    0.20340    2.69990    0.11430   -0.00460   14.34940   16.17750   18.27940    7.59600   34.76200   71.93440   73.81280   72.20320  122.68190
 3519.00000    2.52500  110.65630    0.20230    2.65700    0.10890   -0.00460   13.29710   14.32140   17.58160    7.59590   35.14300   70.68870   73.00260   71.90050  120.83050
 3519.50000    2.52600   94.71430    0.19320    2.61490    0.10910   -0.00460   10.87740   11.70560   14.21400    7.59590   33.37570   69.70210   72.18100   70.70110  118.97900
 3520.00000    2.52350   86.44570    0.17880    2.57270    0.11070   -0.00290    8.57250    9.28230   11.07650    7.59590   28.32090   69.14230   71.52040   70.01990  118.86830
 3520.50000    2.50820   75.82890    0.16760    2.51840    0.11690   -0.00110    6.20940    6.97280    8.45600    7.60970   23.25770   70.20310   71.53520   70.52830  121.79110
