~Version ---------------------------------------------------
VERS.   2.0 : CWLS log ASCII Standard -VERSION 2.0
WRAP.    NO : One line per depth step
DLM . SPACE : Column Data Section Delimiter
~Well ------------------------------------------------------
STRT .F                  163.0 : START DEPTH
STOP .F                 3833.0 : STOP DEPTH
STEP .F                    0.5 : STEP
NULL .                -9999.25 : NULL VALUE
COMP .                         : COMPANY
WELL .                         : WELL
FLD  .                         : FIELD
LOC  .                         : LOCATION
PROV .                         : PROVINCE
CNTY .                         : COUNTY
STAT .                         : STATE
CTRY .                         : COUNTRY
SRVC .                         : SERVICE COMPANY
DATE .                         : DATE
UWI  .                         : UNIQUE WELL ID
API  .                         : API NUMBER
SLAT .WGS84 2.7612299791547983 : SURFACE LATITUDE
SLON .WGS84   8.83024560873001 : SURFACE LONGITUDE
DATUM.F                3219.63 : DEPTH DATUM ELEV
~Curve Information -----------------------------------------
DEPT.F     : 
RHOB.G/C3  : BULK DENSITY
GRD .GAPI  : GAMMA RAY
NPHI.DEC   : NEUTRON POROSITY LIMESTONE
PEF .B/E   : PHOTOELECTRIC FACTOR
DPHI.DEC   : DENSITY POROSITY LIMESTONE
DRHO.G/C3  : DENSITY CORRECTION
AT10.OHMM  : 10-IN. RESISTIVITY, 2-FT RESOLUTION
AT30.OHMM  : 30-IN. RESISTIVITY, 2-FT RESOLUTION
AT90.OHMM  : 90-IN. RESISTIVITY, 2-FT RESOLUTION
CALR.IN    : CALIPER FROM RESISTIVITY
SPR .MV    : SPONTANEOUS POTENTIAL FROM RES.
DT  .US/F  : INTERVAL TRANSIT TIME
DTL .US/F  : DELTA-T LONG SPACING
DTCO.US/F  : COMPRESSIONAL-WAVE INTERVAL TRANSIT TIME ACOUSTIC SLOWNESS
DTSM.US/F  : SHEAR-WAVE INTERVAL TRANSIT TIME DELTA-T
~Params ----------------------------------------------------
~Other -----------------------------------------------------
~ASCII -----------------------------------------------------
# ...
 3774.00000   -9999.25   -9999.25   -9999.25   -9999.25   -9999.25   -9999.25    1.37750    1.43420    1.45720    7.51900   -0.10300   80.37290   80.96580   80.03970  150.39470
 3774.50000   -9999.25   -9999.25   -9999.25   -9999.25   -9999.25   -9999.25    1.38540    1.44150    1.49990    7.48150   -0.64270   80.25640   80.73550   79.70340  150.69890
 3775.00000   -9999.25   -9999.25   -9999.25   -9999.25   -9999.25   -9999.25    1.40520    1.44890    1.53490    7.43690   -1.18230   80.13990   80.50520   79.74000  151.43610
 3775.50000   -9999.25   -9999.25   -9999.25   -9999.25   -9999.25   -9999.25    1.39710    1.45630    1.54110    7.40760   -1.72190   80.02330   80.27480   79.94160  150.52780
 3776.00000   -9999.25   -9999.25   -9999.25   -9999.25   -9999.25   -9999.25    1.35710    1.44610    1.48800    7.37190   -2.34770   79.89800   80.04450   80.20390  149.13180
 3776.50000   -9999.25   -9999.25   -9999.25   -9999.25   -9999.25   -9999.25    1.31100    1.41580    1.42350    7.33610   -2.86940   79.73460   79.81420   80.53060  148.97210
 3777.00000   -9999.25   -9999.25   -9999.25   -9999.25   -9999.25   -9999.25    1.27860    1.38370    1.37410    7.30170   -3.15260   79.95600   79.58380   80.79080  149.86500
 3777.50000   -9999.25   -9999.25   -9999.25   -9999.25   -9999.25   -9999.25    1.33730    1.35260    1.32640    7.27200   -3.23230   80.37750   79.35350   80.80400  149.68030
 3778.00000   -9999.25   -9999.25   -9999.25   -9999.25   -9999.25   -9999.25    1.40310    1.37210    1.28040    7.25160   -3.20780   80.46780   79.12630   80.85830  148.80570
 3778.50000   -9999.25   -9999.25   -9999.25   -9999.25   -9999.25   -9999.25    1.43540    1.37520    1.27660    7.23180   -3.20350   80.21840   79.02060   80.94700  147.82740
 3779.00000   -9999.25   -9999.25   -9999.25   -9999.25   -9999.25   -9999.25    1.44230    1.37780    1.32380    7.22210   -3.19900   80.07000   79.06300   80.85040  147.28610
 3779.50000   -9999.25   -9999.25   -9999.25   -9999.25   -9999.25   -9999.25    1.43390    1.37780    1.26240    7.22670   -3.02880   79.92170   79.16900   79.34890  147.05570
 3780.00000   -9999.25   -9999.25   -9999.25   -9999.25   -9999.25   -9999.25    1.42560    1.37780    1.30690    4.70790   -2.32230   79.77330   79.27490   78.25730  146.87260
 3780.50000   -9999.25   -9999.25   -9999.25   -9999.25   -9999.25   -9999.25    1.41730    1.37740    1.33290    3.90140   -1.82830   79.62500   79.38090   78.27350  146.82870
 3781.00000   -9999.25   -9999.25   -9999.25   -9999.25   -9999.25   -9999.25    1.40910    1.36970    1.32360    2.29750   -1.51680   79.47660   79.48690   78.85480  147.08680
 3781.50000   -9999.25   -9999.25   -9999.25   -9999.25   -9999.25   -9999.25    1.40090    1.36200    1.31430    2.08150   -1.40960   79.32830   79.55850   79.01610  147.67010
 3782.00000   -9999.25   -9999.25   -9999.25   -9999.25   -9999.25   -9999.25    1.39320    1.35430    1.30510    2.06160   -1.51550   79.02540   79.51420   79.04580  148.05290
 3782.50000   -9999.25   -9999.25   -9999.25   -9999.25   -9999.25   -9999.25    1.39320    1.34670    1.29890    2.06840   -1.56370   78.14190   79.34900   78.99490  147.56760
 3783.00000   -9999.25   -9999.25   -9999.25   -9999.25   -9999.25   -9999.25    1.38920    1.34780    1.32310    2.08240   -1.78870   79.11990   78.95710   78.57960  147.12840
 3783.50000   -9999.25   -9999.25   -9999.25   -9999.25   -9999.25   -9999.25    1.41010    1.38590    1.36780    2.08470   -2.29380   80.65050   78.88130   78.24480  146.94450
 3784.00000   -9999.25   -9999.25   -9999.25   -9999.25   -9999.25   -9999.25    1.42760    1.38910    1.35940    2.08130   -2.89440   81.90200   80.67220   78.65390  147.44010
 3784.50000   -9999.25   -9999.25   -9999.25   -9999.25   -9999.25   -9999.25    1.38240    1.35140    1.31610    2.08220   -3.22400   81.52070   82.62910   79.08260  148.27450
 3785.00000   -9999.25   -9999.25   -9999.25   -9999.25   -9999.25   -9999.25    1.33850    1.31480    1.27220    2.08310   -2.96970   80.23960   82.50530   79.19470  148.58850
 3785.50000   -9999.25   -9999.25   -9999.25   -9999.25   -9999.25   -9999.25    1.31240    1.27920    1.23020    2.08400   -3.09070   79.51470   78.11850   78.91270  148.46180
 3786.00000   -9999.25   -9999.25   -9999.25   -9999.25   -9999.25   -9999.25    1.31600    1.27820    1.23610    2.08210   -2.87170   80.10710   77.65090   78.90420  148.19920
 3786.50000   -9999.25   -9999.25   -9999.25   -9999.25   -9999.25   -9999.25    1.33910    1.29270    1.25020    2.08060   -2.61220   81.19260   78.64100   79.30140  148.05020
 3787.00000   -9999.25   -9999.25   -9999.25   -9999.25   -9999.25   -9999.25    1.36880    1.30740    1.26450    2.08020   -2.35270   81.82340   79.63110   79.59240  148.75450
 3787.50000   -9999.25   -9999.25   -9999.25   -9999.25   -9999.25   -9999.25    1.37940    1.32230    1.27890    2.08030   -1.66850   81.63350   79.96030   79.60640  149.57970
 3788.00000   -9999.25   -9999.25   -9999.25   -9999.25   -9999.25   -9999.25    1.37940    1.33380    1.29160    2.07470   -1.40760   80.99500   79.05520   79.60830  149.45770
 3788.50000   -9999.25   -9999.25   -9999.25   -9999.25   -9999.25   -9999.25    1.37640    1.33340    1.30030    2.06910   -1.38860   80.35640   78.08920   79.62440  149.10750
 3789.00000   -9999.25   -9999.25   -9999.25   -9999.25   -9999.25   -9999.25    1.37220    1.33190    1.30420    2.07070   -1.36960   80.22700   78.36850   79.95680  148.67960
 3789.50000   -9999.25   -9999.25   -9999.25   -9999.25   -9999.25   -9999.25    1.36800    1.33040    1.30050    2.07970   -1.35060   80.47790   78.86250   80.38870  148.06190
 3790.00000   -9999.25   -9999.25   -9999.25   -9999.25   -9999.25   -9999.25    1.36390    1.32880    1.29450    2.08140   -1.61630   81.25780   79.35660   80.33070  146.90880
 3790.50000   -9999.25   -9999.25   -9999.25   -9999.25   -9999.25   -9999.25    1.35970    1.32760    1.28630    2.08460   -2.23920   81.41700   79.67400   79.83000  146.15950
 3791.00000   -9999.25   -9999.25   -9999.25   -9999.25   -9999.25   -9999.25    1.35790    1.33510    1.30550    2.08440   -2.66490   79.72070   79.72310   79.54520  146.15870
 3791.50000   -9999.25   -9999.25   -9999.25   -9999.25   -9999.25   -9999.25    1.37420    1.35040    1.32250    2.08420   -3.06040   77.76990   79.12410   79.01610  146.11810
 3792.00000   -9999.25   -9999.25   -9999.25   -9999.25   -9999.25   -9999.25    1.39220    1.36610    1.33980    2.08390   -3.14170   77.55590   78.35240   78.19650  146.89230
 3792.50000   -9999.25   -9999.25   -9999.25   -9999.25   -9999.25   -9999.25    1.41580    1.38780    1.36220    2.08410   -3.19610   78.19260   78.35980   78.50730  147.93990
 3793.00000   -9999.25   -9999.25   -9999.25   -9999.25   -9999.25   -9999.25    1.43980    1.40990    1.38880    2.08430   -3.73730   79.01190   78.71290   78.98050  148.16680
 3793.50000   -9999.25   -9999.25   -9999.25   -9999.25   -9999.25   -9999.25    1.44600    1.42210    1.38930    2.08450   -4.21840   79.83130   79.06610   79.28340  148.18940
 3794.00000   -9999.25   -9999.25   -9999.25   -9999.25   -9999.25   -9999.25    1.44420    1.41560    1.37840    2.08490   -4.06030   80.65060   79.41930   79.35610  148.30520
 3794.50000   -9999.25   -9999.25   -9999.25   -9999.25   -9999.25   -9999.25    1.44620    1.41040    1.38780    2.08570   -3.75860   81.30930   79.77250   79.39000  148.38670
 3795.00000   -9999.25   -9999.25   -9999.25   -9999.25   -9999.25   -9999.25    1.44830    1.41250    1.39770    2.08650   -3.00660   81.40410   79.90840   79.46130  148.38370
 3795.50000   -9999.25   -9999.25   -9999.25   -9999.25   -9999.25   -9999.25    1.44600    1.41460    1.38680    2.08690   -2.97760   80.84580   79.90830   80.31190  148.38060
 3796.00000   -9999.25   -9999.25   -9999.25   -9999.25   -9999.25   -9999.25    1.43970    1.41660    1.38470    2.08380   -2.94850   80.21710   79.71530   81.17130  148.37460
 3796.50000   -9999.25   -9999.25   -9999.25   -9999.25   -9999.25   -9999.25    1.45030    1.42470    1.40880    2.08500   -3.10860   80.04000   79.56860   81.38760  148.36200
