~Version ---------------------------------------------------
VERS.   2.0 : CWLS log ASCII Standard -VERSION 2.0
WRAP.    NO : One line per depth step
DLM . SPACE : Column Data Section Delimiter
~Well ------------------------------------------------------
STRT .F                  163.0 : START DEPTH
STOP .F                 3833.0 : STOP DEPTH
STEP .F                    0.5 : STEP
NULL .                -9999.25 : NULL VALUE
COMP .                         : COMPANY
WELL .                         : WELL
FLD  .                         : FIELD
LOC  .                         : LOCATION
PROV .                         : PROVINCE
CNTY .                         : COUNTY
STAT .                         : STATE
CTRY .                         : COUNTRY
SRVC .                         : SERVICE COMPANY
DATE .                         : DATE
UWI  .                         : UNIQUE WELL ID
API  .                         : API NUMBER
SLAT .WGS84 2.7612299791547983 : SURFACE LATITUDE
SLON .WGS84   8.83024560873001 : SURFACE LONGITUDE
DATUM.F                3219.63 : DEPTH DATUM ELEV
~Curve Information -----------------------------------------
DEPT.F     : 
RHOB.G/C3  : BULK DENSITY
GRD .GAPI  : GAMMA RAY
NPHI.DEC   : NEUTRON POROSITY LIMESTONE
PEF .B/E   : PHOTOELECTRIC FACTOR
DPHI.DEC   : DENSITY POROSITY LIMESTONE
DRHO.G/C3  : DENSITY CORRECTION
AT10.OHMM  : 10-IN. RESISTIVITY, 2-FT RESOLUTION
AT30.OHMM  : 30-IN. RESISTIVITY, 2-FT RESOLUTION
AT90.OHMM  : 90-IN. RESISTIVITY, 2-FT RESOLUTION
CALR.IN    : CALIPER FROM RESISTIVITY
SPR .MV    : SPONTANEOUS POTENTIAL FROM RES.
DT  .US/F  : INTERVAL TRANSIT TIME
DTL .US/F  : DELTA-T LONG SPACING
DTCO.US/F  : COMPRESSIONAL-WAVE INTERVAL TRANSIT TIME ACOUSTIC SLOWNESS
DTSM.US/F  : SHEAR-WAVE INTERVAL TRANSIT TIME DELTA-T
~Params ----------------------------------------------------
~Other -----------------------------------------------------
~ASCII -----------------------------------------------------
# ...
 3061.00000    2.39880   66.07280    0.20420    2.39050    0.18200   -0.00670    3.47280    3.21820    3.06920    7.56280   15.41450   75.82610   76.23360   75.44610  129.44360
 3061.50000    2.39740   66.90810    0.20200    2.42890    0.18370   -0.00680    3.45330    3.17440    3.09200    7.55710   14.78540   75.86590   76.30650   76.56320  130.42390
 3062.00000    2.39720   66.82040    0.19640    2.45300    0.18250   -0.00620    3.48440    3.17450    3.11480    7.55150   14.77410   75.90580   76.42570   78.23420  131.40270
 3062.50000    2.39850   66.73270    0.19550    2.45770    0.18070   -0.00510    3.51570    3.18160    3.13790    7.54830   15.00440   75.95670   76.60480   79.23820  132.68860
 3063.00000    2.40270   67.09180    0.19840    2.46250    0.17910   -0.00300    3.51690    3.18880    3.14510    7.54810   15.03230   76.01500   76.87730   79.39060  135.49030
 3063.50000    2.40780   68.89030    0.20540    2.47180    0.17730   -0.00100    3.49540    3.18180    3.12410    7.54800   15.06030   76.07330   77.14980   79.22690  135.85970
 3064.00000    2.41150   69.84310    0.21840    2.49500    0.17460    0.00100    3.46630    3.15780    3.07740    7.54920   14.43590   76.29130   77.42230   79.21480  134.65170
 3064.50000    2.41000   70.79590    0.22030    2.51730    0.17470    0.00200    3.43750    3.13400    3.03460    7.54950   13.74330   76.66730   77.69480   79.20270  135.20670
 3065.00000    2.40080   70.91870    0.21900    2.59430    0.17800    0.00290    3.48140    3.11990    3.03280    7.54130   15.53740   76.97350   77.87070   78.98710  136.00930
 3065.50000    2.40070   74.96320    0.21080    2.67600    0.17960    0.00320    3.75780    3.46420    3.24610    7.53310   17.81860   77.00890   77.89380   78.63460  135.32520
 3066.00000    2.41180   87.28850    0.21170    2.75780    0.17720    0.00330    4.93920    4.26510    3.83420    7.52350   20.82230   76.86810   77.86540   78.94880  133.50280
 3066.50000    2.42420   96.91260    0.22840    2.82120    0.16690    0.00260    7.09830    6.35510    5.10460    7.52150   24.03590   76.58500   77.38510   79.57170  131.47390
 3067.00000    2.44700  109.14470    0.24100    2.88620    0.15480    0.00030   10.34110    8.87260    7.50260    7.51950   27.24950   76.32430   76.78260   79.53280  129.18590
 3067.50000    2.47190  109.75840    0.24000    2.89470    0.14090   -0.00470   14.82550   12.25560   11.46330    7.51750   30.40210   75.54250   76.18000   78.07500  126.89790
 3068.00000    2.49240  101.82900    0.21800    2.75830    0.12710   -0.00670   15.22940   13.67490   12.53830    7.51550   27.74840   73.40110   75.57750   75.10770  124.15100
 3068.50000    2.49120   90.28810    0.19780    2.61340    0.12750   -0.00700   13.03540   12.22830   11.50130    7.51350   25.35940   72.51000   74.97500   72.56000  122.57460
 3069.00000    2.47780   84.43930    0.18620    2.55170    0.13410   -0.00840   11.09250   10.67700   10.08350    7.51150   22.97030   71.64140   74.09500   71.83210  122.63330
 3069.50000    2.47620   83.71010    0.19060    2.54750    0.13770   -0.00970   10.53690   10.18750    9.97870    7.51130   22.46880   71.36710   73.14340   71.85640  122.09150
 3070.00000    2.48060   85.27850    0.19290    2.52700    0.13520   -0.00780   11.18080   10.54670   10.16480    7.51140   22.97760   71.29780   72.19180   72.34330  119.05700
 3070.50000    2.48620   85.05850    0.18610    2.49410    0.13150   -0.00510   11.02110   10.29380    9.93870    7.50900   22.67760   71.25840   72.05890   73.06540  119.33220
 3071.00000    2.49170   82.36210    0.17880    2.46840    0.12810   -0.00260   10.14010    9.62280    9.24300    7.50750   22.20410   71.34340   72.11320   73.16040  121.39340
 3071.50000    2.49560   83.44140    0.18230    2.50240    0.12530   -0.00220    9.74370    9.35740    9.01450    7.50870   22.72740   72.13930   72.86130   73.18410  123.73000
 3072.00000    2.49430   88.58880    0.19150    2.57250    0.12490   -0.00180   10.52610    9.62630    9.19560    7.50990   24.55630   73.06300   73.60360   73.32860  124.87240
 3072.50000    2.49130   93.05160    0.20120    2.60230    0.12570   -0.00150   11.22980    9.81270    8.90330    7.51020   26.71170   74.99720   74.34590   73.70750  125.89690
 3073.00000    2.47390   92.82830    0.21160    2.53330    0.13940   -0.00120    9.53920    8.12700    6.70640    7.52080   24.59900   76.70180   75.08820   74.01800  127.46930
 3073.50000    2.44010   85.58150    0.21280    2.45940    0.15830   -0.00120    6.18720    5.30390    4.29520    7.54190   18.45240   77.30040   75.63380   74.15780  128.21570
 3074.00000    2.40330   74.18230    0.21260    2.38550    0.17220   -0.00130    4.12440    3.69450    3.25850    7.59610   15.86380   76.36160   75.45520   74.36240  129.96120
 3074.50000    2.40250   65.46890    0.19870    2.34480    0.18160   -0.00130    3.28530    3.06750    2.90120    7.69670   14.27780   75.48700   75.21920   74.51890  132.29120
 3075.00000    2.40870   60.87240    0.19320    2.30520    0.18080   -0.00130    3.35280    3.07930    3.02620    7.72210   14.48450   74.52770   74.98320   74.90510  135.40020
 3075.50000    2.41910   59.70070    0.19130    2.26530    0.17250   -0.00130    3.53710    3.24430    3.19190    7.65500   17.23750   74.38670   74.74710   75.51630  135.34740
 3076.00000    2.43190   59.17670    0.18910    2.28430    0.16300   -0.00130    3.68610    3.41820    3.31840    7.58790   19.95800   74.24560   74.51110   75.33880  134.12980
 3076.50000    2.44420   58.62460    0.18510    2.31750    0.15570   -0.00140    3.75150    3.50170    3.31880    7.54750   20.60980   74.10450   74.40490   74.87160  133.19930
 3077.00000    2.44770   57.69010    0.18110    2.33450    0.15350   -0.00140    3.63570    3.42100    3.31880    7.54860   18.22460   73.96900   74.39850   74.44840  132.75830
 3077.50000    2.44680   57.00970    0.17650    2.34250    0.15450   -0.00080    3.51270    3.32700    3.22700    7.53630   16.30070   73.92750   74.51550   74.42610  132.32860
 3078.00000    2.44180   57.44580    0.17620    2.32960    0.15640    0.00020    3.52840    3.32360    3.17700    7.52100   15.56760   74.08710   74.79300   74.58170  132.52080
 3078.50000    2.43930   58.48900    0.17870    2.30240    0.15820    0.00110    3.62180    3.38590    3.23350    7.50470   14.83450   74.29270   75.07050   74.77230  133.11580
 3079.00000    2.43820   59.25750    0.18350    2.33500    0.15990    0.00210    3.75280    3.44160    3.29110    7.48650   14.12960   74.49830   75.34790   74.96300  131.89210
 3079.50000    2.43410   60.09400    0.18760    2.36910    0.16200    0.00270    3.83600    3.42620    3.29350    7.47500   13.59870   74.70390   75.62540   75.15360  129.30280
 3080.00000    2.42790   61.35690    0.18840    2.40330    0.16520    0.00270    3.67660    3.32280    3.19530    7.46840   13.41560   74.90950   75.86980   75.70340  127.61770
 3080.50000    2.42130   61.56690    0.18810    2.42160    0.16790    0.00270    3.50870    3.22260    3.09020    7.47000   13.39930   75.11510   76.00230   75.85200  127.04760
 3081.00000    2.41870   60.31310    0.18780    2.42180    0.16940    0.00270    3.41500    3.15640    3.01610    7.46940   13.67400   75.26410   75.97630   75.15890  126.74180
 3081.50000    2.41810   58.88370    0.18820    2.42200    0.17020    0.00270    3.35190    3.19540    3.08230    7.46850   13.77870   75.26450   75.91320   74.51760  127.09200
 3082.00000    2.42160   58.66110    0.18920    2.42510    0.16950    0.00080    3.40620    3.26660    3.14460    7.45470   13.99690   75.08590   75.82010   73.98100  129.56450
 3082.50000    2.42430   59.33210    0.19030    2.43190    0.16780   -0.00110    3.48670    3.33940    3.21420    7.44550   14.50460   74.82890   75.72700   73.38420  131.00520
 3083.00000    2.42560   59.97210    0.19190    2.47980    0.16620   -0.00300    3.56900    3.41380    3.29450    7.43910   16.13210   74.57190   75.63720   73.23520  130.84570
 3083.50000    2.42500   60.33230    0.19520    2.53130    0.16730   -0.00500    3.62440    3.46250    3.30270    7.42940   17.21730   74.40620   75.55160   74.01090  129.64800
