~Version ---------------------------------------------------
VERS.   2.0 : CWLS log ASCII Standard -VERSION 2.0
WRAP.    NO : One line per depth step
DLM . SPACE : Column Data Section Delimiter
~Well ------------------------------------------------------
STRT .F                  163.0 : START DEPTH
STOP .F                 3833.0 : STOP DEPTH
STEP .F                    0.5 : STEP
NULL .                -9999.25 : NULL VALUE
COMP .                         : COMPANY
WELL .                         : WELL
FLD  .                         : FIELD
LOC  .                         : LOCATION
PROV .                         : PROVINCE
CNTY .                         : COUNTY
STAT .                         : STATE
CTRY .                         : COUNTRY
SRVC .                         : SERVICE COMPANY
DATE .                         : DATE
UWI  .                         : UNIQUE WELL ID
API  .                         : API NUMBER
SLAT .WGS84 2.7612299791547983 : SURFACE LATITUDE
SLON .WGS84   8.83024560873001 : SURFACE LONGITUDE
DATUM.F                3219.63 : DEPTH DATUM ELEV
~Curve Information -----------------------------------------
DEPT.F     : 
RHOB.G/C3  : BULK DENSITY
GRD .GAPI  : GAMMA RAY
NPHI.DEC   : NEUTRON POROSITY LIMESTONE
PEF .B/E   : PHOTOELECTRIC FACTOR
DPHI.DEC   : DENSITY POROSITY LIMESTONE
DRHO.G/C3  : DENSITY CORRECTION
AT10.OHMM  : 10-IN. RESISTIVITY, 2-FT RESOLUTION
AT30.OHMM  : 30-IN. RESISTIVITY, 2-FT RESOLUTION
AT90.OHMM  : 90-IN. RESISTIVITY, 2-FT RESOLUTION
CALR.IN    : CALIPER FROM RESISTIVITY
SPR .MV    : SPONTANEOUS POTENTIAL FROM RES.
DT  .US/F  : INTERVAL TRANSIT TIME
DTL .US/F  : DELTA-T LONG SPACING
DTCO.US/F  : COMPRESSIONAL-WAVE INTERVAL TRANSIT TIME ACOUSTIC SLOWNESS
DTSM.US/F  : SHEAR-WAVE INTERVAL TRANSIT TIME DELTA-T
~Params ----------------------------------------------------
~Other -----------------------------------------------------
~ASCII -----------------------------------------------------
# ...
 2532.00000    2.49430   72.31070    0.14230    2.52400    0.12780   -0.00430   20.04760   10.52730    9.74580    7.31650   -3.56480   69.16570   70.02710   68.28050  115.19730
 2532.50000    2.48110   72.42490    0.14720    2.50550    0.13340   -0.00280   19.76150    9.76640    9.02360    7.33450   -4.65400   69.85960   70.31830   68.70260  116.79580
 2533.00000    2.47230   71.75970    0.14880    2.48700    0.13890   -0.00250   19.06800    9.06050    8.35490    7.34980   -5.74310   70.13010   70.60630   69.15250  118.52290
 2533.50000    2.46700   71.80800    0.15030    2.47530    0.14330   -0.00250   18.38260    8.40570    7.73570    7.36410   -6.64250   70.40070   70.98460   69.78470  119.45810
 2534.00000    2.46010   72.92510    0.15140    2.50540    0.14670   -0.00300   17.58410    7.79810    7.06030    7.37860   -7.90810   70.78500   71.36280   70.85500  119.99070
 2534.50000    2.45120   74.55460    0.15500    2.55310    0.15310   -0.00440   16.73310    7.23450    6.40980    7.39360   -9.42910   71.31380   71.74110   72.36970  120.55840
 2535.00000    2.44190   76.76880    0.15950    2.54930    0.16040   -0.00470   15.57450    6.71160    5.81910    7.41190  -10.95000   71.73180   72.11930   73.21370  121.59810
 2535.50000    2.43100   78.63710    0.16170    2.53120    0.16750   -0.00420   14.42180    6.22650    5.33090    7.42690  -12.21790   72.14990   72.49750   73.55160  122.86790
 2536.00000    2.41590   78.85840    0.16240    2.49610    0.17350   -0.00380   12.89600    5.81860    4.98000    7.43280  -13.22580   72.56790   72.80890   73.47100  123.40510
 2536.50000    2.41370   76.97440    0.16460    2.46180    0.17390   -0.00330   11.75490    5.47550    4.65220    7.44480  -14.23370   72.59480   72.84410   73.19640  123.41560
 2537.00000    2.41840   74.34990    0.16540    2.42440    0.17130   -0.00240   11.13550    5.32570    4.34600    7.45670  -15.53800   72.11100   72.48870   72.19940  122.89670
 2537.50000    2.42700   73.12640    0.16440    2.43460    0.16320   -0.00080   12.01040    5.33910    4.12590    7.46720  -16.74180   71.50700   71.94980   70.90040  121.82370
 2538.00000    2.43560   72.85950    0.16460    2.47160    0.15750    0.00080   13.86750    5.48080    4.06080    7.46910  -19.24770   71.18130   71.46260   70.23590  120.51860
 2538.50000    2.43960   72.69600    0.16690    2.52480    0.15600    0.00160   16.41080    5.81660    4.06080    7.46960  -22.31040   71.31430   71.60890   69.80970  119.56310
 2539.00000    2.44040   71.91960    0.16910    2.57430    0.16240    0.00220   18.18630    6.17200    4.05910    7.47480  -24.25790   71.57570   71.85630   69.33640  119.42950
 2539.50000    2.43560   70.50180    0.17100    2.59360    0.16950    0.00230   19.91690    6.32000    4.00300    7.49180  -25.38450   71.83710   72.10380   69.02220  119.83220
 2540.00000    2.42420   70.30510    0.17290    2.56070    0.17210    0.00130   21.40050    6.12710    3.94760    7.49950  -27.10940   72.09850   72.35130   69.14780  120.46860
 2540.50000    2.41600   72.38460    0.17420    2.48780    0.17300   -0.00080   22.99460    6.38000    3.89300    7.50590  -28.50720   72.35980   72.59870   70.01610  121.06730
 2541.00000    2.41380   74.90860    0.17490    2.44670    0.17310   -0.00250   24.68410    6.85710    3.84140    7.50930  -28.83980   72.56810   72.84620   71.64140  122.00050
 2541.50000    2.41150   75.70980    0.17630    2.45200    0.17420   -0.00330   26.22980    7.11100    3.83630    7.51130  -28.90950   72.73420   73.09370   72.28030  122.81150
 2542.00000    2.40910   73.33640    0.17830    2.46360    0.17620   -0.00410   27.92230    7.38890    3.93210    7.51340  -29.33910   72.77320   73.31950   73.45660  123.14900
 2542.50000    2.40540   71.96880    0.18020    2.46250    0.17850   -0.00410   30.84720    7.78960    4.06000    7.51540  -30.32000   72.61870   73.35200   74.26290  123.17980
 2543.00000    2.40330   71.71670    0.18100    2.46140    0.17980   -0.00310   33.43610    8.12690    4.19200    7.51750  -31.01000   72.49140   73.00120   74.29870  123.29880
 2543.50000    2.40380   72.47240    0.18120    2.44470    0.17990   -0.00130   32.37130    8.13240    4.30000    7.51950  -30.21580   72.36410   72.68670   74.12150  123.52830
 2544.00000    2.40660   73.52570    0.18090    2.41710    0.17910    0.00140   27.30270    7.90990    4.25990    7.52150  -29.42160   72.23690   72.48430   74.03580  123.48160
 2544.50000    2.41850   76.51680    0.17960    2.40140    0.17200    0.00410   20.09260    7.51290    4.12050    7.51870  -28.97380   72.13680   72.28190   74.00980  123.31200
 2545.00000    2.43680   80.14540    0.17800    2.42390    0.15970    0.00700   15.40840    6.98960    3.98570    7.51810  -29.39560   72.00970   72.14890   73.30150  122.79060
 2545.50000    2.45810   81.90080    0.17490    2.46930    0.14720    0.01010   13.12930    6.60720    3.96560    7.51300  -31.84910   71.85530   72.00560   72.27440  121.72470
 2546.00000    2.47720   80.05780    0.16540    2.52270    0.13500    0.01050   14.03840    7.09490    4.24320    7.50880  -34.05290   71.41010   71.87160   71.26620  120.20050
 2546.50000    2.49180   73.23730    0.15240    2.57610    0.12650    0.00920   17.55210    8.69040    4.79410    7.50750  -35.33290   70.39470   71.20620   70.49510  118.83640
 2547.00000    2.49740   68.15350    0.14800    2.63420    0.12410    0.00780   23.97000   10.46750    5.37530    7.50620  -33.80580   69.35260   70.13430   69.47960  116.40980
 2547.50000    2.50140   64.77660    0.14700    2.71910    0.12380    0.00560   30.66090   11.43210    5.84240    7.50590  -31.13150   67.37950   68.68580   68.25820  113.30730
 2548.00000    2.50540   63.98310    0.14500    2.86720    0.12320    0.00180   30.23530   12.30100    6.18570    7.50710  -28.45720   65.53680   67.23730   67.57270  111.44290
 2548.50000    2.52800   64.00800    0.13520    3.01380    0.11280    0.00110   28.23990   12.48100    6.37440    7.50750  -25.78280   63.74630   65.78890   67.15130  110.73170
 2549.00000    2.57740   63.65450    0.12340    3.09750    0.09550    0.00030   26.27200   12.33510    6.42830    7.50900  -22.57330   62.20480   64.34040   66.40970  109.40230
 2549.50000    2.58820   63.18260    0.11470    3.09370    0.07070   -0.00010   23.65380   11.38690    6.14340    7.50730  -20.45720   62.32170   64.21210   64.75830  107.31880
 2550.00000    2.53310   62.77290    0.11300    2.98240    0.07790    0.00010   19.88110   10.35260    5.58520    7.52860  -21.70170   63.72710   65.31140   63.74150  106.55710
 2550.50000    2.50030   64.21860    0.13190    2.81750    0.10070    0.00200   17.15670    9.41220    5.07780    7.54840  -25.48840   65.13240   66.52390   64.20840  109.01770
 2551.00000    2.48360   65.88910    0.14260    2.60300    0.12600    0.00290   18.20140    8.84300    4.72370    7.54840  -29.61870   66.53780   67.73640   65.48980  111.70950
 2551.50000    2.47310   66.00100    0.14920    2.60050    0.13900    0.00300   22.90920    9.09650    4.78960    7.54840  -32.43470   67.90140   68.45450   65.76630  113.87640
 2552.00000    2.47610   65.43790    0.15530    2.70960    0.13740    0.00260   32.10570    9.87170    5.05450    7.54840  -35.35340   68.86210   69.05920   65.25580  114.30100
 2552.50000    2.48540   65.63940    0.16180    2.80700    0.13220    0.00220   41.21810   11.02340    5.33970    7.54780  -38.03470   69.38340   69.66390   65.92490  114.34020
 2553.00000    2.48480   69.05180    0.16360    2.83050    0.13220    0.00130   47.58410   12.30960    5.63930    7.54710  -38.72690   69.75970   70.26870   67.24070  114.72750
 2553.50000    2.46480   72.39210    0.16290    2.74430    0.14410   -0.00110   49.46070   13.49080    5.86570    7.54800  -39.06960   70.10860   70.87340   68.16460  115.39740
 2554.00000    2.43770   72.79410    0.16240    2.69370    0.16040   -0.00360   49.68880   13.63000    6.04280    7.55760  -38.18680   70.38580   71.41480   68.49760  116.30780
 2554.50000    2.43120   71.41270    0.16300    2.68890    0.16220   -0.00320   49.96080   13.49260    6.17540    7.56880  -36.68120   70.47970   71.39170   68.59470  116.85660
