~Version ---------------------------------------------------
VERS.   2.0 : CWLS log ASCII Standard -VERSION 2.0
WRAP.    NO : One line per depth step
DLM . SPACE : Column Data Section Delimiter
~Well ------------------------------------------------------
STRT .F                  163.0 : START DEPTH
STOP .F                 3833.0 : STOP DEPTH
STEP .F                    0.5 : STEP
NULL .                -9999.25 : NULL VALUE
COMP .                         : COMPANY
WELL .                         : WELL
FLD  .                         : FIELD
LOC  .                         : LOCATION
PROV .                         : PROVINCE
CNTY .                         : COUNTY
STAT .                         : STATE
CTRY .                         : COUNTRY
SRVC .                         : SERVICE COMPANY
DATE .                         : DATE
UWI  .                         : UNIQUE WELL ID
API  .                         : API NUMBER
SLAT .WGS84 2.7612299791547983 : SURFACE LATITUDE
SLON .WGS84   8.83024560873001 : SURFACE LONGITUDE
DATUM.F                3219.63 : DEPTH DATUM ELEV
~Curve Information -----------------------------------------
DEPT.F     : 
RHOB.G/C3  : BULK DENSITY
GRD .GAPI  : GAMMA RAY
NPHI.DEC   : NEUTRON POROSITY LIMESTONE
PEF .B/E   : PHOTOELECTRIC FACTOR
DPHI.DEC   : DENSITY POROSITY LIMESTONE
DRHO.G/C3  : DENSITY CORRECTION
AT10.OHMM  : 10-IN. RESISTIVITY, 2-FT RESOLUTION
AT30.OHMM  : 30-IN. RESISTIVITY, 2-FT RESOLUTION
AT90.OHMM  : 90-IN. RESISTIVITY, 2-FT RESOLUTION
CALR.IN    : CALIPER FROM RESISTIVITY
SPR .MV    : SPONTANEOUS POTENTIAL FROM RES.
DT  .US/F  : INTERVAL TRANSIT TIME
DTL .US/F  : DELTA-T LONG SPACING
DTCO.US/F  : COMPRESSIONAL-WAVE INTERVAL TRANSIT TIME ACOUSTIC SLOWNESS
DTSM.US/F  : SHEAR-WAVE INTERVAL TRANSIT TIME DELTA-T
~Params ----------------------------------------------------
~Other -----------------------------------------------------
~ASCII -----------------------------------------------------
# ...
 2785.00000    2.42340   72.40630    0.20060    2.43970    0.16880    0.00230    4.75920    3.88500    3.48270    7.65200    7.81540   75.53310   74.95790   76.07930  135.60280
 2785.50000    2.41980   72.14170    0.19910    2.48090    0.17090    0.00330    4.86810    3.61590    3.40320    7.66710    8.31340   75.82620   75.48280   76.58030  140.54930
 2786.00000    2.41800   71.94930    0.20400    2.55840    0.17270    0.00250    4.77800    3.49350    3.29830    7.67460    9.24280   75.97430   75.61830   76.49610  141.22060
 2786.50000    2.41630   71.77500    0.21030    2.63230    0.17350   -0.00010    4.60380    3.38440    3.21380    7.67500    9.60500   75.79060   75.39350   75.19500  140.77310
 2787.00000    2.41560   72.43460    0.21320    2.63830    0.17310   -0.00190    4.44040    3.43150    3.31170    7.67550    9.59170   75.41320   74.93800   75.22820  138.67700
 2787.50000    2.42130   73.04360    0.21350    2.64090    0.16910   -0.00350    4.29870    3.57930    3.41650    7.67310    9.97650   74.92790   74.55670   75.36680  136.89860
 2788.00000    2.43140   70.83200    0.19890    2.64350    0.16260   -0.00370    4.31820    3.75220    3.57490    7.67400   11.03190   74.52790   74.17540   75.29670  134.46250
 2788.50000    2.44170   66.83620    0.19370    2.68640    0.15550   -0.00110    4.40270    3.93340    3.78770    7.67550   11.76910   74.12800   73.79400   75.07660  133.31090
 2789.00000    2.45210   64.81490    0.19410    2.74090    0.15010    0.00360    4.36410    4.05630    3.87260    7.67670   10.91610   73.72810   73.42710   74.85650  134.10020
 2789.50000    2.46100   65.33630    0.19500    2.75390    0.14650    0.00760    4.30020    4.15350    3.97960    7.67680   10.06310   73.32810   73.08630   74.74900  135.02670
 2790.00000    2.47410   73.21600    0.19810    2.75750    0.14050    0.00900    4.41930    4.34060    4.15300    7.67680   10.47430   72.92820   72.74550   74.69630  135.85180
 2790.50000    2.48720   80.54280    0.20140    2.76790    0.13340    0.00940    5.15380    4.74100    4.47160    7.67680   12.29870   72.79460   72.49110   74.58220  136.19060
 2791.00000    2.49460   91.26960    0.20450    2.79580    0.12540    0.00900    6.18230    5.84320    5.31770    7.67680   15.45910   72.88330   72.43590   74.45390  136.14080
 2791.50000    2.49430   98.94070    0.21050    2.84300    0.12450    0.00600    7.41590    7.93920    7.04710    7.67680   18.61940   73.82960   73.16890   74.41070  135.59350
 2792.00000    2.48540  106.61180    0.21960    2.85090    0.13320    0.00290    7.65590    9.47750    7.99970    7.67680   20.91090   74.78860   74.19280   74.51180  134.83200
 2792.50000    2.45870  107.35940    0.22940    2.75650    0.14700    0.00140    4.95960    9.33580    8.07020    7.67720   20.32420   75.80320   75.10110   75.32680  134.17190
 2793.00000    2.44340  102.53090    0.23240    2.67570    0.15640   -0.00010    4.93820    7.46700    6.92460    7.68130   18.47940   76.55950   75.89580   76.00510  134.82550
 2793.50000    2.42950   93.29010    0.23150    2.61420    0.16380   -0.00110    4.94250    5.92290    5.31790    7.68800   16.63470   77.33830   76.69050   76.24880  136.36030
 2794.00000    2.41060   84.17380    0.22370    2.55270    0.17100   -0.00200    4.70840    4.69810    4.17570    7.69460   14.54530   78.35110   77.46760   76.31470  138.56150
 2794.50000    2.39640   74.67440    0.21350    2.48320    0.17950   -0.00330    4.25720    3.85020    3.37640    7.70120   11.72960   78.90290   78.24350   76.56520  140.68530
 2795.00000    2.38260   65.68800    0.20930    2.50040    0.18990   -0.00380    3.92550    3.34580    3.05780    7.70790    8.81510   78.96540   78.37620   76.52210  141.58870
 2795.50000    2.37770   59.72800    0.20820    2.51880    0.19310   -0.00380    4.03660    3.03680    2.80830    7.71450    7.47170   78.18830   77.47460   76.28260  141.96410
 2796.00000    2.38100   58.21830    0.20150    2.52610    0.19350   -0.00220    4.27840    3.00250    2.81030    7.72000    6.85640   77.30520   76.48270   76.20050  141.83440
 2796.50000    2.39110   58.28830    0.19450    2.51120    0.18710   -0.00110    4.54930    3.03670    2.89210    7.73380    6.01800   76.42320   75.49080   76.14650  140.19990
 2797.00000    2.39860   59.78370    0.19230    2.47890    0.18170   -0.00270    4.55300    3.06500    2.90050    7.74750    4.89880   75.92880   74.90620   75.84930  138.56550
 2797.50000    2.39360   61.33410    0.19200    2.44020    0.18350   -0.00440    4.42460    3.02890    2.87170    7.76130    3.82320   76.19850   75.60320   76.10530  137.34250
 2798.00000    2.38260   63.52660    0.19970    2.45060    0.19420   -0.00610    4.26340    2.98980    2.84320    7.77500    4.12560   77.53460   76.56380   76.79710  138.46850
 2798.50000    2.36290   64.09740    0.20770    2.46850    0.20400   -0.00860    4.05940    2.96450    2.81500    7.78880    4.53250   78.87080   77.73280   77.50780  140.91050
 2799.00000    2.34140   63.90460    0.21460    2.48630    0.21320   -0.00880    3.83080    2.95320    2.79780    7.80250    4.93940   80.01820   78.90170   78.01340  143.69360
 2799.50000    2.33920   63.00420    0.21750    2.48480    0.21810   -0.00880    3.72290    2.98850    2.84780    7.81630    5.42120   80.41720   79.16400   78.26230  145.54630
 2800.00000    2.34220   63.10480    0.21890    2.46420    0.21770   -0.00810    3.80920    3.01920    2.90800    7.83000    6.15300   80.64420   79.26210   78.60560  146.89230
 2800.50000    2.34670   63.59210    0.21570    2.44360    0.21570   -0.00740    3.92190    3.03130    2.93750    7.84380    7.23320   80.64450   79.33750   79.00760  147.34630
 2801.00000    2.35120   64.02730    0.21230    2.46090    0.21110   -0.00660    4.08720    3.04340    2.91620    7.85680    8.22050   80.64470   79.42860   79.35710  147.51550
 2801.50000    2.35410   63.45710    0.20970    2.48200    0.20760   -0.00620    4.25900    3.02290    2.80510    7.86770    8.68820   80.67000   79.52350   79.56840  147.61020
 2802.00000    2.35440   63.62420    0.20900    2.46940    0.20740   -0.00580    4.38820    2.92940    2.69820    7.87520    8.58540   80.73600   79.61850   80.10470  147.64520
 2802.50000    2.35480   64.63230    0.20950    2.43810    0.20890   -0.00540    4.52130    2.81420    2.61610    7.87520    8.25330   80.80190   79.71340   79.95460  147.67290
 2803.00000    2.35510   67.00890    0.21100    2.43710    0.20940   -0.00500    4.63080    2.76490    2.57010    7.87520    8.54780   80.86790   79.75310   79.05840  147.76680
 2803.50000    2.35550   68.26390    0.21270    2.43610    0.20870   -0.00440    4.59550    2.76540    2.59460    7.87520    8.83800   80.93380   79.68790   78.16270  147.84870
 2804.00000    2.35580   67.53110    0.21480    2.43070    0.20760   -0.00350    4.47820    2.78240    2.63050    7.87540    8.44050   80.86960   79.57460   78.21560  147.84710
 2804.50000    2.35600   67.35330    0.21910    2.42010    0.20700   -0.00300    4.35770    2.80740    2.66690    7.87710    7.42710   80.80490   79.46640   78.56040  147.81830
 2805.00000    2.35600   67.33190    0.22510    2.40950    0.20630   -0.00460    4.26030    2.83260    2.71410    7.87930    6.41380   80.75160   79.35820   79.83220  147.73930
 2805.50000    2.35610   67.28580    0.23000    2.39890    0.20700   -0.00620    4.28900    2.84610    2.77430    7.87490    5.83540   80.70420   79.28300   81.00880  147.65290
 2806.00000    2.35550   66.49990    0.22810    2.36040    0.20750   -0.00670    4.38350    2.83840    2.76710    7.87750    5.73410   80.67550   79.29520   80.81090  147.64400
 2806.50000    2.35380   65.43670    0.22460    2.34130    0.20840   -0.00670    4.45910    2.78690    2.66940    7.88360    5.61010   80.65250   79.35840   79.23250  147.59650
 2807.00000    2.35040   64.12240    0.22060    2.35220    0.20940   -0.00670    4.48070    2.69780    2.58220    7.88970    5.20500   80.67400   79.44950   78.84840  147.45620
 2807.50000    2.34640   62.95290    0.21920    2.37320    0.21200   -0.00570    4.49750    2.62930    2.54830    7.89570    4.35100   80.69560   79.52750   79.76990  147.25950
