~Version ---------------------------------------------------
VERS.   2.0 : CWLS log ASCII Standard -VERSION 2.0
WRAP.    NO : One line per depth step
DLM . SPACE : Column Data Section Delimiter
~Well ------------------------------------------------------
STRT .F                  163.0 : START DEPTH
STOP .F                 3833.0 : STOP DEPTH
STEP .F                    0.5 : STEP
NULL .                -9999.25 : NULL VALUE
COMP .                         : COMPANY
WELL .                         : WELL
FLD  .                         : FIELD
LOC  .                         : LOCATION
PROV .                         : PROVINCE
CNTY .                         : COUNTY
STAT .                         : STATE
CTRY .                         : COUNTRY
SRVC .                         : SERVICE COMPANY
DATE .                         : DATE
UWI  .                         : UNIQUE WELL ID
API  .                         : API NUMBER
SLAT .WGS84 2.7612299791547983 : SURFACE LATITUDE
SLON .WGS84   8.83024560873001 : SURFACE LONGITUDE
DATUM.F                3219.63 : DEPTH DATUM ELEV
~Curve Information -----------------------------------------
DEPT.F     : 
RHOB.G/C3  : BULK DENSITY
GRD .GAPI  : GAMMA RAY
NPHI.DEC   : NEUTRON POROSITY LIMESTONE
PEF .B/E   : PHOTOELECTRIC FACTOR
DPHI.DEC   : DENSITY POROSITY LIMESTONE
DRHO.G/C3  : DENSITY CORRECTION
AT10.OHMM  : 10-IN. RESISTIVITY, 2-FT RESOLUTION
AT30.OHMM  : 30-IN. RESISTIVITY, 2-FT RESOLUTION
AT90.OHMM  : 90-IN. RESISTIVITY, 2-FT RESOLUTION
CALR.IN    : CALIPER FROM RESISTIVITY
SPR .MV    : SPONTANEOUS POTENTIAL FROM RES.
DT  .US/F  : INTERVAL TRANSIT TIME
DTL .US/F  : DELTA-T LONG SPACING
DTCO.US/F  : COMPRESSIONAL-WAVE INTERVAL TRANSIT TIME ACOUSTIC SLOWNESS
DTSM.US/F  : SHEAR-WAVE INTERVAL TRANSIT TIME DELTA-T
~Params ----------------------------------------------------
~Other -----------------------------------------------------
~ASCII -----------------------------------------------------
# ...
 3682.00000    2.40520   70.64340    0.20610    2.54520    0.18080    0.00590    2.59380    2.51200    2.42930    7.57700   -3.49670   75.14710   77.10660   78.37890  133.75860
 3682.50000    2.41540   70.66970    0.19600    2.57350    0.17390    0.00690    2.59770    2.52850    2.45760    7.56110   -3.72710   74.63420   76.37860   78.87150  129.41860
 3683.00000    2.42260   68.22560    0.19460    2.56740    0.16800    0.00810    2.60150    2.54520    2.49070    7.54530   -3.92940   74.23810   76.05190   77.65990  126.27300
 3683.50000    2.42170   66.36820    0.19420    2.43910    0.16750    0.00810    2.57720    2.51930    2.48960    7.52590   -3.60320   74.22620   75.88820   75.77240  126.36820
 3684.00000    2.41660   66.61690    0.19480    2.38110    0.17000    0.00440    2.49670    2.44110    2.38970    7.50500   -3.87900   74.92450   75.84550   74.85250  128.72440
 3684.50000    2.41200   68.08390    0.19830    2.37720    0.17290    0.00020    2.39600    2.34750    2.27730    7.50480   -4.27350   75.62280   76.00650   74.90060  132.71190
 3685.00000    2.40770   69.64650    0.20320    2.38310    0.17630   -0.00020    2.27370    2.24680    2.16500    7.50460   -4.24470   76.32110   77.05680   75.34300  134.92970
 3685.50000    2.40560   69.66580    0.20860    2.39330    0.17840    0.00010    2.17350    2.15040    2.08010    7.50440   -4.14180   77.01940   78.16090   75.66840  136.67880
 3686.00000    2.40630   69.95420    0.21390    2.41250    0.17700    0.00180    2.10790    2.06090    2.00170    7.50420   -4.79850   77.41390   78.66010   75.66920  135.46580
 3686.50000    2.41360   70.71010    0.21550    2.43170    0.17490    0.00180    2.05820    2.00170    1.92910    7.50350   -5.61070   76.99770   78.67330   75.61000  133.48450
 3687.00000    2.41540   72.19140    0.21220    2.45090    0.17270    0.00080    2.06140    1.98790    1.91150    7.49920   -6.10990   76.54490   78.31520   75.52570  132.41690
 3687.50000    2.41580   74.21340    0.20690    2.47330    0.17250   -0.00020    2.07130    1.99310    1.94850    7.49490   -5.50920   76.09200   77.81340   75.47640  132.25280
 3688.00000    2.41580   78.20700    0.20650    2.42090    0.17200   -0.00120    2.10340    2.03910    1.99610    7.49060   -4.90850   75.66860   77.31160   75.44320  132.43530
 3688.50000    2.41680   79.36020    0.20640    2.39520    0.17030   -0.00280    2.14670    2.09330    2.04740    7.48620   -4.30790   75.39240   76.80980   75.36850  133.12880
 3689.00000    2.42010   78.11960    0.20580    2.43580    0.16840   -0.00450    2.26700    2.14900    2.11880    7.47950   -3.64240   74.86870   76.29770   75.29380  133.78090
 3689.50000    2.42360   76.91980    0.20150    2.51450    0.16610   -0.00470    2.42250    2.32090    2.22730    7.47270   -2.31070   74.34010   75.78290   74.94790  131.23710
 3690.00000    2.43250   77.50600    0.19660    2.59430    0.16170   -0.00470    2.69600    2.57710    2.47580    7.46600    0.36560   73.79830   75.26800   74.53760  127.54800
 3690.50000    2.44490   80.58110    0.19230    2.66240    0.15600   -0.00450    3.21030    3.03730    2.85890    7.46210    3.04190   73.25610   74.75320   74.13570  125.51660
 3691.00000    2.45420   84.10650    0.18840    2.66820    0.14910   -0.00370    3.67590    3.47690    3.38060    7.46190    5.71820   72.71400   74.38640   73.80890  125.76500
 3691.50000    2.46370   85.09920    0.18460    2.64280    0.14270   -0.00300    3.92500    3.81620    3.67730    7.46170    9.45550   72.32050   74.03090   73.74130  126.97400
 3692.00000    2.47150   86.97490    0.18250    2.66490    0.13840   -0.00280    4.19650    4.10950    3.94890    7.46230   10.88010   72.00880   73.67540   74.03450  128.09450
 3692.50000    2.48040   89.31830    0.18190    2.72370    0.13390   -0.00260    4.50850    4.39560    4.21350    7.46370   12.30750   71.60800   73.31980   74.30240  127.47740
 3693.00000    2.48840   92.67730    0.18210    2.78270    0.12590   -0.00260    5.39750    4.93660    4.67810    7.46210   14.30540   71.16440   72.75460   73.27190  126.01020
 3693.50000    2.50300   92.90150    0.18180    2.84740    0.11820   -0.00250    7.15230    6.13690    5.60830    7.46080   17.04320   70.71070   71.99970   71.21500  124.42150
 3694.00000    2.52710   90.11620    0.18070    2.87140    0.10770   -0.00240    9.10470    7.68100    7.07750    7.46110   18.77760   70.12670   71.24480   70.12360  123.14430
 3694.50000    2.53960   89.10060    0.17970    2.87710    0.09800   -0.00230   10.83440    9.46600    8.71990    7.46130   20.10880   68.81260   70.48980   69.81090  121.78860
 3695.00000    2.55050   89.42940    0.17870    2.84050    0.09360   -0.00230   11.58270   10.64950    8.95700    7.46150   20.77720   68.77180   70.27490   69.80920  120.65310
 3695.50000    2.55290   91.36730    0.17830    2.79400    0.09140   -0.00220   10.95950    9.74720    8.25640    7.46170   20.02920   69.16470   70.45460   70.07340  120.31510
 3696.00000    2.55090   91.69810    0.17860    2.70210    0.09650   -0.00210    8.98550    7.84440    7.03990    7.46480   17.65720   68.58790   71.15030   70.71490  120.28030
 3696.50000    2.53360   88.34490    0.17860    2.61070    0.10440   -0.00200    6.92740    6.22070    5.58150    7.47300   14.65030   64.80280   72.05620   71.49590  120.30240
 3697.00000    2.51190   85.09830    0.17920    2.55600    0.12000   -0.00190    5.33990    4.91540    4.42530    7.48120   11.05710   61.41900   72.96210   71.90190  121.57120
 3697.50000    2.49200   81.03630    0.18180    2.51300    0.13030   -0.00190    4.12250    3.93400    3.56860    7.49020    8.85710   62.89540   73.64550   72.58260  124.51470
 3698.00000    2.46810   77.51870    0.18720    2.49870    0.13830   -0.00170    3.60830    3.37060    3.12620    7.49930    6.64510   70.64560   73.48550   73.50230  125.08920
 3698.50000    2.46470   75.14780    0.19060    2.48520    0.14260   -0.00080    3.18950    3.04830    2.96950    7.50840    4.17530   72.22400   73.19110   73.89450  124.80290
 3699.00000    2.46430   73.75330    0.19120    2.48360    0.14310    0.00010    3.23390    3.03820    2.93710    7.51750    3.23770   71.05620   72.89660   73.20810  125.02690
 3699.50000    2.47900   72.57000    0.17900    2.53360    0.13330    0.00160    3.71170    3.43710    3.21750    7.52670    3.61600   69.36960   72.78000   71.47600  125.87140
 3700.00000    2.51780   71.80310    0.14260    2.57070    0.11960    0.00320    4.26430    3.91940    3.68590    7.54040    4.58340   68.43430   72.90110   70.50440  127.01710
 3700.50000    2.51910   71.31290    0.13320    2.58990    0.11140    0.00350    4.42730    4.24890    4.11330    7.54620    5.28890   68.84630   74.35360   70.35430  128.21020
 3701.00000    2.50630   70.82270    0.13370    2.54930    0.11900    0.00360    4.14380    3.96200    3.72160    7.54890    3.33780   70.19050   76.17150   71.21090  129.42690
 3701.50000    2.47860   70.33250    0.14720    2.49810    0.13810    0.00290    3.54760    3.27650    3.01530    7.56350   -0.38430   71.53470   83.04990   72.55780  130.74660
 3702.00000    2.43760   69.28340    0.16680    2.45180    0.15530    0.00230    3.01000    2.73420    2.51360    7.60600   -3.73110   73.69630   82.85610   73.32160  132.06630
 3702.50000    2.41560   67.81450    0.18520    2.43600    0.17120    0.00160    2.55380    2.44220    2.31370    7.70420   -6.08090   75.67070   79.98440   73.88750  133.66270
 3703.00000    2.39650   65.18710    0.19610    2.43650    0.18420    0.00270    2.36710    2.33260    2.25300    7.80230   -6.18300   76.14820   77.14920   74.52130  135.47100
 3703.50000    2.38080   61.87930    0.19900    2.43580    0.19020    0.00490    2.32030    2.27270    2.20300    7.85250   -6.28510   76.58750   77.07940   75.44530  136.92350
 3704.00000    2.38080   60.71730    0.20140    2.43510    0.19170    0.00660    2.27280    2.21280    2.14180    7.83000   -6.41560   76.93980   77.22530   76.13540  137.42680
 3704.50000    2.38590   60.60890    0.20980    2.43390    0.19020    0.00840    2.18870    2.12870    2.06230    7.79110   -6.57920   76.84630   77.44170   76.49720  137.51230
