~Version ---------------------------------------------------
VERS.   2.0 : CWLS log ASCII Standard -VERSION 2.0
WRAP.    NO : One line per depth step
DLM . SPACE : Column Data Section Delimiter
~Well ------------------------------------------------------
STRT .F                  163.0 : START DEPTH
STOP .F                 3833.0 : STOP DEPTH
STEP .F                    0.5 : STEP
NULL .                -9999.25 : NULL VALUE
COMP .                         : COMPANY
WELL .                         : WELL
FLD  .                         : FIELD
LOC  .                         : LOCATION
PROV .                         : PROVINCE
CNTY .                         : COUNTY
STAT .                         : STATE
CTRY .                         : COUNTRY
SRVC .                         : SERVICE COMPANY
DATE .                         : DATE
UWI  .                         : UNIQUE WELL ID
API  .                         : API NUMBER
SLAT .WGS84 2.7612299791547983 : SURFACE LATITUDE
SLON .WGS84   8.83024560873001 : SURFACE LONGITUDE
DATUM.F                3219.63 : DEPTH DATUM ELEV
~Curve Information -----------------------------------------
DEPT.F     : 
RHOB.G/C3  : BULK DENSITY
GRD .GAPI  : GAMMA RAY
NPHI.DEC   : NEUTRON POROSITY LIMESTONE
PEF .B/E   : PHOTOELECTRIC FACTOR
DPHI.DEC   : DENSITY POROSITY LIMESTONE
DRHO.G/C3  : DENSITY CORRECTION
AT10.OHMM  : 10-IN. RESISTIVITY, 2-FT RESOLUTION
AT30.OHMM  : 30-IN. RESISTIVITY, 2-FT RESOLUTION
AT90.OHMM  : 90-IN. RESISTIVITY, 2-FT RESOLUTION
CALR.IN    : CALIPER FROM RESISTIVITY
SPR .MV    : SPONTANEOUS POTENTIAL FROM RES.
DT  .US/F  : INTERVAL TRANSIT TIME
DTL .US/F  : DELTA-T LONG SPACING
DTCO.US/F  : COMPRESSIONAL-WAVE INTERVAL TRANSIT TIME ACOUSTIC SLOWNESS
DTSM.US/F  : SHEAR-WAVE INTERVAL TRANSIT TIME DELTA-T
~Params ----------------------------------------------------
~Other -----------------------------------------------------
~ASCII -----------------------------------------------------
# ...
 2440.00000   -9999.25   13.22060    0.22340   -9999.25   -9999.25   -9999.25   -9999.25   -9999.25   -9999.25   -9999.25   -9999.25   -9999.25   -9999.25   -9999.25   -9999.25
 2440.50000   -9999.25   13.44570    0.21450   -9999.25   -9999.25   -9999.25   -9999.25   -9999.25   -9999.25   -9999.25   -9999.25   -9999.25   -9999.25   -9999.25   -9999.25
 2441.00000   -9999.25   12.61360    0.20480   -9999.25   -9999.25   -9999.25   -9999.25   -9999.25   -9999.25   -9999.25   -9999.25   -9999.25   -9999.25   -9999.25   -9999.25
 2441.50000   -9999.25   11.29510    0.19940   -9999.25   -9999.25   -9999.25   -9999.25   -9999.25   -9999.25   -9999.25   -9999.25   -9999.25   -9999.25   -9999.25   -9999.25
 2442.00000   -9999.25   11.15010    0.20210   -9999.25   -9999.25   -9999.25   -9999.25   -9999.25   -9999.25   -9999.25   -9999.25   -9999.25   -9999.25   -9999.25   -9999.25
 2442.50000   -9999.25   11.49300    0.22090   -9999.25   -9999.25   -9999.25   -9999.25   -9999.25   -9999.25   -9999.25   -9999.25   -9999.25   -9999.25   -9999.25   -9999.25
 2443.00000   -9999.25   11.79450    0.23620   -9999.25   -9999.25   -9999.25   -9999.25   -9999.25   -9999.25   -9999.25   -9999.25   -9999.25   -9999.25   -9999.25   -9999.25
 2443.50000   -9999.25   12.11830    0.24090   -9999.25   -9999.25   -9999.25   -9999.25   -9999.25   -9999.25   -9999.25   -9999.25   -9999.25   -9999.25   -9999.25   -9999.25
 2444.00000   -9999.25   13.84310    0.23820   -9999.25   -9999.25   -9999.25   -9999.25   -9999.25   -9999.25   -9999.25   -9999.25   -9999.25   -9999.25   -9999.25   -9999.25
 2444.50000   -9999.25   15.35840    0.22010   -9999.25   -9999.25   -9999.25   -9999.25   -9999.25   -9999.25   -9999.25   -9999.25   -9999.25   -9999.25   -9999.25   -9999.25
 2445.00000   -9999.25   16.12740    0.20700   -9999.25   -9999.25   -9999.25   -9999.25   -9999.25   -9999.25   -9999.25   -9999.25   -9999.25   -9999.25   -9999.25   -9999.25
 2445.50000   -9999.25   15.61840    0.20730   -9999.25   -9999.25   -9999.25   -9999.25   -9999.25   -9999.25   -9999.25   -9999.25   -9999.25   -9999.25   -9999.25   -9999.25
 2446.00000   -9999.25   15.40020    0.21000   -9999.25   -9999.25   -9999.25   -9999.25   -9999.25   -9999.25   -9999.25   -9999.25   -9999.25   -9999.25   -9999.25   -9999.25
 2446.50000   -9999.25   15.34250    0.21130   -9999.25   -9999.25   -9999.25   -9999.25   -9999.25   -9999.25   -9999.25   -9999.25   -9999.25   -9999.25   -9999.25   -9999.25
 2447.00000   -9999.25   15.54500    0.20820   -9999.25   -9999.25   -9999.25   -9999.25   -9999.25   -9999.25   -9999.25   -9999.25   -9999.25   -9999.25   -9999.25   -9999.25
 2447.50000   -9999.25   15.84620    0.20030   -9999.25   -9999.25   -9999.25   -9999.25   -9999.25   -9999.25   -9999.25   -9999.25   -9999.25   -9999.25   -9999.25   -9999.25
 2448.00000   -9999.25   14.49690    0.18800   -9999.25   -9999.25   -9999.25   -9999.25   -9999.25   -9999.25   -9999.25   -9999.25   -9999.25   -9999.25   -9999.25   -9999.25
 2448.50000   -9999.25   12.13440    0.14270   -9999.25   -9999.25   -9999.25   -9999.25   -9999.25   -9999.25   -9999.25   -9999.25   -9999.25   -9999.25   -9999.25   -9999.25
 2449.00000    2.58330   10.48850    0.10160    9.74120    0.05410    0.41060    1.05960    0.36720    0.89840    6.96150   59.92790   45.06930   46.82280   45.54440   85.24490
 2449.50000    2.72970   10.13270    0.10140   10.03250   -0.00900    0.44560    0.47770    0.20240    0.50400    6.97000   58.83420   44.52270   46.32580   45.76570   85.27880
 2450.00000    2.40320   10.41960    0.18290    9.86680    0.02070    0.13440    0.33550    0.24140    0.54620    7.04210   60.14070   44.12390   45.82880   46.36380   86.46570
 2450.50000    2.28190   10.61540    0.17160    3.19440    0.15950   -0.04470    1.96440    0.68940    0.90700    7.44130   61.33450   44.04900   45.64840   47.02710   88.69610
 2451.00000    2.28140    9.62630    0.15800    2.79840    0.23600    0.01240    5.28300    1.51220    1.31800    7.87890   59.85240   44.43680   45.75420   48.06410   89.49240
 2451.50000    2.28510    8.31120    0.14710    2.78370    0.23790    0.06010   43.07900    1.16660    1.01460    8.23700   56.81140   45.66920   46.39910   49.29720   89.68540
 2452.00000    2.55500    7.30230    0.14230    3.05010    0.14190    0.06940  195.73140    0.69170    0.52520    7.91740   54.48310   46.90160   47.49350   51.86630   90.21980
 2452.50000    2.65920    6.88780    0.10540    3.29040    0.01130    0.06900   49.43280    0.41010    0.29510    7.52010   51.77330   47.94810   48.58800   54.64640   90.56430
 2453.00000    2.79320    7.22520    0.09040    3.36500   -0.03310    0.04550    8.99900    0.24320    0.68950    7.29410   49.06340   48.03190   49.04230   55.06270   89.01280
 2453.50000    2.81990    7.52540    0.08120    3.39180   -0.06580    0.00760    4.47880    0.28190    1.60140    7.18860   45.67010   47.99480   47.88350   51.92600   86.83160
 2454.00000    2.82220    7.64380    0.08080    3.47590   -0.06670    0.00620    2.22910    0.79520    8.48810    7.18910   42.13110   47.81000   46.85820   48.31580   85.70130
 2454.50000    2.82210    7.69840    0.08050    3.58300   -0.06600    0.00680    1.26280    2.24360   70.13730    7.21640   39.11900   47.60060   47.52580   45.59280   85.21770
 2455.00000    2.82200    7.78290    0.08000    3.66660   -0.06550    0.00840    1.21120    6.33010 1502.48950    7.21820   36.10690   47.39110   48.40110   45.23960   84.75660
 2455.50000    2.82360    8.06580    0.07760    3.75030   -0.06570    0.00950    1.44840   23.71710  171.99140    7.22160   32.82560   47.18160   48.47300   45.20070   84.56320
 2456.00000    2.82420    7.70690    0.07340    3.81480   -0.06770    0.00610    2.04140  115.74200  151.29830    7.22210   31.72840   46.97610   48.02740   45.16190   84.31160
 2456.50000    2.82430    6.87170    0.06930    3.79250   -0.06870   -0.00040    5.50970 1268.98930  701.14370    7.20410   36.33190   46.77190   47.59740   45.12300   84.16500
 2457.00000    2.82350    6.14130    0.06760    3.68570   -0.06500   -0.00240   55.90210 2016.64330 2020.74710    7.20720   39.59180   46.56770   47.26930   45.09590   84.16500
 2457.50000    2.81590    5.77410    0.06590    3.57000   -0.06080   -0.00310  182.73110 2017.12610 2021.11100    7.21020   39.30550   46.50270   47.22360   45.10380   84.16500
 2458.00000    2.81650    5.86470    0.06590    3.45440   -0.06080   -0.00290  449.75450 2017.60780 2021.47380    7.21270   38.99250   46.62300   47.24880   45.19830   84.22430
 2458.50000    2.82530    6.00650    0.06810    3.34630   -0.06600   -0.00020 1607.05190 2018.09080 2021.83670    7.20450   38.67960   46.83160   47.35600   45.30950   84.36260
 2459.00000    2.83800    5.81330    0.07050    3.30230   -0.07210    0.00510 1847.63460 2018.57280 2022.19970    7.20670   38.51500   47.03640   47.46320   45.32660   84.51240
 2459.50000    2.84370    5.66200    0.07330    3.38620   -0.07890    0.00930 1837.26010 2019.05600 2022.56380    7.20020   38.34900   47.15180   47.57040   45.37810   84.69240
 2460.00000    2.84490    5.82790    0.07670    3.47820   -0.07950    0.01000 1826.94380 2019.53820 2022.92700    7.19340   38.18290   47.22870   47.67760   47.07450   85.11490
 2460.50000    2.83880    6.18490    0.08050    3.57960   -0.07690    0.00780 1809.31320 2020.02160 2023.29020    7.20260   38.01690   47.24000   47.78480   49.96240   85.66020
 2461.00000    2.82200    6.94120    0.08810    3.68940   -0.07030    0.00390 1741.99400 1833.72230 1987.59950    7.22300   37.65030   47.25120   47.82770   51.51830   86.10970
 2461.50000    2.80520    7.78420    0.09880    3.77620   -0.05820    0.00190 1198.35860 1634.76810 1760.50170    7.21940   36.72990   47.26250   47.79480   50.94440   86.20380
 2462.00000    2.78840    8.24080    0.10060    3.73860   -0.04380    0.00020  737.80100 1288.07240 1445.79090    7.22160   34.90700   47.28350   47.68880   50.01360   86.21770
 2462.50000    2.77640    7.89680    0.09750    3.45140   -0.03560   -0.00020  454.24630 1014.90330  962.34170    7.21570   33.16560   47.29590   47.51590   48.71110   86.09850
