~Version ---------------------------------------------------
VERS.   2.0 : CWLS log ASCII Standard -VERSION 2.0
WRAP.    NO : One line per depth step
DLM . SPACE : Column Data Section Delimiter
~Well ------------------------------------------------------
STRT .F                  163.0 : START DEPTH
STOP .F                 3833.0 : STOP DEPTH
STEP .F                    0.5 : STEP
NULL .                -9999.25 : NULL VALUE
COMP .                         : COMPANY
WELL .                         : WELL
FLD  .                         : FIELD
LOC  .                         : LOCATION
PROV .                         : PROVINCE
CNTY .                         : COUNTY
STAT .                         : STATE
CTRY .                         : COUNTRY
SRVC .                         : SERVICE COMPANY
DATE .                         : DATE
UWI  .                         : UNIQUE WELL ID
API  .                         : API NUMBER
SLAT .WGS84 2.7612299791547983 : SURFACE LATITUDE
SLON .WGS84   8.83024560873001 : SURFACE LONGITUDE
DATUM.F                3219.63 : DEPTH DATUM ELEV
~Curve Information -----------------------------------------
DEPT.F     : 
RHOB.G/C3  : BULK DENSITY
GRD .GAPI  : GAMMA RAY
NPHI.DEC   : NEUTRON POROSITY LIMESTONE
PEF .B/E   : PHOTOELECTRIC FACTOR
DPHI.DEC   : DENSITY POROSITY LIMESTONE
DRHO.G/C3  : DENSITY CORRECTION
AT10.OHMM  : 10-IN. RESISTIVITY, 2-FT RESOLUTION
AT30.OHMM  : 30-IN. RESISTIVITY, 2-FT RESOLUTION
AT90.OHMM  : 90-IN. RESISTIVITY, 2-FT RESOLUTION
CALR.IN    : CALIPER FROM RESISTIVITY
SPR .MV    : SPONTANEOUS POTENTIAL FROM RES.
DT  .US/F  : INTERVAL TRANSIT TIME
DTL .US/F  : DELTA-T LONG SPACING
DTCO.US/F  : COMPRESSIONAL-WAVE INTERVAL TRANSIT TIME ACOUSTIC SLOWNESS
DTSM.US/F  : SHEAR-WAVE INTERVAL TRANSIT TIME DELTA-T
~Params ----------------------------------------------------
~Other -----------------------------------------------------
~ASCII -----------------------------------------------------
# ...
 3337.00000    2.32960   57.53210    0.23480    2.41030    0.22240   -0.00060   11.39720    2.54650    1.55190    7.86080  -12.29290   80.55960   81.20530   80.01380  147.91080
 3337.50000    2.32960   57.90850    0.23750    2.39150    0.22200   -0.00060   11.66810    2.51800    1.57270    7.86800  -12.65690   80.46780   80.79130   80.59290  147.84150
 3338.00000    2.33530   59.22450    0.23600    2.40710    0.21810    0.00100   12.04870    2.52200    1.59780    7.87600  -12.52500   80.11830   80.35670   81.06910  147.37300
 3338.50000    2.34120   60.65460    0.23290    2.43920    0.21300    0.00150   11.91650    2.53000    1.62250    7.88410  -12.49260   79.56560   79.92210   80.45340  146.49420
 3339.00000    2.34640   60.85330    0.22980    2.47130    0.20930    0.00160   11.38910    2.53810    1.64580    7.89210  -12.31850   79.08300   79.48750   79.18360  144.28970
 3339.50000    2.35050   59.73440    0.22820    2.50340    0.20780    0.00170   10.94710    2.54610    1.66450    7.89910  -11.67290   78.84630   79.12100   78.29020  142.44080
 3340.00000    2.35450   58.83790    0.22700    2.45440    0.20570    0.00170   10.42820    2.54570    1.69810    7.90260  -10.39380   78.84630   79.01600   77.72790  141.82570
 3340.50000    2.35860   58.30770    0.22450    2.39430    0.20350    0.00180    9.88980    2.54150    1.73240    7.90360   -9.11990   78.81700   78.96760   77.33400  141.53240
 3341.00000    2.36420   60.14420    0.22020    2.38100    0.20150    0.00200    9.40700    2.53730    1.77200    7.90390   -8.58920   78.67090   78.86820   77.31890  141.62240
 3341.50000    2.36570   62.37530    0.21590    2.36780    0.20080    0.00230    8.94820    2.53310    1.83650    7.90400   -8.25430   78.52490   78.31550   77.31140  141.69240
 3342.00000    2.36570   61.98510    0.21470    2.32780    0.20200    0.00220    8.43270    2.52900    1.89260    7.90260   -7.69540   78.37880   77.71420   77.30380  141.74270
 3342.50000    2.36550   60.92700    0.21470    2.30220    0.20200    0.00210    7.89730    2.52480    1.94620    7.90230   -6.83180   78.23270   77.46790   77.30620  141.85610
 3343.00000    2.36600   59.71940    0.21410    2.30500    0.20170    0.00220    7.39590    2.52060    2.00650    7.90230   -5.96830   78.08660   77.55190   77.29560  141.87570
 3343.50000    2.36790   59.51970    0.21210    2.30780    0.20000    0.00230    6.97440    2.51800    2.09690    7.90230   -5.70270   77.98010   77.82170   77.16660  141.94290
 3344.00000    2.36970   59.70030    0.20900    2.32470    0.19890    0.00240    6.64010    2.51800    2.09690    7.90230   -5.60930   78.03130   78.09140   76.95710  141.65740
 3344.50000    2.36990   59.97040    0.20780    2.34460    0.19950    0.00250    6.45800    2.53770    2.05300    7.90490   -5.53640   78.55370   78.36110   76.87950  141.18150
 3345.00000    2.36490   60.32570    0.21060    2.36460    0.20190    0.00270    6.44620    2.54380    2.04460    7.90590   -5.37200   79.25290   78.63090   77.06440  139.16590
 3345.50000    2.35660   60.73470    0.21170    2.39550    0.20620    0.00250    6.44620    2.53660    2.08710    7.90340   -4.97070   79.59770   78.77570   77.61550  139.19340
 3346.00000    2.34880   61.26430    0.21260    2.42150    0.20900    0.00230    6.26510    2.51180    2.03650    7.90290   -4.51040   79.47920   78.57040   78.59780  140.69210
 3346.50000    2.34730   61.79390    0.21290    2.41480    0.21070    0.00210    5.63730    2.45380    1.96820    7.90540   -3.15130   78.86200   78.12600   78.84590  142.44600
 3347.00000    2.34730   62.53880    0.21270    2.39240    0.21110    0.00190    5.06360    2.41730    1.97100    7.90780   -0.80910   78.24600   77.68160   78.34670  142.66370
 3347.50000    2.34970   63.51310    0.21200    2.37000    0.20740    0.00160    4.79900    2.47210    2.13150    7.91030    2.58820   77.67320   77.23730   77.60720  142.33020
 3348.00000    2.36590   65.22140    0.21000    2.35060    0.19950    0.00140    4.67620    2.58190    2.34560    7.91270    6.91660   76.92780   76.31980   76.78290  141.05420
 3348.50000    2.39280   68.43080    0.19940    2.35490    0.18970    0.00120    4.53980    2.89990    2.64710    7.91510   12.44540   76.08420   75.16360   75.86470  139.44290
 3349.00000    2.41030   72.43430    0.19810    2.44670    0.17010    0.00100    4.46370    3.25710    2.98740    7.91760   16.80710   75.24060   74.00730   75.06150  136.99290
 3349.50000    2.42780   74.14260    0.20310    2.49870    0.16290    0.00070    4.66640    3.65840    3.37140    7.91790   20.27170   74.39700   72.85100   74.50330  135.32760
 3350.00000    2.43390   73.94560    0.21030    2.47430    0.16160    0.00070    4.87060    3.95960    3.65770    7.91980   22.64830   74.26250   72.84760   74.19500  134.44420
 3350.50000    2.43200   73.74860    0.21400    2.42330    0.16180    0.00070    4.62810    3.88590    3.45820    7.92130   23.95130   74.67470   73.36290   74.61140  134.71440
 3351.00000    2.41920   73.21860    0.21720    2.37240    0.16850    0.00060    4.14030    3.45730    2.82120    7.90830   20.55950   75.55100   74.31020   75.38130  135.68200
 3351.50000    2.40440   70.61090    0.22010    2.33070    0.17840    0.00040    3.73710    3.07600    2.40920    7.89530   15.16890   76.42740   75.25750   75.92050  136.66270
 3352.00000    2.38770   67.22260    0.22180    2.30090    0.18940    0.00020    3.42040    2.73680    2.16660    7.88240   11.13910   77.30380   76.20470   76.21660  138.21160
 3352.50000    2.36470   65.29550    0.22120    2.28450    0.19990   -0.00110    3.29480    2.43500    2.09590    7.86940    8.63610   78.08440   76.86280   76.46350  140.73190
 3353.00000    2.36220   65.81320    0.21750    2.29920    0.20160   -0.00270    3.17380    2.33940    2.12170    7.85640    8.94450   77.84440   76.91560   76.46710  141.67220
 3353.50000    2.36840   67.24470    0.20860    2.35330    0.20190   -0.00360    3.08520    2.51780    2.19880    7.84340   10.08880   76.79580   76.06030   76.40830  141.53950
 3354.00000    2.38880   70.63880    0.20030    2.44350    0.19750   -0.00370    3.16820    2.88310    2.35360    7.83050   13.22130   75.92250   74.82420   76.11120  139.27250
 3354.50000    2.41110   74.74740    0.19900    2.50540    0.17770   -0.00350    3.60000    3.32910    3.00500    7.82070   17.65620   75.13360   73.58820   75.48730  136.98380
 3355.00000    2.43070   76.74920    0.20120    2.47090    0.16380   -0.00340    4.42000    3.86450    3.68710    7.81980   21.21910   74.55020   72.82780   74.79850  134.69500
 3355.50000    2.43100   76.44580    0.20530    2.44560    0.16480   -0.00310    5.01390    3.79190    3.56530    7.81890   22.33280   74.55770   72.88160   74.08430  133.23940
 3356.00000    2.41760   74.48600    0.20600    2.42240    0.17160   -0.00210    4.60680    3.41000    3.13420    7.81780   19.92030   74.96510   73.50360   73.70360  133.91660
 3356.50000    2.40050   71.84490    0.20530    2.39910    0.17930   -0.00110    3.90500    3.06660    2.77540    7.82020   14.88910   75.37250   74.15400   74.10620  134.95330
 3357.00000    2.38980   68.36530    0.20440    2.37680    0.18800   -0.00010    3.73670    2.80300    2.56650    7.82750   12.56270   75.77990   74.75460   74.54490  135.68350
 3357.50000    2.37940   65.22770    0.20190    2.33250    0.19460    0.00160    3.70830    2.63990    2.45310    7.81250   11.87220   76.12290   75.26540   74.92930  136.24640
 3358.00000    2.37470   63.04750    0.20050    2.26440    0.19620    0.00340    3.82190    2.48840    2.38050    7.80560   10.39860   76.20170   75.61710   75.16370  136.70710
 3358.50000    2.37430   61.91730    0.20030    2.18740    0.19620    0.00680    4.05370    2.48120    2.33780    7.79240    8.51570   76.22650   75.63780   75.52430  136.93600
 3359.00000    2.37420   60.99480    0.20210    2.14740    0.19590    0.01020    4.33840    2.56270    2.29500    7.77920    6.36480   76.13420   75.52750   76.21990  137.16480
 3359.50000    2.37550   60.45110    0.20350    2.19050    0.19520    0.01280    4.74680    2.69230    2.32940    7.76610    4.22300   75.94880   75.39210   77.19050  137.39360
