~Version ---------------------------------------------------
VERS.   2.0 : CWLS log ASCII Standard -VERSION 2.0
WRAP.    NO : One line per depth step
DLM . SPACE : Column Data Section Delimiter
~Well ------------------------------------------------------
STRT .F                  163.0 : START DEPTH
STOP .F                 3833.0 : STOP DEPTH
STEP .F                    0.5 : STEP
NULL .                -9999.25 : NULL VALUE
COMP .                         : COMPANY
WELL .                         : WELL
FLD  .                         : FIELD
LOC  .                         : LOCATION
PROV .                         : PROVINCE
CNTY .                         : COUNTY
STAT .                         : STATE
CTRY .                         : COUNTRY
SRVC .                         : SERVICE COMPANY
DATE .                         : DATE
UWI  .                         : UNIQUE WELL ID
API  .                         : API NUMBER
SLAT .WGS84 2.7612299791547983 : SURFACE LATITUDE
SLON .WGS84   8.83024560873001 : SURFACE LONGITUDE
DATUM.F                3219.63 : DEPTH DATUM ELEV
~Curve Information -----------------------------------------
DEPT.F     : 
RHOB.G/C3  : BULK DENSITY
GRD .GAPI  : GAMMA RAY
NPHI.DEC   : NEUTRON POROSITY LIMESTONE
PEF .B/E   : PHOTOELECTRIC FACTOR
DPHI.DEC   : DENSITY POROSITY LIMESTONE
DRHO.G/C3  : DENSITY CORRECTION
AT10.OHMM  : 10-IN. RESISTIVITY, 2-FT RESOLUTION
AT30.OHMM  : 30-IN. RESISTIVITY, 2-FT RESOLUTION
AT90.OHMM  : 90-IN. RESISTIVITY, 2-FT RESOLUTION
CALR.IN    : CALIPER FROM RESISTIVITY
SPR .MV    : SPONTANEOUS POTENTIAL FROM RES.
DT  .US/F  : INTERVAL TRANSIT TIME
DTL .US/F  : DELTA-T LONG SPACING
DTCO.US/F  : COMPRESSIONAL-WAVE INTERVAL TRANSIT TIME ACOUSTIC SLOWNESS
DTSM.US/F  : SHEAR-WAVE INTERVAL TRANSIT TIME DELTA-T
~Params ----------------------------------------------------
~Other -----------------------------------------------------
~ASCII -----------------------------------------------------
# ...
 2624.00000    2.32390   67.31490    0.22510    2.35800    0.22450    0.00270   15.81150    7.43540    3.31540    8.23490  -42.17170   79.23720   77.98270   78.70560  146.58620
 2624.50000    2.33100   68.01330    0.22080    2.33140    0.22100    0.00390   20.74930    8.21900    3.56750    8.24180  -41.92930   79.17630   77.87950   77.35070  145.14520
 2625.00000    2.33810   69.23890    0.21720    2.33520    0.21750    0.00480   26.07670    9.16700    3.79970    8.25690  -41.30870   79.17140   78.19010   77.13370  144.03230
 2625.50000    2.34270   69.84130    0.21660    2.38400    0.21490    0.00400   28.50560    9.88660    3.78380    8.27250  -40.51050   79.26180   78.54190   77.44500  143.90820
 2626.00000    2.34420   68.79810    0.21860    2.39640    0.21520    0.00190   27.55940    9.99070    3.70880    8.28810  -40.70110   79.35250   78.89370   78.08250  143.82960
 2626.50000    2.34280   67.68320    0.22080    2.40290    0.21680    0.00080   26.28720    9.99070    3.63520    8.30380  -41.92820   79.44350   79.23710   78.33280  143.80770
 2627.00000    2.34110   67.06390    0.22240    2.37850    0.21950   -0.00070   26.63290   10.06320    3.65180    8.31940  -41.77130   79.53440   79.33910   78.40170  144.21840
 2627.50000    2.33520   66.95890    0.22340    2.36100    0.22470   -0.00240   27.36050   10.29860    3.83340    8.33500  -40.76670   79.62540   79.30250   78.94920  144.68520
 2628.00000    2.33000   67.18860    0.22040    2.35570    0.22680   -0.00460   29.43310   10.61210    4.11360    8.35060  -41.30480   79.71550   79.13890   80.20370  145.11310
 2628.50000    2.32630   67.27790    0.21930    2.34760    0.22650   -0.00670   32.09270   10.89480    4.34850    8.36620  -42.30900   79.78290   78.91370   80.81150  145.28880
 2629.00000    2.32660   66.78490    0.21930    2.36440    0.22420   -0.00660   34.80130   10.54950    4.56110    8.38180  -42.81840   79.85350   78.82790   79.20200  144.49430
 2629.50000    2.33080   66.13370    0.21950    2.37990    0.22070   -0.00670   36.72800   10.11120    4.60390    8.39740  -43.32780   79.93420   79.12070   77.97670  143.87870
 2630.00000    2.32990   66.17860    0.22140    2.39270    0.21990   -0.00690   29.08960    9.19990    4.13510    8.41610  -43.57270   80.30970   79.82720   77.76620  145.33310
 2630.50000    2.32140   66.14860    0.22460    2.40540    0.22200   -0.00710   17.63500    7.41420    3.39060    8.43440  -43.58580   81.04750   80.53370   78.44660  146.73780
 2631.00000    2.31050   66.02720    0.23590    2.38710    0.23630   -0.00740    9.72270    5.37480    2.65280    8.44950  -43.88320   81.78530   81.24020   79.36540  148.20020
 2631.50000    2.30360   65.82510    0.24990    2.36660    0.23930   -0.00590    7.28470    3.17360    2.24860    8.46360  -44.27170   82.84490   81.94660   80.90070  149.84750
 2632.00000    2.30270   65.78400    0.25970    2.36290    0.23920   -0.00270    7.16880    2.99360    2.07520    8.47440  -44.95370   83.97250   82.77410   82.49850  152.64480
 2632.50000    2.30350   65.74610    0.26090    2.35030    0.23870    0.00240    8.29910    2.95700    2.14330    8.47600  -44.39920   84.87170   83.94700   83.44780  154.81950
 2633.00000    2.30440   65.74820    0.26000    2.33060    0.23810    0.00990    9.99100    3.05200    2.21040    8.47620  -42.05250   85.00180   83.97800   83.53400  155.88600
 2633.50000    2.30590   65.91310    0.25810    2.33070    0.23650    0.01310   10.77140    3.13640    2.27960    8.47880  -40.98560   84.85290   83.87410   83.56250  156.21770
 2634.00000    2.30790   66.58170    0.25650    2.30300    0.23430    0.01110   11.30790    3.21990    2.35090    8.48620  -39.56000   84.73020   83.68260   83.40990  156.31950
 2634.50000    2.31350   68.07410    0.25590    2.28220    0.23080    0.00850   11.38500    3.27130    2.42040    8.49350  -38.06860   84.44740   83.49100   83.10770  156.38760
 2635.00000    2.31890   69.17670    0.25350    2.28790    0.22740    0.00600   10.91440    3.27130    2.48900    8.50080  -35.83020   83.93850   83.29940   83.02680  156.33660
 2635.50000    2.32430   67.37540    0.24910    2.29440    0.22440    0.00340   10.30760    3.26750    2.52500    8.50810  -33.76350   83.70490   83.13740   82.96120  156.05480
 2636.00000    2.32740   64.99510    0.24290    2.30200    0.22540    0.00060    9.93740    3.23220    2.58340    8.51540  -32.70200   83.82310   83.10280   82.95810  155.54050
 2636.50000    2.32510   63.84060    0.24000    2.30860    0.22750   -0.00110    9.55910    3.19720    2.66520    8.50190  -31.20110   83.99290   83.23680   82.78080  154.85380
 2637.00000    2.31430   64.71180    0.24000    2.31530    0.23290   -0.00250    9.05230    3.16260    2.68310    8.48180  -29.70020   84.08590   83.33450   82.60310  154.72090
 2637.50000    2.31360   65.05210    0.24230    2.31900    0.23310   -0.00340    8.30310    3.09460    2.60630    8.47600  -28.19920   84.11330   83.16860   82.55740  154.60150
 2638.00000    2.31490   64.72920    0.24490    2.32520    0.23080   -0.00350    7.46710    3.03680    2.53180    8.46180  -26.18550   83.97090   82.96750   82.55060  154.44660
 2638.50000    2.31730   64.13310    0.24320    2.35480    0.22800   -0.00350    7.00060    2.98130    2.46760    8.43540  -23.46050   83.78360   82.76630   82.54470  154.37730
 2639.00000    2.31960   64.33760    0.23930    2.38440    0.22710   -0.00230    7.06210    2.92680    2.48280    8.42310  -21.94110   83.59640   82.60250   82.47220  153.96360
 2639.50000    2.32200   64.49840    0.23540    2.39920    0.22510   -0.00190    7.42310    2.90390    2.53750    8.41080  -21.02070   83.40910   82.55800   82.34200  152.27020
 2640.00000    2.32440   64.28570    0.23240    2.40010    0.22170   -0.00150    7.34830    2.91710    2.58170    8.39860  -19.08920   83.22190   82.55820   82.32460  151.39910
 2640.50000    2.32710   63.85000    0.23040    2.40340    0.21980   -0.00110    7.07450    2.93030    2.59300    8.38630  -16.94610   83.04230   82.53330   82.32150  151.94940
 2641.00000    2.33000   63.90920    0.23110    2.44600    0.21860   -0.00050    6.86700    2.97310    2.60440    8.36520  -14.48970   82.79790   82.42940   82.07220  152.04430
 2641.50000    2.33280   64.97520    0.23850    2.48870    0.21860   -0.00060    6.93310    3.01940    2.67290    8.34050  -13.21880   82.51970   82.16540   81.55560  150.59770
 2642.00000    2.33570   66.55780    0.23810    2.52030    0.21890   -0.00160    6.92090    3.06640    2.76250    8.31590  -10.43890   82.24150   81.63170   80.29260  149.02310
 2642.50000    2.33720   68.07260    0.23010    2.52060    0.21890   -0.00260    6.73340    3.11410    2.80010    8.29130   -7.64940   81.96330   81.09800   78.88760  148.48400
 2643.00000    2.33650   68.76560    0.22350    2.49760    0.21930   -0.00360    6.47100    3.16250    2.81560    8.26670   -7.76360   81.49180   80.56430   78.37620  148.21680
 2643.50000    2.33740   69.14730    0.22660    2.43960    0.21940   -0.00410    6.27590    3.21170    2.88380    8.24200   -7.63890   80.88700   80.03060   78.33390  148.12170
 2644.00000    2.34010   69.87000    0.23090    2.39110    0.21790   -0.00400    6.15320    3.27440    2.93260    8.21730   -7.36180   80.28230   79.68210   78.22230  147.49140
 2644.50000    2.34680   70.79130    0.23520    2.38700    0.21340   -0.00280    5.98730    3.33400    2.98230    8.19480   -7.05360   80.07000   79.37120   77.42070  146.38710
 2645.00000    2.35580   72.53630    0.23810    2.42700    0.20840   -0.00140    5.75800    3.36740    3.03280    8.16720   -6.66670   79.92100   79.06040   76.95980  144.00580
 2645.50000    2.36480   74.22700    0.23790    2.46690    0.20170    0.00040    5.51560    3.37930    3.05330    8.13390   -5.30060   79.62820   78.74950   76.47160  139.69820
 2646.00000    2.37990   74.47470    0.23480    2.47850    0.19440    0.00200    5.54460    3.42270    3.17920    8.10020   -4.35930   79.05320   78.43860   76.31260  137.36990
 2646.50000    2.39560   74.46120    0.23120    2.48010    0.18520    0.00220    5.91820    3.57370    3.42780    8.06570   -3.59770   78.47730   77.60040   76.28080  136.11070
