~Version ---------------------------------------------------
VERS.   2.0 : CWLS log ASCII Standard -VERSION 2.0
WRAP.    NO : One line per depth step
DLM . SPACE : Column Data Section Delimiter
~Well ------------------------------------------------------
STRT .F                  163.0 : START DEPTH
STOP .F                 3833.0 : STOP DEPTH
STEP .F                    0.5 : STEP
NULL .                -9999.25 : NULL VALUE
COMP .                         : COMPANY
WELL .                         : WELL
FLD  .                         : FIELD
LOC  .                         : LOCATION
PROV .                         : PROVINCE
CNTY .                         : COUNTY
STAT .                         : STATE
CTRY .                         : COUNTRY
SRVC .                         : SERVICE COMPANY
DATE .                         : DATE
UWI  .                         : UNIQUE WELL ID
API  .                         : API NUMBER
SLAT .WGS84 2.7612299791547983 : SURFACE LATITUDE
SLON .WGS84   8.83024560873001 : SURFACE LONGITUDE
DATUM.F                3219.63 : DEPTH DATUM ELEV
~Curve Information -----------------------------------------
DEPT.F     : 
RHOB.G/C3  : BULK DENSITY
GRD .GAPI  : GAMMA RAY
NPHI.DEC   : NEUTRON POROSITY LIMESTONE
PEF .B/E   : PHOTOELECTRIC FACTOR
DPHI.DEC   : DENSITY POROSITY LIMESTONE
DRHO.G/C3  : DENSITY CORRECTION
AT10.OHMM  : 10-IN. RESISTIVITY, 2-FT RESOLUTION
AT30.OHMM  : 30-IN. RESISTIVITY, 2-FT RESOLUTION
AT90.OHMM  : 90-IN. RESISTIVITY, 2-FT RESOLUTION
CALR.IN    : CALIPER FROM RESISTIVITY
SPR .MV    : SPONTANEOUS POTENTIAL FROM RES.
DT  .US/F  : INTERVAL TRANSIT TIME
DTL .US/F  : DELTA-T LONG SPACING
DTCO.US/F  : COMPRESSIONAL-WAVE INTERVAL TRANSIT TIME ACOUSTIC SLOWNESS
DTSM.US/F  : SHEAR-WAVE INTERVAL TRANSIT TIME DELTA-T
~Params ----------------------------------------------------
~Other -----------------------------------------------------
~ASCII -----------------------------------------------------
# ...
 3590.00000    2.41850   59.91440    0.19710    2.41070    0.17320   -0.00180    2.44430    2.55080    2.68140    7.59600    0.82650   74.55220   75.97290   74.76480  133.12180
 3590.50000    2.42510   59.53860    0.17900    2.36390    0.17200   -0.00090    2.54860    2.66230    2.79270    7.59600    1.46820   73.36330   75.38130   74.69750  129.85830
 3591.00000    2.42820   59.89570    0.17620    2.33280    0.16740    0.00140    2.65730    2.75580    2.84920    7.59650    0.98330   72.95630   74.43320   74.24900  128.35540
 3591.50000    2.42890   61.56770    0.17600    2.32640    0.16430    0.00290    2.61670    2.65080    2.74840    7.59660    0.47510   73.09970   74.09300   74.02310  130.32950
 3592.00000    2.41240   63.39210    0.18170    2.31990    0.16800    0.00410    2.47010    2.51630    2.60870    7.59200   -0.30680   73.38310   74.52410   74.14070  133.03990
 3592.50000    2.40810   63.90300    0.19250    2.31610    0.17600    0.00330    2.33170    2.38860    2.46890    7.59710   -0.51370   73.66660   75.00960   74.46600  133.63430
 3593.00000    2.40730   62.41010    0.19900    2.32140    0.17600    0.00240    2.31270    2.36000    2.40140    7.60660    0.36010   73.89100   75.49500   74.74920  132.10810
 3593.50000    2.42940   59.88660    0.19930    2.38580    0.17430    0.00110    2.42100    2.49390    2.59230    7.59780    2.28360   73.86290   75.53460   74.67130  130.46960
 3594.00000    2.44970   56.52920    0.19370    2.50180    0.15660   -0.00010    2.73540    2.88440    3.00330    7.59650    5.23950   73.00960   74.80180   73.45340  128.95500
 3594.50000    2.46820   56.12920    0.17010    2.62680    0.14480   -0.00130    3.23760    3.39550    3.61730    7.59600    7.88530   71.98450   73.62900   71.82880  127.63980
 3595.00000    2.48080   56.15830    0.15860    2.69250    0.13410   -0.00260    3.76190    3.95520    4.09220    7.59600    9.81300   70.49310   72.45610   70.56920  126.83910
 3595.50000    2.49260   56.97230    0.15390    2.74600    0.13000   -0.00200    4.13930    4.23490    4.36540    7.59600   10.98200   69.44620   71.28320   70.14620  124.38890
 3596.00000    2.49610   57.64400    0.15040    2.72080    0.12670   -0.00110    4.40420    4.48700    4.55050    7.59610   11.27000   68.87830   70.92700   69.85190  123.17460
 3596.50000    2.49650   57.80710    0.14710    2.63500    0.12570   -0.00020    4.41990    4.53040    4.58590    7.59810   10.92650   68.85010   71.01990   69.77640  124.40010
 3597.00000    2.49250   58.68470    0.14680    2.53870    0.12740    0.00070    3.89240    4.12820    4.27360    7.59850    9.64340   69.77350   71.79760   70.74460  125.82650
 3597.50000    2.48610   59.85710    0.14870    2.45320    0.13040    0.00160    3.28580    3.59410    3.79350    7.59850    7.80700   71.39900   72.65520   72.33400  127.04790
 3598.00000    2.47390   61.03030    0.15960    2.43070    0.13740    0.00250    2.93690    3.11280    3.28950    7.59850    5.53950   72.46940   73.51290   73.46500  128.75970
 3598.50000    2.45870   62.00310    0.17710    2.43460    0.14550    0.00330    2.62500    2.75630    2.85240    7.59500    3.15800   73.51870   74.37050   74.12720  130.25220
 3599.00000    2.43910   62.40130    0.18790    2.43460    0.15530    0.00410    2.46680    2.57220    2.61430    7.57670    2.25720   74.08350   75.22810   74.61960  132.10240
 3599.50000    2.41790   61.06740    0.19320    2.43460    0.16440    0.00490    2.33810    2.40950    2.47070    7.56210    1.60680   74.64830   75.86300   74.89390  133.85110
 3600.00000    2.41470   59.93040    0.19790    2.39900    0.17010    0.00570    2.22160    2.29930    2.34230    7.56660    1.08010   75.21320   76.27370   75.08490  135.59980
 3600.50000    2.41290   59.91900    0.19960    2.35750    0.17300    0.00650    2.19260    2.25470    2.29850    7.57600    0.71720   75.33650   76.47990   75.27590  136.65320
 3601.00000    2.41290   61.23380    0.19850    2.36040    0.17320    0.00650    2.25330    2.30400    2.38530    7.58530    0.73300   75.32790   76.51130   74.95230  136.13950
 3601.50000    2.41840   63.12520    0.19440    2.43010    0.17210    0.00570    2.35990    2.42080    2.48720    7.59460    1.72470   75.05350   76.39630   74.60430  134.32480
 3602.00000    2.42400   64.44990    0.19180    2.45650    0.16890    0.00400    2.52810    2.61450    2.71640    7.59590    2.71640   74.56130   76.08200   73.82730  131.20530
 3602.50000    2.43190   66.63410    0.19130    2.43730    0.16480    0.00200    2.84610    3.02920    3.17480    7.59440    3.70810   73.98750   75.76770   72.51760  128.81590
 3603.00000    2.44020   67.79710    0.19140    2.41820    0.16020   -0.00130    3.34900    3.44870    3.58060    7.59680    6.84650   73.56810   75.45340   72.24340  127.19120
 3603.50000    2.44120   67.68940    0.19370    2.39910    0.15710   -0.00380    3.70040    3.78120    3.85510    7.59630    9.57390   73.55090   75.15550   72.97650  126.73690
 3604.00000    2.43340   67.18000    0.19750    2.35490    0.15840   -0.00520    3.44990    3.59920    3.74040    7.59600    7.77150   73.87600   75.02520   73.02570  126.67690
 3604.50000    2.42580   66.63370    0.19990    2.30260    0.16360   -0.00660    2.95850    3.11680    3.24210    7.59600    4.45820   74.20120   75.04390   73.03350  126.61680
 3605.00000    2.41930   66.33420    0.20060    2.27830    0.16880   -0.00540    2.74410    2.84250    2.91090    7.59600    1.43460   74.52630   75.41720   73.57870  128.87470
 3605.50000    2.41730   65.78200    0.20000    2.30080    0.17060   -0.00370    2.62750    2.69940    2.75130    7.59600    0.61270   74.69280   75.79480   74.51450  131.72370
 3606.00000    2.41690   64.33060    0.19660    2.31300    0.17110   -0.00220    2.57730    2.65630    2.71580    7.59660    0.64050   74.51660   76.17240   75.30050  133.66560
 3606.50000    2.41760   62.67290    0.19300    2.31540    0.17150   -0.00040    2.55420    2.63810    2.70510    7.59800    0.66830   74.32560   76.35270   75.48640  132.04780
 3607.00000    2.42150   60.68640    0.18920    2.31060    0.16970    0.00210    2.54960    2.64150    2.68760    7.59370   -0.01770   74.13450   76.34020   75.66100  130.56800
 3607.50000    2.42740   60.26880    0.18520    2.29880    0.16560    0.00450    2.56800    2.64490    2.69030    7.58940   -0.40900   73.94340   76.17780   75.90940  130.78030
 3608.00000    2.43330   61.01780    0.18240    2.32050    0.16180    0.00580    2.61690    2.65820    2.71080    7.58510    0.64160   73.84000   75.88330   75.38420  131.33040
 3608.50000    2.43930   62.30800    0.18270    2.36910    0.15890    0.00690    2.67910    2.71240    2.75460    7.58080    1.53250   73.71540   75.58880   74.83650  131.88050
 3609.00000    2.45000   62.24600    0.18990    2.41780    0.15620    0.00700    2.74280    2.79420    2.84690    7.57650    2.03560   73.29430   75.29420   74.85300  132.40450
 3609.50000    2.46310   61.83360    0.19340    2.46490    0.14990    0.00590    2.90810    2.98340    3.07690    7.58700    3.62770   72.10010   74.73620   74.89380  130.48200
 3610.00000    2.47620   62.38210    0.18950    2.50100    0.14100    0.00540    3.28430    3.45580    3.66440    7.55810    6.10140   70.98460   73.58500   74.57020  127.57300
 3610.50000    2.48930   63.55430    0.18400    2.51690    0.12970    0.00480    4.08400    4.33540    4.58250    7.54700    9.06700   69.95040   72.43380   73.59250  124.85730
 3611.00000    2.50550   63.79610    0.17230    2.56570    0.12030    0.00300    4.83510    4.99920    5.33220    7.55540   10.75600   68.94140   71.28260   71.37840  123.16550
 3611.50000    2.51900   63.45010    0.15380    2.62340    0.11370    0.00130    5.34500    5.50940    5.75120    7.55970   12.27000   67.93230   70.13140   70.28910  121.12220
 3612.00000    2.52150   63.78020    0.15230    2.66220    0.11120    0.00100    5.74960    5.95700    6.20310    7.55710   13.14790   67.74910   69.56060   69.98510  120.04700
 3612.50000    2.51350   64.63270    0.15290    2.66820    0.11100    0.00100    6.17300    6.43510    6.69060    7.55580   14.02490   67.95860   69.97220   69.84400  119.59720
