~Version ---------------------------------------------------
VERS.   2.0 : CWLS log ASCII Standard -VERSION 2.0
WRAP.    NO : One line per depth step
DLM . SPACE : Column Data Section Delimiter
~Well ------------------------------------------------------
STRT .F                  163.0 : START DEPTH
STOP .F                 3833.0 : STOP DEPTH
STEP .F                    0.5 : STEP
NULL .                -9999.25 : NULL VALUE
COMP .                         : COMPANY
WELL .                         : WELL
FLD  .                         : FIELD
LOC  .                         : LOCATION
PROV .                         : PROVINCE
CNTY .                         : COUNTY
STAT .                         : STATE
CTRY .                         : COUNTRY
SRVC .                         : SERVICE COMPANY
DATE .                         : DATE
UWI  .                         : UNIQUE WELL ID
API  .                         : API NUMBER
SLAT .WGS84 2.7612299791547983 : SURFACE LATITUDE
SLON .WGS84   8.83024560873001 : SURFACE LONGITUDE
DATUM.F                3219.63 : DEPTH DATUM ELEV
~Curve Information -----------------------------------------
DEPT.F     : 
RHOB.G/C3  : BULK DENSITY
GRD .GAPI  : GAMMA RAY
NPHI.DEC   : NEUTRON POROSITY LIMESTONE
PEF .B/E   : PHOTOELECTRIC FACTOR
DPHI.DEC   : DENSITY POROSITY LIMESTONE
DRHO.G/C3  : DENSITY CORRECTION
AT10.OHMM  : 10-IN. RESISTIVITY, 2-FT RESOLUTION
AT30.OHMM  : 30-IN. RESISTIVITY, 2-FT RESOLUTION
AT90.OHMM  : 90-IN. RESISTIVITY, 2-FT RESOLUTION
CALR.IN    : CALIPER FROM RESISTIVITY
SPR .MV    : SPONTANEOUS POTENTIAL FROM RES.
DT  .US/F  : INTERVAL TRANSIT TIME
DTL .US/F  : DELTA-T LONG SPACING
DTCO.US/F  : COMPRESSIONAL-WAVE INTERVAL TRANSIT TIME ACOUSTIC SLOWNESS
DTSM.US/F  : SHEAR-WAVE INTERVAL TRANSIT TIME DELTA-T
~Params ----------------------------------------------------
~Other -----------------------------------------------------
~ASCII -----------------------------------------------------
# ...
 3429.00000    2.30030   61.50030    0.24220    2.28830    0.23900   -0.00230    4.36730    1.40260    1.19170    8.39520   -8.57250   84.19540   84.07680   81.90420  155.80530
 3429.50000    2.30190   60.48170    0.24060    2.26520    0.23930   -0.00350    4.29840    1.40530    1.18750    8.39520   -7.31600   84.36680   84.20510   81.94990  155.41930
 3430.00000    2.30330   59.19370    0.23990    2.25540    0.23900   -0.00480    4.17830    1.39790    1.18510    8.39480   -6.79380   84.53830   84.33330   82.15830  155.27370
 3430.50000    2.30340   57.85610    0.23980    2.24560    0.23870   -0.00610    4.01190    1.38330    1.18460    8.39420   -6.47430   84.70980   84.46160   82.29340  155.14420
 3431.00000    2.29970   56.58910    0.24030    2.24590    0.23890   -0.00740    3.84530    1.36890    1.18180    8.39370   -6.78700   84.88130   84.58990   82.36310  155.01480
 3431.50000    2.29850   55.55560    0.24140    2.25360    0.23940   -0.00780    3.63000    1.35460    1.17210    8.39060   -6.57890   84.97030   84.66360   82.44300  155.04980
 3432.00000    2.29830   55.41090    0.24400    2.25500    0.23990   -0.00760    3.60990    1.34870    1.18620    8.38940   -6.27950   85.03570   84.47910   82.48360  155.35050
 3432.50000    2.29890   55.37300    0.24720    2.25840    0.24010   -0.00700    3.60660    1.34370    1.19110    8.37600   -6.38160   85.03860   84.12730   82.49000  155.45390
 3433.00000    2.30010   55.67900    0.25040    2.26520    0.24010   -0.00560    3.59870    1.34300    1.19860    8.35640   -6.64400   84.95200   83.77540   82.50750  154.98680
 3433.50000    2.30250   55.95440    0.25250    2.26560    0.23910   -0.00310    3.55210    1.34250    1.20580    8.33250   -6.99790   84.75510   83.42350   82.58360  154.58510
 3434.00000    2.30670   57.03470    0.25390    2.26440    0.23620   -0.00010    3.45180    1.36180    1.21040    8.30840   -6.90870   84.55820   83.10960   82.58060  154.27420
 3434.50000    2.31120   59.11010    0.25360    2.26510    0.23260    0.00200    3.49270    1.38430    1.22100    8.28690   -6.81950   84.36130   82.84610   82.12470  154.25620
 3435.00000    2.31560   61.24230    0.25200    2.30110    0.22890    0.00360    3.58880    1.40710    1.25430    8.26540   -6.73040   84.01850   82.66610   81.92750  153.63880
 3435.50000    2.31950   61.84120    0.24780    2.33880    0.22810    0.00460    3.68750    1.43030    1.29060    8.24390   -6.67820   83.64160   82.53630   81.90760  152.07710
 3436.00000    2.32170   61.13800    0.24070    2.37050    0.22750    0.00530    3.72170    1.45680    1.31120    8.22230   -6.56460   83.26480   82.23950   81.88900  150.96250
 3436.50000    2.32360   59.63510    0.23910    2.39330    0.22680    0.00440    3.65690    1.48310    1.33020    8.20080   -5.80500   82.92810   81.92740   81.87960  150.32730
 3437.00000    2.32540   58.22310    0.24130    2.38430    0.22500    0.00350    3.57920    1.49600    1.34790    8.17930   -4.60140   82.63900   81.59460   81.80200  150.11080
 3437.50000    2.32810   57.18630    0.24400    2.34980    0.22320    0.00260    3.50330    1.51420    1.35580    8.15780   -3.41780   82.37710   81.26170   81.51720  149.72500
 3438.00000    2.33100   57.38980    0.24400    2.33820    0.22140    0.00240    3.47610    1.54180    1.38460    8.13630   -2.76730   82.11520   80.92890   81.01890  149.11870
 3438.50000    2.33380   57.78270    0.23960    2.33870    0.21980    0.00240    3.46560    1.56990    1.41400    8.13150   -2.33250   81.85320   80.59610   79.95350  148.27720
 3439.00000    2.33640   57.65840    0.23250    2.30930    0.21820    0.00240    3.56850    1.59860    1.45620    8.12930   -1.98490   81.36680   80.08820   78.67500  147.03970
 3439.50000    2.33960   55.94470    0.23120    2.26710    0.21620    0.00240    3.55220    1.62770    1.48770    8.11780   -1.44610   80.76400   79.54980   78.08550  146.52280
 3440.00000    2.34530   54.37090    0.22980    2.25360    0.21310    0.00250    3.46600    1.65740    1.51900    8.09820   -1.45840   80.16120   79.01130   78.04710  146.42860
 3440.50000    2.35100   53.75100    0.22730    2.25350    0.20910    0.00250    3.39790    1.68960    1.55230    8.07860   -1.47070   79.56780   78.47270   78.01850  146.39300
 3441.00000    2.35670   54.45320    0.22370    2.26490    0.20510    0.00240    3.35970    1.72240    1.61480    8.05900   -1.30670   79.09740   77.93420   77.92760  146.18570
 3441.50000    2.36220   55.52270    0.21770    2.27870    0.20270    0.00250    3.30760    1.75580    1.66590    8.03940   -0.20810   78.34760   77.40330   77.72360  145.70470
 3442.00000    2.36330   56.44560    0.21810    2.29260    0.20310    0.00240    3.19990    1.78990    1.71660    8.01890    0.89060   77.89430   77.04980   77.21480  144.72940
 3442.50000    2.36240   57.65350    0.21960    2.29500    0.20380    0.00230    3.09560    1.82190    1.76480    7.99590    2.58740   77.59280   76.69640   76.61400  143.45340
 3443.00000    2.36240   59.03040    0.21970    2.30660    0.20380    0.00090    3.06020    1.85320    1.79460    7.97020    3.56120   77.32840   76.38320   76.04210  142.38300
 3443.50000    2.36240   59.28100    0.21970    2.31650    0.20350   -0.00140    3.07870    1.88510    1.82780    7.94460    4.37740   77.23440   76.34710   75.75550  141.66460
 3444.00000    2.36270   59.05480    0.21750    2.32380    0.20220   -0.00340    3.11050    1.91750    1.85070    7.91890    5.42440   77.14030   76.34710   75.65500  140.95730
 3444.50000    2.36610   59.01580    0.21130    2.33820    0.19990   -0.00480    3.14250    1.95040    1.87500    7.89320    6.58020   77.01750   76.32710   75.58590  139.81000
 3445.00000    2.37040   61.25500    0.20960    2.36010    0.19760   -0.00530    3.12460    1.98400    1.90580    7.88140    7.90710   76.88490   76.22840   75.31300  138.66260
 3445.50000    2.37420   63.23520    0.20870    2.40260    0.19680   -0.00440    3.07620    2.04780    1.93550    7.87280    8.62430   76.73320   75.94060   76.05710  137.43860
 3446.00000    2.37500   63.62180    0.20730    2.40350    0.19730   -0.00350    3.04160    2.09970    1.97400    7.85390    9.08780   76.34390   75.72370   77.41000  137.24450
 3446.50000    2.37620   63.47950    0.20550    2.37400    0.19720   -0.00260    3.00750    2.15300    2.02620    7.83510    9.55120   75.96650   75.43930   77.86570  137.24440
 3447.00000    2.37840   63.49610    0.20170    2.36400    0.19550   -0.00170    2.98080    2.23350    2.08790    7.81620   10.09730   75.32890   75.01610   77.09230  137.26940
 3447.50000    2.39200   63.21460    0.19270    2.35390    0.18440   -0.00080    3.00760    2.32520    2.16690    7.79740   10.79800   74.65710   74.59300   76.10910  137.13670
 3448.00000    2.40810   61.67940    0.18540    2.34390    0.17450   -0.00010    3.18080    2.43580    2.31920    7.77860   11.93230   73.98540   74.16980   75.29950  135.92320
 3448.50000    2.42150   59.60530    0.17830    2.34330    0.16910    0.00010    3.36900    2.55170    2.48150    7.75970   13.01490   73.31360   73.88480   74.65220  134.82130
 3449.00000    2.42120   59.04250    0.18210    2.35140    0.16910   -0.00140    3.56830    2.66670    2.60920    7.74090   13.41690   72.90790   73.89880   74.28450  134.76350
 3449.50000    2.40770   59.28070    0.18920    2.34500    0.17690   -0.00300    3.60050    2.62550    2.54900    7.72410   13.03510   73.44550   74.31470   74.52260  135.10120
 3450.00000    2.39520   59.27020    0.19550    2.34090    0.18740   -0.00500    3.49700    2.55160    2.38680    7.69810   11.37350   74.34040   74.73070   75.44940  135.74590
 3450.50000    2.38430   59.19700    0.20020    2.33740    0.19040   -0.00730    3.39650    2.47980    2.28710    7.67830    9.51080   75.23530   75.14660   75.85220  136.39070
 3451.00000    2.38310   58.36710    0.20520    2.31910    0.19110   -0.00790    3.39190    2.47350    2.33600    7.66840    9.00800   76.13010   75.56260   75.98070  136.74590
 3451.50000    2.38300   59.11240    0.20500    2.30280    0.19130   -0.00730    3.46510    2.51820    2.38440    7.64970    9.87300   76.52420   75.89430   75.85120  135.14710
