~Version ---------------------------------------------------
VERS.   2.0 : CWLS log ASCII Standard -VERSION 2.0
WRAP.    NO : One line per depth step
DLM . SPACE : Column Data Section Delimiter
~Well ------------------------------------------------------
STRT .F                  163.0 : START DEPTH
STOP .F                 3833.0 : STOP DEPTH
STEP .F                    0.5 : STEP
NULL .                -9999.25 : NULL VALUE
COMP .                         : COMPANY
WELL .                         : WELL
FLD  .                         : FIELD
LOC  .                         : LOCATION
PROV .                         : PROVINCE
CNTY .                         : COUNTY
STAT .                         : STATE
CTRY .                         : COUNTRY
SRVC .                         : SERVICE COMPANY
DATE .                         : DATE
UWI  .                         : UNIQUE WELL ID
API  .                         : API NUMBER
SLAT .WGS84 2.7612299791547983 : SURFACE LATITUDE
SLON .WGS84   8.83024560873001 : SURFACE LONGITUDE
DATUM.F                3219.63 : DEPTH DATUM ELEV
~Curve Information -----------------------------------------
DEPT.F     : 
RHOB.G/C3  : BULK DENSITY
GRD .GAPI  : GAMMA RAY
NPHI.DEC   : NEUTRON POROSITY LIMESTONE
PEF .B/E   : PHOTOELECTRIC FACTOR
DPHI.DEC   : DENSITY POROSITY LIMESTONE
DRHO.G/C3  : DENSITY CORRECTION
AT10.OHMM  : 10-IN. RESISTIVITY, 2-FT RESOLUTION
AT30.OHMM  : 30-IN. RESISTIVITY, 2-FT RESOLUTION
AT90.OHMM  : 90-IN. RESISTIVITY, 2-FT RESOLUTION
CALR.IN    : CALIPER FROM RESISTIVITY
SPR .MV    : SPONTANEOUS POTENTIAL FROM RES.
DT  .US/F  : INTERVAL TRANSIT TIME
DTL .US/F  : DELTA-T LONG SPACING
DTCO.US/F  : COMPRESSIONAL-WAVE INTERVAL TRANSIT TIME ACOUSTIC SLOWNESS
DTSM.US/F  : SHEAR-WAVE INTERVAL TRANSIT TIME DELTA-T
~Params ----------------------------------------------------
~Other -----------------------------------------------------
~ASCII -----------------------------------------------------
# ...
 3245.00000    2.34810   71.58410    0.23260    2.40610    0.21340   -0.00180    4.75200    2.02020    1.72550    7.86930    0.62440   80.29600   79.65940   78.40990  145.80850
 3245.50000    2.35470   71.59250    0.23340    2.39900    0.20980   -0.00100    4.58540    2.01210    1.73530    7.87200    1.51020   79.94510   79.46300   78.90200  145.83400
 3246.00000    2.35670   71.23070    0.23210    2.39200    0.20590    0.00020    4.44420    2.00400    1.77220    7.86460    2.24650   79.59420   79.22940   79.42250  145.41160
 3246.50000    2.35860   71.14340    0.22800    2.37810    0.20480    0.00230    4.35650    1.99600    1.80870    7.86610    2.50240   79.28290   79.07020   79.71500  144.89640
 3247.00000    2.36090   71.79010    0.22100    2.35380    0.20510    0.00450    4.25590    2.01850    1.85090    7.86690    2.67680   79.22230   79.00170   79.71500  144.39950
 3247.50000    2.36330   73.48380    0.21800    2.38240    0.20490    0.00480    4.02310    2.05100    1.88620    7.86460    3.36140   79.16170   78.94610   79.71500  144.06150
 3248.00000    2.36810   74.43970    0.21740    2.43350    0.20240    0.00390    3.75650    2.08640    1.94270    7.86270    5.45690   79.09280   78.83270   79.54060  143.76690
 3248.50000    2.37580   74.63060    0.21760    2.48780    0.19760    0.00180    3.50750    2.13680    2.00490    7.85940    7.79710   78.77440   78.34620   79.11020  143.29150
 3249.00000    2.38580   75.02710    0.21690    2.53690    0.19270    0.00040    3.28900    2.22410    2.06850    7.85190   10.15520   78.45590   77.62810   78.67970  142.50970
 3249.50000    2.39890   77.02610    0.21520    2.58600    0.18760    0.00090    3.23220    2.35550    2.18150    7.83950   12.70070   77.10850   76.65740   78.37070  141.21640
 3250.00000    2.41200   80.21560    0.21520    2.62090    0.17630    0.00320    3.31580    2.63180    2.50410    7.82720   15.54440   76.74640   75.85670   78.05430  139.60090
 3250.50000    2.42420   81.07260    0.21560    2.63750    0.16660    0.00380    3.63570    2.94050    2.82760    7.81480   18.38810   75.93870   75.37720   77.73750  138.08600
 3251.00000    2.43650   82.46730    0.21810    2.63590    0.15960    0.00410    3.98640    3.28540    3.10880    7.80240   21.29760   75.21870   75.00120   76.97450  137.26660
 3251.50000    2.44640   86.80960    0.22410    2.61060    0.15370    0.00290    4.37090    3.67080    3.50840    7.79000   23.55930   75.11950   74.93530   76.23500  136.64100
 3252.00000    2.45560   91.47920    0.23770    2.56560    0.14830    0.00320    4.79260    4.10140    3.89440    7.77770   25.91170   75.17710   75.02610   75.52090  136.21620
 3252.50000    2.45930   93.34010    0.23850    2.52060    0.14540    0.00140    5.31720    4.28110    4.17880    7.77780   27.45960   75.34560   75.11680   75.19630  135.59510
 3253.00000    2.45260   89.64970    0.23520    2.48040    0.14890   -0.00240    5.28980    4.18100    3.65770    7.77780   24.89040   75.60710   75.23850   75.42030  134.78120
 3253.50000    2.43000   84.14260    0.22150    2.45080    0.16410   -0.00570    5.03060    3.55380    2.95370    7.77780   18.79010   76.19180   75.70960   75.77790  134.57590
 3254.00000    2.40290   79.47520    0.21360    2.43530    0.18300   -0.00900    4.96800    3.19630    2.61800    7.77500   13.42100   76.77660   76.18070   76.08240  136.14120
 3254.50000    2.36740   75.99360    0.21430    2.42900    0.20140   -0.01010    5.40900    3.00990    2.37690    7.76840    6.94480   77.36130   76.65170   76.79030  137.76820
 3255.00000    2.35460   72.81600    0.21450    2.40660    0.20890   -0.00710    5.87810    2.83440    2.25750    7.76910    1.43410   77.67300   77.12280   77.15390  138.93610
 3255.50000    2.35710   70.47120    0.21360    2.36840    0.20900   -0.00390    6.00870    2.66910    2.13170    7.77800   -0.32870   77.46740   77.22470   77.08180  138.23260
 3256.00000    2.36770   68.71360    0.21550    2.35950    0.20050    0.00040    5.98320    2.51660    2.05490    7.77740   -1.52620   77.21270   77.25660   76.70610  137.44870
 3256.50000    2.37550   67.25810    0.21950    2.38870    0.19380    0.00400    5.82160    2.39370    1.98750    7.78000   -2.72370   76.99770   77.28720   76.28070  136.86680
 3257.00000    2.37850   67.23460    0.22300    2.41770    0.19270    0.00550    5.70970    2.27670    1.92840    7.78720   -3.69030   76.97930   77.38540   76.14350  136.61740
 3257.50000    2.37730   67.30450    0.22290    2.36470    0.19420    0.00590    5.90100    2.21480    1.87080    7.79440   -4.38610   77.30600   77.53660   76.76680  137.09270
 3258.00000    2.37400   66.91180    0.21820    2.31410    0.19650    0.00520    6.57140    2.25490    1.85510    7.80150   -5.15470   77.63260   77.68780   77.32540  137.78790
 3258.50000    2.37370   65.96780    0.21320    2.27950    0.19730    0.00390    7.40050    2.28450    1.82240    7.80870   -5.60370   77.88060   77.69970   77.60080  138.45930
 3259.00000    2.37340   66.29080    0.20980    2.23990    0.19670    0.00220    8.21130    2.30670    1.78250    7.81590   -6.19530   77.95930   77.38070   77.69580  140.14450
 3259.50000    2.37190   66.69400    0.20660    2.27210    0.19670    0.00040    8.68130    2.32060    1.76400    7.82310   -6.82040   78.00630   77.38000   77.72440  141.82970
 3260.00000    2.36780   66.83410    0.20490    2.25910    0.19820   -0.00070    8.72690    2.27680    1.71310    7.83030   -7.42540   78.06320   77.55870   77.81690  142.08900
 3260.50000    2.36370   66.73620    0.20490    2.23980    0.20330    0.00020    8.84400    2.24820    1.66290    7.83750   -7.71160   78.16160   77.82080   77.99270  142.24500
 3261.00000    2.36070   66.47020    0.20840    2.23900    0.20650    0.00160    9.09290    2.26550    1.67180    7.84460   -7.93890   78.26000   78.07710   78.24590  142.79050
 3261.50000    2.35770   65.96560    0.21130    2.29040    0.20760    0.00340   10.32220    2.31010    1.69170    7.85380   -8.82350   78.50040   78.33330   78.63800  143.57930
 3262.00000    2.35470   63.77360    0.21180    2.37360    0.20950    0.00370   11.75520    2.35560    1.69230    7.85540   -9.70820   79.11730   78.58950   79.44860  144.35900
 3262.50000    2.35180   62.85820    0.21330    2.39450    0.21130    0.00370   12.31870    2.38980    1.66520    7.85490  -10.39900   79.50510   78.74690   80.53020  143.67290
 3263.00000    2.34370   63.05650    0.21530    2.40980    0.21400    0.00260   11.60510    2.39410    1.61940    7.85430  -10.28490   79.31920   78.85670   81.48150  142.74530
 3263.50000    2.33910   63.47360    0.22180    2.43930    0.21570   -0.00090   10.39450    2.33260    1.58030    7.85790   -9.41080   78.96780   78.61280   81.49260  143.46470
 3264.00000    2.33800   64.34750    0.22260    2.46870    0.21680   -0.00460    9.38610    2.25290    1.56650    7.87610   -8.64440   78.61640   77.69430   80.83090  144.38330
 3264.50000    2.34020   65.22360    0.22210    2.47670    0.21680   -0.00820    8.47560    2.17580    1.56830    7.89350   -7.81880   78.25970   76.77580   79.97750  144.64700
 3265.00000    2.34750   66.77540    0.21720    2.48460    0.21580   -0.00870    7.86970    2.10140    1.57790    7.89370   -6.21810   77.87050   75.85730   78.39020  143.40680
 3265.50000    2.36010   66.79090    0.21010    2.50830    0.20490   -0.00660    6.92770    2.05570    1.60070    7.89390   -4.24460   76.14660   74.93880   76.77190  141.49500
 3266.00000    2.38240   64.41860    0.19540    2.52010    0.18170   -0.00310    6.02060    2.04800    1.62860    7.89030   -2.27110   74.89680   74.02030   76.36180  139.38580
 3266.50000    2.40020   61.09220    0.18350    2.52070    0.17560   -0.00230    5.59280    2.04250    1.62630    7.89290   -0.57840   74.58420   73.59610   76.11240  137.82650
 3267.00000    2.39800   60.43120    0.18940    2.49320    0.18310   -0.00230    5.65390    2.03150    1.61250    7.90930   -0.12000   75.04010   73.73930   76.17150  137.73150
 3267.50000    2.37840   62.06630    0.20170    2.47810    0.19200   -0.00340    6.01320    2.01880    1.58710    7.92170   -1.38830   76.38320   75.16270   76.39190  139.16080
