~Version ---------------------------------------------------
VERS.   2.0 : CWLS log ASCII Standard -VERSION 2.0
WRAP.    NO : One line per depth step
DLM . SPACE : Column Data Section Delimiter
~Well ------------------------------------------------------
STRT .F                  163.0 : START DEPTH
STOP .F                 3833.0 : STOP DEPTH
STEP .F                    0.5 : STEP
NULL .                -9999.25 : NULL VALUE
COMP .                         : COMPANY
WELL .                         : WELL
FLD  .                         : FIELD
LOC  .                         : LOCATION
PROV .                         : PROVINCE
CNTY .                         : COUNTY
STAT .                         : STATE
CTRY .                         : COUNTRY
SRVC .                         : SERVICE COMPANY
DATE .                         : DATE
UWI  .                         : UNIQUE WELL ID
API  .                         : API NUMBER
SLAT .WGS84 2.7612299791547983 : SURFACE LATITUDE
SLON .WGS84   8.83024560873001 : SURFACE LONGITUDE
DATUM.F                3219.63 : DEPTH DATUM ELEV
~Curve Information -----------------------------------------
DEPT.F     : 
RHOB.G/C3  : BULK DENSITY
GRD .GAPI  : GAMMA RAY
NPHI.DEC   : NEUTRON POROSITY LIMESTONE
PEF .B/E   : PHOTOELECTRIC FACTOR
DPHI.DEC   : DENSITY POROSITY LIMESTONE
DRHO.G/C3  : DENSITY CORRECTION
AT10.OHMM  : 10-IN. RESISTIVITY, 2-FT RESOLUTION
AT30.OHMM  : 30-IN. RESISTIVITY, 2-FT RESOLUTION
AT90.OHMM  : 90-IN. RESISTIVITY, 2-FT RESOLUTION
CALR.IN    : CALIPER FROM RESISTIVITY
SPR .MV    : SPONTANEOUS POTENTIAL FROM RES.
DT  .US/F  : INTERVAL TRANSIT TIME
DTL .US/F  : DELTA-T LONG SPACING
DTCO.US/F  : COMPRESSIONAL-WAVE INTERVAL TRANSIT TIME ACOUSTIC SLOWNESS
DTSM.US/F  : SHEAR-WAVE INTERVAL TRANSIT TIME DELTA-T
~Params ----------------------------------------------------
~Other -----------------------------------------------------
~ASCII -----------------------------------------------------
# ...
 2716.00000    2.31710   61.87680    0.24450    2.38090    0.23020   -0.01160    3.78890    2.50940    2.22530    8.34450   -4.75940   83.17570   82.26790   81.57150  153.91120
 2716.50000    2.32200   61.73850    0.24970    2.38950    0.22310   -0.01110    3.58110    2.40190    2.18350    8.36360   -4.20420   83.52510   82.40790   81.60630  153.77180
 2717.00000    2.33250   60.86910    0.25090    2.39810    0.22140   -0.01010    3.45340    2.30040    2.15400    8.36360   -3.43600   83.89320   82.59660   81.92130  154.36560
 2717.50000    2.33140   60.28470    0.25730    2.40730    0.22120   -0.00880    3.45340    2.21910    2.13040    8.36360   -2.64280   84.26130   82.91600   82.57720  155.13450
 2718.00000    2.32240   61.53810    0.26320    2.40620    0.22600   -0.00680    3.46670    2.18970    2.10130    8.36470   -3.04870   84.49350   83.47170   83.14560  156.06940
 2718.50000    2.31290   63.36480    0.26360    2.39990    0.23530   -0.00470    3.50140    2.18310    2.09920    8.36490   -4.19580   84.26840   84.02740   83.30940  157.11390
 2719.00000    2.30440   62.93600    0.26080    2.39360    0.23720   -0.00260    3.59630    2.18800    2.10960    8.36290   -5.26800   84.09050   84.58300   83.45300  156.96790
 2719.50000    2.30360   60.86680    0.25680    2.38090    0.23770   -0.00140    3.72830    2.19300    2.11080    8.36420   -5.51360   83.91270   85.14730   83.61320  156.79970
 2720.00000    2.30630   59.94340    0.25350    2.38990    0.23600   -0.00030    3.87480    2.19790    2.03490    8.35800   -6.39750   83.78430   85.54500   83.82600  156.84950
 2720.50000    2.30970   59.79860    0.25110    2.41810    0.23410    0.00070    4.11270    2.20290    1.98760    8.34190   -8.44060   83.75400   85.56940   83.87670  156.95060
 2721.00000    2.31350   61.79000    0.24670    2.45030    0.23290    0.00180    4.55090    2.20620    1.98610    8.32580  -12.29440   83.81090   85.32860   83.91780  156.74640
 2721.50000    2.31480   63.79660    0.24180    2.47930    0.23260    0.00260    5.18950    2.38660    2.04430    8.30970  -14.93800   83.87970   85.06280   83.91960  156.28230
 2722.00000    2.31440   65.52240    0.23820    2.49680    0.23220    0.00300    6.40220    2.64640    2.17130    8.29360  -16.65460   83.97020   84.85570   83.91960  155.59810
 2722.50000    2.31300   66.48450    0.23880    2.51000    0.23210    0.00320    7.89830    2.91540    2.30620    8.27760  -17.28160   84.02730   84.85930   83.76150  154.91380
 2723.00000    2.31150   66.27350    0.24210    2.52500    0.23510    0.00320    7.97220    2.88220    2.33050    8.26220  -17.50240   84.07380   84.91630   83.92450  154.80310
 2723.50000    2.29970   66.03570    0.24490    2.54410    0.24100    0.00250    6.33340    2.77880    2.23580    8.24950  -16.96380   84.12030   84.97140   84.45920  154.96850
 2724.00000    2.29830   65.65350    0.24300    2.56750    0.23850    0.00030    5.76880    2.70150    2.17440    8.24780  -15.07890   83.66950   85.02370   84.35290  154.82810
 2724.50000    2.31720   64.37130    0.23370    2.59090    0.22540   -0.00210    5.39080    2.82590    2.32630    8.24510  -12.69190   81.36990   84.91350   83.68640  152.96470
 2725.00000    2.34880   63.00120    0.22410    2.61440    0.20930   -0.00330    5.86400    3.11730    2.65440    8.23050   -9.19120   79.33420   81.16630   81.90520  148.54770
 2725.50000    2.39310   61.29750    0.21210    2.62770    0.17710   -0.00410    6.60420    3.43870    3.10710    8.21470   -5.58020   78.42890   77.35110   80.25560  144.89710
 2726.00000    2.44130   61.38630    0.20550    2.60690    0.15850   -0.00480    6.67400    3.79330    3.62970    8.19890   -2.76490   77.66130   75.23590   78.05610  141.82840
 2726.50000    2.44400   62.52340    0.20470    2.57810    0.15510   -0.00540    6.14780    3.90460    3.49530    8.18310   -0.55340   76.93890   75.19440   75.85930  137.85930
 2727.00000    2.43180   65.89430    0.20570    2.59330    0.15570   -0.00600    5.23330    3.36010    2.87790    8.16730    1.65820   76.93760   75.66700   75.90910  136.41310
 2727.50000    2.41220   68.16170    0.20770    2.60850    0.17340   -0.00660    4.67340    2.89150    2.50180    8.15150    1.26350   79.85090   77.12810   76.54780  138.55000
 2728.00000    2.39330   70.01950    0.21370    2.58790    0.18430   -0.00720    4.36770    2.56660    2.25350    8.13570   -1.27720   80.53820   78.58920   78.37200  141.24220
 2728.50000    2.37870   70.13660    0.21990    2.54600    0.19400   -0.00780    4.30020    2.32110    2.03100    8.12240   -3.81790   81.53010   80.05030   80.14560  143.13650
 2729.00000    2.36230   69.66620    0.22570    2.51960    0.20290   -0.00820    4.36110    2.24130    1.97350    8.11700   -6.78210   82.66750   81.51140   81.54510  144.68370
 2729.50000    2.35020   69.17140    0.22780    2.49320    0.21020   -0.00740    4.43900    2.21970    2.10830    8.11070   -9.46210   82.86040   82.97260   81.84530  146.93240
 2730.00000    2.34360   69.86920    0.22850    2.48250    0.21750   -0.00570    4.48620    2.22700    2.03680    8.09180  -11.05110   82.96910   83.56310   81.91420  147.97200
 2730.50000    2.33700   70.01700    0.22920    2.47380    0.22220   -0.00460    4.56280    2.28390    1.94480    8.07120  -11.78090   83.04680   83.86810   82.09140  148.42030
 2731.00000    2.33040   69.90710    0.23030    2.46750    0.22470   -0.00380    4.66850    2.35520    1.98980    8.04150  -12.93100   83.09820   84.02340   82.46830  148.46870
 2731.50000    2.32440   67.85270    0.23650    2.47550    0.22690   -0.00280    5.32650    2.46030    2.17810    8.00720  -13.98280   83.14950   84.04610   82.49520  148.25220
 2732.00000    2.32220   65.90230    0.24690    2.45600    0.22830   -0.00130    6.05670    2.65000    2.30880    7.97170  -14.10790   83.22340   84.04610   82.32890  147.81050
 2732.50000    2.32050   64.55750    0.24790    2.39810    0.22920    0.00020    6.77990    2.85440    2.44640    7.93620  -13.82580   83.42160   83.98490   82.14720  147.69070
 2733.00000    2.31920   64.19760    0.24250    2.40320    0.22950    0.00220    7.40400    3.07460    2.58860    7.92410  -13.54370   83.48750   83.89530   82.16480  147.88520
 2733.50000    2.32060   64.00920    0.23790    2.42410    0.22800    0.00440    7.44760    3.31170    2.63830    7.92150  -13.59560   83.39570   83.77910   82.51520  148.10300
 2734.00000    2.32580   64.15650    0.23580    2.44080    0.22450    0.00580    7.24990    3.38440    2.68900    7.91710  -13.54400   83.15160   83.64700   82.55410  148.08510
 2734.50000    2.34000   66.95410    0.23080    2.46890    0.21470    0.00650    6.86210    3.36830    2.72500    7.90500  -11.55110   82.23900   83.22590   82.17800  147.19360
 2735.00000    2.35180   70.74750    0.22620    2.49700    0.20400    0.00730    6.41080    3.23580    2.69820    7.88900   -9.56390   80.09280   81.72040   81.00080  145.79460
 2735.50000    2.37460   73.50870    0.22160    2.52580    0.19250    0.00630    5.86620    3.09650    2.63470    7.86850   -7.35920   79.41450   80.21010   80.47510  144.30200
 2736.00000    2.39300   74.17850    0.21740    2.56820    0.18260    0.00520    5.36780    2.96320    2.57620    7.84800   -6.28210   78.12430   79.15680   79.61620  143.38460
 2736.50000    2.40130   74.59930    0.21370    2.59740    0.17880    0.00380    4.97050    2.84390    2.57620    7.82750   -5.38360   77.32650   78.38000   79.30450  142.62320
 2737.00000    2.40650   74.93500    0.21010    2.59290    0.17780    0.00010    4.96960    2.76600    2.63010    7.80700   -4.57870   77.07710   77.60320   79.24410  142.24390
 2737.50000    2.40830   75.89810    0.20640    2.58150    0.17710   -0.00340    4.98830    2.77600    2.68710    7.78650   -4.04790   76.83860   76.82640   79.31460  141.87960
 2738.00000    2.41010   76.88040    0.20350    2.55850    0.17550   -0.00420    4.86250    2.75080    2.69280    7.76610   -3.46610   76.63500   76.04960   78.54350  138.73690
 2738.50000    2.41360   78.04680    0.20250    2.55700    0.17370   -0.00310    4.71180    2.72580    2.63110    7.74560   -2.88430   76.43130   75.27280   76.79370  135.88890
