~Version ---------------------------------------------------
VERS.   2.0 : CWLS log ASCII Standard -VERSION 2.0
WRAP.    NO : One line per depth step
DLM . SPACE : Column Data Section Delimiter
~Well ------------------------------------------------------
STRT .F                  163.0 : START DEPTH
STOP .F                 3833.0 : STOP DEPTH
STEP .F                    0.5 : STEP
NULL .                -9999.25 : NULL VALUE
COMP .                         : COMPANY
WELL .                         : WELL
FLD  .                         : FIELD
LOC  .                         : LOCATION
PROV .                         : PROVINCE
CNTY .                         : COUNTY
STAT .                         : STATE
CTRY .                         : COUNTRY
SRVC .                         : SERVICE COMPANY
DATE .                         : DATE
UWI  .                         : UNIQUE WELL ID
API  .                         : API NUMBER
SLAT .WGS84 2.7612299791547983 : SURFACE LATITUDE
SLON .WGS84   8.83024560873001 : SURFACE LONGITUDE
DATUM.F                3219.63 : DEPTH DATUM ELEV
~Curve Information -----------------------------------------
DEPT.F     : 
RHOB.G/C3  : BULK DENSITY
GRD .GAPI  : GAMMA RAY
NPHI.DEC   : NEUTRON POROSITY LIMESTONE
PEF .B/E   : PHOTOELECTRIC FACTOR
DPHI.DEC   : DENSITY POROSITY LIMESTONE
DRHO.G/C3  : DENSITY CORRECTION
AT10.OHMM  : 10-IN. RESISTIVITY, 2-FT RESOLUTION
AT30.OHMM  : 30-IN. RESISTIVITY, 2-FT RESOLUTION
AT90.OHMM  : 90-IN. RESISTIVITY, 2-FT RESOLUTION
CALR.IN    : CALIPER FROM RESISTIVITY
SPR .MV    : SPONTANEOUS POTENTIAL FROM RES.
DT  .US/F  : INTERVAL TRANSIT TIME
DTL .US/F  : DELTA-T LONG SPACING
DTCO.US/F  : COMPRESSIONAL-WAVE INTERVAL TRANSIT TIME ACOUSTIC SLOWNESS
DTSM.US/F  : SHEAR-WAVE INTERVAL TRANSIT TIME DELTA-T
~Params ----------------------------------------------------
~Other -----------------------------------------------------
~ASCII -----------------------------------------------------
# ...
 3153.00000    2.72280   58.89000    0.13860    3.19420   -0.00680   -0.00240   17.40420   21.96260   18.02790    7.16350   32.80400   59.24640   63.64830   62.49450  108.15410
 3153.50000    2.70930   63.22730    0.14590    3.19420    0.00120   -0.00240   15.20470   16.95340   15.91690    7.16730   35.00410   61.91690   64.65300   63.55840  110.92850
 3154.00000    2.66810   77.50210    0.16990    3.19140    0.02640   -0.00370   14.09170   15.45210   14.75360    7.17110   36.62310   66.17190   66.13570   65.22000  113.95520
 3154.50000    2.60950   93.54240    0.18430    3.13510    0.05030   -0.00650   13.35250   14.78130   14.02440    7.18770   37.93040   70.42700   67.61840   67.42210  116.68110
 3155.00000    2.56380  102.86220    0.19010    3.00350    0.09080   -0.00940   12.91950   14.52330   13.96810    7.20860   39.23760   72.01560   69.10110   69.61570  119.13900
 3155.50000    2.52990  109.10870    0.19470    2.88200    0.11220   -0.01220   12.36960   14.02330   13.49490    7.22940   39.66360   72.74290   70.58370   70.84320  121.13750
 3156.00000    2.51450  115.30760    0.20260    2.87470    0.11320   -0.01330   11.89680   12.88840   11.73200    7.25970   39.57430   73.47030   72.06640   71.24990  123.09460
 3156.50000    2.52850  119.48560    0.20470    2.86740    0.10290   -0.01210   11.09850   11.11780   10.07320    7.27530   38.75680   73.55250   72.81370   71.69510  123.76740
 3157.00000    2.54620  112.69260    0.20120    2.83340    0.09600   -0.00890   10.32540    9.86920    8.90800    7.27530   36.63560   72.82930   72.61110   72.86010  122.84400
 3157.50000    2.54580   99.45450    0.19200    2.74280    0.09760   -0.00690    9.68940    8.76090    8.02780    7.27740   34.21730   72.10620   72.26140   73.49210  122.85740
 3158.00000    2.54010   92.89360    0.17710    2.67990    0.10020   -0.00490    9.29940    8.32350    7.64170    7.29390   31.81850   71.38310   71.91180   73.49600  123.72320
 3158.50000    2.54060   87.00920    0.17400    2.66140    0.09810   -0.00400    9.02000    8.67420    8.21130    7.30600   31.64140   71.06500   71.91750   72.65670  123.41200
 3159.00000    2.54740   86.86710    0.17570    2.65280    0.09470   -0.00340    8.84980    8.52850    7.68630    7.32120   31.66380   71.91200   72.71890   72.15680  120.54700
 3159.50000    2.54670   87.11590    0.18150    2.65050    0.10040   -0.00130    7.87970    7.07600    6.54140    7.34710   29.07470   72.85030   73.70890   72.33210  121.59630
 3160.00000    2.50960   84.22800    0.18610    2.60440    0.11450    0.00090    6.03620    5.56630    5.07540    7.37120   22.76690   73.78850   74.69900   72.91510  124.79380
 3160.50000    2.47190   78.76900    0.18540    2.53030    0.13240    0.00250    4.65300    4.31830    3.92420    7.39410   16.45200   74.55570   75.68900   73.39830  127.69010
 3161.00000    2.45510   71.70310    0.18250    2.48930    0.15200    0.00390    3.81460    3.56960    3.29850    7.41100   12.47880   74.72400   75.89360   73.62030  129.36530
 3161.50000    2.43830   66.20670    0.18050    2.51120    0.15950    0.00350    3.39270    3.29500    3.17450    7.41050   10.39940   74.88210   75.70500   73.83350  130.25620
 3162.00000    2.43090   63.45650    0.18030    2.53050    0.16350    0.00230    3.32470    3.21690    3.13370    7.40920    9.99650   74.92570   75.47220   74.03930  130.86290
 3162.50000    2.42520   64.68640    0.18030    2.53570    0.16590    0.00090    3.27830    3.22540    3.13600    7.40780   10.18020   74.87640   75.27390   74.31260  131.46050
 3163.00000    2.42320   68.75830    0.18060    2.51260    0.16780    0.00000    3.31630    3.26820    3.18510    7.40640   10.57950   74.78620   75.21730   74.58270  131.90000
 3163.50000    2.42790   72.45570    0.18150    2.49670    0.16650    0.00000    3.51880    3.40410    3.28920    7.42160   11.50390   74.69520   75.21730   74.66340  130.81810
 3164.00000    2.43600   76.63800    0.18350    2.55380    0.16030    0.00000    4.06170    3.77650    3.52290    7.43370   13.23950   74.60430   75.21730   74.70690  129.67220
 3164.50000    2.45560   82.30390    0.18980    2.68100    0.15160    0.00150    5.11780    4.63070    4.32700    7.43270   16.34290   74.51470   75.21730   74.71190  129.56120
 3165.00000    2.47110   88.29660    0.19810    2.76930    0.13970    0.00460    6.70910    5.76890    5.32150    7.43160   19.44620   74.45880   75.22810   74.71700  129.70470
 3165.50000    2.48350   92.77690    0.20610    2.75880    0.13240    0.00580    7.38610    6.76600    5.81800    7.43870   20.52080   74.45880   75.36040   74.74510  130.06130
 3166.00000    2.46200   91.62060    0.21020    2.64510    0.14250    0.00440    6.25380    5.61150    4.70510    7.45110   18.22570   75.13220   76.00080   75.04150  131.89610
 3166.50000    2.42640   85.92660    0.21420    2.52830    0.16130    0.00160    4.73540    4.15770    3.39250    7.46360   15.21650   76.44090   76.88840   75.33790  133.94160
 3167.00000    2.39760   79.93000    0.21800    2.43770    0.18410    0.00020    3.62350    2.97680    2.67820    7.47600   12.20730   77.46260   77.77590   76.36350  136.52520
 3167.50000    2.37800   76.72910    0.22000    2.38570    0.19970   -0.00110    3.00270    2.56000    2.40380    7.48840    8.80650   78.16430   78.66350   77.32030  137.03260
 3168.00000    2.36530   74.67670    0.21930    2.38020    0.20370   -0.00250    2.82210    2.43140    2.33000    7.50080    7.13490   78.63150   79.55100   78.30720  137.97300
 3168.50000    2.36110   72.14740    0.21550    2.36340    0.20580   -0.00320    2.79870    2.43170    2.32550    7.51260    6.40230   78.66990   79.96970   79.05960  139.05830
 3169.00000    2.35970   68.69510    0.21370    2.33820    0.20630   -0.00360    2.84410    2.44380    2.35650    7.51650    6.45740   78.56910   79.97410   79.16980  139.62500
 3169.50000    2.35970   67.06100    0.21390    2.37270    0.20640   -0.00370    2.91060    2.46340    2.38460    7.52610    6.89300   78.47840   79.90290   79.21240  140.19160
 3170.00000    2.35970   67.24380    0.21280    2.37560    0.20630   -0.00380    2.96210    2.48430    2.41310    7.53840    7.04050   78.40170   79.47190   79.23770  140.12110
 3170.50000    2.35970   68.28170    0.20810    2.37820    0.20530   -0.00390    2.99070    2.50550    2.43900    7.55060    6.52160   78.32510   79.08880   79.15850  139.82280
 3171.00000    2.36150   68.93780    0.20350    2.36170    0.20250   -0.00360    3.03570    2.52680    2.46200    7.56290    6.00270   78.24840   78.70570   78.70490  138.91470
 3171.50000    2.36550   68.13400    0.20160    2.37260    0.19950   -0.00260    3.09770    2.54830    2.47820    7.57520    5.65950   78.02160   78.50460   78.09270  137.96000
 3172.00000    2.37050   67.38850    0.20090    2.35930    0.19650   -0.00170    3.15290    2.56250    2.47900    7.58750    5.91010   77.64070   78.45420   77.67930  137.95600
 3172.50000    2.37460   67.14100    0.20220    2.34540    0.19540   -0.00080    3.15730    2.54740    2.46050    7.59600    6.45470   77.47640   78.43430   77.56930  138.31820
 3173.00000    2.37490   67.55540    0.20330    2.35010    0.19540    0.00080    3.16980    2.50830    2.44060    7.59600    6.10600   77.44150   78.41770   77.49490  138.26290
 3173.50000    2.37510   67.85030    0.20380    2.37080    0.19540    0.00160    3.18240    2.46530    2.41650    7.59600    5.67110   77.45640   78.40240   77.41200  137.87660
 3174.00000    2.37500   67.91700    0.20410    2.39070    0.19560    0.00160    3.19500    2.42290    2.37630    7.60360    5.90390   77.51640   78.38810   77.23090  137.49030
 3174.50000    2.37490   68.44130    0.20610    2.40040    0.19590    0.00210    3.23610    2.38140    2.32970    7.62820    6.45580   77.63340   78.42440   77.09990  137.14560
 3175.00000    2.37300   70.36340    0.20980    2.40350    0.19660    0.00090    3.29890    2.34050    2.28410    7.63140    6.68230   77.83750   78.46070   76.75400  136.95530
 3175.50000    2.37000   71.79720    0.21770    2.40660    0.19890   -0.00020    3.36860    2.30620    2.23930    7.62430    6.40240   78.04150   78.49700   76.56740  137.98250
