~Version ---------------------------------------------------
VERS.   2.0 : CWLS log ASCII Standard -VERSION 2.0
WRAP.    NO : One line per depth step
DLM . SPACE : Column Data Section Delimiter
~Well ------------------------------------------------------
STRT .FT                  28.0 : START DEPTH
STOP .FT               11239.0 : STOP DEPTH
STEP .FT                   0.5 : STEP
NULL .                -9999.25 : NULL VALUE
COMP .                         : COMPANY
WELL .                         : WELL
FLD  .                         : FIELD
LOC  .                         : LOCATION
PROV .                         : PROVINCE
CNTY .                         : COUNTY
STAT .                         : STATE
CTRY .                         : COUNTRY
SRVC .                         : SERVICE COMPANY
DATE .                         : DATE
UWI  .                         : UNIQUE WELL ID
API  .                         : API NUMBER
SLAT .WGS84 2.3574487803376982 : SURFACE LATITUDE
SLON .WGS84  8.483617502911002 : SURFACE LONGITUDE
DATUM.F                    nan : DEPTH DATUM ELEV
~Curve Information -----------------------------------------
DEPT   .FT    : 
CALD   .IN    : CALIPER FROM DENSITY LOG
DPHZ_LS.DEC   : HGRD STANDARD RESOLUTION DENSITY POROSITY
DTCO   .US/F  : DELTA-T COMPRESSIONAL
DTSM   .US/F  : DELTA-T SHEAR
GR_EDTC.GAPI  : GAMMA RAY
HDRA   .G/C3  : HRDD SPINE AND RIBS DENSITY CORRECTION
PEFZ   .B/E   : HRDD STANDARD RESOLUTION FORMATION PHOTOELECTRIC FACTOR
RLA3   .OHMM  : APPARENT RESISTIVITY FROM COMPUTED FOCUSING MODE 3
RLA5   .OHMM  : APPARENT RESISTIVITY FROM COMPUTED FOCUSING MODE 5
RXOZ   .OHMM  : INVADED FORMATION RESISTIVITY FILTERED AT 18 INCHES
TNPH_LS.DEC   : THERMAL NEUTRON POROSITY [LIMESTONE]
~Params ----------------------------------------------------
~Other -----------------------------------------------------
~ASCII -----------------------------------------------------
# ...
 11201.00000    9.56170    0.08470   72.05710  111.91130   -9999.25   -0.00160    3.86570   40.68860   34.23780   52.20460    0.13090
 11201.50000    9.52480    0.07400   72.05710  111.97390   -9999.25   -0.00100    3.80120   54.02960   43.27590   62.21680    0.10810
 11202.00000    9.49990    0.06200   70.73400  111.99650   -9999.25    0.00050    3.73680   50.19770   43.81280   54.03660    0.10140
 11202.50000    9.47820    0.05990   70.47650  112.12890   -9999.25    0.00200    3.67230   42.27340   41.13470   45.85640    0.10980
 11203.00000    9.47660    0.05800   70.56000  112.26120   -9999.25    0.00350    3.61760   40.18990   37.78710   41.41910    0.11250
 11203.50000    9.48720    0.05060   71.34470  112.39350   -9999.25    0.00500    3.63240   -9999.25   -9999.25   -9999.25    0.10360
 11204.00000    9.49140    0.05290   71.51510  112.49820   -9999.25    0.00520    3.71890   -9999.25   -9999.25   -9999.25    0.09320
 11204.50000    9.49480    0.06330   71.14800  112.65660   -9999.25    0.00340    3.73750   -9999.25   -9999.25   -9999.25    0.10130
 11205.00000    9.51360    0.07310   71.08530  112.82910   -9999.25    0.00110    3.68260   -9999.25   -9999.25   -9999.25    0.12150
 11205.50000    9.53230    0.07310   71.07580  112.62560   -9999.25    0.00000    3.60630   -9999.25   -9999.25   -9999.25    0.14310
 11206.00000    9.53660    0.07180   71.06620  112.42210   -9999.25   -0.00220    3.52990   -9999.25   -9999.25   -9999.25    0.14580
 11206.50000    9.54080    0.06920   71.05660  112.59430   -9999.25   -0.00330    3.45360   -9999.25   -9999.25   -9999.25    0.13660
 11207.00000    9.54510    0.06530   71.04700  112.76650   -9999.25   -0.00200    3.37720   -9999.25   -9999.25   -9999.25    0.11890
 11207.50000    9.54930    0.06080   71.08930  112.85860   -9999.25    0.00270    3.35170   -9999.25   -9999.25   -9999.25    0.10860
 11208.00000    9.54710    0.05940   71.03720  112.83040   -9999.25    0.00530    3.33890   -9999.25   -9999.25   -9999.25    0.09830
 11208.50000    9.53530    0.05390   71.08930  112.80230   -9999.25    0.00590    3.32610   -9999.25   -9999.25   -9999.25    0.08430
 11209.00000    9.52340    0.04780   71.01370  112.77410   -9999.25    0.00570    3.28680   -9999.25   -9999.25   -9999.25    0.06940
 11209.50000    9.50220    0.04280   70.98340  112.63970   -9999.25    0.00560    3.24080   -9999.25   -9999.25   -9999.25    0.06280
 11210.00000    9.47460    0.05300   71.00090  112.85980   -9999.25    0.00380    3.27220   -9999.25   -9999.25   -9999.25    0.07340
 11210.50000    9.47780    0.06920   71.01750  112.75770   -9999.25    0.00330    3.35580   -9999.25   -9999.25   -9999.25    0.09210
 11211.00000    9.57580    0.08090   70.96120  112.36990   -9999.25   -0.00380    3.46410   -9999.25   -9999.25   -9999.25    0.12050
 11211.50000    9.67350    0.08550   70.92740  112.59750   -9999.25   -0.00560    3.76510   -9999.25   -9999.25   -9999.25    0.13810
 11212.00000    9.68330    0.08650   70.88670  112.97900   -9999.25   -0.00550    3.82050   -9999.25   -9999.25   -9999.25    0.13590
 11212.50000    9.64300    0.08310   70.93150  113.28630   -9999.25   -0.00180    3.75960   -9999.25   -9999.25   -9999.25    0.10260
 11213.00000    9.59010    0.07540   70.97690  113.29740   -9999.25   -0.00090    3.60300   -9999.25   -9999.25   -9999.25    0.07500
 11213.50000    9.51520    0.06770   70.97470  113.25550   -9999.25   -0.00050    3.38280   -9999.25   -9999.25   -9999.25    0.05600
 11214.00000    9.42560    0.06000   70.97250  113.00180   -9999.25   -0.00100    3.09370   -9999.25   -9999.25   -9999.25    0.05900
 11214.50000    9.42740    0.06130   70.97020  112.74810   -9999.25   -0.00150    3.07660   -9999.25   -9999.25   -9999.25    0.06740
 11215.00000    9.45530    0.06250   70.96800  112.49440   -9999.25   -0.00200    3.12820   -9999.25   -9999.25   -9999.25    0.07580
 11215.50000    9.46730    0.06280   70.96580  112.80640   -9999.25   -0.00050    3.17090   -9999.25   -9999.25   -9999.25    0.07660
 11216.00000    9.46040    0.07060   70.96350  112.83960   -9999.25   -0.00050    3.13220   -9999.25   -9999.25   -9999.25    0.07880
 11216.50000    9.45740    0.07810   70.86710  112.59280   -9999.25   -0.00050    3.14440   -9999.25   -9999.25   -9999.25    0.09550
 11217.00000    9.46010    0.08200   70.91850  112.75050   -9999.25    0.00060    3.24950   -9999.25   -9999.25   -9999.25    0.10920
 11217.50000    9.45990    0.07400   70.89620  112.81300   -9999.25    0.00170    3.39760   -9999.25   -9999.25   -9999.25    0.10830
 11218.00000    9.44520    0.05550   70.87390  112.73270   -9999.25    0.00280    3.58380   -9999.25   -9999.25   -9999.25    0.09010
 11218.50000    9.38120    0.04280   70.96910  112.44670   -9999.25    0.00390    3.73200   -9999.25   -9999.25   -9999.25    0.06840
 11219.00000    9.27860    0.03330   70.97200  112.55020   -9999.25    0.00600    3.83370   -9999.25   -9999.25   -9999.25    0.04670
 11219.50000    9.30020    0.02950   70.97500  112.59120   -9999.25    0.01200    3.93550   -9999.25   -9999.25   -9999.25    0.03830
 11220.00000    9.32190    0.04080   70.97800  112.57300   -9999.25    0.01310    4.03720   -9999.25   -9999.25   -9999.25    0.05310
 11220.50000    9.34350    0.05110   70.98090  112.55480   -9999.25    0.01290    4.16400   -9999.25   -9999.25   -9999.25    0.06780
 11221.00000    9.33450    0.04580   70.91600  112.46040   -9999.25    0.01450    4.10080   -9999.25   -9999.25   -9999.25    0.07390
 11221.50000    9.35030    0.05590   -9999.25   -9999.25   -9999.25    0.01930    3.82490   -9999.25   -9999.25   -9999.25    0.07970
 11222.00000    9.42010    0.07940   -9999.25   -9999.25   -9999.25    0.01650    3.57510   -9999.25   -9999.25   -9999.25    0.09050
 11222.50000    9.54490    0.09430   -9999.25   -9999.25   -9999.25    0.01020    3.54610   -9999.25   -9999.25   -9999.25    0.09500
 11223.00000    9.61900    0.10110   -9999.25   -9999.25   -9999.25    0.00120    3.53850   -9999.25   -9999.25   -9999.25    0.09730
 11223.50000    9.59910    0.08890   -9999.25   -9999.25   -9999.25   -0.00030    3.53390   -9999.25   -9999.25   -9999.25    0.09490
 11224.00000    9.52070    0.08210   -9999.25   -9999.25   -9999.25   -0.00060    3.27920   -9999.25   -9999.25   -9999.25    0.09180
 11224.50000    9.49370    0.08380   -9999.25   -9999.25   -9999.25   -0.00170    3.01310   -9999.25   -9999.25   -9999.25    0.09070
 11225.00000    9.53930    0.09910   -9999.25   -9999.25   -9999.25   -0.00360    2.90850   -9999.25   -9999.25   -9999.25    0.09260
 11225.50000    9.58490    0.11000   -9999.25   -9999.25   -9999.25   -0.00440    2.91910   -9999.25   -9999.25   -9999.25   -9999.25
 11226.00000    9.63050    0.11150   -9999.25   -9999.25   -9999.25   -0.00280    2.97570   -9999.25   -9999.25   -9999.25   -9999.25
 11226.50000    9.65070    0.10730   -9999.25   -9999.25   -9999.25   -0.00220    2.94530   -9999.25   -9999.25   -9999.25   -9999.25
 11227.00000    9.65030    0.10360   -9999.25   -9999.25   -9999.25   -0.00050    2.91480   -9999.25   -9999.25   -9999.25   -9999.25
 11227.50000    9.63800    0.10660   -9999.25   -9999.25   -9999.25   -0.00040    2.87800   -9999.25   -9999.25   -9999.25   -9999.25
 11228.00000    9.66180    0.11180   -9999.25   -9999.25   -9999.25   -0.00020    2.88690   -9999.25   -9999.25   -9999.25   -9999.25
 11228.50000    9.72120    0.11810   -9999.25   -9999.25   -9999.25   -0.00030    2.90880   -9999.25   -9999.25   -9999.25   -9999.25
 11229.00000    9.78070    0.11780   -9999.25   -9999.25   -9999.25    0.00130    2.95630   -9999.25   -9999.25   -9999.25   -9999.25
 11229.50000    9.76650    0.10830   -9999.25   -9999.25   -9999.25    0.00350    3.05790   -9999.25   -9999.25   -9999.25   -9999.25
 11230.00000    9.74120    0.10080   -9999.25   -9999.25   -9999.25    0.00680    3.18100   -9999.25   -9999.25   -9999.25   -9999.25
 11230.50000    9.77230    0.09830   -9999.25   -9999.25   -9999.25    0.01000    3.29930   -9999.25   -9999.25   -9999.25   -9999.25
