~Version ---------------------------------------------------
VERS.   2.0 : CWLS log ASCII Standard -VERSION 2.0
WRAP.    NO : One line per depth step
DLM . SPACE : Column Data Section Delimiter
~Well ------------------------------------------------------
STRT .FT                  28.0 : START DEPTH
STOP .FT               11239.0 : STOP DEPTH
STEP .FT                   0.5 : STEP
NULL .                -9999.25 : NULL VALUE
COMP .                         : COMPANY
WELL .                         : WELL
FLD  .                         : FIELD
LOC  .                         : LOCATION
PROV .                         : PROVINCE
CNTY .                         : COUNTY
STAT .                         : STATE
CTRY .                         : COUNTRY
SRVC .                         : SERVICE COMPANY
DATE .                         : DATE
UWI  .                         : UNIQUE WELL ID
API  .                         : API NUMBER
SLAT .WGS84 2.3574487803376982 : SURFACE LATITUDE
SLON .WGS84  8.483617502911002 : SURFACE LONGITUDE
DATUM.F                    nan : DEPTH DATUM ELEV
~Curve Information -----------------------------------------
DEPT   .FT    : 
CALD   .IN    : CALIPER FROM DENSITY LOG
DPHZ_LS.DEC   : HGRD STANDARD RESOLUTION DENSITY POROSITY
DTCO   .US/F  : DELTA-T COMPRESSIONAL
DTSM   .US/F  : DELTA-T SHEAR
GR_EDTC.GAPI  : GAMMA RAY
HDRA   .G/C3  : HRDD SPINE AND RIBS DENSITY CORRECTION
PEFZ   .B/E   : HRDD STANDARD RESOLUTION FORMATION PHOTOELECTRIC FACTOR
RLA3   .OHMM  : APPARENT RESISTIVITY FROM COMPUTED FOCUSING MODE 3
RLA5   .OHMM  : APPARENT RESISTIVITY FROM COMPUTED FOCUSING MODE 5
RXOZ   .OHMM  : INVADED FORMATION RESISTIVITY FILTERED AT 18 INCHES
TNPH_LS.DEC   : THERMAL NEUTRON POROSITY [LIMESTONE]
~Params ----------------------------------------------------
~Other -----------------------------------------------------
~ASCII -----------------------------------------------------
# ...
 9787.50000    9.43340    0.09880   68.91150  111.45230   61.94770    0.00120    2.66080    7.16020    7.62390    6.51190    0.10740
 9788.00000    9.53660    0.10700   68.84390  111.70580   59.78970    0.00120    2.66620    6.64940    7.16520    6.27310    0.10450
 9788.50000    9.63970    0.11110   68.88440  111.85700   58.99350    0.00130    2.65540    6.75810    6.99060    6.37450    0.09560
 9789.00000    9.68270    0.10740   68.62000  111.93260   58.55290    0.00170    2.64060    6.99240    7.50360    6.62790    0.08800
 9789.50000    9.63040    0.09890   68.86660  112.00820   56.73430    0.00210    2.61680    7.22680    7.81140    6.88120    0.09050
 9790.00000    9.50970    0.07530   68.67060  111.90250   54.29410    0.00260    2.62220    6.84430    7.53330    6.50300    0.09870
 9790.50000    9.44100    0.06050   68.40470  111.61030   55.52870    0.00330    2.62760    6.52860    7.25520    6.03020    0.10690
 9791.00000    9.34320    0.05940   67.92080  111.10670   59.19070    0.00330    2.64840    7.22970    7.50220    6.45130    0.10830
 9791.50000    9.26540    0.05960   67.37460  110.60320   64.82120    0.00310    2.67960    7.93080    8.73230    7.48210    0.10520
 9792.00000    9.26790    0.06440   66.58170  110.09960   63.13050    0.00090    2.71080    7.36600    8.24130    7.01380    0.09940
 9792.50000    9.25300    0.07480   66.18720  109.44310   61.21640   -0.00100    2.73310    7.83160    7.81700    7.24780    0.09370
 9793.00000    9.17440    0.08640   65.92160  108.79420   58.88570   -0.00170    2.78450    8.99400   10.12960    8.41390    0.08800
 9793.50000    9.18050    0.09060   65.78850  108.30330   56.69250    0.00050    2.83580    9.63640   10.25640    9.34700    0.08400
 9794.00000    9.20860    0.08780   65.73500  107.99060   53.32200    0.00230    2.85120    9.41040    9.96810    9.05360    0.08530
 9794.50000    9.22060    0.08480   65.71390  107.79680   50.62610    0.00350    2.83370    9.06480    9.55930    8.56380    0.09150
 9795.00000    9.23750    0.08180   65.79690  108.05670   51.26420    0.00310    2.80800    8.78860    9.15060    8.13950    0.09590
 9795.50000    9.26720    0.09040   66.62080  108.86390   53.17360    0.00190    2.82130    8.02760    8.74180    7.30620    0.09980
 9796.00000    9.27520    0.09680   67.70660  109.57300   57.41240    0.00280    2.87810    6.92140    7.49960    6.26430    0.10630
 9796.50000    9.25910    0.10170   68.30090  111.34600   61.65120    0.00420    3.01540    6.24410    6.74890    5.94560    0.11250
 9797.00000    9.23040    0.10610   69.24860  113.10850   63.37520    0.00480    3.18660   11.20160    9.91450    8.49920    0.13010
 9797.50000    9.18280    0.10800   70.45890  114.82860   66.84610    0.00370    3.23720   18.57400   15.18980   20.70870    0.15550
 9798.00000    9.05960    0.10050   71.15990  116.27010   82.20200    0.00300    3.24220   24.90350   20.46500   32.91810    0.17030
 9798.50000    9.00570    0.08850   71.83160  117.46920   93.06120    0.00220    3.21460   26.10160   20.86580   30.85790    0.16950
 9799.00000    9.00810    0.08020   73.11590  118.34410  100.09300    0.00140    3.18910   20.69000   17.58820   25.70240    0.15770
 9799.50000    8.99600    0.07770   72.43850  118.42230  104.90780    0.00030    3.17450   17.12560   15.33630   20.54690    0.15680
 9800.00000    9.00540    0.07740   71.79270  117.11040  100.24670    0.00010    3.16670   16.73570   15.24340   20.17290    0.15490
 9800.50000    8.96930    0.07480   70.17310  116.12670   96.58680    0.00010    3.23080   16.50450   15.24390   20.36030    0.14250
 9801.00000    8.93100    0.06310   68.26770  114.08640   94.56380   -0.00140    3.33390   17.44620   16.01470   21.92370    0.12510
 9801.50000    8.89280    0.04340   65.49230  111.68740   92.68620   -0.00370    3.49040   30.45550   20.85690   53.74130    0.09480
 9802.00000    8.85450    0.02180   62.49950  109.28840   80.67350   -0.00290    3.82170   43.46480   31.45370  192.11580    0.06460
 9802.50000    8.83910   -0.00660   61.04420  106.88940   67.23250   -0.00060    3.98080  239.61470  125.02900  396.22530    0.04840
 9803.00000    8.81820   -0.00800   60.18020  104.49040   53.68040    0.00170    4.06180  280.90710  130.86950  490.13050    0.04360
 9803.50000    8.82010    0.00570   59.51650  102.87750   42.93960    0.00410    4.00670  142.20320   30.03390  318.43050    0.04560
 9804.00000    8.82980    0.02270   58.95960  101.67460   35.28450    0.00550    3.89560   30.66760   23.47010   47.23320    0.06080
 9804.50000    8.83950    0.03560   58.52660  100.99090   35.63150    0.00650    3.79190   30.66760   24.32020   32.03110    0.08090
 9805.00000    8.84920    0.04170   58.67310  101.18290   43.96180    0.00330    3.72580   34.70570   30.00810   37.40100    0.09580
 9805.50000    8.85890    0.04250   59.48340  101.71840   51.21400    0.00170    3.69030   38.74370   35.69610   44.11340    0.09140
 9806.00000    8.87950    0.04030   60.44460  102.38360   57.74750    0.00160    3.65480   42.78180   41.38400   46.47830    0.09040
 9806.50000    8.90020    0.03610   61.51050  103.08140   56.20260    0.00150    3.63550   43.58040   41.38400   45.67800    0.09570
 9807.00000    8.87920    0.02710   62.39400  103.77910   53.55210    0.00140    3.56260   43.58040   31.50280   44.68390    0.09900
 9807.50000    8.85830    0.01820   62.84920  104.47690   52.80690    0.00130    3.48980   40.14790   27.21270   45.51800    0.10320
 9808.00000    8.86520    0.01160   62.32240  104.44790   54.98340    0.00060    3.42750   35.52310   29.30220   46.36760    0.09780
 9808.50000    8.87210    0.01130   61.84900  104.34800   57.79570   -0.00050    3.38100   31.82320   27.72120   42.90540    0.08840
 9809.00000    8.87900    0.01940   61.68420  104.24820   56.66580   -0.00160    3.36310   34.90640   31.44340   37.84640    0.07890
 9809.50000    8.88590    0.02460   61.62790  104.11410   53.57440   -0.00070    3.33930   31.92200   30.35560   33.50270    0.07420
 9810.00000    8.89280    0.02330   61.07550  103.53780   50.95130    0.00160    3.25550   28.19160   26.37970   30.15060    0.07270
 9810.50000    8.89970    0.02200   60.43470  101.59700   49.40600    0.00300    3.26910   26.94150   25.58240   27.87910    0.07380
 9811.00000    8.90660    0.02060   59.99970   99.65620   48.16970    0.00280    3.36290   28.44010   27.44460   29.05070    0.07590
 9811.50000    8.91350    0.02210   60.06510   98.98570   48.16970    0.00170    3.45670   30.94230   28.93350   32.31800    0.07820
 9812.00000    8.92040    0.02280   60.12220   98.98570   49.01770    0.00060    3.58850   29.54110   27.53790   35.34620    0.08570
 9812.50000    8.92730    0.02470   60.36670   99.55030   50.07770   -0.00140    3.72520   36.17290   31.16110   45.14220    0.09420
 9813.00000    8.93420    0.02740   60.83670  100.25590   49.65370   -0.00070    3.77290   41.97410   38.41030   54.73530    0.08930
 9813.50000    8.94110    0.03070   60.34910  100.97290   48.59370    0.00120    3.78580   36.06410   31.67700   46.31760    0.09230
 9814.00000    8.94810    0.03160   61.69210  101.70680   48.06370    0.00310    3.79870   38.03800   30.51050   41.74490    0.09120
 9814.50000    8.95500    0.02720   61.93300  102.44080   49.52650    0.00490    3.81600   41.57480   38.39980   44.34120    0.08440
 9815.00000    8.97490    0.02100   62.15700  103.17470   51.08110    0.00780    3.83440   37.93160   34.78800   46.88000    0.07760
 9815.50000    8.99260    0.01750   62.30620  103.90870   52.63570    0.00690    3.83060   42.03870   36.40720   49.65640    0.07080
 9816.00000    8.97820    0.02040   62.37350  104.49000   52.42890    0.00420    3.82690   47.74870   42.89390   52.43280    0.06730
 9816.50000    8.95180    0.02150   62.50770  104.49000   50.35710    0.00170    3.82620   44.44510   40.32490   55.20920    0.06740
 9817.00000    8.94950    0.01730   62.33750  104.49000   48.69970    0.00370    3.86190   43.12140   39.33840   53.22650    0.07170
 9817.50000    8.93200    0.01490   62.12200  104.45240   47.37480    0.00680    3.92140   46.49220   41.01990   51.26220    0.07760
