~Version ---------------------------------------------------
VERS.   2.0 : CWLS log ASCII Standard -VERSION 2.0
WRAP.    NO : One line per depth step
DLM . SPACE : Column Data Section Delimiter
~Well ------------------------------------------------------
STRT .FT                  28.0 : START DEPTH
STOP .FT               11239.0 : STOP DEPTH
STEP .FT                   0.5 : STEP
NULL .                -9999.25 : NULL VALUE
COMP .                         : COMPANY
WELL .                         : WELL
FLD  .                         : FIELD
LOC  .                         : LOCATION
PROV .                         : PROVINCE
CNTY .                         : COUNTY
STAT .                         : STATE
CTRY .                         : COUNTRY
SRVC .                         : SERVICE COMPANY
DATE .                         : DATE
UWI  .                         : UNIQUE WELL ID
API  .                         : API NUMBER
SLAT .WGS84 2.3574487803376982 : SURFACE LATITUDE
SLON .WGS84  8.483617502911002 : SURFACE LONGITUDE
DATUM.F                    nan : DEPTH DATUM ELEV
~Curve Information -----------------------------------------
DEPT   .FT    : 
CALD   .IN    : CALIPER FROM DENSITY LOG
DPHZ_LS.DEC   : HGRD STANDARD RESOLUTION DENSITY POROSITY
DTCO   .US/F  : DELTA-T COMPRESSIONAL
DTSM   .US/F  : DELTA-T SHEAR
GR_EDTC.GAPI  : GAMMA RAY
HDRA   .G/C3  : HRDD SPINE AND RIBS DENSITY CORRECTION
PEFZ   .B/E   : HRDD STANDARD RESOLUTION FORMATION PHOTOELECTRIC FACTOR
RLA3   .OHMM  : APPARENT RESISTIVITY FROM COMPUTED FOCUSING MODE 3
RLA5   .OHMM  : APPARENT RESISTIVITY FROM COMPUTED FOCUSING MODE 5
RXOZ   .OHMM  : INVADED FORMATION RESISTIVITY FILTERED AT 18 INCHES
TNPH_LS.DEC   : THERMAL NEUTRON POROSITY [LIMESTONE]
~Params ----------------------------------------------------
~Other -----------------------------------------------------
~ASCII -----------------------------------------------------
# ...
 4968.50000    9.62430    0.05300   61.53830  103.47570   80.73520   -0.00140    2.77880   16.98030   19.58230   22.30050    0.10640
 4969.00000    9.67580    0.05940   61.87220  103.94230   86.29480   -0.00180    2.81210   17.14420   18.98750   22.82350    0.11570
 4969.50000    9.70560    0.06350   62.34770  104.90690   92.87590   -0.00180    2.80060   16.98690   16.79090   19.83810    0.12240
 4970.00000    9.72960    0.06710   63.16230  105.87160   99.00150    0.00000    2.76110   12.72570   13.86280   16.61040    0.11810
 4970.50000    9.78810    0.07280   64.01750  106.83620   94.38300    0.00120    2.72900   12.70700   13.52510   15.26050    0.10710
 4971.00000    9.84660    0.08550   64.36230  107.84820   82.25540    0.00100    2.67410   10.18290   11.84470   12.81940    0.09610
 4971.50000    9.90210    0.10090   63.98570  109.08620   71.47540    0.00100    2.60750    7.65890    9.84830   11.39790    0.09590
 4972.00000    9.93850    0.11560   65.70700  110.81480   67.05080   -0.00020    2.54130    6.37440    7.85190    9.91490    0.11060
 4972.50000    9.97990    0.12360   66.40440  112.14360   65.11060   -0.00020    2.47370    5.91640    6.37590    8.43190    0.12910
 4973.00000    9.99180    0.11930   66.80990  113.32550   62.96070    0.00280    2.40580    5.45830    6.10360    7.54210    0.14620
 4973.50000    9.99310    0.10740   67.27370  114.63190   64.98900    0.00900    2.38300    5.95740    7.76340    8.47990    0.15790
 4974.00000    9.99440    0.10020   67.97050  115.93840   72.27900    0.01530    2.39010    6.25160    7.29080    8.31340    0.16260
 4974.50000    9.91890    0.11080   68.37750  117.18300   79.65410    0.01230    2.45130    5.17460    6.10680    7.89710    0.15740
 4975.00000    9.88130    0.12140   68.68660  118.38640   84.58220    0.00510    2.50050    5.65880    6.45690    7.82650    0.14740
 4975.50000    9.80820    0.11950   69.38370  118.86880   78.14760    0.00150    2.54980    7.21170    8.51600    9.59320    0.13680
 4976.00000    9.80540    0.12030   68.66030  118.25120   71.62990    0.00110    2.59900    6.97470    7.92260    9.81860    0.12790
 4976.50000    9.80350    0.12260   68.35180  117.47740   68.01320    0.00070    2.63410    6.29020    6.94760    9.30730    0.12200
 4977.00000    9.80160    0.12500   68.23510  117.69090   67.60170    0.00020    2.61290    6.70580    7.48310    8.32440    0.12140
 4977.50000    9.79960    0.12500   67.89960  117.11550   67.33050   -0.00170    2.59160    7.16010    7.81140    8.32440    0.11980
 4978.00000    9.79240    0.11000   67.10770  116.63010   69.11840   -0.00050    2.57030    6.21310    8.00660    8.49910    0.11550
 4978.50000    9.78380    0.09670   66.13400  115.92790   71.34890    0.00180    2.58100    7.11900    8.70620    9.71330    0.10820
 4979.00000    9.77530    0.09010   65.41670  114.64510   73.68760    0.00420    2.75540    8.50020    9.45430   10.85280    0.09930
 4979.50000    9.76670    0.06800   64.50300  112.44810   76.45860    0.01090    3.08660    9.33480   18.34290   19.51940    0.09740
 4980.00000    9.73160    0.04130   62.74370  110.25110   74.86450    0.02620    3.55970   34.36170   32.55790   67.25060    0.09470
 4980.50000    9.59320    0.01430   60.95720  108.90180   67.39630    0.04090    3.94120   83.36780   99.05410  138.68820    0.07020
 4981.00000    9.45480    0.00260   59.64880  107.21990   55.61540    0.03520    4.07180   76.24700   94.31330  144.81410    0.05160
 4981.50000    9.45460    0.00430   58.24430  105.27920   47.04690    0.02670    3.80710   58.46520   59.89770  104.07180    0.04850
 4982.00000    9.45440    0.02080   57.99620  103.79390   49.31630    0.01760    3.58150   40.68330   40.00860   63.32960    0.06430
 4982.50000    9.45690    0.02550   57.82410  102.60520   55.74800    0.01420    3.41000   26.29430   33.67560   47.83220    0.06690
 4983.00000    9.46020    0.03070   57.75110  101.86370   59.07660    0.00590    3.42610   39.78560   63.69380   92.57850    0.06000
 4983.50000    9.46350    0.03070   57.81640  101.72250   58.94490    0.00310    3.42320   72.29060   94.28940  119.42120    0.05310
 4984.00000    9.46670    0.03680   58.43310  101.60960   58.28220    0.00240    3.18500   46.60650   47.22780   66.42140    0.05480
 4984.50000    9.54280    0.04870   59.22490  102.65810   59.98140    0.00160    3.00440   21.12790   21.85850   23.58280    0.07090
 4985.00000    9.57790    0.06060   60.12270  103.96870   63.50190    0.00090    2.88240   20.74210   21.45920   23.14770    0.08120
 4985.50000    9.59860    0.06540   61.24480  105.27920   66.18710    0.00020    2.86110   21.38490   22.12430   23.82530    0.08370
 4986.00000    9.61930    0.06680   61.87720  106.58980   67.70810   -0.00060    2.83930   19.04010   19.69850   23.86650    0.08400
 4986.50000    9.64610    0.06760   62.69430  107.90040   69.51610   -0.00280    2.81750   17.66030   18.27070   20.00510    0.10090
 4987.00000    9.69730    0.06570   63.51140  109.21090   76.73570   -0.00370    2.79580   16.91250   17.49710   18.30390    0.11930
 4987.50000    9.74190    0.05860   64.20760  110.52150   84.68320   -0.00130    2.76770   14.94100   15.22500   18.07750    0.13240
 4988.00000    9.78240    0.05580   64.64050  111.63040   92.63080    0.00700    2.75670   13.03100   12.66750   15.13470    0.13670
 4988.50000    9.82300    0.06350   65.07350  111.88450   88.95000    0.00500    2.70840   11.12100   11.57230   12.33190    0.11710
 4989.00000    9.86360    0.07120   65.31700  112.05390   76.12210    0.00200    2.70360   11.43900   12.25430   13.00140    0.09970
 4989.50000    9.87970    0.07760   65.04290  112.47730   64.56360   -0.00180    2.71760   12.83930   12.78920   13.44080    0.09000
 4990.00000    9.92510    0.07720   64.64420  112.22330   59.65000   -0.00180    2.73170   12.57190   13.00650   13.60600    0.08650
 4990.50000    9.87950    0.07670   64.34330  111.63070   58.94870    0.00000    2.74580   14.48960   14.98450   15.44070    0.08840
 4991.00000    9.80350    0.07930   64.00030  110.89680   58.64250    0.00230    2.76700   17.48860   18.07230   17.52270    0.09150
 4991.50000    9.72750    0.07830   63.41730  110.33220   57.30070    0.00410    2.98670   20.48770   21.16000   21.24200    0.08720
 4992.00000    9.65150    0.07380   62.86330  109.73070   54.44670    0.00280    2.94200   23.48670   24.24780   24.96130    0.08380
 4992.50000    9.62110    0.06580   62.46340  108.69940   56.07150    0.00160    2.97010   26.48570   27.33550   28.68060    0.09130
 4993.00000    9.50880    0.05610   62.11440  107.66800   61.54990    0.00500    3.10660   30.26770   31.80370   33.31760    0.10350
 4993.50000    9.44110    0.04170   61.69860  107.04370   67.67920    0.01580    3.11620   28.34170   34.69400   38.60200    0.10530
 4994.00000    9.46000    0.03110   61.28270  106.83200   73.80850    0.01770    2.99290   22.58240   24.18170   32.23790    0.09320
 4994.50000    9.52050    0.04240   60.84860  105.60670   73.13540    0.01280    2.90710   20.28020   21.85310   23.43200    0.08230
 4995.00000    9.55050    0.05650   60.38700  105.21350   71.03200    0.00120    2.84920   22.03600   23.28380   24.46840    0.07720
 4995.50000    9.56180    0.06220   60.00540  105.02820   69.61040    0.00020    2.91590   24.54140   25.60580   28.40980    0.07810
 4996.00000    9.53120    0.05540   59.53510  104.84300   69.64900    0.01170    3.32810   27.54690   28.49910   35.78720    0.08420
 4996.50000    9.47690    0.02960   58.99030  104.65780   71.46420    0.01380    3.53040   38.49110   43.65750   58.12240    0.08690
 4997.00000    9.43660    0.01530   58.69670  104.59770   73.35560    0.01360    3.83450   50.65150   61.03280   80.45760    0.07200
 4997.50000    9.40560    0.01380   58.71790  104.38960   66.85270    0.00580    4.12740   62.81200   86.31510  106.80550    0.05740
 4998.00000    9.37470    0.01480   58.11660  104.38930   57.55340    0.00120    3.79590   70.11230   93.75300  126.29720    0.05800
 4998.50000    9.37890    0.01330   58.37570  104.50740   47.69530    0.00490    3.64430   60.08970   69.86420  104.61860    0.06840
