~Version ---------------------------------------------------
VERS.   2.0 : CWLS log ASCII Standard -VERSION 2.0
WRAP.    NO : One line per depth step
DLM . SPACE : Column Data Section Delimiter
~Well ------------------------------------------------------
STRT .FT                  28.0 : START DEPTH
STOP .FT               11239.0 : STOP DEPTH
STEP .FT                   0.5 : STEP
NULL .                -9999.25 : NULL VALUE
COMP .                         : COMPANY
WELL .                         : WELL
FLD  .                         : FIELD
LOC  .                         : LOCATION
PROV .                         : PROVINCE
CNTY .                         : COUNTY
STAT .                         : STATE
CTRY .                         : COUNTRY
SRVC .                         : SERVICE COMPANY
DATE .                         : DATE
UWI  .                         : UNIQUE WELL ID
API  .                         : API NUMBER
SLAT .WGS84 2.3574487803376982 : SURFACE LATITUDE
SLON .WGS84  8.483617502911002 : SURFACE LONGITUDE
DATUM.F                    nan : DEPTH DATUM ELEV
~Curve Information -----------------------------------------
DEPT   .FT    : 
CALD   .IN    : CALIPER FROM DENSITY LOG
DPHZ_LS.DEC   : HGRD STANDARD RESOLUTION DENSITY POROSITY
DTCO   .US/F  : DELTA-T COMPRESSIONAL
DTSM   .US/F  : DELTA-T SHEAR
GR_EDTC.GAPI  : GAMMA RAY
HDRA   .G/C3  : HRDD SPINE AND RIBS DENSITY CORRECTION
PEFZ   .B/E   : HRDD STANDARD RESOLUTION FORMATION PHOTOELECTRIC FACTOR
RLA3   .OHMM  : APPARENT RESISTIVITY FROM COMPUTED FOCUSING MODE 3
RLA5   .OHMM  : APPARENT RESISTIVITY FROM COMPUTED FOCUSING MODE 5
RXOZ   .OHMM  : INVADED FORMATION RESISTIVITY FILTERED AT 18 INCHES
TNPH_LS.DEC   : THERMAL NEUTRON POROSITY [LIMESTONE]
~Params ----------------------------------------------------
~Other -----------------------------------------------------
~ASCII -----------------------------------------------------
# ...
 4480.50000    9.53520    0.18830   76.37160  135.64950   63.37450    0.01660    2.25990    3.35990    3.47810    5.58060    0.19620
 4481.00000    9.51990    0.18580   75.81040  134.04520   65.71730    0.01930    2.28530    3.44440    3.58760    5.64990    0.18930
 4481.50000    9.51670    0.17620   75.22820  132.74920   64.95580    0.01750    2.31060    3.52880    3.72000    6.20220    0.18110
 4482.00000    9.53700    0.16810   74.70260  131.91580   61.47840    0.00890    2.33250    3.78640    4.48510    7.05090    0.17320
 4482.50000    9.55720    0.16030   74.07950  131.34230   59.04160    0.00400    2.30850    4.04390    5.28640    7.89960    0.16650
 4483.00000    9.57750    0.15250   73.86650  130.94210   58.71080    0.00120    2.28450    4.30150    4.53130    7.97040    0.16380
 4483.50000    9.61510    0.14470   73.99020  130.54180   63.07550   -0.00040    2.29280    4.38270    4.44830    7.58040    0.16720
 4484.00000    9.64650    0.14750   72.99290  127.60930   68.04310   -0.00210    2.30920    4.41990    4.42090    7.45630    0.17150
 4484.50000    9.59610    0.14370   72.25740  126.78660   71.71930   -0.00200    2.32560    4.45710    4.58750    7.41050    0.16970
 4485.00000    9.59010    0.13420   72.46250  126.17410   75.13940   -0.00040    2.34210    4.49420    5.28950    7.66280    0.16500
 4485.50000    9.59530    0.12460   72.61840  125.88980   78.17520   -0.00040    2.35900    5.01130    7.07260    8.50240    0.16030
 4486.00000    9.60040    0.12190   72.73620  125.62520   81.34610   -0.00040    2.37680    5.96780    8.03930    9.46100    0.15890
 4486.50000    9.60560    0.13490   73.06080  125.81950   81.96750   -0.00040    2.36200    4.43020    5.70060    9.52510    0.16200
 4487.00000    9.61080    0.14780   73.40370  126.31920   78.11970   -0.00040    2.30540    3.75850    4.11710    7.76910    0.17790
 4487.50000    9.60620    0.16080   73.31750  126.41910   71.70640   -0.00040    2.24230    3.64440    4.07600    6.83710    0.17350
 4488.00000    9.58990    0.17120   73.21610  126.21510   65.38930   -0.00200    2.21780    3.73540    4.67320    6.91200    0.18340
 4488.50000    9.57350    0.16280   73.27210  125.70530   62.43140   -0.00390    2.22330    4.13110    4.36670    7.81030    0.18530
 4489.00000    9.55720    0.15220   73.22520  125.19540   63.50090   -0.00310    2.22890    4.41190    5.80190    9.33930    0.17280
 4489.50000    9.54080    0.14160   73.03800  124.68550   66.51370   -0.00030    2.23440    6.25800    8.19380   10.86830    0.16360
 4490.00000    9.51690    0.14010   72.07220  124.17560   67.54940    0.00090    2.23990    6.01720    8.33720   11.10220    0.15030
 4490.50000    9.43470    0.14730   71.38990  123.66580   65.94770    0.00350    2.24540    5.34100    6.16250    9.56660    0.13760
 4491.00000    9.36700    0.15460   70.90300  122.87030   60.79940    0.00500    2.24280    5.51940    5.92320    8.64530    0.12590
 4491.50000    9.35760    0.15580   70.23330  121.55080   57.80880    0.00600    2.27130    5.90750    6.28240    9.21740    0.11410
 4492.00000    9.34820    0.14870   69.53350  119.79120   55.84790    0.00610    2.31060    6.08060    9.32130   10.86030    0.10680
 4492.50000    9.36320    0.14010   69.30700  118.60920   57.54380    0.00610    2.31450    6.56670    7.16450   10.19360    0.10680
 4493.00000    9.38010    0.14520   69.43580  118.30910   56.48390    0.00470    2.30960    5.50820    5.83440   10.09990    0.10900
 4493.50000    9.37460    0.15370   69.53500  118.00890   62.82860    0.00360    2.28540    5.76590    6.42890    9.69370    0.12800
 4494.00000    9.41040    0.16070   68.78800  117.70880   64.68120    0.00700    2.30280    5.52010    6.18220    9.89540    0.14700
 4494.50000    9.41960    0.15740   67.62220  117.40870   64.18550    0.01610    2.35110    4.67420    5.23900    9.45320    0.14700
 4495.00000    9.42890    0.15880   68.05160  116.82200   60.19680    0.01970    2.37390    3.99750    4.64440    7.54880    0.12880
 4495.50000    9.43810    0.14540   68.09440  117.12690   54.40670    0.02360    2.37950    4.02220    6.72090    8.67220    0.11060
 4496.00000    9.49600    0.11450   68.53020  117.98540   50.81870    0.02780    2.38520    8.17270   10.18180   11.48050    0.09570
 4496.50000    9.58640    0.09600   69.02850  118.06210   48.88150    0.02860    2.36910    6.09730    9.53730   13.72720    0.10950
 4497.00000    9.67670    0.11490   69.22870  118.71520   47.79230    0.01970    2.32790    4.07210    4.28670    9.74940    0.13290
 4497.50000    9.76700    0.13660   69.26640  119.31830   50.12670    0.00770    2.25730    4.35110    4.72610    7.09750    0.15640
 4498.00000    9.82130    0.15190   69.46800  119.72130   53.04460    0.00470    2.19870    4.69980    5.38510    7.81830    0.16560
 4498.50000    9.83540    0.15800   69.55910  120.45250   56.45160    0.00280    2.18090    4.83190    5.20070    8.02940    0.14980
 4499.00000    9.86030    0.15690   70.31520  121.40240   60.77350    0.00100    2.20240    4.81950    4.97030    7.23000    0.14920
 4499.50000    9.86990    0.15170   71.07720  122.35230   65.59940   -0.00050    2.21440    4.80960    4.93980    7.24020    0.15510
 4500.00000    9.84950    0.14680   71.50060  123.17850   63.83780    0.00050    2.22400    4.89940    5.10550    7.37710    0.16100
 4500.50000    9.82910    0.14190   71.45910  123.54070   61.76840    0.00160    2.24090    5.03480    5.15780    7.51390    0.16700
 4501.00000    9.80870    0.14020   71.24650  123.90490   61.90630    0.00140    2.25200    5.10800    5.22200    7.59610    0.16930
 4501.50000    9.78830    0.14000   70.96790  123.49440   66.72910    0.00080    2.25180    5.18120    5.35260    7.59650    0.15470
 4502.00000    9.78680    0.13990   70.66280  123.08400   67.54500    0.00020    2.25170    5.25440    5.51790    7.59650    0.15350
 4502.50000    9.76580    0.14020   70.37770  122.00700   66.27390   -0.00030    2.25160    5.32750    5.65850    7.78310    0.15250
 4503.00000    9.72900    0.13940   70.07310  121.12240   63.87830   -0.00200    2.25140    5.34230    5.80050    8.01490    0.14690
 4503.50000    9.69320    0.13810   69.57940  120.35570   65.46340   -0.00030    2.25130    5.56110    5.98180    8.24680    0.13820
 4504.00000    9.65740    0.13190   69.12220  119.76900   66.27520    0.00060    2.26040    6.31570    7.24930    8.38600    0.12940
 4504.50000    9.61350    0.11930   68.33240  118.23710   66.79840    0.00230    2.26950    7.27230    7.75500    7.92330    0.12240
 4505.00000    9.53750    0.10680   67.74540  116.67560   65.74050    0.00420    2.30060    6.95250    6.76780    7.10060    0.11470
 4505.50000    9.51160    0.09420   66.86710  115.11400   62.55410    0.00420    2.36490    6.71280    8.11460   10.76900    0.10510
 4506.00000    9.49190    0.08160   66.12100  113.55250   60.92890    0.00470    2.46050    8.28330   11.58500   15.29950    0.09560
 4506.50000    9.49750    0.07400   66.61530  113.58040   59.30380    0.00720    2.51120   12.20910   14.36140   18.01800    0.09170
 4507.00000    9.50310    0.08330   67.03420  113.50400   58.32990    0.00660    2.43330    8.15440    9.50590   13.61310    0.09650
 4507.50000    9.50720    0.09880   67.83970  113.26540   64.16510    0.00300    2.35550    7.03890    7.30470    7.79050    0.10900
 4508.00000    9.52190    0.11070   69.72870  114.20530   70.62660   -0.00130    2.30410    7.09740    7.63490   13.45310    0.12140
 4508.50000    9.52300    0.11620   70.39680  116.20500   83.50970   -0.00390    2.35620   11.13590   15.42550   22.89050    0.13590
 4509.00000    9.50050    0.12150   71.20210  118.60640   97.64410   -0.00310    2.45330   17.71990   24.91040   31.00930    0.15980
 4509.50000    9.46420    0.13270   74.13050  120.75540  121.38000   -0.00320    2.56280   27.13260   34.69700   38.48130    0.18380
 4510.00000    9.42780    0.15320   74.54280  121.49340  146.41280   -0.00060    2.67540   44.43510   72.68980   97.15700    0.21160
 4510.50000    9.39140    0.16960   75.73060  122.23140  170.80250    0.00130    2.74310   72.61140  103.08510  111.15630    0.24040
