~Version ---------------------------------------------------
VERS.   2.0 : CWLS log ASCII Standard -VERSION 2.0
WRAP.    NO : One line per depth step
DLM . SPACE : Column Data Section Delimiter
~Well ------------------------------------------------------
STRT .FT                  28.0 : START DEPTH
STOP .FT               11239.0 : STOP DEPTH
STEP .FT                   0.5 : STEP
NULL .                -9999.25 : NULL VALUE
COMP .                         : COMPANY
WELL .                         : WELL
FLD  .                         : FIELD
LOC  .                         : LOCATION
PROV .                         : PROVINCE
CNTY .                         : COUNTY
STAT .                         : STATE
CTRY .                         : COUNTRY
SRVC .                         : SERVICE COMPANY
DATE .                         : DATE
UWI  .                         : UNIQUE WELL ID
API  .                         : API NUMBER
SLAT .WGS84 2.3574487803376982 : SURFACE LATITUDE
SLON .WGS84  8.483617502911002 : SURFACE LONGITUDE
DATUM.F                    nan : DEPTH DATUM ELEV
~Curve Information -----------------------------------------
DEPT   .FT    : 
CALD   .IN    : CALIPER FROM DENSITY LOG
DPHZ_LS.DEC   : HGRD STANDARD RESOLUTION DENSITY POROSITY
DTCO   .US/F  : DELTA-T COMPRESSIONAL
DTSM   .US/F  : DELTA-T SHEAR
GR_EDTC.GAPI  : GAMMA RAY
HDRA   .G/C3  : HRDD SPINE AND RIBS DENSITY CORRECTION
PEFZ   .B/E   : HRDD STANDARD RESOLUTION FORMATION PHOTOELECTRIC FACTOR
RLA3   .OHMM  : APPARENT RESISTIVITY FROM COMPUTED FOCUSING MODE 3
RLA5   .OHMM  : APPARENT RESISTIVITY FROM COMPUTED FOCUSING MODE 5
RXOZ   .OHMM  : INVADED FORMATION RESISTIVITY FILTERED AT 18 INCHES
TNPH_LS.DEC   : THERMAL NEUTRON POROSITY [LIMESTONE]
~Params ----------------------------------------------------
~Other -----------------------------------------------------
~ASCII -----------------------------------------------------
# ...
 6890.00000    9.48080    0.08750   63.74550  109.41190   92.57020    0.00160    2.55730   21.01870   22.15700   23.93190    0.12220
 6890.50000    9.48910    0.08820   63.94430  109.92770   86.20720    0.00150    2.49860   18.03710   18.64300   19.51520    0.11320
 6891.00000    9.49320    0.08300   64.14960  110.44340   78.02840    0.00130    2.48850   18.31290   18.92800   20.30850    0.11510
 6891.50000    9.50700    0.07880   64.42190  110.95920   74.64760    0.00120    2.49600   19.14140   19.78430   21.10180    0.11510
 6892.00000    9.52090    0.08090   64.77240  111.47490   76.93960    0.00110    2.46920   19.96980   20.64060   21.89520    0.10780
 6892.50000    9.50940    0.08200   64.94460  111.99060   82.61040    0.00090    2.44250   20.02280   20.69530   21.91110    0.10940
 6893.00000    9.50870    0.08210   64.78690  112.09380   89.04250    0.00080    2.36940   18.59620   19.22080   20.40430    0.11750
 6893.50000    9.52140    0.08530   64.76920  112.48040   87.41950    0.00070    2.29620   17.16960   17.74630   18.89750    0.12310
 6894.00000    9.50930    0.08980   65.05700  112.78720   83.38300    0.00050    2.28680   15.74300   16.27180   17.39070    0.12830
 6894.50000    9.49100    0.09450   65.00390  113.09400   79.17130    0.00040    2.31050   14.31640   14.79730   15.88390    0.12300
 6895.00000    9.47270    0.09650   65.18020  113.40080   76.99320    0.00030    2.33410   12.88990   13.32280   14.37710    0.11460
 6895.50000    9.46150    0.09440   65.50320  113.64630   77.26630    0.00020    2.33180   12.81060   13.24090   14.30430    0.10950
 6896.00000    9.46080    0.09600   65.95550  114.06970   74.43540    0.00010    2.32000   13.50020   13.95360   14.87560    0.10950
 6896.50000    9.46010    0.10040   66.29090  115.12820   71.60440    0.00010    2.31070   14.40260   14.70390   16.50500    0.11260
 6897.00000    9.44450    0.10460   66.63320  115.72300   69.90190   -0.00130    2.34220   18.64260   19.26880   22.36650    0.11980
 6897.50000    9.40650    0.10520   66.72680  115.52140   73.84900    0.00010    2.41370   22.88260   23.65120   28.22800    0.12770
 6898.00000    9.36850    0.09750   66.58120  115.31980   89.38200    0.00090    2.48530   83.61540   92.94400  108.83900    0.14700
 6898.50000    9.33060    0.09310   66.43560  115.28350  124.74110    0.00310    2.55680  158.47130  178.46430  249.56830    0.20220
 6899.00000    9.31670    0.08870   66.43090  115.41050  155.33300    0.00310    2.62000  219.03120  231.68800  430.37650    0.20140
 6899.50000    9.31480    0.08430   66.30570  115.41050  183.51310    0.00220    2.65020  223.25450  236.46670  425.33040    0.17570
 6900.00000    9.31200    0.08170   65.96440  115.41050  200.42110    0.00100    2.67120  229.39500  241.24530  505.89640    0.15010
 6900.50000    9.31710    0.08170   65.23430  114.17550  196.60500   -0.00010    2.69220  204.83360  241.44270  575.33100    0.13350
 6901.00000    9.33520    0.07940   64.62730  112.94040  191.83490   -0.00130    2.70060  164.80770  204.70360  432.95100    0.13740
 6901.50000    9.35330    0.07380   64.09620  111.67010  187.17420   -0.00170    2.68570  111.77050  137.94260  285.35070    0.14880
 6902.00000    9.37140    0.07020   63.39130  111.67010  166.57440   -0.00150    2.65450   58.73320   71.18150  137.75040    0.13990
 6902.50000    9.38950    0.07330   62.77710  110.91730  141.17590   -0.00160    2.63490   49.76760   53.17110   79.03340    0.12100
 6903.00000    9.40760    0.08050   62.63280  109.89800  115.77740   -0.00400    2.59080   47.68800   51.64000   80.33870    0.10210
 6903.50000    9.41860    0.07720   62.44960  109.69410  106.53820   -0.00410    2.53810   55.22170   57.72360   84.05740    0.09250
 6904.00000    9.43800    0.07640   62.47260  110.38060  102.87250   -0.00340    2.50000   48.88340   60.76530   82.01000    0.08960
 6904.50000    9.49520    0.08350   62.57830  110.31440   99.94000   -0.00280    2.47910   33.88610   43.51350   55.76960    0.10240
 6905.00000    9.55230    0.09480   62.91910  110.72630   93.63460   -0.00460    2.45820   18.88880   21.94870   27.29880    0.11270
 6905.50000    9.60030    0.10610   63.36780  111.01950   88.48090   -0.00470    2.42590   10.13510   10.47560   13.29880    0.10360
 6906.00000    9.64220    0.10650   63.59090  109.60170   77.83550   -0.00160    2.34800    6.40760    6.62280    8.94610    0.09950
 6906.50000    9.68410    0.10220   63.65420  110.90830   63.98110    0.00210    2.31330    6.18930    6.39710    7.32620    0.09820
 6907.00000    9.66650    0.09240   63.66870  111.64870   57.44690    0.00780    2.30730    6.52890    6.85440    7.59720    0.09740
 6907.50000    9.63400    0.08270   63.65090  111.48280   53.16810    0.00960    2.30990    6.95340    7.42590    7.86820    0.08620
 6908.00000    9.60140    0.07880   63.60600  110.92640   50.85430    0.00940    2.32520    7.37790    7.99750    9.46600    0.06970
 6908.50000    9.56890    0.07880   63.52070  110.37000   50.00350    0.00710    2.32650    7.67980    8.56900   10.53250    0.06640
 6909.00000    9.57010    0.07880   63.55860  109.44320   50.52160    0.00680    2.31440    7.20960    7.95390    8.91270    0.07600
 6909.50000    9.57200    0.08040   63.32950  108.42390   51.92730    0.00490    2.30240    6.58280    7.32920    8.80350    0.08570
 6910.00000    9.57390    0.08200   62.89640  107.89970   55.99370    0.00140    2.29640    7.34780    8.10800    8.56420    0.09530
 6910.50000    9.57580    0.08300   62.55970  107.24440   60.84150    0.00140    2.31460    7.16530    7.69760    8.26520    0.09910
 6911.00000    9.57770    0.07770   62.45520  106.58920   64.74560    0.00370    2.34890    6.54240    7.07260    8.02590    0.09190
 6911.50000    9.57960    0.07110   62.43780  105.93390   58.44600    0.00790    2.40750    7.35770    8.68700   12.39880    0.07020
 6912.00000    9.58150    0.07020   62.99890  105.67180   50.37580    0.00850    2.40640    7.96910    9.65550   15.71550    0.05290
 6912.50000    9.58340    0.08240   63.15030  105.67180   43.92910    0.00490    2.35390    5.94420    7.05900   11.56570    0.05370
 6913.00000    9.58850    0.09750   63.43570  105.67180   48.26680    0.00160    2.29860    5.40430    5.71000    7.41580    0.06980
 6913.50000    9.60620    0.10790   63.62530  106.02460   51.12040    0.00150    2.23230    5.30530    5.67980    6.92260    0.08950
 6914.00000    9.62390    0.11030   63.85330  107.10720   53.65940    0.00150    2.19130    4.89870    5.14940    6.97540    0.10250
 6914.50000    9.64160    0.11520   64.32570  108.37210   55.68660    0.00140    2.18560    4.27560    4.65900    6.85500    0.10560
 6915.00000    9.65930    0.11860   64.94960  109.71680   57.55420    0.00130    2.18000    4.65510    4.86520    6.71200    0.10680
 6915.50000    9.67710    0.11900   65.63190  111.09610   59.20390    0.00130    2.17440    4.70850    4.86670    6.26010    0.10790
 6916.00000    9.70180    0.11910   65.84690  112.04940   57.35720    0.00250    2.16880    4.21670    4.35830    5.80830    0.11230
 6916.50000    9.75460    0.12320   65.87060  112.51660   55.20710    0.00170    2.16540    3.99520    4.12940    5.84100    0.11290
 6917.00000    9.80740    0.12250   65.88920  113.04630   54.58190    0.00170    2.17090    4.04590    4.18180    6.14880    0.10930
 6917.50000    9.86030    0.11720   66.06670  113.95350   53.17190    0.00450    2.17340    4.10920    4.24720    6.13070    0.10250
 6918.00000    9.91310    0.11190   66.34540  114.64060   53.24550    0.00630    2.16930    4.17250    4.31270    5.68070    0.09840
 6918.50000    9.96590    0.10870   66.50450  114.76780   54.80710    0.00550    2.16520    4.22320    4.36500    5.23070    0.09840
 6919.00000    9.99090    0.11420   66.70850  114.40550   56.82840    0.00420    2.16820    3.92560    4.19040    4.78080    0.10640
 6919.50000   10.01510    0.12110   66.76040  113.72640   58.23830    0.00110    2.22460    3.68750    4.01580    4.93830    0.11550
 6920.00000   10.03930    0.12800   66.85880  114.77550   60.79510   -0.00070    2.25960    5.08760    6.09620    6.66910    0.12450
