~Version ---------------------------------------------------
VERS.   2.0 : CWLS log ASCII Standard -VERSION 2.0
WRAP.    NO : One line per depth step
DLM . SPACE : Column Data Section Delimiter
~Well ------------------------------------------------------
STRT .FT                  28.0 : START DEPTH
STOP .FT               11239.0 : STOP DEPTH
STEP .FT                   0.5 : STEP
NULL .                -9999.25 : NULL VALUE
COMP .                         : COMPANY
WELL .                         : WELL
FLD  .                         : FIELD
LOC  .                         : LOCATION
PROV .                         : PROVINCE
CNTY .                         : COUNTY
STAT .                         : STATE
CTRY .                         : COUNTRY
SRVC .                         : SERVICE COMPANY
DATE .                         : DATE
UWI  .                         : UNIQUE WELL ID
API  .                         : API NUMBER
SLAT .WGS84 2.3574487803376982 : SURFACE LATITUDE
SLON .WGS84  8.483617502911002 : SURFACE LONGITUDE
DATUM.F                    nan : DEPTH DATUM ELEV
~Curve Information -----------------------------------------
DEPT   .FT    : 
CALD   .IN    : CALIPER FROM DENSITY LOG
DPHZ_LS.DEC   : HGRD STANDARD RESOLUTION DENSITY POROSITY
DTCO   .US/F  : DELTA-T COMPRESSIONAL
DTSM   .US/F  : DELTA-T SHEAR
GR_EDTC.GAPI  : GAMMA RAY
HDRA   .G/C3  : HRDD SPINE AND RIBS DENSITY CORRECTION
PEFZ   .B/E   : HRDD STANDARD RESOLUTION FORMATION PHOTOELECTRIC FACTOR
RLA3   .OHMM  : APPARENT RESISTIVITY FROM COMPUTED FOCUSING MODE 3
RLA5   .OHMM  : APPARENT RESISTIVITY FROM COMPUTED FOCUSING MODE 5
RXOZ   .OHMM  : INVADED FORMATION RESISTIVITY FILTERED AT 18 INCHES
TNPH_LS.DEC   : THERMAL NEUTRON POROSITY [LIMESTONE]
~Params ----------------------------------------------------
~Other -----------------------------------------------------
~ASCII -----------------------------------------------------
# ...
 8811.50000    9.45290    0.01450   54.54580   95.21060   44.70030    0.00490    3.63420  100.38940  124.66520  209.70420    0.04430
 8812.00000    9.44720    0.01540   54.89790   94.38740   39.69550    0.00230    3.52140   94.96460  109.13410  550.18360    0.03630
 8812.50000    9.44160    0.01660   54.84970   94.55270   38.77430    0.00180    3.35580   69.01670   83.24890  420.13250    0.03160
 8813.00000    9.45500    0.01880   54.51560   94.78270   42.88450    0.00200    3.17760   55.30270   65.59310  161.22860    0.03780
 8813.50000    9.46850    0.02450   55.45000   95.00200   48.86070    0.00440    2.95650   44.64700   53.42360   92.00460    0.05170
 8814.00000    9.48200    0.02960   55.97650   95.50990   55.30350    0.00330    2.89510   38.25360   43.68800   63.52650    0.06280
 8814.50000    9.49550    0.03430   55.40850   95.40770   59.94470    0.00160    2.90000   40.53460   45.77220   78.77190    0.06130
 8815.00000    9.50900    0.03270   55.06760   95.53790   64.07260    0.00050    2.90480   43.54380   48.93160   97.82860    0.05800
 8815.50000    9.52240    0.03100   56.18630   96.00350   66.06930    0.00010    2.90540   41.01670   46.43000  136.49500    0.05730
 8816.00000    9.53590    0.03390   57.36990   96.64980   62.09260    0.00020    2.84880   41.03770   47.15260  106.42400    0.05830
 8816.50000    9.54420    0.04110   56.92470   97.19540   58.52440    0.00020    2.74740   40.91480   50.34690   62.68140    0.06010
 8817.00000    9.55530    0.04940   57.51130   97.33790   58.72860    0.00090    2.65820   33.51020   40.92630   44.44150    0.06160
 8817.50000    9.57050    0.05930   57.93690   97.88630   62.88680    0.00160    2.56920   26.37150   31.50580   32.43020    0.06580
 8818.00000    9.58580    0.06580   58.31480   98.82710   66.48020    0.00340    2.54910   20.29620   22.61830   24.57150    0.07530
 8818.50000    9.65060    0.06410   58.98870   99.34900   68.37070    0.01150    2.57170   19.08120   21.99280   27.13040    0.07930
 8819.00000    9.71750    0.05870   59.66250   99.90980   71.35180    0.02100    2.60560   21.98940   23.14480   29.20350    0.08190
 8819.50000    9.74320    0.05670   60.20150  100.47060   75.90680    0.02920    2.62820   18.78980   20.06100   24.47220    0.08690
 8820.00000    9.72260    0.06910   60.57190  101.03140   78.76590    0.02450    2.51000   15.59020   16.20620   19.74090    0.09340
 8820.50000    9.70200    0.08450   61.70660  101.49900   76.73920    0.01570    2.44840   12.39060   12.98950   15.81100    0.09580
 8821.00000    9.68140    0.09690   62.20920  101.59410   74.38410    0.00990    2.49480   12.54440   12.72380   15.56700    0.09250
 8821.50000    9.66720    0.09650   62.66990  101.68930   72.44900    0.01770    2.61810   12.96330   13.03250   16.65990    0.08920
 8822.00000    9.66250    0.07560   62.70410  101.78440   72.18720    0.02690    2.76760   13.48700   13.78610   19.92300    0.08590
 8822.50000    9.65900    0.05960   61.98200  102.28420   71.50780    0.02510    2.91640   16.06230   17.35310   25.09950    0.08270
 8823.00000    9.66030    0.06530   61.25990  102.05530   70.72830    0.01480    2.91090   20.73960   22.28440   28.66810    0.07960
 8823.50000    9.66160    0.06260   61.68330  101.17310   68.66280    0.01990    2.93040   25.41690   27.21560   38.05320    0.07770
 8824.00000    9.70000    0.06720   60.11740  100.29100   67.11860    0.03770    2.98460   26.84350   30.17440   33.19730    0.07470
 8824.50000    9.79400    0.07480   59.52890   99.40880   65.50580    0.06240    3.03140   24.62180   26.98090   18.74620    0.07340
 8825.00000    9.88800    0.07900   59.94040   98.98540   63.61840    0.08560    2.99680   22.53880   25.70350   16.16010    0.07310
 8825.50000    9.96330    0.06050   60.04430   98.80910   62.46710    0.08670    2.93680   24.21990   27.12530   17.17080    0.07890
 8826.00000    9.94610    0.04110   60.34870   98.63260   62.79770    0.06560    2.92090   27.02190   28.90260   25.18630    0.07750
 8826.50000    9.76170    0.04380   59.40750   98.27980   63.33290    0.03010    2.85830   27.93410   29.56350   24.48650    0.07310
 8827.00000    9.67080    0.04670   60.56170   98.27980   61.89260    0.01160    2.79580   26.89160   29.94530   23.32030    0.07490
 8827.50000    9.65200    0.04940   61.36310   98.63260   61.14770    0.00310    2.73330   25.84910   30.17440   22.15410    0.07690
 8828.00000    9.64790    0.05340   60.79310   98.98550   60.80650    0.00280    2.67080   24.80660   28.08890   21.19140    0.07450
 8828.50000    9.64380    0.05600   60.84960   99.26780   62.09000    0.00250    2.62870   23.67880   26.14010   22.12640    0.07190
 8829.00000    9.63970    0.05800   60.48940   99.57020   64.03130    0.00220    2.60020   22.63390   24.39640   20.49510    0.07100
 8829.50000    9.63640    0.05850   60.79200   99.67110   63.73690    0.00310    2.64370   21.50980   22.65270   19.92380    0.06840
 8830.00000    9.55600    0.05740   60.66750   99.55000   64.04320    0.00310    2.68070   21.19050   22.80680   24.29870    0.06040
 8830.50000    9.51560    0.05300   60.26010   99.19650   64.15730    0.00320    2.75470   22.30450   24.06410   27.79860    0.06270
 8831.00000    9.58900    0.04840   59.64490   98.60850   65.04700    0.00990    2.82880   22.81850   23.72290   28.12310    0.06500
 8831.50000    9.68700    0.04690   59.19140   98.02040   63.36160    0.01970    2.93280   21.16340   22.22550   28.49300    0.06730
 8832.00000    9.66730    0.04760   59.04700   97.43240   62.12700    0.02640    3.05690   20.12920   22.03050   34.71300    0.06960
 8832.50000    9.65590    0.05180   58.72960   96.84430   59.36740    0.02120    3.12150   27.11730   31.24570   47.59570    0.07110
 8833.00000    9.64440    0.04920   58.66620   96.86770   56.97500    0.01280    3.10660   33.81390   38.61780   61.22100    0.07110
 8833.50000    9.63300    0.04600   58.66620   97.48880   55.28260    0.00550    2.93460   26.94610   32.73520   46.64570    0.06670
 8834.00000    9.62150    0.04560   59.54600   98.05330   54.53580    0.00070    2.84480   18.36120   22.93070   31.20690    0.06920
 8834.50000    9.61010    0.05050   60.04230   98.42030   55.46760    0.00010    2.69660   17.93970   19.65600   24.87930    0.07550
 8835.00000    9.59860    0.05740   60.13300   98.44150   57.08720   -0.00030    2.58070   18.84710   20.33290   23.68300    0.08550
 8835.50000    9.61770    0.06430   60.20100   98.47670   60.73170   -0.00190    2.51520   17.21470   18.96310   20.74160    0.09070
 8836.00000    9.64960    0.06590   60.20100   98.51200   65.42060   -0.00060    2.51270   14.49390   16.68000   18.16310    0.09070
 8836.50000    9.70400    0.05750   60.50250   98.54730   69.73570    0.00020    2.57590   15.28160   16.38140   21.15600    0.08390
 8837.00000    9.75060    0.04600   60.76940   98.55250   71.64050    0.00120    2.63910   19.97160   21.73760   28.45370    0.07430
 8837.50000   10.06180    0.03700   60.75750   98.50850   71.86890    0.00380    2.69010   24.52200   27.01410   38.31040    0.07120
 8838.00000   10.26950    0.04330   60.59870   98.46440   70.62280    0.00340    2.66370   23.93530   28.64030   35.51830    0.06850
 8838.50000   10.05710    0.06480   60.63370   98.42030   67.76450    0.00110    2.55400   18.96380   20.96980   30.86490    0.07400
 8839.00000    9.84480    0.08640   61.38250   97.71460   63.21610   -0.00370    2.44430   21.04800   24.57740   29.93420    0.07430
 8839.50000    9.75680    0.09460   61.56950   97.00890   57.93380   -0.00300    2.38890   26.25850   29.08700   37.12270    0.06910
 8840.00000    9.69990    0.09850   61.75660   97.31940   49.65210    0.00140    2.40360   22.54430   27.77350   39.75480    0.05100
 8840.50000    9.64310    0.10390   61.84270   98.56170   51.13140    0.00680    2.41830   13.25890   16.69680   33.36540    0.05400
 8841.00000    9.62580    0.10350   61.86160   98.95440   54.09380    0.01230    2.39670   13.95710   14.66000   26.29090    0.06340
 8841.50000    9.63890    0.09650   61.79770   99.44540   52.40020    0.01710    2.35090   17.04190   18.07180   27.22670    0.06270
