~Version ---------------------------------------------------
VERS.   2.0 : CWLS log ASCII Standard -VERSION 2.0
WRAP.    NO : One line per depth step
DLM . SPACE : Column Data Section Delimiter
~Well ------------------------------------------------------
STRT .FT                  28.0 : START DEPTH
STOP .FT               11239.0 : STOP DEPTH
STEP .FT                   0.5 : STEP
NULL .                -9999.25 : NULL VALUE
COMP .                         : COMPANY
WELL .                         : WELL
FLD  .                         : FIELD
LOC  .                         : LOCATION
PROV .                         : PROVINCE
CNTY .                         : COUNTY
STAT .                         : STATE
CTRY .                         : COUNTRY
SRVC .                         : SERVICE COMPANY
DATE .                         : DATE
UWI  .                         : UNIQUE WELL ID
API  .                         : API NUMBER
SLAT .WGS84 2.3574487803376982 : SURFACE LATITUDE
SLON .WGS84  8.483617502911002 : SURFACE LONGITUDE
DATUM.F                    nan : DEPTH DATUM ELEV
~Curve Information -----------------------------------------
DEPT   .FT    : 
CALD   .IN    : CALIPER FROM DENSITY LOG
DPHZ_LS.DEC   : HGRD STANDARD RESOLUTION DENSITY POROSITY
DTCO   .US/F  : DELTA-T COMPRESSIONAL
DTSM   .US/F  : DELTA-T SHEAR
GR_EDTC.GAPI  : GAMMA RAY
HDRA   .G/C3  : HRDD SPINE AND RIBS DENSITY CORRECTION
PEFZ   .B/E   : HRDD STANDARD RESOLUTION FORMATION PHOTOELECTRIC FACTOR
RLA3   .OHMM  : APPARENT RESISTIVITY FROM COMPUTED FOCUSING MODE 3
RLA5   .OHMM  : APPARENT RESISTIVITY FROM COMPUTED FOCUSING MODE 5
RXOZ   .OHMM  : INVADED FORMATION RESISTIVITY FILTERED AT 18 INCHES
TNPH_LS.DEC   : THERMAL NEUTRON POROSITY [LIMESTONE]
~Params ----------------------------------------------------
~Other -----------------------------------------------------
~ASCII -----------------------------------------------------
# ...
 5914.00000    9.43320    0.07890   62.05480  106.49730   53.94330    0.00100    2.51170   14.01120   15.53710   16.22590    0.04290
 5914.50000    9.43320    0.07290   60.99940  104.71780   50.87350    0.00100    2.53580   15.48110   16.72620   19.25830    0.03850
 5915.00000    9.43380    0.06690   60.15890  102.93820   48.93200    0.00100    2.55980   15.54940   18.02680   23.50210    0.03630
 5915.50000    9.46010    0.07000   59.76620  101.15870   51.27200    0.00130    2.52900   13.39530   17.24940   21.65540    0.03990
 5916.00000    9.49280    0.08080   59.58730  100.37930   53.47320    0.00150    2.50850   11.53350   13.90080   17.08470    0.04750
 5916.50000    9.52550    0.09190   60.02500  100.23820   53.74230    0.00170    2.48180    9.67160   10.55230   12.14210    0.05720
 5917.00000    9.55820    0.10490   60.43710  100.23820   52.90210    0.00040    2.43530    7.80980    8.43560    9.25550    0.06700
 5917.50000    9.59090    0.11310   61.10270  101.19360   55.98700   -0.00030    2.37680    5.94800    7.14020    7.94450    0.07570
 5918.00000    9.62360    0.11690   61.60490  102.55070   56.50990   -0.00030    2.35330    5.90540    6.10390    7.84840    0.08140
 5918.50000    9.64470    0.11080   61.81000  103.90780   56.06420   -0.00020    2.31840    6.24410    6.45400    7.82110    0.08100
 5919.00000    9.64860    0.10450   61.93310  104.33120   51.76750    0.00000    2.28350    6.66700    6.89110    7.83550    0.07300
 5919.50000    9.65240    0.09800   61.97080  104.64880   52.87290    0.00010    2.30010    7.08980    7.32840    8.09960    0.07110
 5920.00000    9.65620    0.08840   62.06510  104.75460   53.58840    0.00020    2.34200    8.00930    8.69300   10.51990    0.07110
 5920.50000    9.66420    0.08510   62.14490  104.90870   53.65570    0.00030    2.38380    8.76320   10.56050   13.43490    0.06800
 5921.00000    9.68860    0.08540   62.05610  105.29370   51.52300    0.00050    2.36930    6.82090    8.90210   11.81180    0.06380
 5921.50000    9.71300    0.09220   62.05150  105.76440   50.18400    0.00060    2.31720    5.65530    5.84550   10.60250    0.07160
 5922.00000    9.73740    0.10410   62.27920  106.57870   50.19600    0.00070    2.27700    5.65490    5.84500    8.14750    0.08240
 5922.50000    9.77430    0.11580   62.77320  107.39300   50.23510    0.00090    2.24960    5.18600    5.51350    8.35040    0.09060
 5923.00000    9.83010    0.12650   63.20930  107.90690   50.13660    0.00100    2.24190    4.65140    5.15230    7.94750    0.09890
 5923.50000    9.85570    0.13310   63.41440  108.00090   50.81970    0.00100    2.22140    4.22370    4.79110    7.91270    0.10220
 5924.00000    9.83610    0.12130   63.71270  108.10950   52.62590    0.00070    2.18190    4.40440    5.16750    7.87940    0.09670
 5924.50000    9.81660    0.11050   64.16380  108.24520   52.93850    0.00050    2.16400    5.30900    5.79500    8.33810    0.09270
 5925.00000    9.79700    0.10170   64.08910  108.38090   51.76370    0.00030    2.16200    6.21370    6.42260    8.07410    0.08860
 5925.50000    9.77740    0.10570   64.05390  108.51660   50.35880    0.00010    2.19390    6.17990    6.38760    8.13000    0.09070
 5926.00000    9.75790    0.11810   64.10160  108.65240   51.19740   -0.00020    2.26570    5.98240    6.18350    7.66900    0.09590
 5926.50000    9.73830    0.12140   63.79990  108.49490   51.89460    0.00000    2.32140    5.90320    6.10160    7.70220    0.10010
 5927.00000    9.71520    0.11550   63.48800  108.00090   49.54530    0.00030    2.31270    6.38920    6.67500    7.93020    0.09290
 5927.50000    9.68980    0.10950   63.16350  107.26000   47.97610    0.00070    2.29040    6.56870    7.10600    8.28350    0.08650
 5928.00000    9.67030    0.10150   62.45360  106.51020   48.99730    0.00110    2.28930    6.25210    6.72150    8.77840    0.08050
 5928.50000    9.68060    0.09660   62.29580  105.76040   47.64730    0.00150    2.29440    6.82700    7.49560    9.24230    0.07530
 5929.00000    9.68710    0.09970   62.13110  105.46050   49.68190    0.00190    2.31770    6.51230    6.86030    8.56530    0.07840
 5929.50000    9.69360    0.10390   61.94310  105.03710   51.71640    0.00220    2.35310    6.11910    7.04060    7.88920    0.08310
 5930.00000    9.70010    0.09380   61.83260  104.61360   53.75090    0.00240    2.38850    7.57750    8.15030    8.60390    0.07820
 5930.50000    9.70660    0.08370   61.51930  104.33100   52.21350    0.00860    2.41080    8.74430    9.03810    9.79570    0.07110
 5931.00000    9.71310    0.08080   61.21420  103.43280   48.82430    0.01210    2.42420    8.68130    8.97310   10.25370    0.06390
 5931.50000    9.69460    0.07590   60.37300  102.66300   44.14000    0.01050    2.45790    8.61830    8.90800   10.54220    0.05980
 5932.00000    9.66990    0.06890   59.95180  101.89320   41.67480    0.00650    2.49660   11.54200   14.15900   20.47860    0.05020
 5932.50000    9.64520    0.06290   59.68210  101.12330   43.34650    0.00250    2.53540   18.53450   22.80190   32.65300    0.03870
 5933.00000    9.62050    0.06400   59.69320  100.66140   45.51470   -0.00070    2.52150   25.52700   29.71660   37.95710    0.03790
 5933.50000    9.59570    0.07720   60.35240  100.87310   44.37890    0.00070    2.45510   16.57140   24.34120   32.33680    0.04300
 5934.00000    9.58590    0.09810   60.63930  102.16690   40.56850    0.00290    2.31450    6.72190   11.35800   20.92600    0.06420
 5934.50000    9.58590    0.11740   61.80560  103.51940   37.80670    0.00170    2.22660    4.48860    4.85300    8.27460    0.08540
 5935.00000    9.58600    0.13350   62.65820  104.89550   39.99290   -0.00120    2.18130    3.59540    3.97860    6.80150    0.10120
 5935.50000    9.58610    0.13160   63.52710  106.30690   43.65250   -0.00090    2.17020    4.03610    4.79330    7.43080    0.10100
 5936.00000    9.58610    0.11860   64.43030  107.71830   47.31200    0.00110    2.18520    4.77050    5.81150    9.97590    0.09950
 5936.50000    9.60670    0.10720   65.51230  109.12970   50.39450    0.00320    2.19770    5.10140    5.79370    8.29160    0.09990
 5937.00000    9.65800    0.11060   66.26460  110.99970   56.76530    0.00320    2.20060    4.72410    5.23990    5.48410    0.10900
 5937.50000    9.69560    0.11680   66.88600  112.98450   63.37120    0.00250    2.20350    4.22110    4.94150    5.46450    0.12200
 5938.00000    9.72740    0.12340   67.33970  114.96930   66.02520    0.00180    2.22690    5.04640    5.26190    5.70180    0.13500
 5938.50000    9.73620    0.12660   67.79350  115.61750   61.92110    0.00120    2.26400    4.88780    5.43820    5.93900    0.14790
 5939.00000    9.74500    0.12860   67.98620  115.61930   68.67780    0.00050    2.30120    4.71250    5.03800    6.16680    0.15260
 5939.50000    9.75470    0.13150   68.38060  115.62100   79.07040    0.00050    2.35130    4.60730    8.15780    6.32110    0.16330
 5940.00000    9.77180    0.13470   68.68550  115.88190   95.24590    0.00200    2.39320    8.84470   13.62410   24.25860    0.17850
 5940.50000    9.70570    0.13260   68.40860  116.36240  116.45140    0.00360    2.39730   12.23470   14.80890   22.72100    0.18850
 5941.00000    9.61940    0.12450   68.24490  116.31850  132.46690    0.00430    2.33960    6.10640    9.55480   15.02910    0.17670
 5941.50000    9.61550    0.11640   68.15740  116.00190  134.67110    0.00420    2.26920    4.85750    5.35150    8.71290    0.14640
 5942.00000    9.63210    0.10650   67.91800  115.37740  113.66650    0.00350    2.25140    6.03420    6.51970    8.39650    0.11600
 5942.50000    9.64870    0.10550   67.51970  114.75290  104.28470    0.00310    2.26700    5.59910    6.28900    7.34540    0.10990
 5943.00000    9.65480    0.11080   66.91810  114.25520   81.65710    0.00270    2.28250    5.16410    5.61130    6.39720    0.12320
 5943.50000    9.64520    0.11680   66.34260  113.19830   73.19690    0.00230    2.29470    4.72900    4.93360    6.15880    0.11830
 5944.00000    9.63550    0.11610   66.11830  112.77650   64.73680    0.00190    2.29320    5.12990    5.74080    6.86260    0.10710
