~Version ---------------------------------------------------
VERS.   2.0 : CWLS log ASCII Standard -VERSION 2.0
WRAP.    NO : One line per depth step
DLM . SPACE : Column Data Section Delimiter
~Well ------------------------------------------------------
STRT .FT                  28.0 : START DEPTH
STOP .FT               11239.0 : STOP DEPTH
STEP .FT                   0.5 : STEP
NULL .                -9999.25 : NULL VALUE
COMP .                         : COMPANY
WELL .                         : WELL
FLD  .                         : FIELD
LOC  .                         : LOCATION
PROV .                         : PROVINCE
CNTY .                         : COUNTY
STAT .                         : STATE
CTRY .                         : COUNTRY
SRVC .                         : SERVICE COMPANY
DATE .                         : DATE
UWI  .                         : UNIQUE WELL ID
API  .                         : API NUMBER
SLAT .WGS84 2.3574487803376982 : SURFACE LATITUDE
SLON .WGS84  8.483617502911002 : SURFACE LONGITUDE
DATUM.F                    nan : DEPTH DATUM ELEV
~Curve Information -----------------------------------------
DEPT   .FT    : 
CALD   .IN    : CALIPER FROM DENSITY LOG
DPHZ_LS.DEC   : HGRD STANDARD RESOLUTION DENSITY POROSITY
DTCO   .US/F  : DELTA-T COMPRESSIONAL
DTSM   .US/F  : DELTA-T SHEAR
GR_EDTC.GAPI  : GAMMA RAY
HDRA   .G/C3  : HRDD SPINE AND RIBS DENSITY CORRECTION
PEFZ   .B/E   : HRDD STANDARD RESOLUTION FORMATION PHOTOELECTRIC FACTOR
RLA3   .OHMM  : APPARENT RESISTIVITY FROM COMPUTED FOCUSING MODE 3
RLA5   .OHMM  : APPARENT RESISTIVITY FROM COMPUTED FOCUSING MODE 5
RXOZ   .OHMM  : INVADED FORMATION RESISTIVITY FILTERED AT 18 INCHES
TNPH_LS.DEC   : THERMAL NEUTRON POROSITY [LIMESTONE]
~Params ----------------------------------------------------
~Other -----------------------------------------------------
~ASCII -----------------------------------------------------
# ...
 10721.00000    8.91590    0.01940   55.58370   98.47290   32.38130   -0.00170    5.54340   91.68220  288.73770   82.75410    0.04230
 10721.50000    8.91590    0.01710   55.06710   98.72300   34.17420    0.00010    5.37170  118.45950  220.33540   92.15740    0.03680
 10722.00000    8.91590    0.01430   55.71050   99.16970   31.96040    0.00330    5.26670  163.08240  106.32570   99.58850    0.03430
 10722.50000    8.91590    0.01540   56.03110   99.74450   30.61860    0.01010    5.20620  194.59970  104.17560   95.48200    0.03580
 10723.00000    8.91590    0.01850   56.37250  100.16350   28.82750    0.00990    5.07340  163.47700  102.76150   87.49790    0.04050
 10723.50000    8.91590    0.01510   57.11610  100.56080   31.17360    0.00950    5.01690  124.57010  210.16490   86.70450    0.04520
 10724.00000    8.91590    0.02100   57.88780  101.08300   33.82460    0.00560    4.96040  107.67460  240.03860   99.61710    0.04980
 10724.50000    8.91590    0.02900   58.32010  101.38660   36.44920    0.00070    4.91610  106.36300  173.20510   93.48790    0.05550
 10725.00000    8.91590    0.03290   58.71580  102.01410   38.32980    0.00050    4.80620   98.87340  106.37150   71.94340    0.06170
 10725.50000    8.91590    0.03080   59.30440  102.85750   40.67000    0.00040    4.74200   92.88350  133.49870   64.51120    0.06680
 10726.00000    8.91590    0.02530   60.21320  103.70090   43.09730    0.00240    4.60250  165.59790  220.23080  108.70380    0.06250
 10726.50000    8.91590    0.02150   61.38200  104.63040   44.28720    0.00360    4.51560  197.10630  220.24320  143.95860    0.05860
 10727.00000    8.91590    0.02850   62.58300  106.04180   44.37170    0.00350    4.36730  174.67350  193.57310  140.32030    0.06290
 10727.50000    8.91590    0.04210   63.95570  107.53390   49.17180    0.00340    4.19500  141.30410  151.25250  118.81570    0.07930
 10728.00000    8.91590    0.06100   65.39090  109.34900   57.16880    0.00200    3.99270   95.91990  108.93180   84.88890    0.11730
 10728.50000    8.91590    0.06750   66.82610  111.00600   72.99370    0.00380    3.76480   59.61390   66.61120   50.96200    0.13890
 10729.00000    8.91590    0.05810   67.94370  111.74470   81.49920    0.00550    3.63560   73.52310   92.93330   46.14050    0.13610
 10729.50000    8.91590    0.05040   68.62570  112.88490   85.66550    0.00690    3.52110   60.56970   85.92060   45.52890    0.12290
 10730.00000    8.91590    0.05250   69.70830  113.74680   81.86080    0.00490    3.40650   44.37600   50.82960   37.06790    0.12230
 10730.50000    8.91560    0.05540   70.38290  114.19120   79.37920    0.00280    3.29200   34.65890   43.27140   30.01860    0.12460
 10731.00000    8.91400    0.05570   70.77180  114.63550   81.10030    0.00140    3.19880   39.20290   45.17310   23.54950    0.11600
 10731.50000    8.91240    0.05690   70.70350  114.88900   78.93570    0.00150    3.20330   34.22690   41.18080   26.13910    0.10590
 10732.00000    8.91080    0.06380   70.55590  114.90500   75.80670    0.00160    3.27460   45.17390   83.54860   34.73750    0.10340
 10732.50000    8.90920    0.07230   70.64800  114.48010   71.24820    0.00160    3.38170   90.64800  107.04840   44.71250    0.11080
 10733.00000    8.90760    0.07880   70.82980  114.13790   75.81140    0.00170    3.39350   81.81940   95.18690   47.11710    0.12070
 10733.50000    8.90600    0.08040   71.02960  114.12590   81.41660    0.00180    3.31060   72.99080   83.32540   42.12140    0.13510
 10734.00000    8.90440    0.07760   71.37420  114.11400   86.82800    0.00190    3.13350   64.16220   71.46390   27.80550    0.13460
 10734.50000    8.90280    0.07470   71.91200  114.73740   83.79790    0.00200    3.11390   55.33370   68.24040   28.16490    0.12770
 10735.00000    8.90120    0.07290   72.56070  115.30090   79.16540    0.00270    3.17800   67.19410   85.65340   35.52930    0.13070
 10735.50000    8.89960    0.07390   73.19210  115.70380   74.53290    0.00340    3.25150   82.09370  106.36300   47.40650    0.12610
 10736.00000    8.89800    0.08010   73.19860  115.76280   71.64150    0.00360    3.25180   64.18780   93.21420   43.53450    0.13130
 10736.50000    8.89650    0.08300   73.02610  115.75040   72.47950    0.00290    3.19320   43.06500   60.35200   30.20150    0.13680
 10737.00000    8.89490    0.08380   72.55090  115.73800   77.14190    0.00040    3.11650   34.18870   41.39280   24.18820    0.13710
 10737.50000    8.89330    0.08100   72.04200  115.89890   82.01530   -0.00140    3.21720   43.64370   54.86340   24.40990    0.11630
 10738.00000    8.89170    0.07870   71.48630  115.79730   77.69930   -0.00150    3.34310   53.09880   75.15800   34.91740    0.10430
 10738.50000    8.89010    0.07630   70.65150  115.25250   70.26520   -0.00160    3.46900   62.55390   95.45250   41.44560    0.10460
 10739.00000    8.88850    0.07310   70.14670  115.22010   66.15460   -0.00010    3.49400   72.52720  111.68620   47.26030    0.11300
 10739.50000    8.88690    0.07160   70.11140  114.95170   64.78670   -0.00040    3.47990   62.54280   96.31190   53.07500    0.12280
 10740.00000    8.88530    0.06950   69.89020  114.95170   66.58410   -0.00070    3.42460   71.62410  153.89900   50.04080    0.11680
 10740.50000    8.88370    0.07340   69.62250  115.21210   67.26070   -0.00100    3.31400   55.88740  138.12530   42.15230    0.11700
 10741.00000    8.88210    0.08420   69.88170  115.06150   69.31600   -0.00130    3.12610   41.02860   68.82140   19.17570    0.12380
 10741.50000    8.88050    0.09840   70.91280  115.47660   74.19440   -0.00150    2.93810   32.11230   40.59320   19.17360    0.14380
 10742.00000    8.87890    0.11230   72.03670  116.04540   80.84600   -0.00100    2.77400   47.99020   63.30220   26.93170    0.14770
 10742.50000    8.87730    0.11680   72.40290  115.86200   83.99440   -0.00040    2.79900   55.73330   62.85640   36.62990    0.15120
 10743.00000    8.87570    0.11450   72.38110  115.19860   85.68470    0.00190    2.82400   51.29180   67.36870   33.08170    0.15920
 10743.50000    8.87470    0.10980   72.05130  114.68690   88.67920    0.00190    2.95300   77.43540  106.83150   45.30270    0.14670
 10744.00000    8.87560    0.10470   71.63980  113.32970   90.60190    0.00080    3.10810  103.57900  146.29430   66.75770    0.11760
 10744.50000    8.87660    0.09770   70.54380  111.62280   82.40470   -0.00030    3.25620   99.79530  135.83620   81.11290    0.08800
 10745.00000    8.87750    0.08930   68.95780  109.91600   70.68640   -0.00150    3.36820  116.31110  149.38700   75.21970    0.07100
 10745.50000    8.87850    0.07450   67.28730  108.43990   59.40390    0.00050    3.44670  102.25470  165.44980   73.24250    0.06780
 10746.00000    8.87940    0.06100   64.95500  106.36260   53.65900    0.00160    3.55740  116.10760  142.63210   89.43080    0.06560
 10746.50000    8.88040    0.04330   62.79790  104.28530   52.77770    0.00560    3.79720  144.37710  760.38600  162.59300    0.05630
 10747.00000    8.88130    0.02400   60.76310  102.20800   49.25430    0.00940    4.03700  839.24260 1789.98590  420.45370    0.04510
 10747.50000    8.88230    0.00920   59.49850  100.67940   41.88840    0.00920    4.23660  976.00960 2562.09130  897.44860    0.03400
 10748.00000    8.88320    0.01190   59.81240  100.25600   32.31010    0.00890    4.27280  968.96850 2616.72890  856.68330    0.03180
 10748.50000    8.88420    0.02460   60.40080  100.53820   25.93880    0.00410    4.11410  819.17680 1944.71440  357.56920    0.05060
 10749.00000    8.88510    0.03960   61.49680  102.45540   25.05820    0.00400    3.87050  457.79310  313.26180   67.71520    0.08360
 10749.50000    8.88610    0.05820   63.12860  104.94510   36.56460    0.00160    3.37910   96.40930   83.17320   20.21110    0.13100
 10750.00000    8.88700    0.07680   65.11110  107.43480   56.79640    0.00260    3.04100   23.54250   37.15190   13.59150    0.14980
 10750.50000    8.88800    0.08670   67.12550  109.92440   70.96980    0.00440    2.81030   41.18520   58.77890   13.71770    0.15070
