~Version ---------------------------------------------------
VERS.   2.0 : CWLS log ASCII Standard -VERSION 2.0
WRAP.    NO : One line per depth step
DLM . SPACE : Column Data Section Delimiter
~Well ------------------------------------------------------
STRT .FT                  28.0 : START DEPTH
STOP .FT               11239.0 : STOP DEPTH
STEP .FT                   0.5 : STEP
NULL .                -9999.25 : NULL VALUE
COMP .                         : COMPANY
WELL .                         : WELL
FLD  .                         : FIELD
LOC  .                         : LOCATION
PROV .                         : PROVINCE
CNTY .                         : COUNTY
STAT .                         : STATE
CTRY .                         : COUNTRY
SRVC .                         : SERVICE COMPANY
DATE .                         : DATE
UWI  .                         : UNIQUE WELL ID
API  .                         : API NUMBER
SLAT .WGS84 2.3574487803376982 : SURFACE LATITUDE
SLON .WGS84  8.483617502911002 : SURFACE LONGITUDE
DATUM.F                    nan : DEPTH DATUM ELEV
~Curve Information -----------------------------------------
DEPT   .FT    : 
CALD   .IN    : CALIPER FROM DENSITY LOG
DPHZ_LS.DEC   : HGRD STANDARD RESOLUTION DENSITY POROSITY
DTCO   .US/F  : DELTA-T COMPRESSIONAL
DTSM   .US/F  : DELTA-T SHEAR
GR_EDTC.GAPI  : GAMMA RAY
HDRA   .G/C3  : HRDD SPINE AND RIBS DENSITY CORRECTION
PEFZ   .B/E   : HRDD STANDARD RESOLUTION FORMATION PHOTOELECTRIC FACTOR
RLA3   .OHMM  : APPARENT RESISTIVITY FROM COMPUTED FOCUSING MODE 3
RLA5   .OHMM  : APPARENT RESISTIVITY FROM COMPUTED FOCUSING MODE 5
RXOZ   .OHMM  : INVADED FORMATION RESISTIVITY FILTERED AT 18 INCHES
TNPH_LS.DEC   : THERMAL NEUTRON POROSITY [LIMESTONE]
~Params ----------------------------------------------------
~Other -----------------------------------------------------
~ASCII -----------------------------------------------------
# ...
 8323.50000    9.04110    0.02590   53.55780   95.68660   23.84560    0.00730    5.10540 1905.33410 2420.53150 1482.17080    0.03060
 8324.00000    9.03900    0.02890   53.50610   95.63540   23.09320    0.00670    5.04260 1664.11000 2161.15270 1365.67670    0.02900
 8324.50000    9.03690    0.03380   53.49310   95.58420   24.68630    0.00540    4.96410 1731.90740 2031.65310 1088.43690    0.02840
 8325.00000    9.03480    0.03900   53.66600   95.53290   26.27930    0.00360    4.91700 1809.89850 2044.91280 1072.42720    0.02750
 8325.50000    9.03270    0.04190   53.70100   95.74870   26.84710    0.00140    4.93420 1899.10830 2161.27370 1239.09550    0.02660
 8326.00000    9.03060    0.04160   53.67450   96.11060   26.64920    0.00170    5.08820 1952.75430 2266.81930 1170.90870    0.02620
 8326.50000    9.02850    0.04290   53.45840   95.96590   25.41250    0.00170    5.24230 1879.26110 2166.43620  756.76170    0.02690
 8327.00000    9.02640    0.04500   53.49630   95.42440   24.03740    0.00090    5.39640 1805.76800 2066.05300  683.38150    0.02740
 8327.50000    9.02430    0.04620   53.59770   96.01590   22.80270   -0.00010    5.37930 1767.34710 2025.37430  836.37340    0.03020
 8328.00000    9.02220    0.04170   53.54780   96.19660   22.83030   -0.00010    5.17390 1981.50190 2278.98420  982.48610    0.03280
 8328.50000    9.02010    0.03580   53.48090   96.49400   22.69750    0.00040    5.07470 2326.26690 2638.55340  832.66400    0.03410
 8329.00000    9.01800    0.03550   53.53340   96.51460   23.22450    0.00180    4.97560 2072.05230 2302.17820  862.00380    0.03320
 8329.50000    9.01590    0.03340   53.46980   96.69000   23.86260    0.00350    4.87650 2230.88320 2444.29790  994.33170    0.03170
 8330.00000    9.01380    0.02940   53.33950   96.96880   23.76680    0.00590    4.77860 2174.62480 2309.21870 1249.06900    0.03020
 8330.50000    9.01170    0.02480   53.51890   97.24750   23.01160    0.00910    4.68590 1991.51390 2110.42040 1105.90980    0.02930
 8331.00000    9.00960    0.02810   53.72980   97.21660   22.31630    0.00730    4.59310 2159.08980 2448.76950  883.50260    0.02930
 8331.50000    9.00750    0.03700   53.82240   97.12440   22.81340    0.00430    4.53800 2109.28850 2199.69680  811.50120    0.03170
 8332.00000    9.00540    0.04630   53.75480   97.24310   24.30700    0.00210    4.43470 1983.38340 2055.91200  944.57690    0.03520
 8332.50000    9.00330    0.05230   54.00860   97.23300   27.58470    0.00060    4.37690 2085.95000 2154.22040 1114.82400    0.03580
 8333.00000    9.00120    0.05330   54.16920   97.14380   32.65210   -0.00020    4.35310 2404.34750 2586.62820 1214.16790    0.04310
 8333.50000    8.99910    0.05090   54.28490   97.22410   37.17460    0.00010    4.35890 2722.74490 2975.32190 1313.51180    0.04310
 8334.00000    8.99700    0.04470   54.33030   96.97430   39.79090    0.00050    4.37920 3041.14230 3334.87290 1412.85560    0.03380
 8334.50000    8.99490    0.03850   54.40140   96.72460   34.42770    0.00210    4.40790 3352.74810 3750.48650 1516.92370    0.02980
 8335.00000    8.99280    0.03920   54.38000   96.42860   29.06450    0.00370    4.38350 3637.18740 4285.82380 1603.96020    0.02930
 8335.50000    8.98680    0.04060   54.29180   95.94740   25.05890    0.00370    4.34280 3921.62660 4871.17590 1860.75300    0.03050
 8336.00000    8.97450    0.04370   54.21840   95.46620   22.65970    0.00220    4.29700 4071.17850 5375.78460 1794.18010    0.03200
 8336.50000    8.97590    0.04430   54.46000   94.98500   22.80490    0.00110    4.25490 4614.58810 5759.27830 1341.58610    0.03340
 8337.00000    8.97730    0.04630   53.75850   94.51500   22.45220    0.00000    4.24160 4551.69960 5877.90530 1061.31910    0.03220
 8337.50000    8.97870    0.05000   53.76920   94.51700   21.89270   -0.00100    4.24740 4193.42570 5407.25040 1005.09710    0.03010
 8338.00000    8.99340    0.05480   53.78630   93.92140   20.63560   -0.00160    4.25330 3832.46720 4952.83990  920.06990    0.02800
 8338.50000    8.98940    0.05960   53.64310   93.32580   20.26840   -0.00340    4.25910 3540.47870 4772.16350  825.39780    0.02800
 8339.00000    8.95480    0.05980   54.49020   92.96140   20.28580   -0.00300    4.24440 3838.23410 5109.36820  936.90170    0.02800
 8339.50000    8.95140    0.04610   52.58510   92.71300   21.06360    0.00140    4.26140 3792.77770 4987.12310 1165.89080    0.02830
 8340.00000    8.94950    0.03180   53.11330   92.72910   21.56020    0.00580    4.28410 3511.37600 4610.06200 1372.90010    0.02540
 8340.50000    8.94760    0.02860   52.79160   92.86320   21.32340    0.00540    4.28470 3375.47740 4168.79490 1170.21170    0.01940
 8341.00000    8.94580    0.02960   54.53820   93.54310   19.54040    0.00370    4.29000 2914.43250 3631.21860 1257.74920    0.02040
 8341.50000    8.94390    0.03330   54.17480   94.22290   18.06480    0.00090    4.26820 2706.16440 3201.15760 1357.28330    0.02180
 8342.00000    8.94200    0.03840   56.23310   94.90270   19.15960    0.00100    4.14750 2887.46390 3446.95470 1052.66820    0.02510
 8342.50000    8.94020    0.04890   58.97400   97.08000   23.88500    0.00250    3.84610 1801.83950 2041.08560  742.40670    0.03640
 8343.00000    8.93830    0.07750   61.99880  100.42500   29.16430    0.00340    3.55420  776.29950 1123.61370  225.89570    0.07570
 8343.50000    8.93640    0.11380   64.85480  104.97900   36.86200    0.00330    3.24150  186.87080  234.07210  157.25980    0.14090
 8344.00000    8.93450    0.14950   67.96300  111.41960   56.96760    0.00030    2.91590  154.24550  178.46180   98.27930    0.20600
 8344.50000    8.93270    0.17580   73.48980  117.33340   85.75660   -0.00290    2.59590  190.44990  204.31600  110.39190    0.26200
 8345.00000    8.93080    0.18130   76.80960  120.86190  100.90290   -0.00490    2.56930  164.32620  189.25980  126.54200    0.27930
 8345.50000    8.92890    0.16780   80.12950  124.39040  137.74970   -0.00240    2.60240  120.78680  155.54800  109.70370    0.25640
 8346.00000    8.92700    0.14940   82.81920  126.87660  151.18910    0.00010    2.63550  135.68250  145.30540   84.22000    0.23360
 8346.50000    8.93010    0.14480   84.44190  129.10220  143.97660    0.00280    2.58390  113.00470  144.69860   52.08250    0.21080
 8347.00000    8.93890    0.15030   85.57600  130.88270  138.32930    0.00670    2.49810   90.88570  117.35000   40.44630    0.20550
 8347.50000    8.94780    0.15660   86.08260  130.31810  133.98100    0.00600    2.42990  105.22330  120.21370   39.73220    0.21270
 8348.00000    8.95660    0.14960   83.89540  128.77980  135.82700    0.00170    2.62720  123.48370  132.74900   63.83510    0.21170
 8348.50000    8.96550    0.12270   81.95130  126.34520  141.92150   -0.00140    2.78240  236.51090  334.48010   99.37260    0.18190
 8349.00000    8.97430    0.09830   79.08020  123.91060  132.76080    0.00000    2.94020  464.78230  519.21440  280.90040    0.14460
 8349.50000    8.97580    0.09300   76.56400  121.47590  115.53670    0.00140    3.13720  495.42550  586.51400  405.75030    0.12560
 8350.00000    8.98950    0.10720   74.59770  119.80350   99.94450    0.00110    3.18600  420.37000  492.64860  319.69760    0.12420
 8350.50000    8.97560    0.12140   75.58070  119.88970   76.04850   -0.00130    3.15270  345.31450  402.38700  244.74520    0.15000
 8351.00000    8.95250    0.13130   75.65630  119.26050   80.06570   -0.00260    3.11480  270.25900  312.12540  224.10180    0.15870
 8351.50000    8.92930    0.13890   73.10320  119.00700   89.04000   -0.00260    3.07690  195.20360  238.44140  170.12060    0.16780
 8352.00000    8.90620    0.14550   74.15080  120.24830   98.01440   -0.00140    3.03160  208.77840  252.34740  168.03270    0.17870
 8352.50000    8.88300    0.15150   75.65150  121.57080  108.84750   -0.00180    2.98150  229.14060  269.72980  178.71780    0.19690
 8353.00000    8.86910    0.15130   76.81830  122.61200  114.33300   -0.00150    2.93140  177.39120  250.95230  161.07230    0.20410
 8353.50000    8.87180    0.14640   77.98500  123.24640  113.44890   -0.00130    2.93980  179.97730  224.40710  140.65600    0.20120
