~Version ---------------------------------------------------
VERS.   2.0 : CWLS log ASCII Standard -VERSION 2.0
WRAP.    NO : One line per depth step
DLM . SPACE : Column Data Section Delimiter
~Well ------------------------------------------------------
STRT .FT                  28.0 : START DEPTH
STOP .FT               11239.0 : STOP DEPTH
STEP .FT                   0.5 : STEP
NULL .                -9999.25 : NULL VALUE
COMP .                         : COMPANY
WELL .                         : WELL
FLD  .                         : FIELD
LOC  .                         : LOCATION
PROV .                         : PROVINCE
CNTY .                         : COUNTY
STAT .                         : STATE
CTRY .                         : COUNTRY
SRVC .                         : SERVICE COMPANY
DATE .                         : DATE
UWI  .                         : UNIQUE WELL ID
API  .                         : API NUMBER
SLAT .WGS84 2.3574487803376982 : SURFACE LATITUDE
SLON .WGS84  8.483617502911002 : SURFACE LONGITUDE
DATUM.F                    nan : DEPTH DATUM ELEV
~Curve Information -----------------------------------------
DEPT   .FT    : 
CALD   .IN    : CALIPER FROM DENSITY LOG
DPHZ_LS.DEC   : HGRD STANDARD RESOLUTION DENSITY POROSITY
DTCO   .US/F  : DELTA-T COMPRESSIONAL
DTSM   .US/F  : DELTA-T SHEAR
GR_EDTC.GAPI  : GAMMA RAY
HDRA   .G/C3  : HRDD SPINE AND RIBS DENSITY CORRECTION
PEFZ   .B/E   : HRDD STANDARD RESOLUTION FORMATION PHOTOELECTRIC FACTOR
RLA3   .OHMM  : APPARENT RESISTIVITY FROM COMPUTED FOCUSING MODE 3
RLA5   .OHMM  : APPARENT RESISTIVITY FROM COMPUTED FOCUSING MODE 5
RXOZ   .OHMM  : INVADED FORMATION RESISTIVITY FILTERED AT 18 INCHES
TNPH_LS.DEC   : THERMAL NEUTRON POROSITY [LIMESTONE]
~Params ----------------------------------------------------
~Other -----------------------------------------------------
~ASCII -----------------------------------------------------
# ...
 3993.00000   -9999.25   -9999.25   -9999.25   -9999.25   15.46090   -9999.25   -9999.25   -9999.25   -9999.25   -9999.25   -0.00570
 3993.50000   -9999.25   -9999.25   -9999.25   -9999.25   15.23510   -9999.25   -9999.25   -9999.25   -9999.25   -9999.25   -0.00830
 3994.00000   -9999.25   -9999.25   -9999.25   -9999.25   14.49890   -9999.25   -9999.25   -9999.25   -9999.25   -9999.25   -0.01090
 3994.50000   -9999.25   -9999.25   -9999.25   -9999.25   14.42290   -9999.25   -9999.25   -9999.25   -9999.25   -9999.25   -0.01150
 3995.00000   -9999.25   -9999.25   -9999.25   -9999.25   13.52490   -9999.25   -9999.25   -9999.25   -9999.25   -9999.25   -0.00270
 3995.50000   -9999.25   -9999.25   -9999.25   -9999.25   11.59740   -9999.25   -9999.25   -9999.25   -9999.25   -9999.25    0.01180
 3996.00000    9.03030   -0.27050   51.87700   93.40550    8.08230    0.30320    5.78950    0.20370    0.19820    0.20900    0.02640
 3996.50000    9.11660   -0.23820   50.60680   95.19040    6.29810    0.30590    5.56600    0.20430    0.20240    0.21110    0.03510
 3997.00000    9.88420   -0.16070   51.71820   96.97540    9.97850    0.30870    5.34250    0.20700    0.39720    1.04790    0.02840
 3997.50000   10.30460   -0.09960   52.98480   98.96800   13.53420    0.30800    5.11900    1.67640   32.57100   47.08000    0.01990
 3998.00000   10.53890   -0.08860   52.69670   99.25020   16.25440    0.27870    4.92640  234.16200  161.89800   75.94490    0.01150
 3998.50000   10.74900   -0.08270   52.32170   98.59160   16.98700    0.25080    4.95490  810.03720  291.22500   54.21070    0.00950
 3999.00000   10.87370   -0.07760   52.26220   96.99200   16.49120    0.23770    5.04820 1385.91240 1623.33230   27.68350    0.01690
 3999.50000   10.96160   -0.07860   51.63250   94.16930   15.99540    0.22630    5.14160 1961.78760 99097.02770   25.17800    0.02430
 4000.00000   11.04960   -0.07980   51.18650   92.33450   15.49950    0.21410    5.16020 10705.34880 5954.52280   24.86790    0.02880
 4000.50000   11.13750   -0.06770   50.78640   91.87700   15.10340    0.20420    5.11450 15484.32660 48284.67650   39.73250    0.02880
 4001.00000   11.29400   -0.06460   50.39040   91.41960   17.18500    0.17720    5.03860 15294.19130 90614.83030   29.91750    0.02390
 4001.50000   11.45050   -0.07420   50.21010   90.77240   19.26610    0.15990    5.00810 14153.22150 49528.31530   26.38920    0.01910
 4002.00000   11.60700   -0.08840   49.80400   89.36610   18.78500    0.14790    5.01740 13464.87840 61832.47950   28.65010    0.01420
 4002.50000   11.74140   -0.09940   48.90620   88.56580   15.49970    0.13270    5.06570 13189.50460 97856.98860   46.80290    0.01030
 4003.00000   11.87580   -0.10620   49.58370   88.66820   12.21440    0.10900    5.11390 12927.77820 97856.98860   74.81560    0.01530
 4003.50000   12.01020   -0.10880   49.82860   89.61240   11.41300    0.08440    5.26140 12169.40260 97856.98860  144.98150    0.02320
 4004.00000   12.12100   -0.10190   49.80700   89.27080   14.59000    0.05590    5.34180 11398.81080 57262.71520  413.91160    0.03100
 4004.50000   12.21590   -0.08010   49.72600   89.39770   19.48970    0.03050    5.33410 10628.21900 67703.46110  772.63360    0.03890
 4005.00000   12.31080   -0.09420   50.25980   89.62280   24.46880    0.01550    5.21440 9992.51800 65240.71830 1191.21680    0.04170
 4005.50000   12.36950   -0.10600   50.29150   89.91350   21.55000    0.01230    5.07390 10725.34660 99038.11680  925.02770    0.03600
 4006.00000   12.39940   -0.13190   50.64440   90.20420   16.99950    0.01400    5.00390 7964.26090 99035.60610  829.43910    0.02880
 4006.50000   12.39870   -0.13190   51.13710   89.11710    9.59570    0.01500    5.00910 6043.89450 99035.60610  805.52350    0.02300
 4007.00000   12.38710   -0.13030   51.96940   89.34380    8.73010    0.01490    5.05700 5371.36090 99035.60610  869.39680    0.02200
 4007.50000   12.38670   -0.12360   51.62510   89.67720   10.01630    0.01220    5.13910 5229.84620 99035.60610  907.68420    0.02100
 4008.00000   12.39720   -0.11700   51.90190   89.64240   11.33390    0.00950    5.11630 5309.90760 99035.60610  907.58680    0.02000
 4008.50000   12.41280   -0.11520   51.33100   89.05830   11.30050    0.00690    5.01850 5008.82380 99035.60610  924.49320    0.01910
 4009.00000   12.42830   -0.11520   51.24460   89.14930   10.37570    0.00530    4.92070 5168.02170 99035.60610  826.83900    0.01810
 4009.50000   12.44540   -0.12260   51.41630   89.58290    9.98170    0.00400    4.82290 5070.85690 99035.60610  726.71980    0.01720
 4010.00000   12.46480   -0.11890   51.52740   89.35550   10.83900    0.00500    4.76990 5233.06140 99035.60610  626.73960    0.01640
 4010.50000   12.48420   -0.11270   51.63850   89.62490   11.38750    0.00990    4.78910 5395.26580 99035.60610  630.22540    0.02050
 4011.00000   12.55740   -0.10850   51.49070   90.20970   10.75120    0.02110    4.92010 5426.58580 99035.60610  489.74410    0.02960
 4011.50000   12.64410   -0.10660   51.75630   90.65590   10.22090    0.03130    5.05110 5070.79280 99035.60610  300.30920    0.03370
 4012.00000   12.65830   -0.11050   51.81160   91.35510    9.90260    0.04080    5.05530 5208.16560 95990.21210  304.65820    0.03690
 4012.50000   12.67250   -0.11350   52.18690   92.92690   12.86720    0.04150    5.06550 5262.06470 74829.14860  397.20020    0.04020
 4013.00000   12.65370   -0.10020   53.37260   95.10820   11.59430    0.02900    4.98700 5197.38580 49125.11550  580.45750    0.04340
 4013.50000   12.60670   -0.07010   55.61850   97.61520   18.45550    0.01520    4.92820 4538.19430 12936.86710  845.97410    0.04670
 4014.00000   12.48030   -0.02880   59.38050  100.12230   26.76730    0.00330    4.89410 3334.69070 7499.27040 1213.92460    0.05000
 4014.50000   12.40820    0.01210   63.78620  102.62940   33.84030    0.00030    4.65820 2131.18700 2061.67380 1680.53620    0.08910
 4015.00000   12.37220    0.04740   66.26070  104.73240   39.94110    0.00030    4.15390 1620.80110 1295.11050  997.03080    0.13160
 4015.50000   12.36830    0.08380   65.41930  106.84370   46.77270   -0.00020    3.64970  573.84820  467.71800  268.25010    0.19380
 4016.00000   12.36440    0.09630   66.81660  108.95500   56.91700   -0.00040    3.14540  407.86690  226.82260  195.66930    0.25600
 4016.50000   12.36480    0.09260   68.49230  112.56380   67.88940   -0.00040    3.03440  241.88550  132.55150  123.08850    0.25600
 4017.00000   12.38240    0.07310   69.18900  113.14700   77.35310   -0.00010    3.05180   91.22870   83.46650   79.91390    0.24270
 4017.50000   12.39990    0.05590   68.61780  113.50450   85.81100    0.00350    3.06920   75.52570   64.50550   56.34360    0.22600
 4018.00000   12.41750    0.04800   69.26840  113.39860   88.38280    0.00640    3.08660   66.74140   55.01490   42.72480    0.20930
 4018.50000   12.40650    0.05380   70.29190  113.71740   85.69530    0.00330    3.03180   67.98720   64.44500   59.34420    0.19260
 4019.00000   12.37650    0.06600   69.02600  114.46840   82.21880   -0.00080    2.96230   71.97200   65.73430   61.88970    0.19570
 4019.50000   12.36780    0.07530   67.92100  115.10800   85.85450   -0.00170    2.85250   72.75740   62.75090   58.26490    0.20370
 4020.00000   12.36430    0.07380   67.83400  115.05770   96.51760    0.00250    2.83890   70.11530   61.22220   55.80390    0.21180
 4020.50000   12.36080    0.07290   68.40680  114.26240  120.57470    0.01700    2.91490   60.01000   55.79170   49.89780    0.21980
 4021.00000   12.36390    0.06840   69.23340  115.04230  127.83920    0.03740    2.99100   51.61280   48.67880   40.26380    0.22780
 4021.50000   12.37120    0.06450   68.78430  116.12780  128.88080    0.05530    3.06710   43.21560   39.48080   30.62990    0.23510
 4022.00000   12.37860    0.05830   68.44910  116.09490  122.57530    0.05420    3.04240   34.81840   29.57880   22.64190    0.23370
 4022.50000   12.38590    0.06150   68.51590  115.63980  110.20910    0.03340    2.93980   31.45950   29.76160   22.36430    0.22100
