~Version ---------------------------------------------------
VERS.   2.0 : CWLS log ASCII Standard -VERSION 2.0
WRAP.    NO : One line per depth step
DLM . SPACE : Column Data Section Delimiter
~Well ------------------------------------------------------
STRT .FT                  28.0 : START DEPTH
STOP .FT               11239.0 : STOP DEPTH
STEP .FT                   0.5 : STEP
NULL .                -9999.25 : NULL VALUE
COMP .                         : COMPANY
WELL .                         : WELL
FLD  .                         : FIELD
LOC  .                         : LOCATION
PROV .                         : PROVINCE
CNTY .                         : COUNTY
STAT .                         : STATE
CTRY .                         : COUNTRY
SRVC .                         : SERVICE COMPANY
DATE .                         : DATE
UWI  .                         : UNIQUE WELL ID
API  .                         : API NUMBER
SLAT .WGS84 2.3574487803376982 : SURFACE LATITUDE
SLON .WGS84  8.483617502911002 : SURFACE LONGITUDE
DATUM.F                    nan : DEPTH DATUM ELEV
~Curve Information -----------------------------------------
DEPT   .FT    : 
CALD   .IN    : CALIPER FROM DENSITY LOG
DPHZ_LS.DEC   : HGRD STANDARD RESOLUTION DENSITY POROSITY
DTCO   .US/F  : DELTA-T COMPRESSIONAL
DTSM   .US/F  : DELTA-T SHEAR
GR_EDTC.GAPI  : GAMMA RAY
HDRA   .G/C3  : HRDD SPINE AND RIBS DENSITY CORRECTION
PEFZ   .B/E   : HRDD STANDARD RESOLUTION FORMATION PHOTOELECTRIC FACTOR
RLA3   .OHMM  : APPARENT RESISTIVITY FROM COMPUTED FOCUSING MODE 3
RLA5   .OHMM  : APPARENT RESISTIVITY FROM COMPUTED FOCUSING MODE 5
RXOZ   .OHMM  : INVADED FORMATION RESISTIVITY FILTERED AT 18 INCHES
TNPH_LS.DEC   : THERMAL NEUTRON POROSITY [LIMESTONE]
~Params ----------------------------------------------------
~Other -----------------------------------------------------
~ASCII -----------------------------------------------------
# ...
 9299.50000    8.98930    0.07090   63.85720  107.40720  104.64030    0.01500    3.45970  385.20790  504.66750  151.51530    0.05520
 9300.00000    8.98480    0.05250   62.35810  105.84070  100.18560    0.02680    3.68970  259.47040  376.42120  122.09600    0.05200
 9300.50000    8.98020    0.04010   60.85900  104.12410   62.18690    0.02980    3.93350  229.45140  433.68390  130.66740    0.04810
 9301.00000    8.96830    0.02770   59.35990  102.60320   50.73940    0.02880    3.96120  578.74970  618.59040  168.18580    0.04410
 9301.50000    8.95140    0.02460   57.73720  100.36700   46.40020    0.02080    3.93710  483.25930  524.94480  234.93260    0.04280
 9302.00000    8.93450    0.03810   55.84020   97.98980   44.26650    0.00970    3.92810  324.10870  417.36730  236.38600    0.04440
 9302.50000    8.89680    0.04200   55.24060   96.01160   42.55940    0.00120    3.90500  414.81920  546.69840  243.64150    0.04790
 9303.00000    8.89310    0.04270   55.51140   95.30380   45.21400    0.00070    3.88680  550.88490  749.88920  252.11840    0.04800
 9303.50000    8.90960    0.04420   55.41090   94.97220   46.31370    0.00030    3.79500  410.13190  498.47530  230.46360    0.04550
 9304.00000    8.92620    0.04870   55.01070   94.95330   44.01590   -0.00020    3.68670  269.37890  296.87040  188.71470    0.04860
 9304.50000    8.94270    0.05380   55.34060   95.33680   43.47990   -0.00050    3.58280  207.24960  224.56700  172.48160    0.05180
 9305.00000    8.95930    0.05130   55.75320   95.61770   46.16340    0.00020    3.52270  204.07350  222.19570  168.26540    0.05500
 9305.50000    8.97580    0.04150   55.62900   95.56290   49.22860    0.00330    3.46260  215.83180  227.74580  164.16490    0.05820
 9306.00000    8.99230    0.03700   55.45200   95.58260   50.76140    0.00770    3.46240  208.27240  264.08250  149.69890    0.06010
 9306.50000    9.00890    0.03670   55.27200   95.38420   51.22990    0.00740    3.51950  179.57550  204.68700  138.12610    0.05870
 9307.00000    9.02540    0.03680   54.94140   95.48440   55.15070    0.00700    3.60630  181.11300  192.80790  148.30600    0.05570
 9307.50000    9.04190    0.03280   54.56470   95.32620   56.66890    0.00880    3.71270  206.70940  232.51480  191.13950    0.05300
 9308.00000    9.05200    0.03040   54.40450   94.74190   57.43340    0.00500    3.83780  232.30580  279.15670  212.70930    0.04520
 9308.50000    9.05150    0.03370   54.40480   94.23930   53.74910    0.00380    3.92760  236.92340  261.21260  202.59240    0.03740
 9309.00000    9.04750    0.03420   54.17920   93.82810   44.15720    0.00550    3.93350  208.81900  237.00950  195.11210    0.03590
 9309.50000    9.04360    0.03000   53.82520   93.29170   35.86300    0.01230    3.92090  179.60480  212.80640  159.25180    0.03920
 9310.00000    9.03960    0.02280   53.56300   92.75210   36.44400    0.01360    3.95380  145.95200  169.07640  115.92610    0.04080
 9310.50000    9.03570    0.01720   53.20070   92.50470   40.29880    0.00950    3.99810  140.52150  150.65240   81.26540    0.04010
 9311.00000    9.03170    0.01700   52.71210   92.03600   42.94730    0.00700    4.10840  220.71340  254.84320  128.02560    0.03330
 9311.50000    9.02780    0.01900   52.26300   92.13570   39.81210    0.00590    4.22080  319.32820  359.03410  236.22420    0.02650
 9312.00000    9.02390    0.02170   52.34790   91.92780   35.46960    0.00490    4.33320  417.94300  463.22490  237.26830    0.02190
 9312.50000    9.01990    0.02280   52.08910   91.45990   29.31660    0.00380    4.32330  496.83490  567.41570  257.52930    0.02400
 9313.00000    9.01810    0.02360   51.77210   91.39780   24.95700    0.00470    4.23690  244.43190  375.26890  208.68950    0.02660
 9313.50000    9.01930    0.02860   51.74330   91.40520   23.91670    0.00380    4.13120  107.61840  154.15730  129.92900    0.03290
 9314.00000    9.02060    0.02680   51.71440   91.41260   26.84160    0.00300    4.07560   64.00480   83.05970   51.16840    0.03920
 9314.50000    9.02180    0.02220   51.70550   91.42000   33.89280    0.00220    4.03220   70.71420   74.53870   54.35810    0.04450
 9315.00000    9.02170    0.01490   51.77650   91.88620   38.44750    0.00150    4.04010  105.84200  123.66790   78.34630    0.04040
 9315.50000    9.03350    0.01810   51.77650   92.29900   39.63790    0.00100    4.13630  158.13130  216.41610  128.19950    0.03350
 9316.00000    9.05090    0.02310   51.77650   92.04450   38.32020    0.00040    4.23360  236.16310  309.16440  178.05280    0.02740
 9316.50000    9.07310    0.02810   51.72970   91.78990   37.11770   -0.00190    4.31430  274.40880  311.05260  234.77180    0.02740
 9317.00000    9.09530    0.02990   51.48860   91.72740   37.43350   -0.00220    4.32760  231.54250  269.39920  211.69770    0.02720
 9317.50000    9.11760    0.02700   51.06360   91.66790   39.45360   -0.00210    4.28950  211.76730  227.74580  202.46810    0.02550
 9318.00000    9.13980    0.02360   50.45120   91.59560   42.14280    0.00060    4.29080  238.79720  269.98220  218.41750    0.02040
 9318.50000    9.16200    0.01960   50.04020   91.47090   45.18530    0.00360    4.32940  322.65780  369.66520  259.30510    0.01500
 9319.00000    9.18420    0.01060   49.59800   91.20820   43.89320    0.00460    4.42360  622.68370  638.91600  352.65070    0.01210
 9319.50000    9.20640    0.00650   49.41940   90.99850   38.75180    0.00370    4.57410 1228.18040 1543.92840  597.71870    0.00870
 9320.00000    9.22860    0.00600   49.64780   91.14240   33.93160    0.00130    4.55710 1692.73230 2363.45710  599.17150    0.00920
 9320.50000    9.25080    0.00570   49.73530   91.09280   27.52860    0.00390    4.48790  563.31550 1988.58180  429.69550    0.01220
 9321.00000    9.27310    0.00640   49.80140   91.08380   26.88200    0.00550    4.41860  407.61410  465.86940  338.17120    0.01520
 9321.50000    9.29530    0.00700   49.80260   91.31160   31.80890    0.00940    4.41480  341.31020  368.31540  246.64700    0.01820
 9322.00000    9.28380    0.00530   49.75550   91.44320   38.18620    0.01310    4.45550  282.43420  316.09160  224.04380    0.02130
 9322.50000    9.21220    0.00410   49.85970   91.52130   42.06530    0.01320    4.45510  253.26980  276.29360  207.52540    0.02350
 9323.00000    9.14060    0.00650   49.99760   91.59940   41.02840    0.00940    4.40880  224.10530  233.59590  187.23800    0.02470
 9323.50000    9.06930    0.00930   50.21210   91.67760   37.31820    0.00530    4.38430  201.18540  216.03010  169.49470    0.02410
 9324.00000    9.02990    0.00800   50.19780   91.79860   35.64320    0.00440    4.42720  199.10030  241.44010  155.30010    0.02270
 9324.50000    9.01120    0.00740   50.70590   91.91840   33.06270    0.00480    4.49470  354.14630  377.28690  182.31320    0.02140
 9325.00000    9.04580    0.01040   50.88590   91.93960   31.18620    0.00380    4.56210  314.57950  381.86280  233.22870    0.02080
 9325.50000    9.08040    0.01800   50.25080   91.96070   27.82680    0.00010    4.65540  283.73790  312.15140  265.24730    0.02270
 9326.00000    9.11510    0.02620   51.29870   91.93330   24.59150   -0.00130    4.71510  314.98200  359.72910  215.00940    0.02530
 9326.50000    9.12040    0.03000   50.67420   92.08470   26.26010   -0.00480    4.70540  174.23220  198.98410  155.27960    0.02800
 9327.00000    9.11200    0.03010   51.40000   92.42850   33.01260   -0.00530    4.65770  266.73460  269.41340  199.61800    0.02880
 9327.50000    9.12050    0.02510   51.41760   92.36930   40.85210   -0.00330    4.67740  420.90520  445.48690  311.37310    0.02490
 9328.00000    9.12910    0.02060   51.32940   92.31940   43.91840   -0.00100    4.71410  368.03560  489.67930  248.06550    0.02120
 9328.50000    9.13760    0.01590   51.29190   92.41920   38.67410    0.00340    4.75080  210.46520  254.66390  185.71810    0.01960
 9329.00000    9.14620    0.01120   50.89020   92.50750   34.43770    0.00620    4.80200  259.55010  317.23000  195.11210    0.02110
 9329.50000    9.15470    0.01230   50.04860   92.47100   36.63870    0.00640    4.83230  379.00710  413.57980  272.16130    0.02080
