~Version ---------------------------------------------------
VERS.   2.0 : CWLS log ASCII Standard -VERSION 2.0
WRAP.    NO : One line per depth step
DLM . SPACE : Column Data Section Delimiter
~Well ------------------------------------------------------
STRT .FT                  28.0 : START DEPTH
STOP .FT               11239.0 : STOP DEPTH
STEP .FT                   0.5 : STEP
NULL .                -9999.25 : NULL VALUE
COMP .                         : COMPANY
WELL .                         : WELL
FLD  .                         : FIELD
LOC  .                         : LOCATION
PROV .                         : PROVINCE
CNTY .                         : COUNTY
STAT .                         : STATE
CTRY .                         : COUNTRY
SRVC .                         : SERVICE COMPANY
DATE .                         : DATE
UWI  .                         : UNIQUE WELL ID
API  .                         : API NUMBER
SLAT .WGS84 2.3574487803376982 : SURFACE LATITUDE
SLON .WGS84  8.483617502911002 : SURFACE LONGITUDE
DATUM.F                    nan : DEPTH DATUM ELEV
~Curve Information -----------------------------------------
DEPT   .FT    : 
CALD   .IN    : CALIPER FROM DENSITY LOG
DPHZ_LS.DEC   : HGRD STANDARD RESOLUTION DENSITY POROSITY
DTCO   .US/F  : DELTA-T COMPRESSIONAL
DTSM   .US/F  : DELTA-T SHEAR
GR_EDTC.GAPI  : GAMMA RAY
HDRA   .G/C3  : HRDD SPINE AND RIBS DENSITY CORRECTION
PEFZ   .B/E   : HRDD STANDARD RESOLUTION FORMATION PHOTOELECTRIC FACTOR
RLA3   .OHMM  : APPARENT RESISTIVITY FROM COMPUTED FOCUSING MODE 3
RLA5   .OHMM  : APPARENT RESISTIVITY FROM COMPUTED FOCUSING MODE 5
RXOZ   .OHMM  : INVADED FORMATION RESISTIVITY FILTERED AT 18 INCHES
TNPH_LS.DEC   : THERMAL NEUTRON POROSITY [LIMESTONE]
~Params ----------------------------------------------------
~Other -----------------------------------------------------
~ASCII -----------------------------------------------------
# ...
 10241.00000    8.93900    0.01790   56.71240   97.28170   22.25660    0.00150    5.19190  810.19230 1059.52460  490.94730    0.02610
 10241.50000    8.93720    0.01600   55.35310   95.66880   21.30130    0.00130    5.25020  691.18570  879.78020  524.92730    0.02670
 10242.00000    8.93540    0.01030   56.17370   94.13670   22.69010    0.00410    5.33560  790.10720  966.96530  558.59920    0.02600
 10242.50000    8.93350    0.00280   54.06190   92.92750   23.38790    0.00700    5.42100  905.76300 1032.33520  600.10030    0.02510
 10243.00000    8.93170   -0.00040   55.59940   92.44700   22.20610    0.00750    5.43130  829.50770 1032.10910  618.19420    0.02390
 10243.50000    8.92990    0.00040   55.93680   92.03480   20.88840    0.00670    5.28780  623.79750  721.59650  540.33650    0.02310
 10244.00000    8.92810    0.00540   56.09980   92.05110   20.68510    0.00350    5.11180  707.20690  846.67500  495.96650    0.02270
 10244.50000    8.92630    0.01430   56.17790   92.19340   22.78910    0.00160    5.01000  901.42270 1003.07020  634.76100    0.02220
 10245.00000    8.92440    0.02150   55.97540   92.25600   24.02600   -0.00240    4.95470 1027.32560 1124.17620  683.84290    0.02170
 10245.50000    8.92260    0.02630   55.86180   92.08270   22.78950   -0.00340    4.83020  915.97530 1056.21430  604.70100    0.02390
 10246.00000    8.92080    0.02990   56.12030   92.24180   22.17570   -0.00230    4.70570  661.56010  786.26110  451.61010    0.02790
 10246.50000    8.91900    0.03330   56.32930   92.45740   22.01490   -0.00040    4.50050  407.14490  516.30790  326.09540    0.03190
 10247.00000    8.91710    0.03680   56.49650   92.36800   23.18240   -0.00020    4.31940  438.33080  522.91200  300.31910    0.03440
 10247.50000    8.91530    0.04020   55.12040   92.43640   25.00730    0.00000    4.15420  310.75980  371.86000  250.90530    0.03710
 10248.00000    8.91350    0.04230   57.36260   92.42770   27.97110    0.00020    4.10600  249.25140  510.21500  201.49150    0.03790
 10248.50000    8.91170    0.04120   57.33880   92.56370   31.15900    0.00040    4.22660  635.06580  835.06940  255.71220    0.03630
 10249.00000    8.90980    0.03320   57.46230   92.56370   33.08900    0.00060    4.61570  943.67830 1208.40510  526.98580    0.02750
 10249.50000    8.90800    0.02520   56.71370   92.82830   31.53890    0.00080    4.79990  726.02580 1066.34290  511.33530    0.01870
 10250.00000    8.90620    0.01730   55.70260   92.78450   26.51470    0.00110    4.98400  507.64050  576.42760  433.58890    0.01730
 10250.50000    8.90440    0.01400   56.89080   92.74070   22.06950    0.00130    5.16820  572.48630  581.28430  458.54090    0.01880
 10251.00000    8.90260    0.01550   56.76500   92.69680   19.35950    0.00150    5.24630  572.48630  605.56740  438.92420    0.02020
 10251.50000    8.90070    0.01470   54.95430   92.65300   20.98150    0.00170    5.16900  503.43980  589.37860  425.84300    0.02020
 10252.00000    8.89890    0.01490   56.92360   92.60920   23.16650    0.00180    5.06320  503.55620  588.64450  418.03960    0.02020
 10252.50000    8.89710    0.01880   56.52760   92.56530   24.23750    0.00190    4.95740  552.58150  785.62730  507.63880    0.02020
 10253.00000    8.89890    0.01840   56.81380   92.53790   23.86180    0.00330    4.94370  817.28720 1272.65730  582.65180    0.02080
 10253.50000    8.90600    0.01370   57.24030   92.81560   24.39500    0.00590    4.98490 1135.91300 1564.87540  657.66480    0.02130
 10254.00000    8.91320    0.01250   57.60590   93.16450   23.23360    0.00600    4.96110  922.99230 1141.25490  512.90070    0.02270
 10254.50000    8.92040    0.01680   56.98900   93.69440   23.97750    0.00470    4.90150  461.91590  503.08730  281.71640    0.02940
 10255.00000    8.92760    0.02120   57.79560   94.14400   24.79340    0.00280    4.73930  181.89060  209.72610  141.68950    0.03650
 10255.50000    8.93470    0.02310   57.21100   94.59360   26.97140    0.00160    4.62650  175.27050  288.98630  165.81010    0.04350
 10256.00000    8.94190    0.02600   59.59010   95.36860   30.88790    0.00040    4.51880  142.32530  206.64010  129.47060    0.05050
 10256.50000    8.94910    0.03070   58.09660   96.36050   36.56100   -0.00190    4.45440  134.04260  143.10550  119.96340    0.04980
 10257.00000    8.95620    0.02870   57.52380   97.35250   41.09980   -0.00140    4.42380  159.65980  143.10550  198.63520    0.04450
 10257.50000    8.96340    0.02280   57.21760   98.25100   45.49420   -0.00020    4.39310  181.72800  160.54900  294.17580    0.03920
 10258.00000    8.96770    0.01880   57.37130   98.77600   49.30370    0.00010    4.36250  237.99340  226.07650  277.88150    0.03760
 10258.50000    8.96770    0.02250   57.14960   98.96980   51.00970   -0.00010    4.32920  294.25870  315.90730  256.07430    0.04350
 10259.00000    8.96770    0.02940   56.67580   98.94290   47.53290   -0.00030    4.35640  334.83690  430.79650  292.66420    0.04620
 10259.50000    8.96770    0.02620   56.00650   99.02430   42.36560    0.00060    4.41350  384.65760  522.28250  280.70930    0.04430
 10260.00000    8.96770    0.02110   55.22780   99.10580   37.81650    0.00180    4.45680  287.79270  433.58090  219.33020    0.04310
 10260.50000    8.96770    0.01790   55.26330   98.90760   36.50400    0.00300    4.34890  190.92770  285.74490  157.95110    0.05280
 10261.00000    8.96770    0.02660   56.11150   98.66090   37.54340    0.00410    4.19840  107.45650  137.90880  109.70380    0.06560
 10261.50000    8.96770    0.03620   57.43280   99.13820   40.81690    0.00530    3.75480   70.59010   99.43310   64.73940    0.08320
 10262.00000    8.96770    0.05090   58.15880  100.28930   45.62050    0.00360    3.49050   47.14410   64.45970   37.41310    0.10090
 10262.50000    8.96770    0.06200   59.35540  101.00220   51.81050    0.00140    3.54580   51.23860   69.35510   39.10840    0.11340
 10263.00000    8.96770    0.05850   59.88310  101.71500   59.29710    0.00010    3.74190   68.87890   84.21770   43.78220    0.11400
 10263.50000    8.96770    0.04510   60.99870  102.42790   65.76370    0.00100    4.26480   82.78070   92.94770   58.19990    0.10230
 10264.00000    8.96770    0.02920   63.19370  103.14080   70.08570    0.00270    4.44210  139.32080  200.88930   98.47090    0.09060
 10264.50000    8.96770    0.02300   63.28590  103.46770   71.20170    0.00350    4.61930  236.10580  308.83100  155.97730    0.07880
 10265.00000    8.96770    0.01830   63.09000  103.53720   67.10280    0.00440    4.61450  296.90980  356.37680  200.23170    0.06710
 10265.50000    8.96770    0.02090   62.14500  103.33470   59.72200    0.00460    4.49660  296.90980  354.19220  196.26700    0.06020
 10266.00000    8.96770    0.02700   61.14630  102.87650   51.03050    0.00400    4.37880  244.73510  302.93450  180.12630    0.05910
 10266.50000    8.96770    0.03330   60.40390  102.37130   46.08840    0.00200    4.39020  192.56050  241.59320  141.50430    0.05920
 10267.00000    8.96770    0.04050   61.51970  101.86610   42.24750    0.00180    4.48270  140.38580  180.25190   97.26190    0.06160
 10267.50000    8.96770    0.04820   61.66220  101.36100   40.56910    0.00350    4.69580  140.38580  163.89280   76.96220    0.07020
 10268.00000    8.96770    0.04840   60.87050  100.85580   42.04570    0.00290    5.24060  178.77790  163.89280  121.20710    0.07930
 10268.50000    8.96770    0.03340   60.07880  100.35070   46.96900    0.00020    6.16220  350.99280  384.73010  239.32420    0.08090
 10269.00000    8.96770    0.00120   58.99850  100.19180   50.70340   -0.00400    7.08380  508.80340  605.56740  488.55660    0.06800
 10269.50000    8.96770   -0.02550   60.17930  100.11450   47.71140   -0.00100    7.28190  588.59060  676.87840  531.66140    0.05790
 10270.00000    8.96770   -0.00340   59.74150  100.29640   40.56510    0.00080    6.39780  583.17280  719.66490  531.66140    0.05990
 10270.50000    8.96770    0.02410   60.06970  100.48220   33.83250    0.00080    5.69870  551.69730  630.82130  502.96610    0.06520
