~Version ---------------------------------------------------
VERS.   2.0 : CWLS log ASCII Standard -VERSION 2.0
WRAP.    NO : One line per depth step
DLM . SPACE : Column Data Section Delimiter
~Well ------------------------------------------------------
STRT .FT                  28.0 : START DEPTH
STOP .FT               11239.0 : STOP DEPTH
STEP .FT                   0.5 : STEP
NULL .                -9999.25 : NULL VALUE
COMP .                         : COMPANY
WELL .                         : WELL
FLD  .                         : FIELD
LOC  .                         : LOCATION
PROV .                         : PROVINCE
CNTY .                         : COUNTY
STAT .                         : STATE
CTRY .                         : COUNTRY
SRVC .                         : SERVICE COMPANY
DATE .                         : DATE
UWI  .                         : UNIQUE WELL ID
API  .                         : API NUMBER
SLAT .WGS84 2.3574487803376982 : SURFACE LATITUDE
SLON .WGS84  8.483617502911002 : SURFACE LONGITUDE
DATUM.F                    nan : DEPTH DATUM ELEV
~Curve Information -----------------------------------------
DEPT   .FT    : 
CALD   .IN    : CALIPER FROM DENSITY LOG
DPHZ_LS.DEC   : HGRD STANDARD RESOLUTION DENSITY POROSITY
DTCO   .US/F  : DELTA-T COMPRESSIONAL
DTSM   .US/F  : DELTA-T SHEAR
GR_EDTC.GAPI  : GAMMA RAY
HDRA   .G/C3  : HRDD SPINE AND RIBS DENSITY CORRECTION
PEFZ   .B/E   : HRDD STANDARD RESOLUTION FORMATION PHOTOELECTRIC FACTOR
RLA3   .OHMM  : APPARENT RESISTIVITY FROM COMPUTED FOCUSING MODE 3
RLA5   .OHMM  : APPARENT RESISTIVITY FROM COMPUTED FOCUSING MODE 5
RXOZ   .OHMM  : INVADED FORMATION RESISTIVITY FILTERED AT 18 INCHES
TNPH_LS.DEC   : THERMAL NEUTRON POROSITY [LIMESTONE]
~Params ----------------------------------------------------
~Other -----------------------------------------------------
~ASCII -----------------------------------------------------
# ...
 7378.00000    9.22010    0.06220   59.93110  105.97300   66.57550   -0.00440    2.58370   22.27880   24.86400   31.32860    0.06790
 7378.50000    9.26800    0.06960   60.00140  105.73610   70.76490   -0.00270    2.51780   17.88900   18.79600   19.69540    0.07820
 7379.00000    9.30740    0.06810   60.16820  105.96120   76.83730   -0.00150    2.44960   17.53100   18.30890   20.81810    0.09540
 7379.50000    9.31350    0.06310   60.75600  105.72050   83.57010   -0.00040    2.42690   19.07560   20.85070   22.68940    0.09670
 7380.00000    9.31970    0.06260   61.30450  105.14750   86.68080    0.00090    2.45310   20.62030   23.39260   24.56060    0.09280
 7380.50000    9.32580    0.06480   60.81290  104.49130   85.63890    0.00210    2.49640   21.50160   24.91770   26.43180    0.07970
 7381.00000    9.33190    0.06180   60.87740  104.10370   79.26600    0.00330    2.50680   20.38470   22.13080   22.67720    0.06660
 7381.50000    9.33800    0.05830   60.91100  103.71610   68.41380    0.00460    2.46290   17.41870   19.08500   20.56390    0.05350
 7382.00000    9.34410    0.06330   61.14970  103.32860   57.36180    0.00430    2.40480   14.45270   15.91320   17.31440    0.05470
 7382.50000    9.35030    0.07580   61.31120  102.94100   53.08080    0.00300    2.34160   11.48670   12.23810   14.06490    0.06090
 7383.00000    9.35660    0.07950   61.60770  102.70840   52.96670    0.00340    2.32310    9.44330    9.76050   10.81530    0.06700
 7383.50000    9.36290    0.08240   61.67760  102.84660   52.99220    0.00500    2.30470    8.78400    9.07910    9.27730    0.07040
 7384.00000    9.38800    0.08490   61.93250  103.53760   53.37730    0.00560    2.28620    8.12470    8.39760    8.66940    0.07410
 7384.50000    9.41250    0.08800   62.34290  104.22860   54.90800    0.00490    2.26770    7.46540    7.71620    8.06140    0.07660
 7385.00000    9.41810    0.09190   62.68060  104.91960   55.98650    0.00410    2.24000    6.80610    7.03470    7.45340    0.07890
 7385.50000    9.40790    0.09290   62.25050  105.61050   53.16630    0.00340    2.24390    6.54240    6.76210    7.18810    0.08970
 7386.00000    9.38710    0.09170   62.22870  106.16630   53.88790    0.00240    2.25720    7.44960    7.91610    8.75150    0.10050
 7386.50000    9.37950    0.08740   62.64340  106.44860   56.99600    0.00690    2.27680    8.89420    9.76970   10.67800    0.09950
 7387.00000    9.38050    0.08300   63.30480  106.80140   61.13890    0.01300    2.29640    9.29710   10.22160   11.24170    0.09750
 7387.50000    9.38980    0.08130   63.54950  107.15420   63.74380    0.01710    2.28240    8.19270    8.77400    9.85270    0.09640
 7388.00000    9.40480    0.09120   63.23710  106.49560   60.84880    0.01600    2.24380    7.08830    7.32640    8.46370    0.09910
 7388.50000    9.38760    0.10110   62.34640  105.83700   57.95390    0.00710    2.22730    7.12710    7.42550    8.15640    0.08880
 7389.00000    9.38340    0.10500   62.11500  105.17830   55.77000    0.00380    2.25390    7.53930    8.14610    8.25760    0.08820
 7389.50000    9.37930    0.09640   63.67980  105.14300   53.76380    0.00700    2.28060    7.95140    8.86680   10.57920    0.08310
 7390.00000    9.37510    0.08780   62.40990  104.73610   51.23720    0.00960    2.29830    8.36350    9.58750   12.90080    0.07480
 7390.50000    9.37090    0.07920   62.12540  103.93620   47.69020    0.00840    2.28720    8.50240    9.26820   14.38220    0.06650
 7391.00000    9.39710    0.08300   61.88490  103.13620   47.86320    0.00700    2.26940    8.10830    8.62250   10.48920    0.06720
 7391.50000    9.54430    0.09120   61.37710  102.33630   50.63130    0.01080    2.27710    8.87470   10.47730    9.57510    0.07580
 7392.00000    9.57360    0.08800   60.89230  101.53640   53.67960    0.02010    2.28480   11.38160   13.56850   14.90450    0.07210
 7392.50000    9.45450    0.08080   60.27750  100.73650   53.33370    0.02400    2.30490   13.88850   16.65980   21.49230    0.06100
 7393.00000    9.30580    0.07370   60.26310  100.09660   50.42330    0.02010    2.32180   16.39550   18.64610   25.61810    0.04010
 7393.50000    9.25470    0.07550   60.17140   99.76730   47.00810    0.00990    2.32580   15.20280   17.10920   19.33750    0.03460
 7394.00000    9.22490    0.08070   60.33250   99.53200   42.92870    0.00360    2.33900   13.71180   15.18800   16.57580    0.03330
 7394.50000    9.21580    0.07680   58.51550   99.39090   44.99860   -0.00260    2.35590   17.34190   21.94820   29.54800    0.03400
 7395.00000    9.20660    0.07200   58.71720   99.67320   46.53610   -0.00200    2.37580   21.77350   26.00460   34.73730    0.03330
 7395.50000    9.21980    0.07520   58.07980   99.33440   46.34360    0.00020    2.38550   16.10400   22.53490   25.67390    0.03740
 7396.00000    9.31120    0.08050   57.67940   99.10860   46.56960    0.00200    2.35450    9.01690   14.31830   16.61060    0.04750
 7396.50000    9.44590    0.08190   58.22420  100.59060   49.76890    0.00570    2.34650    9.28170    9.32230   11.03580    0.05770
 7397.00000    9.54620    0.08040   58.09440  101.36680   54.73670    0.00620    2.35380    9.94330   12.75700   14.53120    0.06200
 7397.50000    9.64640    0.07600   57.63880  103.48390   59.08720    0.00460    2.38000   13.51280   17.05030   20.24300    0.06150
 7398.00000    9.64910    0.07010   57.98650  104.89530   62.04480    0.00090    2.41890   17.80930   21.34360   25.95470    0.06140
 7398.50000    9.51670    0.06280   59.92800  105.38930   59.25860    0.00030    2.43440   20.82380   22.19790   30.90290    0.06510
 7399.00000    9.45510    0.05710   61.01200  106.25370   68.35810    0.00040    2.43440   19.13280   23.39820   32.22980    0.07650
 7399.50000    9.39360    0.05240   61.55300  107.40050   77.41380    0.00050    2.43440   21.91280   26.88680   31.04780    0.09000
 7400.00000    9.32700    0.04580   62.36490  107.91580   85.20260    0.00060    2.43440   20.97740   23.69600   30.40150    0.09440
 7400.50000    9.24640    0.05400   62.54870  107.21700   86.52430    0.00070    2.44370   20.60350   25.85470   30.71610    0.09430
 7401.00000    9.23900    0.06460   62.18390  105.41350   88.66830    0.00080    2.46690   34.03770   43.02900   38.71630    0.09160
 7401.50000    9.22190    0.07780   62.46750  104.33150   93.64050   -0.00030    2.48570   47.47200   60.20330   46.71650    0.09060
 7402.00000    9.19840    0.07520   62.55240  104.61380   98.35570   -0.00170    2.48610   60.90620   77.37770   74.54120    0.09770
 7402.50000    9.19820    0.06680   62.35900  104.75490  100.00020   -0.00040    2.50770   74.34050   94.55200  102.36580    0.10950
 7403.00000    9.18700    0.05890   61.93330  102.21440  121.22860    0.00550    2.53470   85.08820  104.85810  130.19050    0.11290
 7403.50000    9.18220    0.05980   61.89540  102.57510  132.16370    0.00810    2.53390   77.90870   85.50780  127.76840    0.09530
 7404.00000    9.06140    0.07110   61.40400  101.55580  109.04670    0.00560    2.54150   58.64040   66.15760   79.39950    0.07780
 7404.50000    8.80380    0.06450   60.31960  100.53650   79.64920    0.00140    2.56700   39.37210   46.80730   91.93710    0.06040
 7405.00000    8.75570    0.06020   60.00090   99.51710   60.07560    0.00150    2.61040   42.92280   56.26340   81.91790    0.04700
 7405.50000    9.15980    0.05660   59.98950   99.10940   50.07970    0.00150    2.63220   36.61510   47.02650   60.19880    0.04700
 7406.00000    9.16880    0.05900   59.42160   99.25050   49.61780    0.00150    2.59790   28.06440   31.63040   38.47980    0.05360
 7406.50000    9.17780    0.06340   59.11460   99.42700   54.84030    0.00160    2.57750   24.72070   25.55120   31.57290    0.06010
 7407.00000    9.19260    0.05930   58.79240   99.72100   59.95290    0.00160    2.54400   26.71400   28.15710   32.11420    0.06300
 7407.50000    9.19850    0.06300   58.70880   99.95620   62.71870    0.00080    2.52040   29.11010   31.31580   30.35040    0.06190
 7408.00000    9.19590    0.06750   58.80580  100.09740   65.44330   -0.00090    2.55290   25.40570   29.86790   38.06160    0.05970
