~Version ---------------------------------------------------
VERS.   2.0 : CWLS log ASCII Standard -VERSION 2.0
WRAP.    NO : One line per depth step
DLM . SPACE : Column Data Section Delimiter
~Well ------------------------------------------------------
STRT .FT                  28.0 : START DEPTH
STOP .FT               11239.0 : STOP DEPTH
STEP .FT                   0.5 : STEP
NULL .                -9999.25 : NULL VALUE
COMP .                         : COMPANY
WELL .                         : WELL
FLD  .                         : FIELD
LOC  .                         : LOCATION
PROV .                         : PROVINCE
CNTY .                         : COUNTY
STAT .                         : STATE
CTRY .                         : COUNTRY
SRVC .                         : SERVICE COMPANY
DATE .                         : DATE
UWI  .                         : UNIQUE WELL ID
API  .                         : API NUMBER
SLAT .WGS84 2.3574487803376982 : SURFACE LATITUDE
SLON .WGS84  8.483617502911002 : SURFACE LONGITUDE
DATUM.F                    nan : DEPTH DATUM ELEV
~Curve Information -----------------------------------------
DEPT   .FT    : 
CALD   .IN    : CALIPER FROM DENSITY LOG
DPHZ_LS.DEC   : HGRD STANDARD RESOLUTION DENSITY POROSITY
DTCO   .US/F  : DELTA-T COMPRESSIONAL
DTSM   .US/F  : DELTA-T SHEAR
GR_EDTC.GAPI  : GAMMA RAY
HDRA   .G/C3  : HRDD SPINE AND RIBS DENSITY CORRECTION
PEFZ   .B/E   : HRDD STANDARD RESOLUTION FORMATION PHOTOELECTRIC FACTOR
RLA3   .OHMM  : APPARENT RESISTIVITY FROM COMPUTED FOCUSING MODE 3
RLA5   .OHMM  : APPARENT RESISTIVITY FROM COMPUTED FOCUSING MODE 5
RXOZ   .OHMM  : INVADED FORMATION RESISTIVITY FILTERED AT 18 INCHES
TNPH_LS.DEC   : THERMAL NEUTRON POROSITY [LIMESTONE]
~Params ----------------------------------------------------
~Other -----------------------------------------------------
~ASCII -----------------------------------------------------
# ...
 7835.50000    9.31920    0.07740   64.36160  113.50010  121.94940    0.00130    2.71940  140.36970  204.05320  107.28930    0.13980
 7836.00000    9.31770    0.08150   65.19890  114.32770  118.80740    0.00160    2.75180  139.84920  194.19720  207.82360    0.14760
 7836.50000    9.28860    0.08830   66.12470  115.53050  115.33900    0.00160    2.78420  139.20440  196.57660  291.42690    0.16120
 7837.00000    9.25950    0.09700   66.63190  116.46400  114.58400    0.00160    2.76810  142.07990  206.71550  573.45730    0.17130
 7837.50000    9.23040    0.10330   67.08080  117.07260  121.63590    0.00140    2.78490  150.97510  216.85450 1701.55170    0.17620
 7838.00000    9.22860    0.10860   67.26730  117.20500  130.31730    0.00070    2.83170  157.33800  220.89010 1671.73520    0.18110
 7838.50000    9.22000    0.10990   67.36740  117.20500  145.51750   -0.00010    2.87840  153.09140  203.84000 1227.80140    0.18300
 7839.00000    9.23130    0.10940   67.66440  117.14480  160.71770   -0.00270    2.97190  154.81490  214.78250 1075.54930    0.16900
 7839.50000    9.24180    0.10350   68.02630  117.04450  174.81600   -0.00160    3.11410  165.10430  226.70110  952.84470    0.15180
 7840.00000    9.25240    0.09770   67.80390  116.94420  166.81390    0.00060    3.08630  168.38830  240.04220  740.88550    0.15150
 7840.50000    9.26300    0.09330   67.70780  116.84390  157.28110    0.00340    3.03750  186.64240  279.54900  528.92630    0.15400
 7841.00000    9.27370    0.09280   67.64530  116.74360  166.80550    0.00390    2.98870  192.61010  300.48040  498.09360    0.15420
 7841.50000    9.26550    0.09290   67.21650  116.04920  178.44690    0.00310    2.92880  183.55050  273.96490  603.01220    0.14850
 7842.00000    9.26900    0.09570   66.51390  115.20640  184.81800    0.00010    2.99190  181.74610  287.42510  812.67000    0.14770
 7842.50000    9.27340    0.09880   65.59150  114.36350  174.39380   -0.00380    3.09540  186.87080  329.05830 1042.91910    0.15040
 7843.00000    9.27770    0.09460   64.89180  113.52060  165.63600   -0.00450    3.19900  217.47570  370.69590 1302.67960    0.14220
 7843.50000    9.28210    0.08490   63.81310  112.67770  156.40850   -0.00530    3.41580  219.82690  388.17730 1516.52190    0.12090
 7844.00000    9.28650    0.07320   62.46750  111.59250  140.76330   -0.00490    3.64780  237.74480  423.68140 1501.95930    0.09950
 7844.50000    9.29080    0.06340   61.89970  111.51670  114.64730   -0.00440    3.78790  269.82720  468.54870 1592.72710    0.08920
 7845.00000    9.29520    0.05440   61.58380  111.73140  100.07760   -0.00270    3.85440  269.85150  498.55280 1372.46080    0.08330
 7845.50000    9.30750    0.04660   61.67960  112.02140   86.43360   -0.00130    3.86270  236.53010  427.70550 1110.21090    0.08320
 7846.00000    9.30230    0.05290   61.78610  112.29020   75.61530   -0.00090    3.63800  204.13560  385.62710  917.44540    0.09660
 7846.50000    9.29710    0.07430   61.90850  112.21350   68.15480   -0.00350    3.41330  198.65030  377.48390  969.02290    0.12060
 7847.00000    9.29190    0.09310   62.06020  112.32600   87.04440   -0.00600    3.19210  195.30080  370.97370 1045.23370    0.14460
 7847.50000    9.28660    0.09540   62.30950  112.25330  100.84730   -0.00590    3.08310  197.77720  370.98290  984.74520    0.15900
 7848.00000    9.28140    0.08640   62.89090  112.18050  138.83940   -0.00260    3.06740  220.30440  413.73930  674.90140    0.15900
 7848.50000    9.27620    0.07500   63.69150  112.30170  143.19090   -0.00230    3.14750  244.48390  467.14580  567.99300    0.11530
 7849.00000    9.27100    0.06730   64.03440  112.74790  135.18550    0.00000    3.07270  235.67330  453.63700  525.42920    0.10320
 7849.50000    9.26580    0.06460   64.66580  113.36980  111.36850    0.00000    2.87850  212.92300  393.11720  567.94730    0.10100
 7850.00000    9.26060    0.06630   65.36930  114.03000  100.77880    0.00010    2.72870  194.72560  342.62050  671.23930    0.10570
 7850.50000    9.25530    0.07690   65.34400  114.87690   94.36670    0.00010    2.64400  194.74500  332.21630  781.75110    0.11480
 7851.00000    9.24490    0.08570   65.62870  116.46470  100.58470    0.00010    2.62010  210.94250  351.21300  625.13210    0.11200
 7851.50000    9.25240    0.09420   66.23080  118.05250  110.81840    0.00020    2.63520  207.67070  333.73630  608.77500    0.12650
 7852.00000    9.26000    0.10340   66.94160  119.64030  119.27900    0.00020    2.70560  216.84010  355.39320  652.70760    0.15250
 7852.50000    9.26750    0.11050   67.64880  121.22810  134.42030    0.00000    2.77600  241.37040  384.27490  725.88870    0.18400
 7853.00000    9.27500    0.10720   68.31070  122.10380  150.78540    0.00040    2.85000  255.56120  407.39020  739.53090    0.20290
 7853.50000    9.28260    0.09830   68.79190  122.77740  172.04560    0.00100    2.95900  235.97680  390.22090  613.95180    0.18280
 7854.00000    9.27940    0.08690   68.59420  123.45100  185.82880    0.00130    3.11210  271.73550  470.91590  299.89420    0.15850
 7854.50000    9.27520    0.08020   68.28650  123.36140  193.80780    0.00100    3.18430  270.31690  498.71340  238.20070    0.13430
 7855.00000    9.27520    0.08000   67.93190  123.11710  184.47180   -0.00150    3.30640  270.34130  409.36610  523.67200    0.13070
 7855.50000    9.28530    0.08180   67.68250  122.99340  169.83000   -0.00460    3.42840  276.62930  418.52250  811.62640    0.12430
 7856.00000    9.31050    0.08190   66.64230  123.31120  154.39670   -0.00400    3.50000  259.81140  380.88760  740.63260    0.11920
 7856.50000    9.33570    0.08550   65.88120  122.45620  138.96350   -0.00190    3.47370  285.95140  415.27760  706.60540    0.11880
 7857.00000    9.36090    0.08950   65.38730  121.71680  136.02890   -0.00190    3.42600  261.50020  376.75750  545.40850    0.13070
 7857.50000    9.38150    0.08340   64.23350  121.27430  146.94140   -0.00350    3.45950  266.41020  416.69220  525.65440    0.14660
 7858.00000    9.40090    0.07010   62.77190  120.57050  157.85390   -0.00250    3.66410  349.90170  529.18110  628.66160    0.14690
 7858.50000    9.42040    0.05180   61.66780  119.41580  156.87920   -0.00150    3.84650  433.39320  668.74610  673.80570    0.10000
 7859.00000    9.45270    0.03600   60.40930  118.03260  127.54150    0.00420    4.14120  505.94520  815.08020  424.89730    0.06780
 7859.50000    9.47070    0.02640   59.35700  116.49580  100.28110    0.01200    4.35850  545.24610  961.41440  239.79870    0.05320
 7860.00000    9.53690    0.01900   58.10630  114.18410   60.84690    0.02080    4.53990  626.57510 1120.84750  112.96680    0.04450
 7860.50000    9.62060    0.01250   56.30200  111.87240   50.14600    0.02370    4.63480  707.90420 1290.10290   91.96510    0.03980
 7861.00000    9.70430    0.00750   54.56580  109.56070   47.16600    0.01710    4.67560  808.36270 1459.35820  155.77640    0.03050
 7861.50000    9.73430    0.00450   52.82960  107.24900   41.99120    0.01210    4.71650  822.82300 1499.06360  339.27250    0.01520
 7862.00000    9.79090    0.00870   51.73040  104.93730   35.40080    0.00720    4.75020  665.95720 1207.99500  453.54700    0.01110
 7862.50000    9.82970    0.00710   50.46030  103.33850   29.26940    0.00760    4.80880  989.89140 1758.44180  446.34330    0.01040
 7863.00000    9.85750    0.00440   49.32540  101.72050   26.85780    0.01090    4.85970 1111.46380 1978.62050  428.33390    0.00960
 7863.50000    9.88530    0.00280   48.99820  100.35340   28.64560    0.01120    4.89980  916.13720 2100.35920  396.31660    0.00910
 7864.00000    9.91310    0.00550   48.56350   99.89070   30.43340    0.00850    4.92380  921.43820 1739.56800  440.55350    0.00870
 7864.50000    9.94080    0.00660   48.28140  100.11750   31.02560    0.00740    4.90330 1169.04880 1955.85630  480.83520    0.00870
 7865.00000    9.96860    0.00570   48.15430  100.34440   30.37970    0.00660    4.83820 1095.52120 1685.61630  438.73540    0.00870
 7865.50000    9.99640    0.00450   48.92320  100.48050   28.29940    0.00530    4.74680  972.97520 1445.81450  378.47350    0.01160
