~Version ---------------------------------------------------
VERS.   2.0 : CWLS log ASCII Standard -VERSION 2.0
WRAP.    NO : One line per depth step
DLM . SPACE : Column Data Section Delimiter
~Well ------------------------------------------------------
STRT .FT                  28.0 : START DEPTH
STOP .FT               11239.0 : STOP DEPTH
STEP .FT                   0.5 : STEP
NULL .                -9999.25 : NULL VALUE
COMP .                         : COMPANY
WELL .                         : WELL
FLD  .                         : FIELD
LOC  .                         : LOCATION
PROV .                         : PROVINCE
CNTY .                         : COUNTY
STAT .                         : STATE
CTRY .                         : COUNTRY
SRVC .                         : SERVICE COMPANY
DATE .                         : DATE
UWI  .                         : UNIQUE WELL ID
API  .                         : API NUMBER
SLAT .WGS84 2.3574487803376982 : SURFACE LATITUDE
SLON .WGS84  8.483617502911002 : SURFACE LONGITUDE
DATUM.F                    nan : DEPTH DATUM ELEV
~Curve Information -----------------------------------------
DEPT   .FT    : 
CALD   .IN    : CALIPER FROM DENSITY LOG
DPHZ_LS.DEC   : HGRD STANDARD RESOLUTION DENSITY POROSITY
DTCO   .US/F  : DELTA-T COMPRESSIONAL
DTSM   .US/F  : DELTA-T SHEAR
GR_EDTC.GAPI  : GAMMA RAY
HDRA   .G/C3  : HRDD SPINE AND RIBS DENSITY CORRECTION
PEFZ   .B/E   : HRDD STANDARD RESOLUTION FORMATION PHOTOELECTRIC FACTOR
RLA3   .OHMM  : APPARENT RESISTIVITY FROM COMPUTED FOCUSING MODE 3
RLA5   .OHMM  : APPARENT RESISTIVITY FROM COMPUTED FOCUSING MODE 5
RXOZ   .OHMM  : INVADED FORMATION RESISTIVITY FILTERED AT 18 INCHES
TNPH_LS.DEC   : THERMAL NEUTRON POROSITY [LIMESTONE]
~Params ----------------------------------------------------
~Other -----------------------------------------------------
~ASCII -----------------------------------------------------
# ...
 5426.00000    9.54160    0.11390   66.00910  112.87000   68.70720   -0.00260    2.42330    5.05390    6.12210    7.97760    0.13310
 5426.50000    9.50080    0.10550   66.43250  113.29340   67.23490   -0.00290    2.43260    5.37230    6.20040    7.91630    0.12580
 5427.00000    9.49940    0.09710   68.76020  114.35200   67.08970   -0.00160    2.49050    5.20930    6.05750    8.09340    0.12860
 5427.50000    9.49700    0.09230   69.80310  115.41050   67.65150    0.00050    2.56060   10.98140   10.05540   12.63980    0.14380
 5428.00000    9.48160    0.09530   70.12390  116.16660   81.69460    0.00080    2.63070   25.25010   20.48990   30.06140    0.16370
 5428.50000    9.41970    0.10050   70.62530  117.00720   93.12660   -0.00160    2.71440   39.51890   37.54430   47.48310    0.18350
 5429.00000    9.37890    0.10230   70.81380  118.08800  120.62150   -0.00360    2.85230   39.96210   48.36950   52.86380    0.20340
 5429.50000    9.35840    0.08900   70.92920  117.93870  131.35070   -0.00060    2.97540   33.28040   38.43430   45.76250    0.21530
 5430.00000    9.36290    0.07560   70.62900  117.48190  137.13820    0.00010    3.01200   29.27140   33.89850   36.07100    0.19770
 5430.50000    9.36740    0.06820   70.24940  117.02500  137.03930   -0.00240    3.05030   30.67330   34.03780   36.74430    0.18420
 5431.00000    9.35070    0.06450   69.70520  116.60980  127.85310   -0.00290    3.08230   36.31130   38.03240   41.05660    0.17790
 5431.50000    9.33400    0.05710   68.41910  115.66850  118.66690    0.00180    3.11180   46.25720   47.87070   58.80240    0.17160
 5432.00000    9.31730    0.04780   67.52520  114.46780  109.48080    0.00110    3.13060   57.26830   68.38420   86.74650    0.15990
 5432.50000    9.30060    0.03640   66.94010  113.17030  100.29460   -0.00230    3.29460   59.22400   76.79720  103.91240    0.13170
 5433.00000    9.31260    0.03230   66.27280  111.87270   99.32860   -0.00290    3.21250   46.97980   57.35440   56.92280    0.12610
 5433.50000    9.31910    0.04000   65.79650  111.09400   96.11340   -0.00360    3.09530   42.08210   50.19220   65.72640    0.13280
 5434.00000    9.31560    0.05040   65.90760  110.81690  100.91860   -0.00120    3.00150   59.81230   70.68900   87.73530    0.14070
 5434.50000    9.30650    0.05770   66.12180  110.66410  106.75820    0.00110    3.08750   81.64960   90.24890  109.74420    0.14860
 5435.00000    9.28880    0.06330   65.99230  110.97120  113.10190    0.00000    3.14850   87.18040  102.61590  117.81880    0.15170
 5435.50000    9.27120    0.06440   66.42740  111.57110  116.71800   -0.00140    3.14460   71.16030   80.91450   94.35630    0.14200
 5436.00000    9.28300    0.06570   67.39060  112.27300  110.01300   -0.00230    3.04710   58.34420   66.64940   75.58630    0.13080
 5436.50000    9.26430    0.07260   68.46360  113.42770  100.29460   -0.00130    3.00200   62.43830   88.22090   91.15520    0.12860
 5437.00000    9.25250    0.08690   68.86580  114.54780   97.52660   -0.00040    2.95700   86.33090  121.39960  110.61640    0.14610
 5437.50000    9.26760    0.10120   69.39380  115.53420  112.51930    0.00050    2.94620  106.09730  154.57820  130.07750    0.16640
 5438.00000    9.28280    0.11190   69.85080  116.54050  132.65820    0.00140    2.93600  103.51270  187.75690  142.63120    0.18850
 5438.50000    9.29800    0.10990   69.89830  117.16780  152.70950    0.00160    2.91280   88.98150  136.03810  104.38690    0.21710
 5439.00000    9.31780    0.10280   69.77510  117.30110  166.85260    0.00120    2.82490   71.61210   71.38950   56.58150    0.22900
 5439.50000    9.40500    0.09810   69.44300  117.00700  175.33850    0.00080    2.70620   54.24260   29.41410   37.85640    0.20000
 5440.00000    9.48750    0.09730   69.06810  116.66940  164.31460    0.00040    2.55940   36.87310   21.44860   26.40130    0.15810
 5440.50000    9.57000    0.09960   68.60230  116.33180  137.34890    0.00000    2.46690   19.50360   13.48300   14.94630    0.14050
 5441.00000    9.66440    0.10400   67.89980  116.01450  115.51410   -0.00040    2.45460    5.47150    6.92600    8.81270    0.14050
 5441.50000    9.74930    0.11030   67.36820  115.45930  101.42370   -0.00080    2.46010    4.89680    6.00330    6.41940    0.14590
 5442.00000    9.78660    0.11730   67.18350  114.90400   87.24840   -0.00120    2.46560    4.52270    5.08050    5.55480    0.14340
 5442.50000    9.82550    0.12350   66.36450  114.53580   79.67710   -0.00160    2.48590    4.17140    4.31560    4.69020    0.14620
 5443.00000    9.80730    0.12870   67.36740  115.23840   75.46970   -0.00270    2.50980    3.95370    4.09030    4.22590    0.15320
 5443.50000    9.77650    0.13420   70.24860  116.37410   72.64260   -0.00480    2.52950    3.77960    3.91020    3.96880    0.15740
 5444.00000    9.77670    0.13820   68.61060  117.30550   70.03530   -0.00460    2.50230    3.71030    3.83850    3.92010    0.15660
 5444.50000    9.78040    0.13440   67.96620  117.68380   69.65270   -0.00370    2.47510    3.71030    3.83850    3.93220    0.15110
 5445.00000    9.78410    0.12910   67.77860  117.86630   72.54390   -0.00180    2.43980    3.85010    3.98320    4.25940    0.14550
 5445.50000    9.77850    0.12360   70.32250  118.04890   75.29430    0.00030    2.37240    4.15750    4.30120    4.73850    0.14260
 5446.00000    9.79130    0.12570   68.97930  117.95560   76.04790    0.00080    2.30500    4.24920    4.39610    4.73070    0.14450
 5446.50000    9.81030    0.12980   69.40320  117.86220   75.29690    0.00130    2.28830    3.92130    4.05690    4.36160    0.14640
 5447.00000    9.82840    0.13350   68.44180  117.71530   73.30920    0.00180    2.26010    3.54410    3.66660    3.99250    0.14710
 5447.50000    9.84570    0.13640   68.29500  117.53270   73.36130    0.00230    2.23190    3.27710    3.39040    3.62340    0.15040
 5448.00000    9.86310    0.13400   68.42550  117.31400   74.27290    0.00280    2.23670    3.19120    3.30150    3.38100    0.15210
 5448.50000    9.88040    0.12980   68.65660  117.11740   72.40420    0.00250    2.21850    3.13870    3.24720    3.32930    0.15030
 5449.00000    9.87630    0.12670   68.53440  117.04520   72.63320    0.00210    2.19240    3.13870    3.24720    3.31900    0.14770
 5449.50000    9.87220    0.12920   68.01400  116.97300   75.10350    0.00170    2.20400    3.13870    3.24720    3.38100    0.14420
 5450.00000    9.82820    0.12770   67.52010  116.62170   78.47380    0.00130    2.26080    3.15810    3.26720    3.47450    0.14080
 5450.50000    9.75760    0.12190   67.09470  115.79120   81.84410    0.00520    2.31260    3.38880    3.37500    3.68580    0.13420
 5451.00000    9.68700    0.11570   66.58830  115.50530   76.26640    0.00660    2.36200    4.14830    3.65070    4.35090    0.12770
 5451.50000    9.66940    0.10980   66.15910  115.22930   67.43820    0.00500    2.40640    5.05010    5.97820    7.12860    0.11260
 5452.00000    9.71040    0.11580   65.65020  114.95330   58.33650    0.00310    2.40570    3.81420    4.40060    6.15100    0.10530
 5452.50000    9.77310    0.12980   65.76210  114.63810   54.11250    0.00110    2.37670    2.69850    3.02340    3.70710    0.11620
 5453.00000    9.83580    0.13710   66.12140  114.76580   51.02460   -0.00080    2.34780    2.30340    3.08470    3.32600    0.12350
 5453.50000    9.89850    0.13870   67.07420  117.24420   49.72850   -0.00010    2.31880    2.47380    3.18770    3.64480    0.12510
 5454.00000    9.96120    0.15150   68.17640  120.21020   51.11340    0.00050    2.28390    2.89960    2.88720    3.40280    0.13440
 5454.50000   10.02380    0.17060   69.87630  123.17630   54.34550    0.00120    2.26700    2.34700    2.37810    2.63830    0.15670
 5455.00000   10.08650    0.18980   71.27860  126.14240   57.53170    0.00180    2.26300    1.87920    1.94420    2.01440    0.17910
 5455.50000   10.14920    0.19410   72.36860  129.10850   58.94410    0.00250    2.25910    1.86440    1.92880    2.01440    0.18800
 5456.00000   10.21190    0.18420   74.21610  132.07450   57.20380    0.00310    2.28430    1.97670    2.04500    2.36370    0.17370
