~Version ---------------------------------------------------
VERS.   2.0 : CWLS log ASCII Standard -VERSION 2.0
WRAP.    NO : One line per depth step
DLM . SPACE : Column Data Section Delimiter
~Well ------------------------------------------------------
STRT .FT                  28.0 : START DEPTH
STOP .FT               11239.0 : STOP DEPTH
STEP .FT                   0.5 : STEP
NULL .                -9999.25 : NULL VALUE
COMP .                         : COMPANY
WELL .                         : WELL
FLD  .                         : FIELD
LOC  .                         : LOCATION
PROV .                         : PROVINCE
CNTY .                         : COUNTY
STAT .                         : STATE
CTRY .                         : COUNTRY
SRVC .                         : SERVICE COMPANY
DATE .                         : DATE
UWI  .                         : UNIQUE WELL ID
API  .                         : API NUMBER
SLAT .WGS84 2.3574487803376982 : SURFACE LATITUDE
SLON .WGS84  8.483617502911002 : SURFACE LONGITUDE
DATUM.F                    nan : DEPTH DATUM ELEV
~Curve Information -----------------------------------------
DEPT   .FT    : 
CALD   .IN    : CALIPER FROM DENSITY LOG
DPHZ_LS.DEC   : HGRD STANDARD RESOLUTION DENSITY POROSITY
DTCO   .US/F  : DELTA-T COMPRESSIONAL
DTSM   .US/F  : DELTA-T SHEAR
GR_EDTC.GAPI  : GAMMA RAY
HDRA   .G/C3  : HRDD SPINE AND RIBS DENSITY CORRECTION
PEFZ   .B/E   : HRDD STANDARD RESOLUTION FORMATION PHOTOELECTRIC FACTOR
RLA3   .OHMM  : APPARENT RESISTIVITY FROM COMPUTED FOCUSING MODE 3
RLA5   .OHMM  : APPARENT RESISTIVITY FROM COMPUTED FOCUSING MODE 5
RXOZ   .OHMM  : INVADED FORMATION RESISTIVITY FILTERED AT 18 INCHES
TNPH_LS.DEC   : THERMAL NEUTRON POROSITY [LIMESTONE]
~Params ----------------------------------------------------
~Other -----------------------------------------------------
~ASCII -----------------------------------------------------
# ...
 6402.00000    9.47870    0.13140   66.21730  110.10230   49.17990   -0.00020    2.10580    5.41500    6.60340    9.43190    0.10920
 6402.50000    9.46080    0.13020   66.10400  110.40460   47.08490    0.00090    2.15220    4.78180    5.72010    8.63890    0.11530
 6403.00000    9.47900    0.13330   66.19560  110.73680   47.06340    0.00170    2.17720    4.52860    4.83690    8.24550    0.12230
 6403.50000    9.50180    0.13650   66.18650  111.24290   49.71050    0.00300    2.18260    4.97970    5.73320    8.66910    0.12000
 6404.00000    9.48600    0.13880   66.29320  111.60740   52.12300    0.00220    2.16930    4.78410    5.39260    9.19410    0.11560
 6404.50000    9.47030    0.13800   66.86570  111.74780   51.34230    0.00080    2.15600    4.64790    4.80420    9.26520    0.10920
 6405.00000    9.45160    0.13680   67.20090  111.41950   48.41000    0.00000    2.14950    5.09860    5.27000    8.77740    0.10290
 6405.50000    9.44880    0.13560   67.25270  111.09110   44.22460    0.00070    2.14760    4.85460    5.01780    9.13060    0.10030
 6406.00000    9.46440    0.13210   67.18300  110.92320   40.65440    0.00140    2.15340    4.33940    4.48530    8.79780    0.09770
 6406.50000    9.46850    0.12560   66.40170  110.73350   41.14360    0.00140    2.17860    4.37800    4.52520    7.77620    0.09510
 6407.00000    9.45540    0.11910   66.24460  110.37340   42.19610    0.00050    2.19520    4.47600    4.62650    7.64350    0.09540
 6407.50000    9.41670    0.11310   65.66500  109.15530   41.34530   -0.00220    2.21180    4.39420    4.54190    7.61970    0.09750
 6408.00000    9.37790    0.10400   64.70660  109.11390   45.86480   -0.00270    2.22840    6.02300    7.32640    9.42300    0.09410
 6408.50000    9.35750    0.09500   63.57400  108.69780   48.10230   -0.00180    2.26310    7.20010   10.18280   12.30240    0.08360
 6409.00000    9.36470    0.09460   62.78320  108.28160   50.14430   -0.00180    2.30630    6.00590    7.48830   11.92450    0.07520
 6409.50000    9.37180    0.09940   62.25760  107.86550   47.09970   -0.00170    2.34730    5.37570    5.55640    9.64710    0.07650
 6410.00000    9.37890    0.10200   61.93710  107.44930   47.10290   -0.00140    2.37610    5.96920    6.16990   12.16840    0.07850
 6410.50000    9.39750    0.09910   61.75330  107.03320   48.20930   -0.00110    2.36660    6.44370    6.66050   14.32220    0.07930
 6411.00000    9.42870    0.10160   61.75120  106.61700   47.86460    0.00410    2.31820    5.40440    5.79960   11.70630    0.08500
 6411.50000    9.45980    0.11330   62.07020  106.53980   47.48900    0.00580    2.25280    4.10560    4.72400    9.17860    0.09810
 6412.00000    9.49100    0.12350   62.35770  107.00100   49.86990    0.00410    2.18740    4.31150    4.55500    6.65080    0.10450
 6412.50000    9.50450    0.12520   62.85340  107.46220   51.29710    0.00390    2.14560    4.61480    4.76990    6.38820    0.10540
 6413.00000    9.47420    0.12500   63.23890  107.92330   51.36430    0.00070    2.10960    4.38540    4.53280    5.89810    0.10930
 6413.50000    9.44380    0.12510   63.39670  108.38450   51.53780    0.00010    2.09100    4.15600    4.29570    5.75810    0.11570
 6414.00000    9.41350    0.12670   63.60780  108.84570   52.57670    0.00080    2.12260    3.92670    4.05870    5.86570    0.11610
 6414.50000    9.38770    0.12610   64.13190  109.30690   55.48660    0.00370    2.17040    3.84910    3.97850    6.02320    0.11230
 6415.00000    9.38030    0.12470   64.51600  109.76810   58.39650    0.00630    2.18870    3.83950    3.96850    6.16400    0.10750
 6415.50000    9.37290    0.12340   65.48170  110.05730   61.30640    0.00650    2.19950    3.83160    3.96040    6.22440    0.10750
 6416.00000    9.36960    0.11870   65.86540  110.03650   56.23760    0.00860    2.18950    3.95950    4.13630    6.19530    0.10360
 6416.50000    9.37260    0.11330   65.29670  109.99670   48.02780    0.00780    2.17420    4.10110    4.34810    6.26890    0.10130
 6417.00000    9.37570    0.11680   64.31280  109.95700   48.75620    0.00550    2.15900    4.24270    4.55990    6.34250    0.10200
 6417.50000    9.37870    0.12560   64.01540  109.80490   50.58090    0.00190    2.16320    4.38440    4.72930    6.35940    0.10390
 6418.00000    9.37680    0.13470   63.62360  109.61080   52.40560   -0.00010    2.16730    4.40470    4.55260    6.37050    0.10540
 6418.50000    9.39780    0.13730   63.11660  109.41660   53.33780   -0.00160    2.15550    4.23030    4.37240    6.38160    0.10250
 6419.00000    9.42900    0.13400   63.68140  109.26230   50.75680   -0.00190    2.13960    4.05590    4.19220    6.54250    0.09840
 6419.50000    9.45770    0.12720   63.57540  109.12910   47.45430   -0.00040    2.12380    4.09650    4.23410    6.80300    0.09510
 6420.00000    9.50010    0.12110   63.44200  109.22490   44.36740    0.00080    2.10790    4.17510    4.31600    6.97190    0.10280
 6420.50000    9.50880    0.12250   63.38090  109.63780   45.00300    0.00180    2.10190    4.06410    4.20460    6.87440    0.11040
 6421.00000    9.50990    0.12860   63.54150  110.06120   47.97700    0.00150    2.10250    3.95320    4.09310    6.69960    0.11510
 6421.50000    9.52090    0.13120   63.78170  110.48460   50.75590    0.00130    2.12160    3.84220    3.98170    6.72470    0.10960
 6422.00000    9.49390    0.12890   63.75380  110.82330   51.70670    0.00110    2.08990    3.73120    4.16410    6.66790    0.10280
 6422.50000    9.47730    0.12520   63.98070  111.22320   50.90980    0.00370    2.09770    3.62020    3.95150    6.53190    0.10640
 6423.00000    9.49050    0.13030   64.31330  111.51730   50.11280    0.00130    2.09920    3.57560    3.88230    6.49100    0.11130
 6423.50000    9.50370    0.13620   64.46350  111.81130   49.31590    0.00050    2.10070    3.79780    4.03380    6.83120    0.10430
 6424.00000    9.50490    0.14730   64.61370  111.97470   50.11710   -0.00030    2.10220    3.92590    4.05780    6.96730    0.10570
 6424.50000    9.53650    0.15340   65.01430  112.79180   52.51200   -0.00110    2.10370    3.45580    3.57190    6.49880    0.11130
 6425.00000    9.56070    0.15720   65.48620  113.60900   53.64770   -0.00180    2.10520    3.26410    3.46130    6.16810    0.12160
 6425.50000    9.58070    0.15650   65.57950  114.42610   52.18410   -0.00260    2.10670    3.12260    3.38870    5.84740    0.12620
 6426.00000    9.59730    0.15470   66.06040  114.91630   50.67440   -0.00250    2.10820    2.98120    3.16920    5.59030    0.12980
 6426.50000    9.61300    0.15650   65.99240  115.25670   50.33950   -0.00220    2.10970    2.83970    2.94980    5.30420    0.13440
 6427.00000    9.62880    0.15540   66.13530  115.58880   50.35520   -0.00180    2.11130    2.81140    3.00940    5.32520    0.13400
 6427.50000    9.64450    0.15270   66.12710  115.92090   50.06110   -0.00010    2.11280    2.90870    3.13880    5.52070    0.12690
 6428.00000    9.66020    0.14320   66.20250  116.18660   49.60300   -0.00030    2.09660    3.00600    3.26820    5.71620    0.12370
 6428.50000    9.67220    0.14100   66.30400  116.82810   48.72790   -0.00020    2.06940    3.06290    3.28960    5.62730    0.13100
 6429.00000    9.66910    0.14720   66.44200  117.46970   47.27620   -0.00020    2.04230    2.95800    3.15020    5.55730    0.13830
 6429.50000    9.72630    0.15340   66.50590  117.97430   49.49620   -0.00010    2.01510    2.85310    3.01090    5.59750    0.14550
 6430.00000    9.78340    0.15280   66.27050  118.14670   50.41270    0.00000    1.98220    2.74820    2.87150    5.49770    0.14550
 6430.50000    9.84060    0.14600   66.24030  117.75420   51.99120    0.00010    2.03450    2.64340    2.73210    5.67460    0.13580
 6431.00000    9.84320    0.14050   66.51450  117.59720   48.20420    0.00010    2.10210    2.61100    2.96410    6.64570    0.12430
 6431.50000    9.84580    0.14560   66.76030  118.47930   50.04140    0.00020    2.16220    2.97880    3.58600    7.22350    0.11280
 6432.00000    9.84840    0.15420   66.91320  119.36140   48.84010    0.00030    2.14700    2.82920    3.24890    6.70780    0.12240
