~Version ---------------------------------------------------
VERS.   2.0 : CWLS log ASCII Standard -VERSION 2.0
WRAP.    NO : One line per depth step
DLM . SPACE : Column Data Section Delimiter
~Well ------------------------------------------------------
STRT .F                   87.0 : START DEPTH
STOP .F                 4862.0 : STOP DEPTH
STEP .F                    0.5 : STEP
NULL .                -9999.25 : NULL VALUE
COMP .                         : COMPANY
WELL .                         : WELL
FLD  .                         : FIELD
LOC  .                         : LOCATION
PROV .                         : PROVINCE
CNTY .                         : COUNTY
STAT .                         : STATE
CTRY .                         : COUNTRY
SRVC .                         : SERVICE COMPANY
DATE .                         : DATE
UWI  .                         : UNIQUE WELL ID
API  .                         : API NUMBER
SLAT .WGS84 1.7507506966308917 : SURFACE LATITUDE
SLON .WGS84  7.222160552553007 : SURFACE LONGITUDE
DATUM.F                2663.53 : DEPTH DATUM ELEV
~Curve Information -----------------------------------------
DEPT.F     : 
LLD .OHMM  : LATEROLOG LOG DEEP
LLS .OHMM  : LATEROLOG LOG SHALLOW
MSFL.OHMM  : MICRO SPHERICALLY FOCUSED
GRD .GAPI  : GAMMA RAY FROM DENSITY LOG
CALD.IN    : CALIPER FROM DENSITY LOG
PEF .B/E   : PHOTOELECTRIC FACTOR
DPHI.DEC   : DENSITY POROSITY LIMESTONE
NPHI.DEC   : NEUTRON POROSITY LIMESTONE
DRHO.G/C3  : DENSITY CORRECTION
RHOB.G/C3  : BULK DENSITY
DT  .US/F  : INTERVAL TRANSIT TIME
DTL .US/F  : DELTA-T LONG SPACING
DTCO.US/F  : COMPRESSIONAL-WAVE INTERVAL TRANSIT TIME ACAUSTIC SLOWNESS
DTSM.US/F  : SHEAR-WAVE INTERVAL TRANSIT TIME DELTA-T
~Params ----------------------------------------------------
~Other -----------------------------------------------------
~ASCII -----------------------------------------------------
# ...
 3664.00000  138.36690   80.12540   22.19730   25.49820    8.64800    3.20470    0.05360    0.14430    0.01350    2.63980   54.97090   54.70210   53.69050   95.92940
 3664.50000  109.46980   68.37240   25.50870   23.56730    8.64850    3.23430    0.03840    0.14810    0.00850    2.64710   55.04050   54.87740   54.37970   96.51320
 3665.00000   87.61640   58.63940   14.66980   23.93740    8.64910    3.26390    0.03370    0.14990    0.00570    2.64620   55.39200   54.96480   55.30380   96.51020
 3665.50000   76.32310   51.49600   15.63050   23.94090    8.64970    3.26550    0.03440    0.15280    0.00280    2.64130   56.18410   55.22790   56.12530   97.12590
 3666.00000   72.12690   50.96180   16.18720   22.84480    8.65030    3.33020    0.03630    0.15520   -0.00010    2.63440   57.06720   55.93030   56.62360   98.33810
 3666.50000   75.98220   57.54150   11.06470   22.11510    8.65090    3.35280    0.04180    0.16160   -0.00300    2.62950   57.15160   57.33540   56.27040   99.43430
 3667.00000   99.50070   79.17200   10.62940   22.87160    8.65150    3.26510    0.05200    0.16880   -0.00140    2.64420   57.00950   57.51070   55.38850   99.43110
 3667.50000  132.83650   97.77490   11.10110   24.61470    8.65220    3.25510    0.05590    0.18100    0.00010    2.66490   55.87950   57.12680   54.33040   99.42810
 3668.00000  163.23570  112.66290   21.17590   31.26130    8.68200    3.20700    0.05550    0.17450    0.00170    2.68570   55.40450   56.40410   53.36040   98.59650
 3668.50000  162.84870  105.13580  747.06100   33.49290    8.71180    3.19260    0.04550    0.15360    0.00320    2.70280   54.80220   55.40020   52.19200   97.07620
 3669.00000  147.53730   98.11170   84.93450   32.85710    8.71230    3.14900    0.01730    0.14000    0.00330    2.71310   53.40710   53.46300   51.94900   96.16060
 3669.50000  134.65930   91.55680   40.48910   30.60240    8.71290    3.03200   -0.00840    0.12060    0.00330    2.71600   52.25120   52.58900   52.38870   95.31030
 3670.00000  127.59450   98.11170   50.16920   29.08140    8.71350    3.06160   -0.00780    0.12210    0.00340    2.70280   52.47580   52.65300   52.29960   95.30750
 3670.50000  170.46640  146.51930  215.45330   26.54390    8.71400    3.09120   -0.00370    0.12510    0.00340    2.69060   51.82740   52.72680   52.13730   94.71820
 3671.00000  195.69390  190.55000  396.91620   24.34800    8.70970    3.15020    0.00380    0.12090    0.00350    2.68220   51.24040   52.16470   51.94540   94.71530
 3671.50000  221.57860  204.19210  178.41140   20.68590    8.65670    3.20910    0.01550    0.11390    0.00360    2.68590   51.85630   51.79660   52.12050   92.95300
 3672.00000  250.88700  207.61790   72.81660   18.85660    8.65730    3.20940    0.01960    0.10800    0.00570    2.69840   51.85540   52.03860   52.20790   92.94240
 3672.50000  317.19970  248.92640  350.66630   20.69290    8.65790    3.20970    0.01670    0.10920    0.00670    2.71370   51.67830   52.23500   52.20690   92.94730
 3673.00000  466.71920  337.92240  501.89360   23.64460    8.61460    3.21000    0.00890    0.11330    0.00750    2.73210   51.41320   52.23450   52.02990   92.94430
 3673.50000  640.97110  589.33910  748.67540   25.09900    8.60060    3.21030   -0.00120    0.11440    0.00830    2.73820   50.88370   52.05840   51.85280   92.35480
 3674.00000  802.33000  850.49050  910.18700   24.97540    8.60130    3.25010   -0.01780    0.10980    0.00690    2.73350   50.44230   51.53090   51.14710   91.60530
 3674.50000  880.40550  766.58150  788.04930   23.54730    8.66030    3.26950   -0.02190    0.10450    0.00690    2.72250   50.26300   51.00330   50.52960   90.58940
 3675.00000  860.70230  398.26250  397.85930   22.91000    8.66090    3.24050   -0.01160    0.09910    0.00400    2.71250   50.08810   50.65150   50.92510   90.00000
 3675.50000  674.16050  216.13520  138.36600   23.21720    8.66140    3.21140    0.00030    0.09850    0.00120    2.70830   50.37650   50.64850   51.56290   89.99710
 3676.00000  342.82420  152.41130   94.81470   24.38420    8.69120    3.21180    0.00200    0.10660   -0.00020    2.70710   50.84410   50.83090   52.11290   90.58060
 3676.50000  195.11810   96.76420   71.45420   23.96730    8.69180    3.27070    0.00200    0.12330   -0.00170    2.70590   51.21100   51.11110   52.66270   92.33670
 3677.00000  166.64410   81.96770   36.79170   22.19270    8.69240    3.27100    0.00260    0.13840   -0.00450    2.67730   51.66620   51.85210   53.16830   94.09340
 3677.50000  129.51350   80.84190   26.97910   19.63020    8.68570    3.30060    0.01140    0.14660   -0.00440    2.65720   52.59470   52.82500   53.43170   94.67740
 3678.00000  109.87700   79.73160   27.85330   16.70120    8.66420    3.33020    0.02190    0.15040   -0.00440    2.64990   53.20470   53.32770   53.34260   95.84730
 3678.50000  109.23580   86.62970   32.69370   14.50530    8.65270    3.35980    0.03300    0.14660   -0.00380    2.64740   53.25370   53.54750   53.34170   96.43110
 3679.00000  119.39030  100.86320   46.24320   13.40910    8.60700    3.35680    0.03590    0.14130   -0.00280    2.64990   53.01940   53.45300   53.34090   96.42810
 3679.50000  153.04240  115.82250   79.17890   13.41280    8.54920    3.27240    0.03600    0.13480   -0.00420    2.67060   52.89940   53.19520   53.34010   96.38900
 3680.00000  188.23070   99.47790  365.85530   14.24710    8.52060    3.30990    0.03060    0.12360   -0.00410    2.68750   52.89850   53.14790   54.57270   95.83580
 3680.50000  202.87250   82.97690  419.97040   16.82200    8.49180    3.36100    0.01750    0.11190   -0.00400    2.69900   53.25010   53.41970   56.03150   95.95320
 3681.00000  193.54540   83.66440   35.59520   26.72330    8.49240    3.33200    0.00820    0.11890   -0.00400    2.70360   53.95410   54.06210   58.22740   97.65220
 3681.50000  188.30520   96.05010   23.53860   44.43120    8.52220    3.27360    0.00130    0.15080   -0.00390    2.70240   58.88720   58.46420   58.62300  101.92240
 3682.00000  188.33170  128.41100   93.45690   60.01320    8.52280    3.27390    0.00670    0.17830   -0.00240    2.70110   61.00080   61.45060   58.47510  106.04110
 3682.50000  191.15700  157.41970  601.34950   69.17740    8.52580    3.33290    0.00720    0.17210   -0.00080    2.70480   61.17980   61.27450   58.03400  106.37830
 3683.00000  220.62250  182.56000  536.61940   66.59160    8.55320    3.39180    0.00220    0.15140   -0.00080    2.71330   60.63390   60.39560   56.90250  105.12820
 3683.50000  248.68450  234.29080  126.22590   59.99690    8.55380    3.39210   -0.00150    0.13910    0.00220    2.72160   58.35130   57.49620   53.86150  102.26630
 3684.00000  251.71570  243.11600 1648.88670   62.93300    8.55440    3.45100   -0.00570    0.12530    0.00230    2.72750   55.13480   55.12380   52.62720   99.33100
 3684.50000  252.60310  223.20790 1762.81240   69.53470    8.55500    3.51000   -0.01150    0.11830    0.00240    2.73020   53.03320   53.27860   52.62630   96.39560
 3685.00000  258.51730  218.67910  194.59640   72.47080    8.55560    3.56890   -0.01390    0.11360    0.00210    2.72900   52.60350   52.83300   52.00870   94.63320
 3685.50000  304.29490  300.75110  117.62230   75.07680    8.55630    3.53670   -0.00980    0.10940    0.00100    2.72310   52.30600   52.38670   52.09600   93.45740
 3686.00000  417.08300  385.75830  290.38950   79.51130    8.55680    3.44130   -0.00690    0.10360    0.00160    2.73090   51.70160   51.92630   52.62380   92.28150
 3686.50000  694.51140  494.79280  521.44380   79.19170    8.55740    3.34910   -0.01330    0.09230    0.00120    2.74070   50.97550   51.24840   52.07960   92.27860
 3687.00000  962.61400  617.33300  509.09370   75.50620    8.55790    3.21810   -0.02560    0.09120   -0.00030    2.74600   50.33420   50.57860   51.62350   92.27570
 3687.50000 1065.58240  608.85440  507.19790   74.32130    8.52920    3.21850   -0.02730    0.09930   -0.00170    2.74260   50.38550   50.11350   50.99120   92.27270
 3688.00000  871.60940  584.11110  555.53010   76.69930    8.50060    3.24810   -0.02280    0.10760   -0.00010    2.73040   51.03420   50.11300   49.91880   92.26980
