~Version ---------------------------------------------------
VERS.   2.0 : CWLS log ASCII Standard -VERSION 2.0
WRAP.    NO : One line per depth step
DLM . SPACE : Column Data Section Delimiter
~Well ------------------------------------------------------
STRT .F                   87.0 : START DEPTH
STOP .F                 4862.0 : STOP DEPTH
STEP .F                    0.5 : STEP
NULL .                -9999.25 : NULL VALUE
COMP .                         : COMPANY
WELL .                         : WELL
FLD  .                         : FIELD
LOC  .                         : LOCATION
PROV .                         : PROVINCE
CNTY .                         : COUNTY
STAT .                         : STATE
CTRY .                         : COUNTRY
SRVC .                         : SERVICE COMPANY
DATE .                         : DATE
UWI  .                         : UNIQUE WELL ID
API  .                         : API NUMBER
SLAT .WGS84 1.7507506966308917 : SURFACE LATITUDE
SLON .WGS84  7.222160552553007 : SURFACE LONGITUDE
DATUM.F                2663.53 : DEPTH DATUM ELEV
~Curve Information -----------------------------------------
DEPT.F     : 
LLD .OHMM  : LATEROLOG LOG DEEP
LLS .OHMM  : LATEROLOG LOG SHALLOW
MSFL.OHMM  : MICRO SPHERICALLY FOCUSED
GRD .GAPI  : GAMMA RAY FROM DENSITY LOG
CALD.IN    : CALIPER FROM DENSITY LOG
PEF .B/E   : PHOTOELECTRIC FACTOR
DPHI.DEC   : DENSITY POROSITY LIMESTONE
NPHI.DEC   : NEUTRON POROSITY LIMESTONE
DRHO.G/C3  : DENSITY CORRECTION
RHOB.G/C3  : BULK DENSITY
DT  .US/F  : INTERVAL TRANSIT TIME
DTL .US/F  : DELTA-T LONG SPACING
DTCO.US/F  : COMPRESSIONAL-WAVE INTERVAL TRANSIT TIME ACAUSTIC SLOWNESS
DTSM.US/F  : SHEAR-WAVE INTERVAL TRANSIT TIME DELTA-T
~Params ----------------------------------------------------
~Other -----------------------------------------------------
~ASCII -----------------------------------------------------
# ...
 2365.50000   -9999.25   -9999.25   -9999.25   64.97740   10.62870    3.19650    0.04490    0.05200    0.00150    2.66600   -9999.25   -9999.25   -9999.25   -9999.25
 2366.00000   -9999.25   -9999.25   -9999.25   47.12900   10.62770    3.43110    0.01840    0.03480    0.00080    2.71170   -9999.25   -9999.25   -9999.25   -9999.25
 2366.50000   -9999.25   -9999.25   -9999.25   37.58440   10.59750    3.67790   -0.02050    0.02110   -0.00230    2.74110   -9999.25   -9999.25   -9999.25   -9999.25
 2367.00000   -9999.25   -9999.25   -9999.25   31.27530   10.62570    4.00780   -0.03990    0.01220   -0.00590    2.76340   -9999.25   -9999.25   -9999.25   -9999.25
 2367.50000   -9999.25   -9999.25   -9999.25   26.48440   10.65400    4.24490   -0.05350    0.00930   -0.00740    2.79170   -9999.25   -9999.25   -9999.25   -9999.25
 2368.00000   -9999.25   -9999.25   -9999.25   22.48280   10.65290    4.39890   -0.07110    0.00690   -0.00880    2.82810   -9999.25   -9999.25   -9999.25   -9999.25
 2368.50000   -9999.25   -9999.25   -9999.25   17.59530   10.65200    4.54060   -0.09220    0.00460   -0.00740    2.86610   -9999.25   -9999.25   -9999.25   -9999.25
 2369.00000   -9999.25   -9999.25   -9999.25   16.12900   10.65100    4.73600   -0.11270    0.00340   -0.00740    2.89950   -9999.25   -9999.25   -9999.25   -9999.25
 2369.50000   -9999.25   -9999.25   -9999.25   17.22870   10.65010    4.82160   -0.11890    0.00280   -0.00590    2.90130   -9999.25   -9999.25   -9999.25   -9999.25
 2370.00000   -9999.25   -9999.25   -9999.25   20.16130   10.64910    4.31090   -0.09760    0.00340   -0.00440    2.86800   -9999.25   -9999.25   -9999.25   -9999.25
 2370.50000   -9999.25   -9999.25   -9999.25   21.99410   10.64810    3.84160   -0.06170    0.00400   -0.00590    2.81610   -9999.25   -9999.25   -9999.25   -9999.25
 2371.00000   -9999.25   -9999.25   -9999.25   22.36070   10.64720    3.51910   -0.05580    0.00480   -0.00740    2.77820   -9999.25   -9999.25   -9999.25   -9999.25
 2371.50000   -9999.25   -9999.25   -9999.25   21.97260   10.64620    3.34310   -0.04870    0.00650   -0.00710    2.78180   -9999.25   -9999.25   -9999.25   -9999.25
 2372.00000   -9999.25   -9999.25   -9999.25   20.84540   10.64520    3.43110   -0.04230    0.00770   -0.00400    2.79380   -9999.25   -9999.25   -9999.25   -9999.25
 2372.50000   -9999.25   -9999.25   -9999.25   20.00900   10.64420    3.68040   -0.04290    0.00880   -0.00290    2.80570   -9999.25   -9999.25   -9999.25   -9999.25
 2373.00000   -9999.25   -9999.25   -9999.25   19.06160   10.64330    4.01270   -0.05150    0.00940   -0.00290    2.81630   -9999.25   -9999.25   -9999.25   -9999.25
 2373.50000   -9999.25   -9999.25   -9999.25   18.69500   10.64230    4.26690   -0.06320    0.00880   -0.00360    2.82660   -9999.25   -9999.25   -9999.25   -9999.25
 2374.00000   -9999.25   -9999.25   -9999.25   20.01410   10.64130    4.18370   -0.06940    0.00550   -0.00600    2.82070   -9999.25   -9999.25   -9999.25  134.62350
 2374.50000   -9999.25   -9999.25   -9999.25   24.01970   10.64040    3.88080   -0.04960    0.00440   -0.00880    2.75260   -9999.25   -9999.25   -9999.25  137.50750
 2375.00000   -9999.25   -9999.25   -9999.25   25.93440   10.63920    3.69500   -0.03390    0.00940   -0.01320    2.72170   -9999.25   -9999.25   -9999.25  141.02600
 2375.50000   -9999.25   -9999.25   -9999.25   27.49270   10.63820    3.63640   -0.02150    0.01360   -0.01470    2.70750   -9999.25   -9999.25   -9999.25  139.68040
 2376.00000   -9999.25   -9999.25   -9999.25   28.22580   10.63730    3.54840   -0.01240    0.01890   -0.01470    2.70440   -9999.25   -9999.25   -9999.25  136.18770
 2376.50000   -9999.25   -9999.25   -9999.25   28.95890   10.63640    3.48970    0.00540    0.02360   -0.01180    2.71360   -9999.25   -9999.25   -9999.25  137.21390
 2377.00000   -9999.25   -9999.25   -9999.25   29.69210   10.60620    3.40180    0.01130    0.02780   -0.00880    2.71210   -9999.25   -9999.25   -9999.25  142.24870
 2377.50000   -9999.25   -9999.25   -9999.25   30.05870   10.60520    3.37240    0.00780    0.03070   -0.00740    2.70160   -9999.25   -9999.25   -9999.25  145.57190
 2378.00000   65.33320   67.75940   10.00730   28.91140   10.60430    3.34310    0.00130    0.03250   -0.00430    2.69710   -9999.25   -9999.25   -9999.25  145.86540
 2378.50000   69.10280   75.30870    8.02670   26.31350   10.57410    3.44080   -0.00630    0.02790   -0.00130    2.70280   -9999.25   -9999.25   -9999.25  146.15840
 2379.00000   88.39960  104.11970    5.84580   24.79220   10.57020    3.71950   -0.02340    0.02040    0.00150    2.72450   -9999.25   -9999.25   -9999.25  146.15840
 2379.50000  133.57630  179.07360    9.73700   23.27100   10.54290    3.95160   -0.04660    0.01210    0.00290    2.76480   -9999.25   -9999.25   -9999.25  146.74490
 2380.00000  276.30000  274.57320   16.21860   21.74980   10.51270    4.13480   -0.08970    0.00520    0.00490    2.81470   -9999.25   -9999.25   -9999.25  146.15840
 2380.50000  537.38220  390.30830   14.92370   19.56260   10.51170    4.27670   -0.10690    0.00080    0.00650    2.83680   -9999.25   -9999.25   -9999.25  144.98530
 2381.00000  586.93490  486.04550   13.73080   14.99020   10.50070    4.31090   -0.12470   -0.00170    0.00880    2.88200   -9999.25   -9999.25   -9999.25  140.87980
 2381.50000  586.71560  527.33290   13.37420   10.46560   10.48050    4.34020   -0.14310   -0.00260    0.01030    2.92370   -9999.25   -9999.25   -9999.25  140.87980
 2382.00000  594.08510  588.12380   14.37600    8.57760   10.45030    4.34020   -0.15570   -0.00400    0.01180    2.95160   -9999.25   -9999.25   -9999.25  141.46630
 2382.50000  626.20930  603.90710   16.22400    7.56050   10.43390    4.39880   -0.16020   -0.00400    0.01180    2.96900   -9999.25   -9999.25   -9999.25  146.74490
 2383.00000  635.13810  578.68240   12.56440    7.33140   10.41890    4.45750   -0.15770   -0.00340    0.01030    2.98180   -9999.25   -9999.25   -9999.25  146.74490
 2383.50000  608.35740  546.97560   12.63760    6.96480   10.38870    4.51610   -0.15620   -0.00340    0.00880    2.97950   -9999.25   -9999.25   -9999.25  144.98530
 2384.00000  625.17500  547.88350   18.64140    6.23170   10.35850    4.57480   -0.15660   -0.00340    0.00590    2.97610   -9999.25   -9999.25   -9999.25  139.70670
 2384.50000  716.34090  649.98400   19.39360    6.23170   10.32840    4.66520   -0.15180   -0.00280    0.00440    2.97110   -9999.25   -9999.25   -9999.25  139.70670
 2385.00000  778.43480  764.57010   21.68030    5.86510   10.26890    4.73120   -0.14590   -0.00220    0.00290    2.96380   -9999.25   -9999.25   -9999.25  140.29330
 2385.50000  764.18780  811.96890   18.63050    5.86510   10.26800    4.82400   -0.14120   -0.00160    0.00280    2.95220   -9999.25   -9999.25   -9999.25  140.95290
 2386.00000  726.49100  587.23850   15.57430    6.59820   10.23780    4.91690   -0.13530    0.00020    0.00130    2.92900   -9999.25   -9999.25   -9999.25  143.03190
 2386.50000  511.75050  354.30540   28.17880    9.89740   10.20760    4.99760   -0.12590    0.00210   -0.00180    2.89560   -9999.25   -9999.25   -9999.25  148.28450
 2387.00000  188.61060  210.82370   30.61120   13.69040   10.17740    4.86810   -0.09960    0.00450   -0.00330    2.86290   -9999.25   -9999.25   -9999.25  150.41070
 2387.50000  120.90530  121.79660   20.10780   18.14610   10.14720    4.45750   -0.06880    0.00730   -0.00590    2.83640   -9999.25   -9999.25   -9999.25  150.85040
 2388.00000  104.88890  109.24830   14.14520   19.42820   10.14040    4.19350   -0.05220    0.01140   -0.00530    2.81650   -9999.25   -9999.25   -9999.25  149.67800
 2388.50000   93.96210  113.72560   19.63060   19.42820   10.08670    3.92960   -0.05840    0.01580   -0.00370    2.80250   -9999.25   -9999.25   -9999.25  140.21670
 2389.00000  102.75830  126.83590   28.68540   19.29960   10.05650    3.81230   -0.06900    0.01860   -0.00220    2.79990   -9999.25   -9999.25   -9999.25  129.83370
 2389.50000  129.22850  147.43140   26.38400   18.90600   10.02630    3.75370   -0.07050    0.01910    0.00150    2.81360   -9999.25   -9999.25   -9999.25  128.88060
