~Version ---------------------------------------------------
VERS.   2.0 : CWLS log ASCII Standard -VERSION 2.0
WRAP.    NO : One line per depth step
DLM . SPACE : Column Data Section Delimiter
~Well ------------------------------------------------------
STRT .F                   87.0 : START DEPTH
STOP .F                 4862.0 : STOP DEPTH
STEP .F                    0.5 : STEP
NULL .                -9999.25 : NULL VALUE
COMP .                         : COMPANY
WELL .                         : WELL
FLD  .                         : FIELD
LOC  .                         : LOCATION
PROV .                         : PROVINCE
CNTY .                         : COUNTY
STAT .                         : STATE
CTRY .                         : COUNTRY
SRVC .                         : SERVICE COMPANY
DATE .                         : DATE
UWI  .                         : UNIQUE WELL ID
API  .                         : API NUMBER
SLAT .WGS84 1.7507506966308917 : SURFACE LATITUDE
SLON .WGS84  7.222160552553007 : SURFACE LONGITUDE
DATUM.F                2663.53 : DEPTH DATUM ELEV
~Curve Information -----------------------------------------
DEPT.F     : 
LLD .OHMM  : LATEROLOG LOG DEEP
LLS .OHMM  : LATEROLOG LOG SHALLOW
MSFL.OHMM  : MICRO SPHERICALLY FOCUSED
GRD .GAPI  : GAMMA RAY FROM DENSITY LOG
CALD.IN    : CALIPER FROM DENSITY LOG
PEF .B/E   : PHOTOELECTRIC FACTOR
DPHI.DEC   : DENSITY POROSITY LIMESTONE
NPHI.DEC   : NEUTRON POROSITY LIMESTONE
DRHO.G/C3  : DENSITY CORRECTION
RHOB.G/C3  : BULK DENSITY
DT  .US/F  : INTERVAL TRANSIT TIME
DTL .US/F  : DELTA-T LONG SPACING
DTCO.US/F  : COMPRESSIONAL-WAVE INTERVAL TRANSIT TIME ACAUSTIC SLOWNESS
DTSM.US/F  : SHEAR-WAVE INTERVAL TRANSIT TIME DELTA-T
~Params ----------------------------------------------------
~Other -----------------------------------------------------
~ASCII -----------------------------------------------------
# ...
 2684.00000  192.31830  134.09460   32.17210   11.17220    8.48900    3.15660   -0.00190    0.06880   -0.00150    2.71220   49.19490   49.13260   49.22640   89.26690
 2684.50000  174.61250  146.58260   43.23550    8.96750    8.48790    3.21460   -0.00190    0.06700   -0.00210    2.71430   49.10840   48.77110   48.88510   89.26690
 2685.00000  181.97450  172.92270   75.44790    7.86250    8.50050    3.30210   -0.00250    0.06470   -0.00370    2.71910   49.46260   49.42300   49.23790   89.26690
 2685.50000  233.22020  218.55550   67.11060    8.22380    8.53080    3.33080   -0.00430    0.06350   -0.00440    2.72180   49.90700   50.15430   49.94320   90.25360
 2686.00000  304.10230  243.99390   62.68910    9.68470    8.57230    3.32630   -0.00550    0.06410   -0.00440    2.71970   50.91110   50.88090   50.56040   93.03990
 2686.50000  333.73120  202.49080   62.79800   11.58330    8.54210    3.28860   -0.00510    0.06990   -0.00440    2.71890   51.31810   51.49620   51.35370   93.95890
 2687.00000  250.57280  134.77320   56.53300   13.48970    8.54110    3.18240   -0.00280    0.08170   -0.00440    2.72330   51.20680   51.58450   51.25900   94.54550
 2687.50000  154.84130  101.33410   44.01510   16.35850    8.51090    3.10360   -0.00240    0.09930   -0.00150    2.73240   50.78200   51.40920   50.95810   94.54550
 2688.00000  121.85790   89.10580    8.85160   19.76490    8.50990    3.06400   -0.00610    0.11610    0.00000    2.73950   50.31890   51.13210   50.49510   94.66290
 2688.50000  101.38660  112.51040   11.82500   19.16770    8.47970    3.19430   -0.01330    0.08480    0.00000    2.74230   49.81700   50.46650   49.97410   92.19940
 2689.00000  104.58250  163.99610  248.99040   17.03910    8.44940    3.26800   -0.01690    0.06330   -0.00160    2.74430   49.12450   49.76510   49.39280   89.85340
 2689.50000  169.95570  227.13900  123.26010   15.88160    8.44470    3.23800   -0.01730    0.05460   -0.00290    2.75150   48.77380   49.33100   48.88700   89.17940
 2690.00000  282.69860  465.67030   91.41310   14.93150    8.41230    3.23740   -0.01890    0.05050   -0.00260    2.76500   48.15870   49.05120   48.09700   87.99570
 2690.50000  511.42240  325.31430  314.82260   13.66660    8.38790    3.26620   -0.02590    0.04640   -0.00100    2.78470   47.45560   48.67870   47.56880   87.50730
 2691.00000  174.45560  167.79970  120.77190   13.29470    8.38680    3.29500   -0.04070    0.04350    0.00150    2.80840   46.66140   47.54710   46.68820   86.50980
 2691.50000  154.08620  203.48700  229.29740   12.55620    8.39810    3.32370   -0.05240    0.04110    0.00150    2.81550   46.48980   47.10830   46.42420   85.16130
 2692.00000  362.23660  564.36980  119.94740   12.91750    8.41400    3.35250   -0.06360    0.03930    0.00370    2.81550   46.59740   46.93300   46.42470   85.16130
 2692.50000  570.91070  548.90970  482.34020   14.01190    8.41300    3.38120   -0.06660    0.03940    0.00590    2.81010   46.66960   46.75770   46.51320   85.16130
 2693.00000  723.14180  333.12470  314.77230   15.83940    8.44120    3.34930   -0.05980    0.03940    0.00740    2.80100   47.05760   46.75920   46.77800   85.16130
 2693.50000  844.08070  271.26810  275.27260   16.56730    8.46930    3.28820   -0.05180    0.03860    0.00740    2.79100   47.33170   47.30290   46.86650   85.16130
 2694.00000  933.20290  263.01310  256.90910   16.19500    8.46830    3.19770   -0.04470    0.03630    0.00590    2.77990   47.61770   47.77630   47.04320   85.16130
 2694.50000 1049.52010  242.73040  126.52300   16.26710    8.46730    3.11500   -0.03770    0.03520    0.00440    2.76120   48.52720   48.41650   47.26570   85.16130
 2695.00000 1172.55600  195.87620  202.96010   16.65440    8.46630    3.08500   -0.02280    0.04460    0.00150    2.74910   50.20290   49.03660   48.07800   86.43250
 2695.50000 1307.42700  120.67820  113.56800   17.40830    8.46540    3.07270   -0.00840    0.06530    0.00150    2.73370   51.17370   50.00310   49.96860   89.47170
 2696.00000 1309.87790   76.07000   60.23320   17.79590    8.43510    3.05450    0.01320    0.10190    0.00000    2.70970   53.02560   50.94130   52.86000   91.76930
 2696.50000 1091.35790   56.76050   25.97740   17.26870    8.43410    3.08330    0.03140    0.14620   -0.00170    2.66810   54.54890   52.73490   53.91770   93.79300
 2697.00000  732.77460   41.74940    9.11030   16.31970    8.43300    3.08260    0.05810    0.18320   -0.00330    2.60340   56.31800   54.75580   55.23970   97.62600
 2697.50000  372.07950   34.27650    7.01120   16.02530    8.44080    3.11140    0.08390    0.21370   -0.00440    2.52940   59.00010   56.86460   57.70710  104.61430
 2698.00000  137.86980   27.48540    3.72340   17.25000    8.46040    3.16940    0.11770    0.22970   -0.00440    2.51060   61.18240   60.37890   58.41230  109.20820
 2698.50000  113.66000   25.29800    1.58800   17.97780    8.45920    3.16890    0.13490    0.26570   -0.00510    2.49560   61.58030   61.43350   59.47650  110.96770
 2699.00000   85.08060   25.64410    1.41670   18.70560    8.45820    3.10960    0.13890    0.27340   -0.00590    2.49120   61.45170   61.23310   59.55860  110.96770
 2699.50000   82.76090   27.09280    2.29550   19.43350    8.45700    3.05040    0.13960    0.27420   -0.00590    2.50800   60.33520   60.51810   59.47090  110.38120
 2700.00000  113.63730   30.66610    3.20730   21.26100    8.44470    3.06750    0.13170    0.25220   -0.00420    2.57620   58.67070   59.38350   58.96960  109.79470
 2700.50000  153.33990   37.94530   15.71150   27.55500    8.40820    3.10780    0.10740    0.23270   -0.00340    2.60310   57.09550   58.08650   58.03490  104.79070
 2701.00000  372.41000   60.23220   29.36480   34.45750    8.41080    3.16590    0.07320    0.21320   -0.00250    2.62990   56.56940   57.04520   57.27270  100.97950
 2701.50000  766.98960   91.92510   26.35420   40.32260    8.42650    3.28270    0.05440    0.19010   -0.00170    2.65740   55.51460   54.41100   55.66580   99.11930
 2702.00000 1193.00150  110.08120   85.45340   45.08800    8.44350    3.28210    0.03790    0.15470    0.00000    2.67870   54.81230   53.70950   54.54420   96.85490
 2702.50000 1398.99670  113.75960   86.32300   46.92080    8.45540    3.19280    0.02360    0.13750    0.00150    2.68900   54.55060   53.72550   54.54630   96.25990
 2703.00000 1477.29970  110.68770   29.39850   42.91330    8.42600    3.10210    0.01410    0.13090    0.00220    2.69640   54.74410   54.47360   54.81220   97.42450
 2703.50000 1345.76550   79.51970   61.04240   31.88740    8.42590    3.04570    0.01020    0.14120    0.00450    2.68790   55.34900   54.85550   55.26920   99.17560
 2704.00000 1069.15910   40.47150   17.16620   22.94770    8.42570    3.01580    0.03320    0.18640    0.00740    2.66020   55.70350   54.62250   55.96150  100.34010
 2704.50000  506.96060   27.89710    6.90890   19.59920    8.42560    3.01520    0.05840    0.22070    0.00890    2.63010   55.42030   54.24290   55.61080  100.91820
 2705.00000  258.14870   27.40780    8.37890   19.91740    8.45470    3.02590    0.06850    0.23230    0.00890    2.61000   55.09250   54.46410   55.25990  100.14630
 2705.50000  297.13490   28.29590   19.42640   25.14530    8.45450    3.04340    0.05200    0.22330    0.00890    2.60390   55.14650   54.77320   55.52610   98.28250
 2706.00000  324.32140   27.91400   36.12390   31.47680    8.45440    3.05820    0.03520    0.18240    0.00890    2.62590   55.80310   55.30150   55.96830   97.37240
 2706.50000  249.59300   22.35770   21.98710   32.23370    8.45420    3.15940    0.02680    0.12810    0.00890    2.63900   56.06990   55.56630   56.32250   98.76820
 2707.00000  176.83200   12.43390   14.14700   29.32550    8.44770    3.21750    0.02850    0.12720    0.00890    2.65150   55.98440   55.74330   56.30950   99.39390
 2707.50000  136.08730    9.79480    5.21530   23.82700    8.41640    3.27560    0.05210    0.14650    0.00730    2.65180   55.89880   55.65670   56.03960  100.60610
 2708.00000  121.88220    9.95510    4.08750   17.96190    8.36610    3.30430    0.06680    0.16720    0.00420    2.63870   55.28460   55.13090   55.47610  101.44130
