~Version ---------------------------------------------------
VERS.   2.0 : CWLS log ASCII Standard -VERSION 2.0
WRAP.    NO : One line per depth step
DLM . SPACE : Column Data Section Delimiter
~Well ------------------------------------------------------
STRT .F                   87.0 : START DEPTH
STOP .F                 4862.0 : STOP DEPTH
STEP .F                    0.5 : STEP
NULL .                -9999.25 : NULL VALUE
COMP .                         : COMPANY
WELL .                         : WELL
FLD  .                         : FIELD
LOC  .                         : LOCATION
PROV .                         : PROVINCE
CNTY .                         : COUNTY
STAT .                         : STATE
CTRY .                         : COUNTRY
SRVC .                         : SERVICE COMPANY
DATE .                         : DATE
UWI  .                         : UNIQUE WELL ID
API  .                         : API NUMBER
SLAT .WGS84 1.7507506966308917 : SURFACE LATITUDE
SLON .WGS84  7.222160552553007 : SURFACE LONGITUDE
DATUM.F                2663.53 : DEPTH DATUM ELEV
~Curve Information -----------------------------------------
DEPT.F     : 
LLD .OHMM  : LATEROLOG LOG DEEP
LLS .OHMM  : LATEROLOG LOG SHALLOW
MSFL.OHMM  : MICRO SPHERICALLY FOCUSED
GRD .GAPI  : GAMMA RAY FROM DENSITY LOG
CALD.IN    : CALIPER FROM DENSITY LOG
PEF .B/E   : PHOTOELECTRIC FACTOR
DPHI.DEC   : DENSITY POROSITY LIMESTONE
NPHI.DEC   : NEUTRON POROSITY LIMESTONE
DRHO.G/C3  : DENSITY CORRECTION
RHOB.G/C3  : BULK DENSITY
DT  .US/F  : INTERVAL TRANSIT TIME
DTL .US/F  : DELTA-T LONG SPACING
DTCO.US/F  : COMPRESSIONAL-WAVE INTERVAL TRANSIT TIME ACAUSTIC SLOWNESS
DTSM.US/F  : SHEAR-WAVE INTERVAL TRANSIT TIME DELTA-T
~Params ----------------------------------------------------
~Other -----------------------------------------------------
~ASCII -----------------------------------------------------
# ...
 4642.50000 31869.06250 6365.59620  562.51200   34.08480    7.79170    3.28880   -0.07760    0.00870    0.01380    2.83570   44.27980   44.86010   44.01540   80.63050
 4643.00000 33636.69920 6915.30620  273.86670   32.18690    7.79210    3.31790   -0.07930    0.00820    0.01110    2.83460   44.50190   44.95490   43.97090   80.63930
 4643.50000 35055.53910 7512.09670  256.33880   29.83140    7.82180    3.46430   -0.08570    0.00810    0.00970    2.83840   44.86930   45.00730   43.87500   80.64810
 4644.00000 35953.42970 8274.02640  577.03500   27.65930    7.82220    3.43230   -0.08750    0.00880    0.00820    2.84700   45.06080   45.00730   43.92590   80.85240
 4644.50000 33798.08200 8742.88180 1251.51820   27.47190    7.82270    3.33260   -0.08460    0.01060    0.00600    2.84900   45.11260   45.00730   44.01360   81.25220
 4645.00000 27558.67770 8502.69140  270.67600   28.99560    7.82310    3.25810   -0.07590    0.01370    0.00520    2.84620   44.89420   45.00730   44.01320   81.26100
 4645.50000 20576.03320 7376.52730   48.11170   31.92380    7.86100    3.31650   -0.07070    0.01850    0.01110    2.83960   44.89380   45.27090   44.36520   81.61140
 4646.00000 14268.21480 6186.61280   14.11960   33.01990    7.88240    3.30480   -0.06700    0.02190    0.02290    2.83040   45.68630   45.62230   44.62910   82.45300
 4646.50000 9837.75390 4803.68360   94.98970   32.28330    7.84080    3.27290   -0.06060    0.02650    0.02580    2.81440   46.03830   46.23720   45.09860   83.04800
 4647.00000 8711.13480 4071.50070  267.16430   30.81350    7.82490    3.24110   -0.04650    0.02530    0.02580    2.77960   46.39030   46.68440   45.70020   83.05640
 4647.50000 8363.58890 3716.09500  116.81460   29.34370    7.82540    3.19790   -0.02200    0.02530    0.02580    2.73810   46.75270   47.02780   45.79520   83.65140
 4648.00000 8824.82810 3602.84550    5.03760   28.24050    7.82580    3.13900    0.00960    0.02780    0.02730    2.70920   47.00620   47.11570   46.00760   83.65980
 4648.50000 9827.56150 4185.27150    4.96870   27.10650    7.82620    3.08000    0.00730    0.03830    0.03180    2.70250   47.00570   47.00450   46.42570   84.25510
 4649.00000 11095.31250 5231.33740    9.49900   26.40030    7.82660    3.02110   -0.00450    0.04420    0.03510    2.71340   47.00530   46.73420   46.47670   84.26390
 4649.50000 12410.28420 5322.06980    4.42380   26.48850    7.82710    3.13810   -0.01480    0.03950    0.03750    2.74740   46.66800   46.58860   46.42480   84.27270
 4650.00000 13665.73240 5016.74760    8.95570   28.22580    7.82750    3.25510   -0.02650    0.03360    0.03360    2.75840   46.25560   46.58860   46.21140   84.28150
 4650.50000 14812.51660 4878.92240   18.92680   28.22580    7.82790    3.40370   -0.03780    0.02890    0.02810    2.76750   46.29910   46.58860   46.21100   83.70210
 4651.00000 16019.16800 4679.05760   13.97470   28.22580    7.79910    3.48920   -0.04360    0.02480    0.02350    2.77310   46.47480   46.67640   46.21050   83.71260
 4651.50000 16694.46090 4551.10740  850.69230   27.85920    7.79960    3.49560   -0.04180    0.02500    0.01670    2.77630   46.56260   46.67640   46.21010   83.37930
 4652.00000 17515.23830 4550.16310  280.47230   27.49270    7.77070    3.51790   -0.04320    0.02900    0.00950    2.77850   46.65020   46.67640   46.29780   83.14370
 4652.50000 18273.92580 4712.86080  301.46610   28.26300    7.77120    3.48830   -0.04590    0.02860    0.00910    2.77970   46.56170   46.58860   46.30470   83.15350
 4653.00000 18982.17580 4923.55320  611.02640   30.28960    7.77160    3.48800   -0.04740    0.02470    0.01100    2.77980   46.55850   46.41290   46.26750   83.16200
 4653.50000 19496.04300 5176.34810  421.09810   34.02180    7.77210    3.41330   -0.04470    0.02270    0.01980    2.78070   46.37400   46.32500   45.87800   81.99740
 4654.00000 18718.21090 5448.48680   11.05460   36.39350    7.77260    3.34070   -0.03760    0.02270    0.02570    2.78050   46.27790   46.31400   45.35620   80.83280
 4654.50000 13909.40430 5671.16940   56.25120   37.02350    7.77300    3.13510   -0.02830    0.03030    0.03460    2.77650   46.15560   46.23720   44.86390   80.84160
 4655.00000 8330.06350 5439.41600   44.49750   35.60550    7.77340    3.01760   -0.02480    0.03630    0.04680    2.76800   45.99700   46.32500   44.57720   80.94820
 4655.50000 4768.60600 4181.69040   22.41300   32.97630    7.77390    3.13460   -0.02770    0.04850    0.06550    2.75930   45.94230   46.47650   44.84050   82.03220
 4656.00000 2532.64260 2723.19970    6.42910   30.05870    7.77430    3.25160   -0.04050    0.06430    0.07270    2.75210   46.08990   46.62710   45.50130   83.40960
 4656.50000 1446.56640  784.22060    9.38580   27.49270    7.77470    3.31000   -0.05200    0.05970    0.06780    2.76190   46.55810   46.67640   46.20570   84.05380
 4657.00000 1242.77380  741.87020   10.90330   25.65980    7.77510    3.30970   -0.06120    0.05030    0.06150    2.77650   46.64580   46.67640   46.73390   85.87160
 4657.50000 1276.41670  752.05170    6.50130   24.19350    7.77560    3.30060   -0.06210    0.03620    0.04930    2.79110   46.66080   46.58860   47.17400   86.76130
 4658.00000 1671.13040  794.66750    5.63690   22.72730    7.77600    3.25040   -0.06040    0.03030    0.03240    2.80390   46.38060   46.41290   47.52600   86.76970
 4658.50000 2238.38670 1501.92920   42.55600   22.71610    7.77650    3.25010   -0.06170    0.02550    0.01680    2.80770   46.11570   46.32500   47.61370   86.19060
 4659.00000 3127.96730 2210.25780   17.10460   24.99510    7.77690    3.22760   -0.06210    0.02320    0.01090    2.80890   45.93920   46.23720   47.48110   85.61360
 4659.50000 4627.96730 2873.89400  310.91860   29.45070    7.76210    3.14820   -0.05330    0.02170    0.00880    2.80460   45.93880   46.32500   47.01810   84.44900
 4660.00000 5695.02490 3209.46410   86.25030   35.48450    7.77790    3.10260   -0.03930    0.01980    0.01970    2.79370   45.96180   46.32500   46.64320   83.87100
 4660.50000 5095.25830 2828.68770   44.49750   37.39000    7.77830    3.07300   -0.02580    0.02430    0.02560    2.77250   46.14540   46.41290   46.30520   83.29290
 4661.00000 4230.55370 2381.88060   28.62320   35.77280    7.77870    3.07270   -0.02560    0.02950    0.03450    2.74470   46.20180   46.41290   46.11370   83.88860
 4661.50000 3900.72680 1651.52610    5.39720   32.51830    7.77910    3.07240   -0.03810    0.02700    0.04190    2.75650   46.11320   46.32500   46.11310   83.89740
 4662.00000 3694.93650 1711.12650    4.70210   31.15840    7.77950    3.06740   -0.04740    0.02220    0.04320    2.77280   46.11270   46.23720   46.20090   83.90620
 4662.50000 3744.12960 1837.71800   55.47940   31.37210    7.78000    3.10120   -0.06320    0.01990    0.03880    2.79630   46.02420   46.10910   46.11230   83.32840
 4663.00000 4226.17090 1917.57100  415.33190   31.89150    7.78040    3.13020   -0.07550    0.01870    0.02750    2.81320   45.93560   46.01440   46.02380   83.33720
 4663.50000 4590.92140 1898.80490   15.57350   32.25810    7.78080    3.12990   -0.07370    0.01880    0.01790    2.82210   45.75900   45.71010   45.84710   82.17300
 4664.00000 5033.34420 2086.95430  472.72070   32.99120    7.81750    3.09600   -0.06440    0.01990    0.01080    2.82840   45.58240   45.79800   45.75860   81.59670
 4664.50000 4769.00930 2395.99950  770.59390   33.35780    7.84020    3.05760   -0.05260    0.02350    0.00790    2.82690   45.58190   46.23720   45.48650   81.60520
 4665.00000 4169.28520 2266.60790   14.48480   33.37040    7.85240    3.01180   -0.03740    0.02850    0.00490    2.80630   46.15000   46.32500   45.40530   81.61360
 4665.50000 3535.78150 1626.09560    3.42420   31.82620    7.89960    3.07010   -0.03080    0.03890    0.00490    2.77800   46.55030   46.41290   45.42670   82.20860
 4666.00000 3080.59990 1455.49840    3.28550   28.41690    7.90000    3.08310   -0.03170    0.03710    0.00340    2.76650   46.54980   46.41290   45.69800   83.39000
 4666.50000 2773.76270 1334.88180  387.66370   26.39300    7.90050    3.12820   -0.04320    0.03260    0.00490    2.77390   46.54930   46.42040   45.79320   83.98530
