~Version ---------------------------------------------------
VERS.   2.0 : CWLS log ASCII Standard -VERSION 2.0
WRAP.    NO : One line per depth step
DLM . SPACE : Column Data Section Delimiter
~Well ------------------------------------------------------
STRT .F                   87.0 : START DEPTH
STOP .F                 4862.0 : STOP DEPTH
STEP .F                    0.5 : STEP
NULL .                -9999.25 : NULL VALUE
COMP .                         : COMPANY
WELL .                         : WELL
FLD  .                         : FIELD
LOC  .                         : LOCATION
PROV .                         : PROVINCE
CNTY .                         : COUNTY
STAT .                         : STATE
CTRY .                         : COUNTRY
SRVC .                         : SERVICE COMPANY
DATE .                         : DATE
UWI  .                         : UNIQUE WELL ID
API  .                         : API NUMBER
SLAT .WGS84 1.7507506966308917 : SURFACE LATITUDE
SLON .WGS84  7.222160552553007 : SURFACE LONGITUDE
DATUM.F                2663.53 : DEPTH DATUM ELEV
~Curve Information -----------------------------------------
DEPT.F     : 
LLD .OHMM  : LATEROLOG LOG DEEP
LLS .OHMM  : LATEROLOG LOG SHALLOW
MSFL.OHMM  : MICRO SPHERICALLY FOCUSED
GRD .GAPI  : GAMMA RAY FROM DENSITY LOG
CALD.IN    : CALIPER FROM DENSITY LOG
PEF .B/E   : PHOTOELECTRIC FACTOR
DPHI.DEC   : DENSITY POROSITY LIMESTONE
NPHI.DEC   : NEUTRON POROSITY LIMESTONE
DRHO.G/C3  : DENSITY CORRECTION
RHOB.G/C3  : BULK DENSITY
DT  .US/F  : INTERVAL TRANSIT TIME
DTL .US/F  : DELTA-T LONG SPACING
DTCO.US/F  : COMPRESSIONAL-WAVE INTERVAL TRANSIT TIME ACAUSTIC SLOWNESS
DTSM.US/F  : SHEAR-WAVE INTERVAL TRANSIT TIME DELTA-T
~Params ----------------------------------------------------
~Other -----------------------------------------------------
~ASCII -----------------------------------------------------
# ...
 4496.50000 19274.77730 7719.60350 1073.09610   30.05870    7.86730    3.42910   -0.06340    0.01340    0.00810    2.79970   46.87830   46.16140   47.41630   84.55420
 4497.00000 16820.92190 8659.00000  495.62180   30.05870    7.86780    3.37070   -0.07140    0.01400    0.00390    2.80350   46.17260   46.15980   48.15320   84.55720
 4497.50000 12847.07910 8276.61230   14.54060   30.08290    7.88100    3.40030   -0.07780    0.02100    0.00290    2.81170   45.90750   46.15810   49.53180   84.56010
 4498.00000 10496.42870 7113.10690   45.05520   29.97050    7.91320    3.40060   -0.08370    0.03450    0.01200    2.81920   45.81850   46.24550   52.19330   83.97710
 4498.50000 9424.85060 6029.33010  226.19790   28.33920    7.92820    3.40090   -0.08480    0.04330    0.01900    2.83200   45.92040   46.51420   53.68800   83.39300
 4499.00000 8812.04690 5253.79050  730.49160   25.57680    7.92870    3.43640   -0.08360    0.04330    0.02440    2.83800   46.09580   46.59220   53.74930   82.80940
 4499.50000 8805.60450 4578.00680  911.10440   26.06910    7.92930    3.53440   -0.08010    0.03510    0.02940    2.84310   46.16840   46.59030   52.99170   82.81250
 4500.00000 8935.17770 4522.56010   32.40490   27.85920    7.92410    3.60700   -0.07520    0.01860    0.03040    2.84480   46.30200   46.67670   52.02640   84.57480
 4500.50000 8920.64840 4523.81100   33.26170   26.75950    7.91040    3.69550   -0.07060    0.01630    0.03380    2.84200   46.59320   46.58680   49.32330   84.41410
 4501.00000 7515.07280 4525.06250  107.65510   27.12610    7.89670    3.81320   -0.07310    0.02040    0.04410    2.83220   46.86800   46.75470   48.10090   84.25350
 4501.50000 4287.42770 4316.59230   60.09700   27.20310    7.88290    3.84300   -0.08540    0.02750    0.04420    2.83580   46.88110   46.84690   47.21780   84.09280
 4502.00000 2194.56590 2709.10300   37.76480   27.96160    7.90360    3.84100   -0.08830    0.03200    0.03530    2.84130   46.95180   46.93290   46.68700   83.97650
 4502.50000 1929.02170 2134.65500   62.92200   28.84860    7.90430    3.77730   -0.08610    0.03470    0.02920    2.84600   46.94930   46.84310   46.68490   83.97310
 4503.00000 1767.68710 1897.30030   25.52980   30.36670    7.90500    3.69110   -0.07700    0.03650    0.02270    2.84670   46.94710   46.57780   46.68270   83.97020
 4503.50000 1729.12960 1681.00280   55.61570   32.06260    7.90570    3.65940   -0.06620    0.03390    0.01920    2.84100   46.74910   46.48830   46.67990   84.55390
 4504.00000 7261.37450 1698.00460   41.64790   34.13460    7.87710    3.63980   -0.05200    0.03040    0.02470    2.82940   46.29070   46.22300   46.59030   83.96460
 4504.50000 16077.04100 1871.09720    5.42460   35.92380    7.87790    3.75800   -0.04560    0.02680    0.03170    2.81690   46.05500   46.04560   46.47290   83.37520
 4505.00000 25828.02150 6680.62350    4.71820   35.92380    7.86890    3.84610   -0.04790    0.02210    0.03930    2.80710   45.74150   45.69250   46.19390   82.78590
 4505.50000 27316.58790 8293.54790   20.38910   35.55720    7.82090    3.81720   -0.05670    0.01860    0.05020    2.79810   45.08550   45.24570   45.94070   82.77590
 4506.00000 22200.43550 9981.33300   22.11660   34.09090    7.82160    3.58300   -0.06660    0.01630    0.04280    2.79360   44.90720   45.07420   45.72330   82.19350
 4506.50000 14005.49220 9446.69530   49.09790   31.89150    7.79330    3.46620   -0.07360    0.01650    0.03250    2.80150   44.90500   45.17770   45.27800   81.60410
 4507.00000 8392.51560 7573.54390   88.42890   30.05870    7.79400    3.49590   -0.07950    0.01780    0.02080    2.81630   45.16720   45.51000   44.63630   81.01470
 4507.50000 5379.82670 5214.97750   47.55240   28.20730    7.82390    3.55500   -0.08610    0.01860    0.01350    2.82710   45.42940   45.59620   44.54800   81.01170
 4508.00000 3689.15620 3901.59110  299.98660   27.85920    7.82460    3.55070   -0.08880    0.01980    0.00750    2.83760   45.42720   45.59410   44.89830   80.42230
 4508.50000 3544.04150 3197.22050  224.64510   28.29560    7.82530    3.43850   -0.08530    0.01980    0.00320    2.84620   45.68940   45.72130   45.16050   80.41940
 4509.00000 3497.70040 2581.08910 1276.82600   29.42100    7.85530    3.38030   -0.07780    0.01980    0.00690    2.85260   45.77540   45.85420   45.33460   81.26310
 4509.50000 3802.95870 2308.65840 1527.60820   30.66810    7.88520    3.39370   -0.06380    0.02330    0.00910    2.85610   46.04690   46.20350   45.42070   82.46920
 4510.00000 4082.12520 2732.14820 1209.11380   32.33140    7.88600    3.47120   -0.06400    0.02330    0.00910    2.84730   46.22610   46.46530   45.41840   83.08890
 4510.50000 4286.02690 3307.34130 1370.06190   34.06940    7.91590    3.55770   -0.06780    0.02330    0.00840    2.83310   46.40530   46.90280   45.41630   84.51320
 4511.00000 3257.32230 3364.63550 2000.00000   36.15160    7.94590    3.58740   -0.07190    0.02330    0.00620    2.82380   46.72240   47.25250   45.30920   85.09680
 4511.50000 2130.10690 3040.98340 1805.30650   38.85630    7.94680    3.61720   -0.07310    0.02450    0.00470    2.82400   47.08630   47.51440   45.13280   85.09350
 4512.00000 1978.41160 2618.47560 1865.09130   41.05570    7.91820    3.64690   -0.06370    0.02720    0.00480    2.82880   46.27300   47.95190   44.96940   85.67740
 4512.50000 1847.70510 2312.64990  767.59360   41.42230    7.86040    3.55940   -0.04900    0.02800    0.00330    2.82400   46.28110   48.21380   45.52310   85.67430
 4513.00000 1797.37610 1794.58140   84.02740   40.32260    7.80270    3.50120   -0.04670    0.02540    0.00330    2.80700   46.46260   48.03050   45.91360   85.67150
 4513.50000 1912.41430 1732.65730  105.78250   37.02350    7.77410    3.42660   -0.04950    0.02410    0.00480    2.79580   46.73780   47.65980   46.36480   85.66860
 4514.00000 3068.96360 1855.15100  180.85950   30.79180    7.77490    3.35540   -0.05690    0.02390    0.00190    2.80160   46.81060   47.22460   46.49950   85.07920
 4514.50000 3011.62040 2371.71360    5.15910   28.95890    7.77560    3.40710   -0.06800    0.02500    0.00040    2.81500   46.80800   47.04130   45.57450   85.07620
 4515.00000 2763.07670 2413.85820    4.25490   29.47100    7.77630    3.45800   -0.07040    0.02680    0.00040    2.82170   46.80590   46.97540   45.13180   84.48680
 4515.50000 2430.00560 2363.94650   20.99970   33.24670    7.77700    3.50340   -0.06750    0.03030    0.00050    2.82560   47.06810   47.43020   45.48210   84.62780
 4516.00000 2142.48850 2253.94970   17.13820   40.76320    7.77780    3.50390   -0.05660    0.03620    0.00120    2.82210   47.24210   47.97890   45.83240   85.42690
 4516.50000 2006.53540 2103.92160   71.60950   42.88860    7.77860    3.50430   -0.05190    0.04400    0.00340    2.81220   48.12110   48.77920   46.18270   87.04040
 4517.00000 1840.87680 1990.97390   98.79400   43.25510    7.77930    3.44600   -0.05140    0.07010    0.00640    2.79500   48.91190   49.42750   47.59030   89.08470
 4517.50000 1262.36070 1841.32700   18.17440   43.95120    7.78000    3.41720   -0.04670    0.07960    0.00600    2.77550   49.27330   49.68960   48.66140   90.91310
 4518.00000 1004.06980 1627.81210   18.83990   46.40610    7.78070    3.32960   -0.03130    0.07370    0.00640    2.76160   49.63890   49.68760   49.50350   92.09380
 4518.50000  901.68130 1267.06530    9.14540   50.95310    7.81070    3.29720   -0.02620    0.06800    0.00940    2.75100   49.87460   49.77380   50.40330   92.09040
 4519.00000  970.16530  919.16890    7.83220   48.75370    7.81140    3.26560   -0.02790    0.06310    0.00940    2.75320   49.51980   49.59640   50.48930   92.08750
 4519.50000 1281.81030  857.71350   67.27540   41.42230    7.81210    3.24290   -0.03510    0.04440    0.00780    2.76400   49.20500   49.15540   49.96240   92.08470
 4520.00000 1696.64030 1131.37240  721.00810   35.92380    7.84210    3.24340   -0.04470    0.03090    0.00350    2.77740   48.57560   48.18740   48.82800   92.08180
 4520.50000 4831.74020 1492.24850  886.96040   27.85920    7.83020    3.24380   -0.05600    0.02560    0.00350    2.78920   46.92740   47.28370   48.76190   87.38690
