~Version ---------------------------------------------------
VERS.   2.0 : CWLS log ASCII Standard -VERSION 2.0
WRAP.    NO : One line per depth step
DLM . SPACE : Column Data Section Delimiter
~Well ------------------------------------------------------
STRT .F                   87.0 : START DEPTH
STOP .F                 4862.0 : STOP DEPTH
STEP .F                    0.5 : STEP
NULL .                -9999.25 : NULL VALUE
COMP .                         : COMPANY
WELL .                         : WELL
FLD  .                         : FIELD
LOC  .                         : LOCATION
PROV .                         : PROVINCE
CNTY .                         : COUNTY
STAT .                         : STATE
CTRY .                         : COUNTRY
SRVC .                         : SERVICE COMPANY
DATE .                         : DATE
UWI  .                         : UNIQUE WELL ID
API  .                         : API NUMBER
SLAT .WGS84 1.7507506966308917 : SURFACE LATITUDE
SLON .WGS84  7.222160552553007 : SURFACE LONGITUDE
DATUM.F                2663.53 : DEPTH DATUM ELEV
~Curve Information -----------------------------------------
DEPT.F     : 
LLD .OHMM  : LATEROLOG LOG DEEP
LLS .OHMM  : LATEROLOG LOG SHALLOW
MSFL.OHMM  : MICRO SPHERICALLY FOCUSED
GRD .GAPI  : GAMMA RAY FROM DENSITY LOG
CALD.IN    : CALIPER FROM DENSITY LOG
PEF .B/E   : PHOTOELECTRIC FACTOR
DPHI.DEC   : DENSITY POROSITY LIMESTONE
NPHI.DEC   : NEUTRON POROSITY LIMESTONE
DRHO.G/C3  : DENSITY CORRECTION
RHOB.G/C3  : BULK DENSITY
DT  .US/F  : INTERVAL TRANSIT TIME
DTL .US/F  : DELTA-T LONG SPACING
DTCO.US/F  : COMPRESSIONAL-WAVE INTERVAL TRANSIT TIME ACAUSTIC SLOWNESS
DTSM.US/F  : SHEAR-WAVE INTERVAL TRANSIT TIME DELTA-T
~Params ----------------------------------------------------
~Other -----------------------------------------------------
~ASCII -----------------------------------------------------
# ...
 2537.00000  430.88690  626.24850 1835.20940   26.15620    8.62510    3.82750   -0.09910    0.01250    0.00440    2.87220   49.55070   47.38180   49.55950   88.02940
 2537.50000  316.12610  319.50330  536.26710   34.99340    8.62420    3.91490   -0.10320    0.01290    0.00440    2.87350   49.80190   47.36080   50.34140   88.65580
 2538.00000  299.40410  299.45440  134.25770   44.40910    8.65260    4.00230   -0.10620    0.01380    0.00590    2.87570   50.26620   48.11160   51.81870   89.37270
 2538.50000  283.84210  399.53770  232.50380   49.47050    8.71190    4.14870   -0.10680    0.01260    0.00610    2.87900   50.90660   49.63290   52.17240   91.93780
 2539.00000  372.49190  526.88190  478.93890   46.05440    8.73870    4.33470   -0.10790    0.00900    0.00740    2.88330   51.11650   51.19100   51.46890   94.04300
 2539.50000  588.52340  609.12130  231.24890   35.31530    8.78110    4.57890   -0.11710    0.00610    0.00880    2.88890   50.67730   51.10360   48.29830   95.25220
 2540.00000 1300.17350  913.58190  324.63370   19.28120    8.86350    4.77810   -0.13510    0.00080    0.01030    2.89980   50.32610   50.57690   45.12780   94.46740
 2540.50000 3945.95360 4249.63090  900.45710   10.84830    8.92380    4.87930   -0.14430   -0.00220    0.01030    2.94970   50.41550   49.78670   44.77660   88.66850
 2541.00000 9929.70700 5006.57370  655.41030    7.18090    8.96900    4.90790   -0.14910   -0.00270    0.00800    2.95410   50.76920   49.17220   45.54340   84.43830
 2541.50000 4004.75680 3590.54880  212.45630    7.12810    8.96800    4.95210   -0.15250   -0.00140    0.00590    2.95640   51.03480   49.08480   50.99470   84.42980
 2542.00000 1753.14290 2065.25170  303.12290   12.30930    8.87940    4.99470   -0.14520    0.00120    0.00440    2.95580   51.01140   49.34880   56.67490   92.63250
 2542.50000  730.47160  965.97250   13.07050   17.16170    8.82010    4.87670   -0.12820    0.00910    0.00440    2.95120   50.77300   49.33310   58.08590   98.48910
 2543.00000  645.68910  773.55190   12.83910   22.66640    8.73150    4.31900   -0.09900    0.02100    0.00440    2.94050   50.65900   49.15100   58.26340   99.06710
 2543.50000  688.32430  816.15880 1844.48770   26.60000    8.67220    3.93720   -0.08540    0.02220    0.00440    2.91740   50.59930   49.08650   58.08520   98.47040
 2544.00000  839.87040  965.15700 1122.66150   31.36360    8.61090    3.58470   -0.07990    0.02100    0.00440    2.88810   50.73120   49.67130   56.67360   95.88230
 2544.50000  917.35260  986.90010  875.80290   35.18200    8.54890    3.37610   -0.07490    0.02160    0.00590    2.86430   50.82820   50.70990   53.33710   91.23220
 2545.00000  753.67020  658.66020  530.46560   41.91730    8.51610    3.25710   -0.05530    0.02690    0.00590    2.84420   51.74910   51.13190   51.64750   89.51130
 2545.50000  500.78150  428.00350  166.51890   45.97720    8.49330    3.23110   -0.04590    0.03640    0.00740    2.82550   52.63140   52.16300   51.48590   89.05280
 2546.00000  464.78830  314.66610  225.52730   47.85220    8.52160    3.25990   -0.04710    0.04470    0.00880    2.81140   53.60190   52.95410   51.48720   89.85710
 2546.50000  418.10130  233.99350  999.91300   45.29600    8.56540    3.32940   -0.06120    0.04530    0.01030    2.78690   53.33880   53.65730   51.48880   91.38120
 2547.00000  254.79440  199.65620 1398.64980   41.64570    8.60740    3.43340   -0.06940    0.03330    0.01180    2.78150   53.25200   53.48200   51.22570   91.95890
 2547.50000  197.32500  204.63010   72.12710   38.21790    8.60660    3.60120   -0.08640    0.02210    0.01320    2.78950   53.25330   53.04320   50.43410   91.36200
 2548.00000  202.71130  241.41990   71.80480   33.91460    8.69350    3.84390   -0.10080    0.01240    0.01180    2.81070   53.37090   52.51190   50.43530   90.76700
 2548.50000  254.85500  293.52560  143.06410   30.98030    8.72190    4.13660   -0.10310    0.00810    0.01030    2.83770   53.67320   52.16560   51.05330   90.75860
 2549.00000  295.54300  327.25270  292.24220   28.41260    8.72100    4.42930   -0.09990    0.01080    0.00740    2.86100   54.43030   53.56150   52.11190   92.50960
 2549.50000  279.72080  269.39140  116.82760   26.94460    8.75160    4.37010   -0.07110    0.01890    0.00430    2.87330   56.39790   57.26630   51.91370   96.02020
 2550.00000  139.03660  144.62910   51.78380   26.57620    8.77780    4.19350   -0.04760    0.03180    0.00120    2.86900   57.53300   57.87700   50.73400   98.94430
 2550.50000  117.44080  115.81920   51.77690   35.59420    8.77690    4.07050   -0.04050    0.04180   -0.00150    2.84920   57.49060   57.62970   50.35360  100.74020
 2551.00000  112.09030  114.00450   81.59860   38.30290    8.73650    3.91830   -0.04050    0.04830   -0.00290    2.81060   56.69890   57.00420   50.38360  102.44640
 2551.50000  116.91860  147.98370  104.57050   35.14590    8.69080    3.78010   -0.05300    0.05070   -0.00290    2.77360   54.49750   56.07720   51.02730  102.43700
 2552.00000  182.09700  317.01670  191.78920   27.14590    8.61250    3.61370   -0.07840    0.05190   -0.00150    2.77510   52.64860   52.95940   51.76740  101.30270
 2552.50000  361.13580  552.65000 1765.37880   22.99930    8.56860    3.49070   -0.08610    0.04690    0.00150    2.79700   50.71150   50.85150   51.03080   95.20520
 2553.00000  523.21040  782.65900 1592.48550   20.31900    8.48000    3.36770   -0.09090    0.04030    0.00440    2.82480   49.65280   48.39210   49.92010   89.60120
 2553.50000  680.39230  790.86460  548.39130   19.45440    8.47920    3.22160   -0.09230    0.03700    0.00590    2.84010   49.28770   47.33840   49.65700   85.93660
 2554.00000  758.12970  757.65440  254.85000   21.42930    8.44910    3.22100   -0.09190    0.03580    0.01030    2.84620   49.02550   47.33880   49.39400   84.79600
 2554.50000  812.29230  887.04110  289.55520   21.79440    8.41900    3.30840   -0.09050    0.03430    0.01320    2.85040   48.86630   47.33720   48.86660   85.37410
 2555.00000 1074.85080 1158.46410 1248.06750   21.42580    8.38890    3.42520   -0.08870    0.03130    0.01470    2.85270   48.95590   47.05870   47.28200   84.77910
 2555.50000 1291.61320 1456.85630 1831.65540   20.69090    8.38800    3.45390   -0.08510    0.02760    0.01450    2.85270   49.08370   46.70970   46.66650   81.83800
 2556.00000 1237.60470 1549.89100 1578.84060   20.68910    8.39500    3.33260   -0.07810    0.02240    0.01140    2.85160   49.54020   46.63770   47.55470   81.82960
 2556.50000  836.58310 1136.17130  937.48400   21.10020    8.42600    3.18140   -0.06800    0.02230    0.00980    2.84880   50.89850   47.74830   49.38030   84.75370
 2557.00000  428.82560  323.49440  456.59380   22.38690    8.47310    3.10030   -0.05670    0.02480    0.00680    2.84280   52.92620   51.13270   52.92110   87.76310
 2557.50000  164.08950  196.62130  160.07090   25.37510    8.47220    3.09970   -0.04190    0.03130    0.00520    2.82800   60.32830   57.89870   55.40360   92.39040
 2558.00000   68.71560   90.70570   31.02270   33.21170    8.47120    3.05850   -0.00220    0.04380    0.00440    2.79400   60.77010   60.69520   56.65210   98.74940
 2558.50000   56.40560   59.88620   24.87790   45.87620    8.47040    2.91170    0.01760    0.07180    0.00440    2.72070   60.33090   60.43210   56.93890  103.07810
 2559.00000   57.94530   62.34720   30.17080   50.82420    8.46950    2.72960    0.02720    0.09110    0.00440    2.68050   59.56280   59.72980   56.28960  103.47960
 2559.50000  100.64320  122.30770   69.95180   50.36810    8.46870    2.74540    0.02240    0.09340    0.00440    2.66010   54.44130   57.44620   53.63770  102.61500
 2560.00000  408.29260  312.81520  456.15440   41.20210    8.46780    2.89140   -0.00990    0.07080    0.00440    2.69300   49.40930   53.66910   50.81960   98.96340
 2560.50000 1207.31350 2174.81400 1835.87990   23.60500    8.46700    3.12550   -0.07440    0.03990    0.00440    2.76300   48.19050   49.36500   48.35390   90.54670
 2561.00000 3324.54810 2940.97780 1800.58500   18.47130    8.46610    3.33020   -0.07870    0.02550    0.00440    2.80550   47.70580   46.63200   47.73840   88.19220
