~Version ---------------------------------------------------
VERS.   2.0 : CWLS log ASCII Standard -VERSION 2.0
WRAP.    NO : One line per depth step
DLM . SPACE : Column Data Section Delimiter
~Well ------------------------------------------------------
STRT .F                   87.0 : START DEPTH
STOP .F                 4862.0 : STOP DEPTH
STEP .F                    0.5 : STEP
NULL .                -9999.25 : NULL VALUE
COMP .                         : COMPANY
WELL .                         : WELL
FLD  .                         : FIELD
LOC  .                         : LOCATION
PROV .                         : PROVINCE
CNTY .                         : COUNTY
STAT .                         : STATE
CTRY .                         : COUNTRY
SRVC .                         : SERVICE COMPANY
DATE .                         : DATE
UWI  .                         : UNIQUE WELL ID
API  .                         : API NUMBER
SLAT .WGS84 1.7507506966308917 : SURFACE LATITUDE
SLON .WGS84  7.222160552553007 : SURFACE LONGITUDE
DATUM.F                2663.53 : DEPTH DATUM ELEV
~Curve Information -----------------------------------------
DEPT.F     : 
LLD .OHMM  : LATEROLOG LOG DEEP
LLS .OHMM  : LATEROLOG LOG SHALLOW
MSFL.OHMM  : MICRO SPHERICALLY FOCUSED
GRD .GAPI  : GAMMA RAY FROM DENSITY LOG
CALD.IN    : CALIPER FROM DENSITY LOG
PEF .B/E   : PHOTOELECTRIC FACTOR
DPHI.DEC   : DENSITY POROSITY LIMESTONE
NPHI.DEC   : NEUTRON POROSITY LIMESTONE
DRHO.G/C3  : DENSITY CORRECTION
RHOB.G/C3  : BULK DENSITY
DT  .US/F  : INTERVAL TRANSIT TIME
DTL .US/F  : DELTA-T LONG SPACING
DTCO.US/F  : COMPRESSIONAL-WAVE INTERVAL TRANSIT TIME ACAUSTIC SLOWNESS
DTSM.US/F  : SHEAR-WAVE INTERVAL TRANSIT TIME DELTA-T
~Params ----------------------------------------------------
~Other -----------------------------------------------------
~ASCII -----------------------------------------------------
# ...
 3517.00000   55.33360   39.26540   61.67670   23.95170    8.41700    3.15220    0.02320    0.13550    0.00610    2.67990   54.75700   54.49490   54.56540   97.27860
 3517.50000   51.62340   37.07670   31.31880   24.68840    8.41670    3.18110    0.02110    0.13960    0.00610    2.67630   54.75550   54.58930   54.56380   97.85920
 3518.00000   48.16190   37.74480   22.24730   26.62260    8.41640    3.17690    0.01460    0.13780    0.00760    2.68040   54.75420   55.06240   54.56210   97.26580
 3518.50000   45.49830   41.13770   30.12020   31.31800    8.41610    3.11580    0.01340    0.12510    0.00910    2.68500   54.80270   55.71820   54.65220   96.67360
 3519.00000   43.47570   43.76200   83.68570   38.11580    8.41580    3.06250    0.02110    0.11880    0.01060    2.68860   55.45620   56.30640   54.92930   97.84100
 3519.50000   42.48200   40.68050   30.24820   41.76060    8.44470    3.07180    0.02940    0.11840    0.00910    2.67830   56.07160   56.72510   55.27800   98.42190
 3520.00000   58.30790   37.36900   35.30410   42.30150    8.44440    3.18480    0.03350    0.12510    0.00750    2.67050   56.59900   56.95460   55.75880   99.58920
 3520.50000   55.39770   38.05880   53.28770   37.17260    8.44410    3.40940    0.03060    0.13450    0.00450    2.66950   56.77390   56.81890   56.66810  100.17010
 3521.00000   55.12790   41.44830   23.85670   32.68200    8.44380    3.54570    0.01140    0.14110    0.00300    2.68000   56.77270   56.42750   56.66610  100.10760
 3521.50000   56.62120   44.33890   18.61220   28.31010    8.44350    3.50010   -0.00700    0.13170    0.00140    2.69970   56.14520   56.07610   56.48600   98.77550
 3522.00000   58.64400   47.50700   25.20610   23.62240    8.41400    3.38230   -0.01010    0.12040   -0.00070    2.72080   55.54460   55.63690   56.04550   97.35000
 3522.50000   68.62340   54.54560   66.16650   20.69340    8.41370    3.26460   -0.00650    0.11190   -0.00320    2.71600   54.30910   54.49490   54.98650   94.85370
 3523.00000   87.91320   79.22530  101.44670   20.32990    8.41340    3.14690   -0.00060    0.10250   -0.00410    2.71770   52.85990   52.47440   53.13460   92.85430
 3523.50000  112.62550  141.59840  149.23600   20.26030    8.41320    3.05850   -0.00180    0.09240   -0.00330    2.72060   51.79750   51.41620   52.07560   92.51030
 3524.00000  124.49280  164.84140   95.43580   22.17030    8.41290    2.97010   -0.00940    0.09300   -0.00260    2.72220   51.10140   51.06060   51.10480   92.50320
 3524.50000  106.48300  152.87950   62.67570   24.73990    8.41260    3.05940   -0.01000    0.09660   -0.00110    2.72160   50.94850   50.98100   50.92690   92.49760
 3525.00000   97.98280  130.61620   53.42300   27.30940    8.41230    3.30160   -0.01000    0.10010    0.00040    2.71770   50.99850   51.37640   50.93980   92.49200
 3525.50000   91.23000  115.45660   69.61870   28.04610    8.41200    3.53040   -0.00940    0.10550    0.00180    2.71540   51.56230   51.85800   51.30480   93.07280
 3526.00000   86.29090  106.83800   61.88880   27.63450    8.41170    3.55490   -0.00760    0.11030    0.00190    2.71210   52.26590   52.52940   51.77950   94.82670
 3526.50000   91.41930  100.96800   48.32670   26.88060    8.41140    3.44950   -0.00570    0.11460    0.00040    2.70780   52.61710   53.12940   52.24020   95.40760
 3527.00000  116.09310   96.74830  344.47570   26.59040    8.41110    3.35710   -0.00050    0.12010   -0.00110    2.70210   52.96820   53.72650   52.75250   95.40180
 3527.50000  137.01090  101.81070  226.87130   26.22740    8.41080    3.25220    0.00690    0.12690   -0.00110    2.69350   53.40750   53.96780   53.24900   94.62340
 3528.00000  121.81720  116.52650   19.11540   25.57210    8.41050    3.15740    0.01830    0.13780   -0.00110    2.67510   53.67050   53.87990   53.15480   93.63050
 3528.50000  116.10770  126.59100  116.35510   23.69380    8.41020    3.06700    0.01950    0.15760   -0.00110    2.68180   53.65760   53.79210   53.02700   94.58820
 3529.00000  126.82470  135.63600  408.00620   21.61970    8.43920    3.08290    0.01530    0.16010   -0.00100    2.68740   53.38500   53.61640   52.93720   96.43810
 3529.50000  135.81310  133.75530  155.40900   20.37760    8.43890    3.17050    0.01190    0.15190   -0.00100    2.68730   53.31410   53.52850   52.84740   97.41630
 3530.00000  104.46410  100.02930   65.19310   20.38180    8.43860    3.17000    0.01510    0.14750    0.00040    2.68200   53.55350   53.90350   53.11000   98.04520
 3530.50000   71.95950   61.56640   33.63160   22.58480    8.43720    3.16960    0.02130    0.15520    0.00190    2.67580   53.91850   55.16870   53.72510   98.87880
 3531.00000   50.25710   48.22680   14.47690   28.08690    8.40880    3.08120    0.02540    0.16760    0.00340    2.66770   56.14100   56.75330   55.53540  100.04620
 3531.50000   46.24530   33.81490    9.85720   39.82060    8.41380    3.05150    0.02780    0.17830    0.00490    2.67200   58.33060   58.19080   57.50190  102.38660
 3532.00000   44.95000   28.70230   38.63290   53.38720    8.43750    3.05220    0.02550    0.17710    0.00640    2.67770   58.50550   58.44800   59.39850  102.96740
 3532.50000   44.33010   29.58300   41.92180   63.28810    8.43710    3.11560    0.01430    0.16650    0.00780    2.68320   57.44700   57.94720   59.44520  102.96180
 3533.00000   47.93580   35.14190   21.03830   59.72410    8.43680    3.20710    0.00960    0.16290    0.00780    2.68770   56.56470   56.90940   58.85010  102.95600
 3533.50000   52.98640   41.46560   25.51610   52.58920    8.43660    3.29150    0.01020    0.16110    0.00780    2.69130   54.97750   54.81920   56.48590  102.36360
 3534.00000   59.65150   47.78150   30.20580   46.29080    8.43630    3.34260    0.00940    0.15840    0.00640    2.69400   54.00700   52.21080   54.38000   99.75330
 3534.50000   67.84800   48.67160   88.79270   41.16200    8.46520    3.33090    0.00510    0.13860    0.00340    2.69710   53.54640   51.77160   53.35830   97.65980
 3535.00000   77.71640   37.94020  344.69650   33.24630    8.46490    3.29910   -0.00010    0.12070   -0.00110    2.70160   53.29960   51.75550   53.09230   97.42900
 3535.50000   68.05850   32.58180  137.15840   26.65400    8.46460    3.25220   -0.00220    0.11360   -0.00270    2.70320   53.37870   52.47440   53.26680   97.06160
 3536.00000   48.65180   34.43040   14.49260   23.94370    8.46430    3.16470    0.00440    0.12190   -0.00390    2.69660   53.96760   53.52850   53.79370   97.05570
 3536.50000   46.46160   38.45310   12.45230   23.55690    8.43480    3.10560    0.01810    0.14480   -0.00390    2.67770   54.48870   54.98410   54.49690   97.63530
 3537.00000   49.28130   41.20880   45.50860   29.23090    8.43450    3.04660    0.02670    0.16610   -0.00240    2.67340   55.56570   56.78230   55.93180   97.62970
 3537.50000   50.06000   43.53820  173.34170   39.86500    8.43420    3.10480    0.02420    0.16930    0.00120    2.67140   57.92520   58.29770   57.09250   99.38360
 3538.00000   37.36950   30.77480   61.62720   54.16470    8.46320    3.13780    0.02500    0.14290    0.00430    2.66820   64.56890   67.79970   60.46030  106.41610
 3538.50000   32.54130   24.75310   13.21140   72.13010    8.46290    3.07460    0.03790    0.12990    0.00350    2.66250   68.35620   69.28540   65.76760  116.96670
 3539.00000   29.92130   21.11070    9.81320   94.86090    8.46260    3.04490    0.05210    0.14000   -0.00090    2.65220   69.50040   68.84430   65.76560  121.06660
 3539.50000   29.06440   22.73570    9.55280  102.56240    8.46230    3.07560    0.06150    0.16600   -0.00530    2.63510   68.52990   67.01880   65.59610  121.64810
 3540.00000   34.24140   39.65210   32.35830   94.13490    8.46200    3.13590    0.06350    0.18140   -0.00820    2.61560   64.13940   58.09660   65.03360  115.77680
 3540.50000   57.46070   71.50600  521.61680   63.81110    8.46170    3.16090    0.03440    0.17370   -0.01120    2.60780   56.72080   49.48760   63.11690  109.90600
 3541.00000   98.57220  109.85980  960.78010   40.47740    8.46140    3.19760    0.00150    0.13350   -0.00820    2.64400   51.63610   48.60910   56.24290  101.56800
