~Version ---------------------------------------------------
VERS.   2.0 : CWLS log ASCII Standard -VERSION 2.0
WRAP.    NO : One line per depth step
DLM . SPACE : Column Data Section Delimiter
~Well ------------------------------------------------------
STRT .F                   87.0 : START DEPTH
STOP .F                 4862.0 : STOP DEPTH
STEP .F                    0.5 : STEP
NULL .                -9999.25 : NULL VALUE
COMP .                         : COMPANY
WELL .                         : WELL
FLD  .                         : FIELD
LOC  .                         : LOCATION
PROV .                         : PROVINCE
CNTY .                         : COUNTY
STAT .                         : STATE
CTRY .                         : COUNTRY
SRVC .                         : SERVICE COMPANY
DATE .                         : DATE
UWI  .                         : UNIQUE WELL ID
API  .                         : API NUMBER
SLAT .WGS84 1.7507506966308917 : SURFACE LATITUDE
SLON .WGS84  7.222160552553007 : SURFACE LONGITUDE
DATUM.F                2663.53 : DEPTH DATUM ELEV
~Curve Information -----------------------------------------
DEPT.F     : 
LLD .OHMM  : LATEROLOG LOG DEEP
LLS .OHMM  : LATEROLOG LOG SHALLOW
MSFL.OHMM  : MICRO SPHERICALLY FOCUSED
GRD .GAPI  : GAMMA RAY FROM DENSITY LOG
CALD.IN    : CALIPER FROM DENSITY LOG
PEF .B/E   : PHOTOELECTRIC FACTOR
DPHI.DEC   : DENSITY POROSITY LIMESTONE
NPHI.DEC   : NEUTRON POROSITY LIMESTONE
DRHO.G/C3  : DENSITY CORRECTION
RHOB.G/C3  : BULK DENSITY
DT  .US/F  : INTERVAL TRANSIT TIME
DTL .US/F  : DELTA-T LONG SPACING
DTCO.US/F  : COMPRESSIONAL-WAVE INTERVAL TRANSIT TIME ACAUSTIC SLOWNESS
DTSM.US/F  : SHEAR-WAVE INTERVAL TRANSIT TIME DELTA-T
~Params ----------------------------------------------------
~Other -----------------------------------------------------
~ASCII -----------------------------------------------------
# ...
 4814.00000  604.55130  448.50540   21.75980   -9999.25    7.72510    3.38460   -0.05870    0.06620    0.04560    2.80890   46.83170   -9999.25   48.80670   88.09380
 4814.50000  682.39370  557.15160   65.99190   -9999.25    7.72510    3.35360   -0.05550    0.05950    0.03820    2.81700   47.24530   -9999.25   50.35390   88.09380
 4815.00000  738.35780  550.83760    8.05640   -9999.25    7.73390    3.25240   -0.06530    0.04830    0.02610    2.82240   47.51140   -9999.25   49.86780   87.50730
 4815.50000  760.63520  437.71910   79.92330   -9999.25    7.75440    3.25320   -0.07110    0.04590    0.01450    2.82560   47.59690   -9999.25   48.71510   85.74780
 4816.00000  669.86020  350.23290  175.53050   -9999.25    7.75440    3.19540   -0.06880    0.05050    0.01930    2.81680   47.73210   -9999.25   46.29640   84.57480
 4816.50000  338.77610  278.05760   83.12930   -9999.25    7.75440    3.19620   -0.06240    0.06040    0.03270    2.80820   47.94450   -9999.25   45.50200   83.98830
 4817.00000  226.08600  199.62760   33.94390   -9999.25    7.75440    3.19710   -0.05480    0.06390    0.04290    2.79940   48.29490   -9999.25   46.11730   86.52980
 4817.50000  208.54070  162.31570   28.00010   -9999.25    7.81290    3.31630   -0.04540    0.06270    0.04840    2.79220   48.90950   -9999.25   47.52560   88.24050
 4818.00000  197.61550  147.41720   11.91600   -9999.25    7.81290    3.38180   -0.04550    0.06040    0.05750    2.78930   49.17170   -9999.25   48.58150   90.04890
 4818.50000  241.94970  194.49040    9.96590   -9999.25    7.81290    3.44640   -0.05510    0.05450    0.05290    2.79470   49.34580   -9999.25   49.02060   91.02640
 4819.00000  350.41900  243.08170   13.06740   -9999.25    7.81290    3.49380   -0.06770    0.05090    0.05440    2.81070   49.51990   -9999.25   48.65990   91.02640
 4819.50000  443.99790  230.32060   32.20740   -9999.25    7.81290    3.49470   -0.07950    0.04860    0.06030    2.82530   49.23220   -9999.25   48.26000   91.02640
 4820.00000  314.39310  202.23580   14.88870   -9999.25    7.75060    3.46820   -0.07700    0.05410    0.06620    2.83580   48.89870   -9999.25   47.56730   91.02640
 4820.50000  230.51110  179.25790   89.55370   -9999.25    7.66250    3.33040   -0.05700    0.06510    0.07650    2.84320   48.94590   -9999.25   47.34090   91.01540
 4821.00000  209.54340  173.27660   68.30690   -9999.25    7.63740    3.20410   -0.04220    0.08480    0.07790    2.84050   49.22190   -9999.25   48.11770   90.98480
 4821.50000  207.19700  179.79870   10.12640   -9999.25    7.63740    3.26380   -0.03710    0.09870    0.06870    2.82800   49.75200   -9999.25   48.57120   90.95430
 4822.00000  220.49750  189.93740    4.62280   -9999.25    7.64830    3.32320   -0.03740    0.07910    0.05480    2.80950   50.61980   -9999.25   48.47950   90.92370
 4822.50000  232.61310  195.36750   14.72750   -9999.25    7.70910    3.38270   -0.04440    0.05920    0.05000    2.78890   51.70660   -9999.25   48.25260   90.89320
 4823.00000  245.53680  200.95290   26.65890   -9999.25    7.81290    3.44220   -0.05320    0.03450    0.05490    2.77660   51.79260   -9999.25   48.21410   90.86260
 4823.50000  288.70290  218.45410    3.61350   -9999.25    7.78360    3.41160   -0.05900    0.02160    0.05800    2.79130   51.79050   -9999.25   48.21270   90.83210
 4824.00000  363.13500  240.78650   56.18940   -9999.25    7.72510    3.32660   -0.06370    0.02280    0.05960    2.80380   51.70030   -9999.25   48.21130   90.80160
 4824.50000  450.63900  299.86700   97.58980   -9999.25    7.69590    3.36410   -0.06670    0.02880    0.06180    2.81290   51.69820   -9999.25   48.03370   90.77100
 4825.00000  582.31620  411.87910   56.81310   -9999.25    7.69590    3.38710   -0.07020    0.03870    0.06620    2.82180   51.69600   -9999.25   47.59170   90.74050
 4825.50000  759.42870  612.77290   65.75400   -9999.25    7.72510    3.38800   -0.08110    0.03740    0.07210    2.83330   51.68430   -9999.25   47.23790   90.70990
 4826.00000  917.56620  787.30710   77.32070   -9999.25    7.75440    3.35950   -0.08830    0.03390    0.07940    2.84550   51.66370   -9999.25   47.61960   90.67940
 4826.50000 1090.36660  856.58640   41.25120   -9999.25    7.78360    3.36060   -0.08680    0.03240    0.08820    2.85100   -9999.25   -9999.25   -9999.25   -9999.25
 4827.00000 1163.99990  798.37230   15.94360   -9999.25    7.72110    3.39080   -0.08150    0.04060    0.09410    2.84660   -9999.25   -9999.25   -9999.25   -9999.25
 4827.50000 1174.84130  761.82430   19.51170   -9999.25    7.69590    3.45020   -0.07150    0.05680    0.09860    2.83800   -9999.25   -9999.25   -9999.25   -9999.25
 4828.00000 1092.10690  762.22780   14.41410   -9999.25    7.75440    3.48040   -0.06870    0.06040    0.10150    2.83860   -9999.25   -9999.25   -9999.25   -9999.25
 4828.50000 1017.76140  741.82710    1.63270   -9999.25    7.75440    3.51060   -0.07920    0.05920    0.08920    2.84770   -9999.25   -9999.25   -9999.25   -9999.25
 4829.00000  973.16190  683.11900    0.66670   -9999.25    7.76740    3.51220   -0.08810    0.05570    0.06800    2.85380   -9999.25   -9999.25   -9999.25   -9999.25
 4829.50000 1027.22940  646.69920    0.95460   -9999.25    7.76830    3.51230   -0.07500    0.04920    0.04600    2.85060   -9999.25   -9999.25   -9999.25   -9999.25
 4830.00000 1191.64110  781.40910    0.99640   -9999.25    7.75440    3.54240   -0.06680    0.03830    0.03820    2.83900   -9999.25   -9999.25   -9999.25   -9999.25
 4830.50000 1345.58280 1017.94530    1.53080   -9999.25    7.75440    3.43860   -0.07030    0.03180    0.03680    2.82840   -9999.25   -9999.25   -9999.25   -9999.25
 4831.00000 1478.98000 1917.50550    2.73650   -9999.25    7.75440    3.33880   -0.07970    0.02980    0.03380    2.81420   -9999.25   -9999.25   -9999.25   -9999.25
 4831.50000 1625.60210 2345.61740    2.92290   -9999.25    7.75440    3.49770   -0.06860    0.03410    0.03240    2.79910   -9999.25   -9999.25   -9999.25   -9999.25
 4832.00000 1393.95720 2130.32010    2.53390   -9999.25    7.75440    3.63950   -0.06020    0.04000    0.03240    2.78770   -9999.25   -9999.25   -9999.25   -9999.25
 4832.50000  719.99180 1277.76980    1.74550   -9999.25    7.75440    3.75240   -0.04520    0.04630    0.04120    2.78450   -9999.25   -9999.25   -9999.25   -9999.25
 4833.00000  331.90840  798.87410    1.26270   -9999.25    7.75440    3.81180   -0.04670    0.05100    0.04710    2.79330   -9999.25   -9999.25   -9999.25   -9999.25
 4833.50000  216.78330  285.18550    2.25450   -9999.25    7.75440    3.81270   -0.05240    0.05920    0.03810    2.79470   -9999.25   -9999.25   -9999.25   -9999.25
 4834.00000  183.70250  177.06740    2.45820   -9999.25    7.75440    3.78420   -0.05520    0.06450    0.02880    2.79360   -9999.25   -9999.25   -9999.25   -9999.25
 4834.50000  181.04510  170.01820    2.01630   -9999.25    7.75440    3.75570   -0.04450    0.06520    0.02300    2.78670   -9999.25   -9999.25   -9999.25   -9999.25
 4835.00000  253.06810  219.70460    2.28940   -9999.25    7.75440    3.69400   -0.03740    0.06390    0.01870    2.77790   -9999.25   -9999.25   -9999.25   -9999.25
 4835.50000  314.04940  294.50770    1.46780   -9999.25    7.75440    3.60630   -0.03710    0.06090    0.01760    2.77370   -9999.25   -9999.25   -9999.25   -9999.25
 4836.00000  379.35480  390.36910    1.76060   -9999.25    7.72510    3.50970   -0.04000    0.05900    0.01550    2.77810   -9999.25   -9999.25   -9999.25   -9999.25
 4836.50000  434.17720  418.63700    2.78010   -9999.25    7.69590    3.44680   -0.04530    0.05570    0.01470    2.78860   -9999.25   -9999.25   -9999.25   -9999.25
 4837.00000  331.58360  296.48320    2.45390   -9999.25    7.69590    3.38400   -0.05290    0.06250    0.01620    2.79450   -9999.25   -9999.25   -9999.25   -9999.25
 4837.50000  246.49380  241.06820    1.55330   -9999.25    7.69590    3.33570   -0.05830    0.07090    0.01760    2.79780   -9999.25   -9999.25   -9999.25   -9999.25
 4838.00000  212.08220  210.04370    1.43750   -9999.25    7.69590    3.29270   -0.05590    0.06150    0.01910    2.79340   -9999.25   -9999.25   -9999.25   -9999.25
