~Version ---------------------------------------------------
VERS.   2.0 : CWLS log ASCII Standard -VERSION 2.0
WRAP.    NO : One line per depth step
DLM . SPACE : Column Data Section Delimiter
~Well ------------------------------------------------------
STRT .F                   87.0 : START DEPTH
STOP .F                 4862.0 : STOP DEPTH
STEP .F                    0.5 : STEP
NULL .                -9999.25 : NULL VALUE
COMP .                         : COMPANY
WELL .                         : WELL
FLD  .                         : FIELD
LOC  .                         : LOCATION
PROV .                         : PROVINCE
CNTY .                         : COUNTY
STAT .                         : STATE
CTRY .                         : COUNTRY
SRVC .                         : SERVICE COMPANY
DATE .                         : DATE
UWI  .                         : UNIQUE WELL ID
API  .                         : API NUMBER
SLAT .WGS84 1.7507506966308917 : SURFACE LATITUDE
SLON .WGS84  7.222160552553007 : SURFACE LONGITUDE
DATUM.F                2663.53 : DEPTH DATUM ELEV
~Curve Information -----------------------------------------
DEPT.F     : 
LLD .OHMM  : LATEROLOG LOG DEEP
LLS .OHMM  : LATEROLOG LOG SHALLOW
MSFL.OHMM  : MICRO SPHERICALLY FOCUSED
GRD .GAPI  : GAMMA RAY FROM DENSITY LOG
CALD.IN    : CALIPER FROM DENSITY LOG
PEF .B/E   : PHOTOELECTRIC FACTOR
DPHI.DEC   : DENSITY POROSITY LIMESTONE
NPHI.DEC   : NEUTRON POROSITY LIMESTONE
DRHO.G/C3  : DENSITY CORRECTION
RHOB.G/C3  : BULK DENSITY
DT  .US/F  : INTERVAL TRANSIT TIME
DTL .US/F  : DELTA-T LONG SPACING
DTCO.US/F  : COMPRESSIONAL-WAVE INTERVAL TRANSIT TIME ACAUSTIC SLOWNESS
DTSM.US/F  : SHEAR-WAVE INTERVAL TRANSIT TIME DELTA-T
~Params ----------------------------------------------------
~Other -----------------------------------------------------
~ASCII -----------------------------------------------------
# ...
 2855.50000  238.47760   14.68550    4.83750   11.73020    8.89470    3.35860    0.05640    0.16980    0.00030    2.59380   57.50370   57.97110   58.01100  105.03810
 2856.00000  295.20570   18.87670    8.79760   11.61310    8.92400    3.29770    0.04290    0.17650   -0.00110    2.60750   58.03360   59.21080   57.84670  105.61950
 2856.50000  365.95530   23.97430    5.89360   12.09680    8.95320    3.19650    0.04190    0.19990   -0.00180    2.62030   59.18020   59.82700   58.76060  105.80620
 2857.00000  396.64490   26.51870    7.36440   12.82990    8.98250    3.16720    0.05460    0.21320   -0.00400    2.63180   60.07700   60.44320   59.63080  107.01860
 2857.50000  298.04580   25.11910    6.30840   12.44480    8.98250    3.19650    0.06790    0.22800   -0.00540    2.63170   61.04260   60.79580   60.11970  107.64420
 2858.00000  188.35050   19.96880    5.44640   11.68650    8.98250    3.22580    0.08090    0.24090   -0.00390    2.60630   61.12250   61.06060   60.44530  107.94140
 2858.50000  149.07350   15.03960    5.96140   10.63050    8.98250    3.22580    0.08730    0.24480   -0.00390    2.56740   61.12380   61.23760   60.49210  108.52200
 2859.00000  135.43000   12.89840    5.47070   10.63050    9.01170    3.16720    0.09090    0.24390   -0.00090    2.55870   61.03680   61.23890   60.31640  108.51530
 2859.50000  131.81120   12.40550    3.41730   11.60530    9.01170    3.16720    0.08560    0.23970    0.00060    2.56910   60.87120   61.04820   60.29190  107.33670
 2860.00000  131.88620   12.53410    3.23640   14.95640    9.01170    3.20430    0.06850    0.23500    0.00350    2.60730   60.50520   60.81980   60.40530  106.15800
 2860.50000  133.81320   13.77590    4.26730   18.94650    9.04090    3.35530    0.04240    0.22320    0.00650    2.65520   59.63150   60.30340   60.31760  105.56580
 2861.00000  144.37270   21.22150    9.90280   21.33660    9.04090    3.50610    0.02190    0.20190    0.00820    2.67450   59.25410   59.42530   59.78940  104.97360
 2861.50000  184.47790   34.20160   10.91450   21.62760    9.04090    3.61740    0.01840    0.18820    0.00770    2.67160   59.28160   59.18170   58.88910  104.96770
 2862.00000  311.58060   42.40890   18.44510   21.13400    9.04090    3.62390    0.03020    0.18420    0.00510    2.66420   59.28290   59.22660   57.96100  104.96190
 2862.50000  492.47990   50.35710   17.68710   20.74170    9.04090    3.44570    0.03620    0.19180    0.00310    2.65650   59.10800   59.14000   57.39350  104.80920
 2863.00000  497.08590   45.88500    9.79710   20.34940    9.07020    3.30940    0.03730    0.20190    0.00080    2.65570   58.20180   58.26280   57.32420  102.80750
 2863.50000  467.54350   38.13390   15.14180   20.16130    9.07020    3.40180    0.01640    0.18050   -0.00140    2.66570   57.00510   56.33140   57.41270  100.83870
 2864.00000  458.17350   36.08310   21.23920   20.52790    9.07020    3.54840   -0.02810    0.14910   -0.00360    2.68410   55.73910   55.36640   57.15710  101.11420
 2864.50000  477.83010   44.50040   12.53420   20.89440    9.07020    3.48970   -0.04110    0.12010   -0.00500    2.71260   54.91970   55.19190   57.01400  103.23960
 2865.00000  612.75690   61.01960   12.78520   22.36070    9.07020    3.25510   -0.02700    0.11030   -0.00350    2.73970   55.43340   56.11820   57.06180  103.75370
 2865.50000  889.60080   69.86500  702.29100   23.82700    9.07020    2.99120    0.00370    0.12980   -0.00350    2.76340   57.49100   57.20440   57.50270  102.57400
 2866.00000  943.31960   75.23620  385.72160   25.29330    9.07020    2.99200    0.04260    0.15580   -0.00350    2.76820   59.68350   59.78740   58.73660  103.74130
 2866.50000  714.24540   72.65160  185.53980   26.39300    9.07020    3.08680    0.06080    0.19840   -0.00200    2.73980   61.14520   61.78450   61.02780  109.01430
 2867.00000  379.15680   65.42070   19.37920   26.77660    9.07020    3.17180    0.08100    0.22020   -0.00190    2.65690   64.49440   63.92330   62.34980  112.52770
 2867.50000  248.07720   58.31270   10.00560   27.12610    9.07020    3.23260    0.08700    0.22910   -0.00190    2.61090   64.58380   64.42390   63.05730  112.52200
 2868.00000  216.07020   53.11160    7.46700   24.72210    9.07020    3.28450    0.09090    0.21910   -0.00190    2.58780   64.23270   63.92150   63.14360  112.51610
 2868.50000  196.21000   50.99960   24.89520   22.99970    9.07020    3.28450    0.08580    0.21490   -0.00040    2.57570   63.17670   62.66980   63.14410  111.82390
 2869.00000  183.56050   46.39630    9.61960   22.36070    9.07020    3.32710    0.07660    0.21480   -0.00040    2.56860   61.80080   61.35330   62.44960  110.60030
 2869.50000  175.59130   38.77510    7.34280   22.72730    9.07020    3.37240    0.06330    0.21200   -0.00030    2.56450   59.61230   60.30040   61.19210  109.77300
 2870.00000  172.01760   31.78380    3.87910   22.92280    9.07020    3.34310    0.03670    0.19500   -0.00030    2.57180   57.87000   56.08500   59.97060  107.56620
 2870.50000  185.77130   33.19450    3.90660   22.16390    9.07020    3.34310    0.01900    0.17000   -0.00110    2.58700   55.52860   54.94430   58.86330  103.15740
 2871.00000  331.66990   39.13140   17.35250   20.89440    9.07020    3.40180    0.00960    0.16140   -0.00170    2.64030   54.23060   54.58720   57.33140   99.51530
 2871.50000  708.39860   55.01600   39.35900   19.42820    9.07020    3.48970    0.00350    0.15620   -0.00310    2.68130   53.84740   54.31320   55.74590   97.81130
 2872.00000 1101.85560   83.54440   32.79540   19.79470    9.07020    3.51910   -0.00070    0.14880   -0.00310    2.69790   53.82200   53.98170   54.95340   97.80560
 2872.50000 1337.17240  112.76990   42.59050   21.62760    9.07020    3.51910   -0.00220    0.14170   -0.00460    2.70580   54.02440   54.00660   54.51330   97.80000
 2873.00000 1394.38670  111.17620   40.74850   23.82700    9.06900    3.51790    0.00170    0.14340   -0.00310    2.70970   54.11380   54.24800   54.51370   98.38120
 2873.50000 1352.07140   98.13070   35.91650   25.29330    9.04090    3.48970    0.00450    0.14870   -0.00160    2.71080   54.20320   54.24930   54.60270   98.37520
 2874.00000 1221.53150   80.24800   56.65400   26.39300    9.04090    3.55390    0.00380    0.15110    0.00010    2.70940   54.20450   54.38310   54.77890   98.36950
 2874.50000 1112.48300   70.88790   15.94650   25.15090    9.04090    3.60700   -0.00110    0.14170    0.00170    2.70760   54.20570   54.51580   54.76440   98.41660
 2875.00000 1051.05350   70.18570   11.94670   22.29990    9.04090    3.53860   -0.00430    0.13220    0.00440    2.70820   54.30990   54.69270   54.80180   99.53130
 2875.50000 1006.80890   59.31700   11.79190   21.99410    9.04090    3.46040    0.00250    0.12320    0.00400    2.71260   54.67870   54.95760   54.98560   99.52490
 2876.00000  951.20790   47.62110   79.82600   22.47330    9.02690    3.47450    0.01660    0.12520    0.00150    2.70970   55.18010   55.22240   55.20570   99.51910
 2876.50000  918.32030   48.26550  178.60680   23.59830    9.01170    3.48970    0.03670    0.14890   -0.00130    2.69780   55.91610   55.48720   55.61690  100.10080
 2877.00000  939.04570   55.24090    9.75330   24.15460    8.98250    3.46040    0.03920    0.16620   -0.00510    2.66790   56.60160   56.71830   56.37100  100.37160
 2877.50000 1078.44300   66.85040    6.81400   25.86150    8.98250    3.40180    0.03550    0.16880   -0.01010    2.64690   57.74510   57.90870   58.21810  103.45950
 2878.00000 1102.56960   72.44320   24.58900   28.95890    8.95320    3.34310    0.04530    0.15690   -0.01160    2.64520   59.67780   59.43390   59.27580  107.11920
 2878.50000  902.42990   73.34070   74.62260   29.69210    8.92400    3.28450    0.06350    0.14940   -0.00860    2.64500   60.73630   60.40360   60.24540  108.28660
 2879.00000  765.22230   58.67030  132.83100   28.95890    8.89470    3.22580    0.07510    0.15880   -0.00120    2.64220   61.44240   61.19680   60.24580  109.45450
 2879.50000  589.28220   24.42620  118.91630   25.29330    8.86550    3.19650    0.08190    0.18660    0.00610    2.60600   61.17940   61.29270   60.07000  109.53260
