~Version ---------------------------------------------------
VERS.   2.0 : CWLS log ASCII Standard -VERSION 2.0
WRAP.    NO : One line per depth step
DLM . SPACE : Column Data Section Delimiter
~Well ------------------------------------------------------
STRT .F                   87.0 : START DEPTH
STOP .F                 4862.0 : STOP DEPTH
STEP .F                    0.5 : STEP
NULL .                -9999.25 : NULL VALUE
COMP .                         : COMPANY
WELL .                         : WELL
FLD  .                         : FIELD
LOC  .                         : LOCATION
PROV .                         : PROVINCE
CNTY .                         : COUNTY
STAT .                         : STATE
CTRY .                         : COUNTRY
SRVC .                         : SERVICE COMPANY
DATE .                         : DATE
UWI  .                         : UNIQUE WELL ID
API  .                         : API NUMBER
SLAT .WGS84 1.7507506966308917 : SURFACE LATITUDE
SLON .WGS84  7.222160552553007 : SURFACE LONGITUDE
DATUM.F                2663.53 : DEPTH DATUM ELEV
~Curve Information -----------------------------------------
DEPT.F     : 
LLD .OHMM  : LATEROLOG LOG DEEP
LLS .OHMM  : LATEROLOG LOG SHALLOW
MSFL.OHMM  : MICRO SPHERICALLY FOCUSED
GRD .GAPI  : GAMMA RAY FROM DENSITY LOG
CALD.IN    : CALIPER FROM DENSITY LOG
PEF .B/E   : PHOTOELECTRIC FACTOR
DPHI.DEC   : DENSITY POROSITY LIMESTONE
NPHI.DEC   : NEUTRON POROSITY LIMESTONE
DRHO.G/C3  : DENSITY CORRECTION
RHOB.G/C3  : BULK DENSITY
DT  .US/F  : INTERVAL TRANSIT TIME
DTL .US/F  : DELTA-T LONG SPACING
DTCO.US/F  : COMPRESSIONAL-WAVE INTERVAL TRANSIT TIME ACAUSTIC SLOWNESS
DTSM.US/F  : SHEAR-WAVE INTERVAL TRANSIT TIME DELTA-T
~Params ----------------------------------------------------
~Other -----------------------------------------------------
~ASCII -----------------------------------------------------
# ...
 4325.50000 1355.09500 1023.38060  748.98490   36.63910    8.20790    3.63640   -0.05600    0.03350    0.00150    2.81010   52.77340   52.01270   50.65900   91.91200
 4326.00000 1247.75270  994.01120  836.52630   41.83320    8.21070    3.69500   -0.05600    0.03110    0.00290    2.81010   52.50740   51.89100   50.66140   91.91790
 4326.50000 1148.91330  947.17100 1556.06460   40.66600    8.23770    3.75370   -0.07030    0.02880    0.00290    2.81210   52.15330   51.66050   50.92960   91.92470
 4327.00000 1087.48210  871.39370 1472.86360   32.59440    8.23800    3.74910   -0.08280    0.03110    0.00290    2.82030   51.88530   51.57220   51.21360   91.93030
 4327.50000 1058.11520  858.98460  792.11540   31.12110    8.23830    3.62260   -0.07760    0.03780    0.00290    2.84390   51.61300   51.53440   51.62140   92.52250
 4328.00000 1013.61280  870.50350  635.18180   32.21370    8.23860    3.48270   -0.06880    0.04460    0.00150    2.83920   51.53140   51.65910   51.88400   92.52810
 4328.50000  912.32380  858.06780  888.28200   35.87240    8.25390    3.51800   -0.05940    0.05170    0.00000    2.82770   51.70590   51.74650   51.70570   93.12030
 4329.00000  730.74730  607.24580  809.15550   39.97350    8.26850    3.63640   -0.06190    0.05620    0.00000    2.81290   51.84440   52.00960   51.61590   93.12610
 4329.50000  503.42510  415.38270  365.44420   40.99030    8.29800    3.62210   -0.06870    0.06050    0.00000    2.80740   52.08670   52.36060   51.74650   93.13200
 4330.00000  251.09140  270.87970  184.76350   39.99390    8.29830    3.59050   -0.06810    0.06860    0.00000    2.81820   52.26730   52.79940   51.96480   93.13780
 4330.50000  162.53480  175.92350  106.54020   36.98300    8.29860    3.48970   -0.05880    0.07770    0.00000    2.82200   52.44780   52.88680   52.31510   93.14370
 4331.00000  145.65100  145.64930  117.32260   34.73610    8.29880    3.43110   -0.05460    0.09110    0.00000    2.81620   52.85460   52.97690   52.66580   93.14960
 4331.50000  147.70820  144.03940  145.26860   34.72870    8.29910    3.34310   -0.05000    0.09340    0.00000    2.80740   53.19300   53.24570   52.92840   93.15540
 4332.00000  153.82800  153.72160  150.66430   34.72140    8.29940    3.28450   -0.04170    0.08520    0.00290    2.78970   53.36710   53.41260   52.66240   93.48910
 4332.50000  145.60300  144.39340  118.57830   33.24650    8.30530    3.22580   -0.03410    0.07930    0.00290    2.77160   53.54170   53.53970   51.86770   93.75470
 4333.00000  137.81770  135.12180   98.99130   33.60610    8.35850    3.10520   -0.03490    0.07290    0.00290    2.76550   53.89240   53.81410   51.86220   94.34680
 4333.50000  135.95500  138.53400   97.65240   37.26470    8.36930    3.11660   -0.03940    0.06690    0.00290    2.75900   54.33120   54.29540   52.21850   94.93900
 4334.00000  151.84310  169.51370  145.69210   43.48930    8.40140    3.20290   -0.04690    0.06130    0.00290    2.77270   54.50570   54.17860   52.49460   94.94460
 4334.50000  263.63490  315.38290  382.54680   54.47940    8.41780    3.28450   -0.05540    0.05420    0.00360    2.78910   53.96680   53.19740   52.65390   94.95020
 4335.00000  477.06210  439.07040 1605.18880   63.28840    8.41820    3.36550   -0.06150    0.05050    0.00810    2.80040   52.79770   52.42590   52.74030   93.16670
 4335.50000  673.01500  692.15470 1721.29270   61.45720    8.41850    3.37450   -0.06660    0.04520    0.00590    2.80570   52.42500   51.65250   52.13510   91.36530
 4336.00000  987.28070  937.35740 1304.58310   53.65060    8.41870    3.30050   -0.06910    0.03990    0.00290    2.80940   51.96480   51.21280   51.46900   90.27510
 4336.50000 1306.05480 1201.21140 1428.36330   41.63960    8.41900    3.37240   -0.07090    0.03410    0.00290    2.81340   51.30240   50.33390   50.73960   90.10870
 4337.00000  977.63240 1217.26310 1584.47740   34.87380    8.41930    3.40180   -0.07790    0.02770    0.00150    2.81780   50.51540   50.31690   50.35840   89.48030
 4337.50000  482.69520  662.92150  755.62210   29.90520    8.41960    3.34310   -0.08250    0.03300    0.00000    2.82530   50.26430   50.94800   50.26430   89.70670
 4338.00000  258.13430  355.02250  574.61150   30.46160    8.41990    3.28450   -0.08020    0.04880   -0.00290    2.83380   50.58250   52.88020   50.87900   90.02970
 4338.50000  173.13500  195.03420  337.73410   39.02360    8.42020    3.22580   -0.04590    0.07940   -0.00590    2.83810   52.37500   56.92500   52.63940   93.23860
 4339.00000  112.89250  120.26750   63.81600   57.34500    8.42050    3.25620   -0.03070    0.09350   -0.00590    2.83060   54.57590   58.56250   55.45700   97.93630
 4339.50000   87.67460   96.55140   49.42800   66.50220    8.42080    3.28450    0.00170    0.12280   -0.00510    2.80610   60.12490   60.69740   58.18660  102.63400
 4340.00000   87.69210   83.46150   89.23510   76.75910    8.42110    3.28450    0.00820    0.12400   -0.00240    2.77390   60.82820   60.36310   58.62540  104.39920
 4340.50000   87.70970   82.79230   75.36770   77.15610    8.42130    3.34310   -0.00920    0.11650    0.00000    2.73160   59.59280   58.58300   58.35940  104.40480
 4341.00000   88.94520   90.36010   71.33790   70.44630    8.42170    3.34310   -0.02150    0.11100    0.00000    2.71660   58.18140   57.71060   58.00530  104.41060
 4341.50000   96.63570   96.76750   71.35220   64.88220    8.42200    3.28450   -0.03070    0.10610    0.00090    2.73420   57.11930   56.77930   57.08390  103.76440
 4342.00000  103.55350  103.62930   80.79530   54.61810    8.42220    3.22580   -0.02870    0.10240    0.00150    2.74930   55.67820   55.54050   55.93060  100.92350
 4342.50000  109.44690  109.45580   84.22430   47.46220    8.42250    3.13780   -0.02620    0.09910    0.00000    2.75340   54.99190   54.71670   55.21810   96.48170
 4343.00000  106.29940  107.89710   87.89150   46.29030    8.42280    3.10850   -0.02740    0.09090    0.00000    2.75350   55.27140   55.15980   54.71580   95.04890
 4343.50000  100.43390   97.90360   84.25800   47.13140    8.42310    3.09520   -0.03440    0.09010    0.00290    2.75190   55.75480   55.15940   54.82130   95.31320
 4344.00000   96.20390   93.88020   88.24680   50.52850    8.39410    3.16720   -0.03440    0.10110    0.00150    2.75000   55.88050   55.07110   55.12120   95.64810
 4344.50000   92.83140   93.82850   94.12160   56.53090    8.39440    3.22580   -0.03090    0.11110    0.00000    2.75060   55.87840   54.71930   55.13380   96.24160
 4345.00000   93.28280   93.97140   68.82580   55.42410    8.38550    3.25560   -0.02490    0.11940   -0.00020    2.75660   55.22580   54.19180   54.99240   96.24720
 4345.50000   94.16170   95.31830   66.70570   50.28510    8.36570    3.28450   -0.01640    0.11470   -0.00370    2.76230   54.35890   53.75210   54.62680   96.83940
 4346.00000   94.18120   96.30350  103.15580   43.31320    8.36610    3.31910   -0.00510    0.10630   -0.00440    2.75730   53.67020   53.66380   54.19880   95.67200
 4346.50000  102.44360  107.40450  132.29240   38.90740    8.34970    3.38010   -0.00770    0.10170   -0.00290    2.74580   53.55320   53.66730   53.75660   95.09090
 4347.00000  148.51350  148.21650  377.63230   38.91520    8.30820    3.40180   -0.01830    0.10820   -0.00370    2.73280   54.19540   54.25810   53.75490   96.28170
 4347.50000  190.38700  198.66860  634.42530   43.56220    8.25000    3.25950   -0.02350    0.12140   -0.00670    2.72750   55.16280   55.58440   54.63420   97.50230
 4348.00000  234.17720  249.76200  395.84550   62.35500    8.19180    3.18160   -0.01870    0.13320   -0.00880    2.74190   55.86600   56.12190   55.68980   98.04110
 4348.50000  321.62960  346.80660 1208.40730   95.41050    8.19210    3.19650    0.00260    0.16870   -0.00880    2.73460   56.04050   55.39900   56.48100   96.57410
 4349.00000  486.50090  554.31090 1706.08620  125.26150    8.19240    3.22580    0.00630    0.14780   -0.00590    2.71090   54.60500   54.54250   55.30190   94.92350
 4349.50000  715.87190  740.38640  856.42000  134.93150    8.19270    3.28450    0.00200    0.09470   -0.00590    2.69350   53.29970   52.75210   53.67520   93.46190
