~Version ---------------------------------------------------
VERS.   2.0 : CWLS log ASCII Standard -VERSION 2.0
WRAP.    NO : One line per depth step
DLM . SPACE : Column Data Section Delimiter
~Well ------------------------------------------------------
STRT .F                   87.0 : START DEPTH
STOP .F                 4862.0 : STOP DEPTH
STEP .F                    0.5 : STEP
NULL .                -9999.25 : NULL VALUE
COMP .                         : COMPANY
WELL .                         : WELL
FLD  .                         : FIELD
LOC  .                         : LOCATION
PROV .                         : PROVINCE
CNTY .                         : COUNTY
STAT .                         : STATE
CTRY .                         : COUNTRY
SRVC .                         : SERVICE COMPANY
DATE .                         : DATE
UWI  .                         : UNIQUE WELL ID
API  .                         : API NUMBER
SLAT .WGS84 1.7507506966308917 : SURFACE LATITUDE
SLON .WGS84  7.222160552553007 : SURFACE LONGITUDE
DATUM.F                2663.53 : DEPTH DATUM ELEV
~Curve Information -----------------------------------------
DEPT.F     : 
LLD .OHMM  : LATEROLOG LOG DEEP
LLS .OHMM  : LATEROLOG LOG SHALLOW
MSFL.OHMM  : MICRO SPHERICALLY FOCUSED
GRD .GAPI  : GAMMA RAY FROM DENSITY LOG
CALD.IN    : CALIPER FROM DENSITY LOG
PEF .B/E   : PHOTOELECTRIC FACTOR
DPHI.DEC   : DENSITY POROSITY LIMESTONE
NPHI.DEC   : NEUTRON POROSITY LIMESTONE
DRHO.G/C3  : DENSITY CORRECTION
RHOB.G/C3  : BULK DENSITY
DT  .US/F  : INTERVAL TRANSIT TIME
DTL .US/F  : DELTA-T LONG SPACING
DTCO.US/F  : COMPRESSIONAL-WAVE INTERVAL TRANSIT TIME ACAUSTIC SLOWNESS
DTSM.US/F  : SHEAR-WAVE INTERVAL TRANSIT TIME DELTA-T
~Params ----------------------------------------------------
~Other -----------------------------------------------------
~ASCII -----------------------------------------------------
# ...
 3835.50000  116.35020   44.79670   23.65710   19.27340    9.02210    3.11120    0.05150    0.19720   -0.00030    2.65880   55.52860   54.71930   53.76620   98.23400
 3836.00000  124.67080   50.05900   20.33450   25.13140    9.02220    3.03110    0.04130    0.19780   -0.00180    2.66010   55.19650   54.37210   53.22050   97.05540
 3836.50000  131.75720   55.17120    7.31090   28.05690    9.02240    3.03990    0.03640    0.19960   -0.00170    2.66240   54.83000   54.20060   53.21060   96.46320
 3837.00000  139.28830   59.18940    8.74920   27.68110    9.02250    3.09000    0.03610    0.19530   -0.00170    2.66860   54.66780   54.39480   53.39670   95.87100
 3837.50000  186.48260   76.83500   17.12050   26.54580    9.02270    3.14880    0.03350    0.19040   -0.00100    2.67520   54.66980   54.64830   53.52450   95.86510
 3838.00000  278.47200  104.19430   23.80190   26.20290    9.02280    3.19410    0.02410    0.17840    0.00130    2.68080   54.84770   54.54290   53.52620   95.98040
 3838.50000  402.56380  119.89490   35.17500   27.92200    9.02300    3.23710    0.01360    0.17990    0.00430    2.68500   54.58510   54.21640   53.52790   96.44070
 3839.00000  419.81400  110.05250   32.29770   30.67900    9.02310    3.17860    0.01590    0.18260    0.00580    2.67330   53.87480   53.38270   53.44150   96.43400
 3839.50000  362.55510  100.04870    8.00290   34.45080    9.02320    3.09080    0.02470    0.18940    0.00730    2.66770   53.14970   52.86420   53.16830   96.42820
 3840.00000  313.10140   91.82830    4.41190   39.10030    9.02340    3.00290    0.03110    0.19490    0.01030    2.67210   52.82800   53.26590   52.66980   97.00880
 3840.50000  273.36900   83.67140   90.13080   40.43020    9.02350    2.97380    0.03020    0.18900    0.01030    2.67880   53.08280   53.79710   51.78080   97.58940
 3841.00000  235.40700   72.04640   93.69220   36.05440    9.02370    3.00410    0.02210    0.18720    0.01180    2.68020   53.67050   54.41630   51.42180   96.99620
 3841.50000  176.24980   61.90620   30.16830   29.81560    8.99460    3.03600    0.01650    0.19130    0.01020    2.67350   54.36210   54.85970   52.77220   95.81760
 3842.00000  131.95860   56.21860   14.37990   25.04320    8.99480    3.09150    0.01960    0.20190    0.00720    2.66010   55.09770   55.21530   53.45200   96.98490
 3842.50000  116.57440   51.05360   10.80240   23.56990    8.96560    3.12900    0.03240    0.21190    0.00420    2.64820   55.30430   55.20480   53.45410   98.15230
 3843.00000  116.58990   48.99920   12.39370   25.39560    8.96580    3.17140    0.04100    0.21130    0.00170    2.64150   55.21780   54.50010   53.54390   98.73320
 3843.50000  121.54540   51.82060   18.94140   26.12170    8.96590    3.20920    0.04340    0.20780    0.00470    2.64200   54.69090   54.15610   53.80990   99.31410
 3844.00000  130.81250   60.76690   14.91880   24.83840    8.96610    3.20940    0.04280    0.21270    0.00470    2.64810   54.16390   54.09020   53.81160   99.30790
 3844.50000  160.20980   70.92410   14.30160   20.01170    8.96620    3.15090    0.04220    0.21370    0.00470    2.65770   53.90130   53.90710   53.81320   99.88930
 3845.00000  205.17570   75.60750   19.85020   17.94970    8.96640    3.09240    0.04100    0.21050    0.00480    2.66600   53.90310   53.57840   53.72100   99.09110
 3845.50000  225.96980   78.18570   27.73600   18.96320    8.96650    3.20980    0.03980    0.20570    0.00480    2.66810   53.62370   53.16760   53.62640   98.11730
 3846.00000  240.28070   81.70680   21.46890   23.75250    8.96670    3.26860    0.03630    0.19620    0.00490    2.67050   53.41680   52.96630   53.44370   98.11140
 3846.50000  250.72730   87.78180   25.15590   37.64730    8.96680    3.26880    0.02960    0.19440    0.00190    2.67190   53.13840   52.97130   53.26110   98.10440
 3847.00000  263.60380   93.72270   38.04410   50.92050    8.96700    3.35690    0.02380    0.20010    0.00200    2.67190   52.68370   52.79980   53.00100   98.09880
 3847.50000  286.04230  102.40010   19.30810   61.62020    8.96710    3.32770    0.02340    0.19370    0.00200    2.67190   52.59030   52.71600   52.53760   97.50660
 3848.00000  306.49830  108.27100   23.04550   59.04580    8.96730    3.29340    0.02580    0.18780    0.00210    2.67040   52.50430   52.63250   52.06370   95.74150
 3848.50000  315.10970  108.31790   76.25620   47.67510    8.96740    3.26930    0.02270    0.18310    0.00210    2.67340   52.50600   52.36690   51.97730   93.97630
 3849.00000  319.52690  108.36480   27.79810   35.93790    8.93830    3.24980    0.02140    0.17720    0.00210    2.68310   52.15520   52.01230   51.80260   93.38420
 3849.50000  324.00610  109.92140   16.41870   32.63170    8.93850    3.19870    0.01870    0.16550    0.00220    2.69490   51.89260   51.43980   51.45210   93.37830
 3850.00000  398.50260  135.31950   30.03840   31.89150    8.93860    3.15250    0.00290    0.15290    0.00220    2.70780   51.63000   50.10250   51.10130   93.37240
 3850.50000  634.92630  258.01400  191.73340   31.01170    8.93650    3.15260   -0.00700    0.14040    0.00220    2.73350   50.63060   49.48290   50.38170   92.63450
 3851.00000 1187.31160  436.57510  265.38990   29.34990    8.90960    3.09420   -0.01990    0.13810    0.00520    2.73950   49.89580   49.14490   49.91010   91.40790
 3851.50000 1723.55310  584.50460  221.73500   26.51520    8.90980    3.03560   -0.01400    0.13560    0.00530    2.74180   49.32100   49.15020   49.29510   90.76740
 3852.00000 1450.06190  533.58480  127.85750   23.09380    8.90990    3.00650   -0.01110    0.13320    0.00820    2.73950   48.89870   48.97870   48.99350   90.12670
 3852.50000 1106.78110  428.13110  158.79860   23.82700    8.91010    3.03590   -0.01470    0.13170    0.01120    2.73600   48.29070   48.54370   48.99560   90.41060
 3853.00000  934.35080  375.65340  261.20570   26.75950    8.91020    3.09470   -0.02330    0.12200    0.01130    2.73500   48.69950   48.19650   48.99740   90.40370
 3853.50000  845.25780  344.79920  146.42680   35.55720    8.93960    3.15350   -0.03440    0.11730    0.01280    2.74530   49.13950   48.20070   48.64700   90.39810
 3854.00000 1122.07840  440.01630  126.60060   38.85630    8.93980    3.21680   -0.05580    0.10910    0.01090    2.76150   49.65170   48.65120   48.12000   90.39240
 3854.50000 1306.01780  498.55240 1011.14940   37.75660    8.93990    3.27800   -0.05660    0.11150    0.00550    2.78130   49.79560   49.30360   48.38600   90.38680
 3855.00000 1288.30520  410.97440 2000.00000   32.62460    8.94010    3.30060   -0.05080    0.11790    0.00210    2.79070   49.79740   49.98830   49.26880   90.38120
 3855.50000 1202.64170  368.09050  504.39580   26.61310    8.91100    3.20710   -0.03720    0.13570   -0.00150    2.78260   49.88750   50.42720   49.35860   90.37540
 3856.00000 1138.26110  353.27840   36.75380   22.62960    8.88190    3.06740   -0.01570    0.14550   -0.00320    2.75890   50.06540   50.83580   49.08540   90.36950
 3856.50000 1062.57460  348.58330   37.16690   21.62760    8.85280    3.03710   -0.01190    0.13590   -0.00320    2.73800   50.33140   51.20680   49.00950   90.22950
 3857.00000  978.39190  348.39000  375.84690   23.48550    8.85080    3.06660   -0.02260    0.12870   -0.00320    2.75140   50.68550   51.44180   49.41790   89.77130
 3857.50000  597.20900  323.60030  335.71710   27.49270    8.79460    3.12540   -0.03550    0.12670   -0.00310    2.75820   51.30540   51.66260   49.91180   89.76540
 3858.00000  464.78380  290.33430  429.16470   31.74490    8.79470    3.21350   -0.03550    0.12990   -0.00160    2.75690   51.39380   51.66680   50.51060   90.34600
 3858.50000  456.58560  249.92060   37.79790   32.28250    8.80380    3.27230   -0.03250    0.13790   -0.00010    2.74970   51.41290   51.67100   51.13160   90.92670
 3859.00000  416.71030  240.48300   78.30000   30.59650    8.82430    3.33110   -0.02490    0.13730   -0.00300    2.74010   51.51070   52.02660   51.39760   92.09280
 3859.50000  303.80650  212.92970  214.08110   30.79180    8.82440    3.33280   -0.01310    0.13260   -0.00450    2.73060   51.75150   52.11860   51.83980   92.67450
