~Version ---------------------------------------------------
VERS.   2.0 : CWLS log ASCII Standard -VERSION 2.0
WRAP.    NO : One line per depth step
DLM . SPACE : Column Data Section Delimiter
~Well ------------------------------------------------------
STRT .F                   87.0 : START DEPTH
STOP .F                 4862.0 : STOP DEPTH
STEP .F                    0.5 : STEP
NULL .                -9999.25 : NULL VALUE
COMP .                         : COMPANY
WELL .                         : WELL
FLD  .                         : FIELD
LOC  .                         : LOCATION
PROV .                         : PROVINCE
CNTY .                         : COUNTY
STAT .                         : STATE
CTRY .                         : COUNTRY
SRVC .                         : SERVICE COMPANY
DATE .                         : DATE
UWI  .                         : UNIQUE WELL ID
API  .                         : API NUMBER
SLAT .WGS84 1.7507506966308917 : SURFACE LATITUDE
SLON .WGS84  7.222160552553007 : SURFACE LONGITUDE
DATUM.F                2663.53 : DEPTH DATUM ELEV
~Curve Information -----------------------------------------
DEPT.F     : 
LLD .OHMM  : LATEROLOG LOG DEEP
LLS .OHMM  : LATEROLOG LOG SHALLOW
MSFL.OHMM  : MICRO SPHERICALLY FOCUSED
GRD .GAPI  : GAMMA RAY FROM DENSITY LOG
CALD.IN    : CALIPER FROM DENSITY LOG
PEF .B/E   : PHOTOELECTRIC FACTOR
DPHI.DEC   : DENSITY POROSITY LIMESTONE
NPHI.DEC   : NEUTRON POROSITY LIMESTONE
DRHO.G/C3  : DENSITY CORRECTION
RHOB.G/C3  : BULK DENSITY
DT  .US/F  : INTERVAL TRANSIT TIME
DTL .US/F  : DELTA-T LONG SPACING
DTCO.US/F  : COMPRESSIONAL-WAVE INTERVAL TRANSIT TIME ACAUSTIC SLOWNESS
DTSM.US/F  : SHEAR-WAVE INTERVAL TRANSIT TIME DELTA-T
~Params ----------------------------------------------------
~Other -----------------------------------------------------
~ASCII -----------------------------------------------------
# ...
 3027.00000 4828.20310  334.64440  194.14270   32.59910    9.18710    3.67690   -0.05270    0.07800   -0.00020    2.75830   49.62860   50.42740   49.99640   92.17600
 3027.50000 5596.42680  492.24430  150.91700   30.22320    9.18710    3.70310   -0.05650    0.07510    0.00080    2.79470   49.47580   49.92680   49.73120   91.53470
 3028.00000 5156.81690  482.30040   62.53930   27.06350    9.18710    3.69580   -0.05150    0.07680    0.00230    2.79680   49.56490   49.83890   49.37800   91.28350
 3028.50000 4243.26120  425.63090  164.24300   22.38340    9.15790    3.63520   -0.05050    0.07980    0.00450    2.79440   49.74190   49.83890   49.19350   91.27790
 3029.00000 3696.30250  324.90390  165.26570   20.19410    9.15790    3.59250   -0.05450    0.08350    0.00670    2.79230   49.74280   49.92680   49.02380   91.27230
 3029.50000 3545.35620  253.09860   83.64070   20.42240    9.12870    3.51410   -0.05560    0.08830    0.00820    2.79420   49.74360   50.01460   49.02290   91.26660
 3030.00000 4358.49510  244.75340   99.01500   22.94790    9.09940    3.45360   -0.05800    0.09260    0.00820    2.79790   49.56240   49.92680   49.02200   90.67450
 3030.50000 6322.22120  306.93330   68.06770   24.41770    9.09940    3.38140   -0.05920    0.09460    0.00830    2.80210   49.11880   49.66320   49.02110   90.08210
 3031.00000 6320.13040  393.55790  150.68080   25.88750    9.09940    3.32290   -0.06040    0.08780    0.00830    2.80520   49.04130   49.39970   49.02030   90.07620
 3031.50000 6314.34380  451.77820  212.38670   25.52450    9.09940    3.26440   -0.06270    0.08080    0.00680    2.80810   49.13040   49.22400   49.01940   90.36300
 3032.00000 5934.41850  439.30870  200.98570   24.06170    9.09510    3.26450   -0.06460    0.07830    0.00380    2.81050   49.24990   49.23580   49.01840   91.43320
 3032.50000 5383.08840  385.06530  185.50620   22.96560    9.07020    3.29400   -0.06150    0.07770    0.00080    2.81130   49.39650   49.31190   49.10560   91.81820
 3033.00000 5093.63180  309.13260  134.65980   21.47960    9.06180    3.35280   -0.05070    0.07690   -0.00250    2.80700   49.39740   49.42450   49.19300   91.81230
 3033.50000 4898.27000  238.03630  176.69870   20.35720    9.04090    3.38290   -0.04730    0.07510   -0.00530    2.79180   49.25890   49.48760   49.19200   91.80530
 3034.00000 5008.39990  215.67150  181.71110   19.67710    9.02850    3.41170   -0.04450    0.07330   -0.00640    2.77910   49.13490   49.48760   49.10310   91.79970
 3034.50000 6070.44630  213.31650  106.17460   20.25170    9.01170    3.41190   -0.04180    0.07570   -0.00490    2.76600   49.04760   49.35500   49.00670   91.79400
 3035.00000 7234.12010  242.76090   62.89960   22.52540    9.01170    3.41200   -0.03840    0.08510   -0.00490    2.75440   48.87220   49.12170   48.89570   91.78840
 3035.50000 7641.77390  346.41110   62.06290   25.28410    8.98250    3.41220   -0.02970    0.10410   -0.00340    2.75000   48.78500   48.78480   48.74800   91.19620
 3036.00000 7662.11670  444.17740  153.46430   27.20430    8.98250    3.44160   -0.02900    0.12530   -0.00040    2.76360   48.78590   48.52120   48.74710   89.43110
 3036.50000 6209.92920  365.87170  250.35070   26.19840    8.98250    3.48410   -0.03910    0.11520    0.00110    2.78150   48.69870   48.25770   48.74630   88.83870
 3037.00000 3158.85620  193.60170  304.46770   23.73230    8.95320    3.51560   -0.04680    0.10080    0.00400    2.79010   48.78770   48.25770   48.74540   88.83280
 3037.50000 2172.00150   87.98800  378.39990   22.63610    8.92400    3.54720   -0.05090    0.09460    0.00550    2.78340   48.78850   48.60910   48.74430   89.55970
 3038.00000  859.52120   43.14060  127.82360   22.27270    8.89470    3.50090   -0.05150    0.09770    0.00550    2.75590   48.95320   48.96930   49.27210   90.97200
 3038.50000  356.02800   31.79710   27.96690   21.54350    8.89470    3.44240   -0.04270    0.10900    0.00260    2.71900   49.72820   49.70130   49.97610   92.82310
 3039.00000  249.52340   30.72820    3.96780   21.18050    8.86550    3.29590   -0.02350    0.13010   -0.00180    2.69520   52.00150   51.32660   51.47310   94.38090
 3039.50000  246.02520   46.99540   25.76680   20.08430    8.86550    3.17870    0.00160    0.15980   -0.00340    2.67740   53.74140   53.68740   54.02730   96.42700
 3040.00000  409.63110  102.07360  339.61990   20.11250    8.86550    3.26690    0.02190    0.18090   -0.00470    2.70860   54.16760   54.23130   54.02640   97.59440
 3040.50000  923.72500  139.78010 1569.76890   21.24210    8.83630    3.70720    0.00500    0.17440   -0.00470    2.74320   53.90410   53.99990   53.72450   98.17590
 3041.00000 1200.48750  180.16060  460.33470   22.81490    8.83630    3.85370   -0.02740    0.16730   -0.00520    2.77160   53.46440   53.18300   53.20230   96.99660
 3041.50000  980.06650  175.18800  265.25420   24.80720    8.80700    3.83710   -0.04810    0.16200   -0.00610    2.78980   52.67230   52.12080   52.43790   95.81790
 3042.00000  700.09300  144.30350   82.59190   26.72310    8.80700    3.44140   -0.05840    0.15370   -0.00610    2.79770   50.82290   50.45390   50.88090   94.63930
 3042.50000  483.03200   62.91770   60.88950   28.32650    8.80700    3.25930   -0.04850    0.14960   -0.00460    2.78740   50.29520   50.62960   50.05730   94.58450
 3043.00000  311.91590   32.81180   30.77670   27.81240    8.80700    3.19870   -0.03440    0.15620   -0.00460    2.76900   50.60970   51.42020   51.11390   94.04110
 3043.50000  199.36400   30.63190   14.57160   25.56210    8.80700    3.17990   -0.01080    0.16850   -0.00460    2.73480   52.60730   52.47440   52.33870   95.35480
 3044.00000  170.25610   32.45810    7.89000   24.15020    8.80700    3.18010    0.00750    0.19230   -0.00310    2.70630   54.57840   54.84630   53.31440   97.35330
 3044.50000  217.89910   32.80330    4.88260   24.15370    8.80700    3.19670    0.01570    0.21550   -0.00160    2.69040   55.23260   54.93410   53.57800   99.20480
 3045.00000  443.41790   75.95400  370.44830   25.99010    8.80700    3.26840    0.02160    0.22160    0.00130    2.67600   55.16590   54.82440   53.57700  101.05570
 3045.50000 1132.02320  235.42320  110.14220   28.92620    8.80700    3.26850    0.02140    0.21940    0.00430    2.68040   54.59050   54.14800   52.95940  101.04870
 3046.00000 3653.37060  368.52400  116.43340   31.49570    8.80700    3.29800    0.00950    0.20400    0.00590    2.70760   52.71950   53.07440   52.07750   98.11050
 3046.50000 2929.15060  394.79840  171.36200   31.49930    8.81220    3.32740   -0.01010    0.15200    0.00890    2.73820   50.91910   51.26400   51.29100   95.75880
 3047.00000 2316.33720  334.30040  336.89890   31.08520    8.83630    3.38620   -0.02710    0.12600    0.01050    2.76270   49.95080   50.26510   49.63850   93.99370
 3047.50000 2168.18730  205.96020  132.58000   29.46600    8.86550    3.44500   -0.03970    0.11120    0.01170    2.77750   49.86340   50.10250   49.14540   91.64200
 3048.00000 2101.77810   94.90810   60.77970   26.14370    8.89470    3.47450   -0.04610    0.10580    0.01020    2.78300   49.86440   50.10250   48.99040   91.63640
 3048.50000 2108.18210   55.43840   27.92720   24.07800    8.90810    3.40510   -0.04270    0.10170    0.00810    2.77710   49.86520   50.10250   49.64290   91.58210
 3049.00000 2129.60570   38.60260   30.77860   22.95570    8.93940    3.26380   -0.03750    0.10330    0.00660    2.76610   49.77800   50.01460   49.60530   91.03810
 3049.50000 2128.75540  215.36900  128.28790   22.51400    8.98250    3.21100   -0.02720    0.11290    0.00290    2.75220   49.58710   49.75110   49.37680   91.03230
 3050.00000 2128.02200  276.17170  232.24500   23.64370    8.98250    3.25020   -0.02080    0.12070    0.00150    2.74000   49.23640   49.57540   49.33910   91.02640
 3050.50000 2127.14260  278.62750  130.50170   26.50200    8.98250    3.28180   -0.01780    0.11470    0.00000    2.74090   49.14230   49.31190   49.33820   91.02050
 3051.00000 2126.43950  270.80590  118.54200   30.06660    9.01170    3.34260   -0.02720    0.10080   -0.00290    2.76640   49.07650   49.22250   49.07310   91.01470
