~Version ---------------------------------------------------
VERS.   2.0 : CWLS log ASCII Standard -VERSION 2.0
WRAP.    NO : One line per depth step
DLM . SPACE : Column Data Section Delimiter
~Well ------------------------------------------------------
STRT .F                   87.0 : START DEPTH
STOP .F                 4862.0 : STOP DEPTH
STEP .F                    0.5 : STEP
NULL .                -9999.25 : NULL VALUE
COMP .                         : COMPANY
WELL .                         : WELL
FLD  .                         : FIELD
LOC  .                         : LOCATION
PROV .                         : PROVINCE
CNTY .                         : COUNTY
STAT .                         : STATE
CTRY .                         : COUNTRY
SRVC .                         : SERVICE COMPANY
DATE .                         : DATE
UWI  .                         : UNIQUE WELL ID
API  .                         : API NUMBER
SLAT .WGS84 1.7507506966308917 : SURFACE LATITUDE
SLON .WGS84  7.222160552553007 : SURFACE LONGITUDE
DATUM.F                2663.53 : DEPTH DATUM ELEV
~Curve Information -----------------------------------------
DEPT.F     : 
LLD .OHMM  : LATEROLOG LOG DEEP
LLS .OHMM  : LATEROLOG LOG SHALLOW
MSFL.OHMM  : MICRO SPHERICALLY FOCUSED
GRD .GAPI  : GAMMA RAY FROM DENSITY LOG
CALD.IN    : CALIPER FROM DENSITY LOG
PEF .B/E   : PHOTOELECTRIC FACTOR
DPHI.DEC   : DENSITY POROSITY LIMESTONE
NPHI.DEC   : NEUTRON POROSITY LIMESTONE
DRHO.G/C3  : DENSITY CORRECTION
RHOB.G/C3  : BULK DENSITY
DT  .US/F  : INTERVAL TRANSIT TIME
DTL .US/F  : DELTA-T LONG SPACING
DTCO.US/F  : COMPRESSIONAL-WAVE INTERVAL TRANSIT TIME ACAUSTIC SLOWNESS
DTSM.US/F  : SHEAR-WAVE INTERVAL TRANSIT TIME DELTA-T
~Params ----------------------------------------------------
~Other -----------------------------------------------------
~ASCII -----------------------------------------------------
# ...
 3174.00000  179.02190  103.88580   15.86160   11.92550    9.25320    3.03550    0.00340    0.17530    0.00330    2.69140   55.04650   54.73680   53.85550   97.02130
 3174.50000  179.06920   92.71790   55.64900   13.92960    9.25310    2.95440    0.00580    0.16230    0.00330    2.68170   55.13350   55.04440   54.03130   97.61620
 3175.00000  205.59640   91.92910   39.44180   17.13730    9.25290    2.88850    0.01840    0.16060    0.00330    2.64960   55.04390   55.04390   54.01620   98.79770
 3175.50000  256.41210  125.46050   47.20650   20.28340    9.25280    2.83740    0.05290    0.18520    0.00330    2.61240   54.51400   54.11980   53.61200   99.39300
 3176.00000  320.15400  156.58370   83.12110   24.85310    9.25260    2.87160    0.06970    0.18980    0.00340    2.60540   52.31010   52.49540   52.29690   98.61200
 3176.50000  367.16590  195.42790   62.25340   29.47260    9.25250    3.03770    0.07350    0.18410    0.00190    2.65100   50.31960   51.08940   50.50480   96.75900
 3177.00000  311.23380  206.61140   98.16790   29.03260    9.25230    3.25110    0.05270    0.16760    0.00050    2.71750   49.56150   50.12260   49.49160   94.52400
 3177.50000  244.99620  195.55720  107.11040   25.90420    9.25220    3.54180    0.01600    0.14480    0.00050    2.75650   49.39880   49.68300   49.49850   92.72210
 3178.00000  200.64700  174.40470   66.86770   23.16700    9.25200    3.68860   -0.01980    0.12500    0.00050    2.77570   49.74980   49.50690   50.15150   91.20250
 3178.50000  172.60090  138.05010   47.64710   22.18980    9.22260    3.77670   -0.03430    0.11210    0.00050    2.77680   50.26240   49.86280   50.32730   90.06160
 3179.00000  159.54180  107.90830   72.86600   22.92290    9.22250    3.63020   -0.04320    0.11330    0.00050    2.77710   50.58410   50.58570   50.50310   91.24470
 3179.50000  158.60300   92.90560  131.46810   25.65980    9.22240    3.45440   -0.04370    0.12330   -0.00090    2.77580   50.85450   51.03100   50.76690   92.42610
 3180.00000  163.08820   89.05330  117.79220   29.32550    9.22220    3.36660   -0.03440    0.13990   -0.00090    2.77200   51.41830   51.28540   51.03080   93.60760
 3180.50000  167.69230   94.14090   50.12560   30.05870    9.22210    3.30810   -0.02610    0.15700   -0.00060    2.76510   51.59320   51.58690   51.20660   94.78910
 3181.00000  172.42640  101.99100   38.59120   25.81770    9.22190    3.30820   -0.02260    0.16770   -0.00080    2.75370   51.76820   51.91450   51.20620   94.82100
 3181.50000  177.30180  106.71630   39.71240   22.67840    9.19250    3.30840   -0.02020    0.17120    0.00070    2.74070   51.94310   52.00940   51.11770   95.39300
 3182.00000  182.53660  105.28550   54.00950   20.52790    9.19240    3.30850   -0.01530    0.17370   -0.00080    2.72910   52.11810   52.22660   51.29350   95.40180
 3182.50000  190.05280  105.32040   74.02590   19.06160    9.19230    3.27930   -0.00980    0.17540   -0.00080    2.71880   52.02860   52.22610   51.20480   95.41060
 3183.00000  196.16250  106.82230   61.10720   16.86220    9.19210    3.21070   -0.00280    0.17820   -0.00070    2.70950   51.92450   52.05000   51.20440   95.41940
 3183.50000  251.30230  123.13190   30.15020   14.66280    9.19200    3.19160    0.00510    0.18410   -0.00070    2.70110   51.82780   51.96180   51.02770   96.01470
 3184.00000  415.68920  152.89450   83.42940   13.19650    9.19180    3.26330    0.01360    0.18890   -0.00070    2.69350   51.49600   51.87350   50.93910   96.61000
 3184.50000  518.84940  206.72520  142.15100   13.17210    9.19170    3.41610    0.01200    0.17970   -0.00070    2.69120   51.15700   51.59560   50.76250   95.44720
 3185.00000  573.50350  248.65830  476.44510   13.92960    9.19150    3.54400    0.00350    0.16220   -0.00070    2.69630   50.87670   50.99410   50.67400   94.86800
 3185.50000  528.10770  208.83620  392.98960   15.83570    9.19140    3.54420   -0.00790    0.14460   -0.00060    2.70640   51.06620   51.18710   50.76170   93.11810
 3186.00000  390.03230  161.22320   47.68850   17.74180    9.19120    3.54430   -0.01560    0.13520   -0.00060    2.71820   51.66670   51.42010   50.93740   92.53960
 3186.50000  280.22230  116.49610   36.47000   19.94180    9.19110    3.51510   -0.01800    0.13220   -0.00060    2.72880   52.01790   51.90400   51.12060   92.54840
 3187.00000  204.12330   98.59330   30.70420   21.82290    9.19090    3.42730   -0.01620    0.14580   -0.00040    2.73750   52.28100   52.26240   51.20090   92.60440
 3187.50000  201.38130  104.23530   46.56610   22.72730    9.19080    3.28080   -0.01270    0.16170    0.00090    2.74110   52.54400   52.62080   51.28860   93.34840
 3188.00000  212.85600  116.46800  140.04970   22.21400    9.19060    3.07490   -0.00440    0.18240    0.00090    2.73620   52.71890   52.92420   51.25880   94.48300
 3188.50000  202.82910  128.34900   55.43230   21.82320    9.19050    3.01710    0.00570    0.19200    0.00100    2.72820   52.80580   52.83580   51.19960   94.92960
 3189.00000  187.99860  139.53750   28.71180   20.50310    9.19040    3.08080    0.01400    0.19600    0.00160    2.71320   52.52540   52.57180   51.19910   95.52490
 3189.50000  166.80200  138.12890  156.95200   18.69500    9.19020    3.24310    0.01560    0.17870    0.00250    2.69210   52.27460   52.39570   51.25000   95.53370
 3190.00000  139.63610  107.76670  748.39250   17.59530    9.19010    3.41640    0.00770    0.15890    0.00250    2.71110   52.62550   52.30750   51.55060   95.54420
 3190.50000   93.20410   90.43370  839.50990   17.22870    9.16070    3.36660   -0.00510    0.15170    0.00400    2.71830   52.99880   52.43140   51.99070   95.55260
 3191.00000   61.64650   70.62060   11.98970   17.22870    9.16050    3.14270   -0.00980    0.16880    0.00400    2.71520   53.45990   53.91180   52.78320   95.56110
 3191.50000   52.25970   47.02040   15.48530   17.59530    9.16040    2.95910    0.00020    0.19600    0.00400    2.68200   53.85480   54.15100   53.48760   96.74250
 3192.00000   90.74080   45.68270   55.65120   17.22870    9.16020    2.91770    0.03590    0.20900    0.00550    2.64060   53.58920   54.03570   53.39910   97.92400
 3192.50000  131.70240   83.83540   86.78740   16.86220    9.16010    3.01840    0.05980    0.19660    0.00700    2.62170   53.23550   53.69540   53.00950   97.91340
 3193.00000  143.09900  132.36390  129.98570   16.10460    9.15990    3.19440    0.03910    0.18360    0.00700    2.66420   52.88180   53.18740   51.59270   97.28440
 3193.50000  124.79610  115.30630   29.80910   15.34670    9.15980    3.28260    0.01850    0.17300    0.00710    2.70640   52.88060   53.00720   50.51230   96.65590
 3194.00000  103.93440   97.70680   43.08870   15.02930    9.15960    3.37070   -0.00390    0.18110    0.00710    2.72040   52.87930   53.09450   50.22550   95.44090
 3194.50000   90.84240   87.46990   32.04120   15.12710    9.15950    3.45880   -0.01220    0.18680    0.00710    2.71420   53.06150   53.26980   50.68770   95.03360
 3195.00000   82.20430   77.44800  222.69080   15.88480    9.15940    3.51760   -0.00390    0.18910    0.00520    2.69340   53.25840   53.44510   51.28180   95.04400
 3195.50000   84.04080   58.26820   50.34770   17.88830    9.15920    3.54860    0.00920    0.19150    0.00220    2.66470   53.73440   53.70820   52.54420   95.96390
 3196.00000  114.96700   48.62740   43.58040   19.40410    9.15910    3.58010    0.02370    0.19770    0.00070    2.64370   54.10760   54.05920   53.04310   97.40910
 3196.50000  147.39140   45.91410   26.31520   20.35680    9.15890    3.61150    0.03520    0.21790   -0.00240    2.63040   54.49530   54.41640   53.39510   98.00410
 3197.00000  151.55240   55.41560   47.98960   20.52790    9.15880    3.59860    0.04810    0.23150   -0.00450    2.63730   54.41320   54.58540   53.48280   99.18550
 3197.50000  155.83090   80.52980   94.09020   20.16130    9.15860    3.54760    0.05380    0.21790   -0.00450    2.65390   53.92700   53.62160   53.48240   99.78050
 3198.00000  162.45460  150.42920  251.44630   18.69500    9.15850    3.53630    0.05020    0.18950   -0.00450    2.68510   52.86850   52.77350   53.39380   99.78890
