~Version ---------------------------------------------------
VERS.   2.0 : CWLS log ASCII Standard -VERSION 2.0
WRAP.    NO : One line per depth step
DLM . SPACE : Column Data Section Delimiter
~Well ------------------------------------------------------
STRT .F                   87.0 : START DEPTH
STOP .F                 4862.0 : STOP DEPTH
STEP .F                    0.5 : STEP
NULL .                -9999.25 : NULL VALUE
COMP .                         : COMPANY
WELL .                         : WELL
FLD  .                         : FIELD
LOC  .                         : LOCATION
PROV .                         : PROVINCE
CNTY .                         : COUNTY
STAT .                         : STATE
CTRY .                         : COUNTRY
SRVC .                         : SERVICE COMPANY
DATE .                         : DATE
UWI  .                         : UNIQUE WELL ID
API  .                         : API NUMBER
SLAT .WGS84 1.7507506966308917 : SURFACE LATITUDE
SLON .WGS84  7.222160552553007 : SURFACE LONGITUDE
DATUM.F                2663.53 : DEPTH DATUM ELEV
~Curve Information -----------------------------------------
DEPT.F     : 
LLD .OHMM  : LATEROLOG LOG DEEP
LLS .OHMM  : LATEROLOG LOG SHALLOW
MSFL.OHMM  : MICRO SPHERICALLY FOCUSED
GRD .GAPI  : GAMMA RAY FROM DENSITY LOG
CALD.IN    : CALIPER FROM DENSITY LOG
PEF .B/E   : PHOTOELECTRIC FACTOR
DPHI.DEC   : DENSITY POROSITY LIMESTONE
NPHI.DEC   : NEUTRON POROSITY LIMESTONE
DRHO.G/C3  : DENSITY CORRECTION
RHOB.G/C3  : BULK DENSITY
DT  .US/F  : INTERVAL TRANSIT TIME
DTL .US/F  : DELTA-T LONG SPACING
DTCO.US/F  : COMPRESSIONAL-WAVE INTERVAL TRANSIT TIME ACAUSTIC SLOWNESS
DTSM.US/F  : SHEAR-WAVE INTERVAL TRANSIT TIME DELTA-T
~Params ----------------------------------------------------
~Other -----------------------------------------------------
~ASCII -----------------------------------------------------
# ...
 4007.00000  618.72480  314.98350  352.33830   55.82190    8.82130    3.37100   -0.00890    0.09420   -0.00460    2.69450   49.10610   49.81780   48.30660   89.30790
 4007.50000  552.98430  290.65560  628.76130   57.29530    8.82240    3.41500   -0.00020    0.10230   -0.00160    2.68380   49.90110   50.16180   48.13210   89.31080
 4008.00000  498.96300  267.63710  140.76520   54.36980    8.82360    3.35700    0.01560    0.12260    0.00140    2.67450   50.25560   50.16570   48.14570   89.46250
 4008.50000  458.77340  267.76260   29.05460   47.77870    8.82460    3.31500    0.02960    0.14210    0.00150    2.68660   50.16960   50.19940   48.26350   90.09770
 4009.00000  446.13300  260.58030   40.99620   40.00690    8.82560    3.28470    0.03140    0.15420    0.00160    2.69480   50.17180   50.64010   48.80560   90.73320
 4009.50000  425.01920  243.28490  400.64310   33.27310    8.82660    3.21340    0.02600    0.15580    0.00020    2.69140   50.48330   51.02130   49.69270   91.36850
 4010.00000  326.68220  197.80100  540.45890   27.66550    8.82760    3.15560    0.01030    0.15950   -0.00120    2.67870   51.03960   51.85130   50.65170   92.59030
 4010.50000  173.62040  105.66370   50.51430   23.26510    8.77010    3.12700    0.01140    0.17220   -0.00110    2.66860   51.59600   52.29440   51.84350   93.43450
 4011.00000  102.86300   75.66080   10.05270   19.96080    8.77110    3.12790    0.02180    0.17630   -0.00390    2.67010   52.36900   52.29810   52.46190   94.02380
 4011.50000   96.04990   66.14030   15.75650   18.01920    8.71360    3.12880    0.03030    0.21560   -0.00680    2.67640   52.64980   52.21400   53.08040   94.61320
 4012.00000  105.83800   72.13900   76.66690   17.77000    8.71460    3.07100    0.02990    0.20680   -0.00670    2.68210   52.56420   52.03980   52.99390   94.61600
 4012.50000  118.23590   78.81930   72.78210   17.77860    8.71560    3.01320    0.02700    0.19560   -0.00660    2.68480   52.21390   51.95800   52.73130   94.61880
 4013.00000  108.89910   77.77550   35.26330   17.95950    8.68210    3.01020    0.02260    0.18210   -0.00650    2.68330   52.12790   51.94260   52.28370   95.22960
 4013.50000   88.59460   69.89310   45.82730   18.52640    8.65910    2.95620    0.01750    0.17150   -0.00640    2.67700   52.13000   51.87770   52.11790   95.79770
 4014.00000   77.62810   62.67390   42.19150   19.11540    8.66020    3.01580    0.01450    0.16250   -0.00640    2.66420   52.31540   52.09480   52.14040   96.38710
 4014.50000   62.51600   53.26910   17.22000   20.74170    8.66130    3.03240    0.01430    0.15790   -0.00480    2.65310   52.61090   52.23760   52.41450   96.39000
 4015.00000   58.66470   48.50130   18.45020   21.11540    8.63790    3.10560    0.01840    0.16660   -0.00470    2.64580   52.92950   52.33020   52.63720   96.39300
 4015.50000   72.03270   49.19980   15.21240   20.38940    8.60480    3.06540    0.02480    0.17920   -0.00310    2.64980   52.93170   52.33390   52.83000   96.14490
 4016.00000   88.72780   52.02250   12.19730   17.46400    8.59030    3.09170    0.03470    0.18670   -0.00310    2.66690   52.89630   52.24980   53.09640   95.81230
 4016.50000  114.26960   58.13560   23.58420   14.90520    8.57760    3.15320    0.03650    0.17190   -0.00150    2.69360   52.40340   52.07790   53.01000   95.81580
 4017.00000  181.56940   76.69490  252.68540   15.27890    8.57880    3.19720    0.03290    0.15730    0.00010    2.71910   51.96960   51.90420   52.83520   95.23210
 4017.50000  300.92110  149.02470  181.89100   19.31820    8.57980    3.19810    0.02650    0.14170    0.00020    2.72820   51.61920   51.53000   52.48470   94.06200
 4018.00000  449.54460  235.64810  113.91860   23.12370    8.58080    3.19890    0.00880    0.12780    0.00170    2.73310   51.18080   50.99920   52.04580   92.89150
 4018.50000  596.88340  317.06550  204.54360   28.16590    8.55260    3.19980    0.00090    0.11730    0.00330    2.73880   50.47810   50.40500   51.05790   92.30810
 4019.00000  648.66560  391.32720  253.48850   28.08180    8.55360    3.14200   -0.00670    0.11370    0.00340    2.74590   49.86280   49.90060   50.34890   91.13790
 4019.50000  651.28590  436.76680  141.47020   27.41130    8.49610    3.13890   -0.01210    0.11080    0.00350    2.75220   49.66230   49.77340   49.69640   90.52210
 4020.00000  631.61370  445.40040 1114.02880   28.07930    8.49710    3.17300   -0.01700    0.10550    0.00500    2.75570   49.30400   49.64640   49.40940   89.97050
 4020.50000  435.49000  374.27350 1833.20740   29.74470    8.46880    3.20320   -0.02270    0.10190    0.00340    2.75480   49.07680   49.65020   49.37400   90.56010
 4021.00000  292.09820  291.61730  209.05300   30.00000    8.44060    3.20410   -0.02780    0.10190    0.00080    2.75300   49.11400   49.82970   49.32510   90.73330
 4021.50000  231.17220  227.43800  428.21590   30.00730    8.44170    3.20500   -0.02940    0.09250    0.00380    2.75350   49.34400   49.92130   49.32720   91.15250
 4022.00000  203.90850  211.66910  307.59490   30.56210    8.44270    3.17640   -0.02800    0.08540    0.00390    2.75890   50.14140   50.54000   49.41700   91.15540
 4022.50000  189.93470  236.37090  243.33910   32.09330    8.44370    3.21650   -0.02630    0.08670    0.00600    2.77710   50.76020   51.78220   50.38780   92.63950
 4023.00000  179.78980  223.75540   37.31380   39.56150    8.45500    3.26630   -0.02740    0.08890    0.01120    2.78950   51.90770   53.00760   51.79920   93.50790
 4023.50000  173.38060  211.81330  227.15890   48.73290    8.47500    3.35320   -0.03390    0.08600    0.01730    2.79760   52.87900   52.78520   52.06520   93.51070
 4024.00000  225.66490  208.99170  394.34810   52.77230    8.50530    3.47520   -0.03970    0.07900    0.02050    2.80060   52.61680   52.45450   51.79680   94.10000
 4024.50000  284.87860  236.81460  229.21650   51.31310    8.50630    3.44500   -0.05670    0.07710    0.02490    2.79800   52.13490   52.01330   51.52610   94.10290
 4025.00000  346.58840  275.85330   39.12860   45.82170    8.50730    3.38720   -0.05730    0.07910    0.02940    2.78950   51.12370   51.00370   51.32170   94.10570
 4025.50000  381.49180  308.26890   20.07030   36.66460    8.50850    3.35880   -0.05320    0.08120    0.04270    2.78010   50.06360   50.04120   50.98250   94.10850
 4026.00000  331.31140  274.61620  109.26300   29.70690    8.50950    3.35960   -0.04910    0.07990    0.04140    2.77350   49.71770   50.30850   49.84480   93.52480
 4026.50000  255.85070  216.42650   40.87020   23.48240    8.51050    3.36050   -0.05090    0.07590    0.03120    2.77040   50.22620   52.06920   50.00750   92.94110
 4027.00000  176.40600  174.26790   23.30360   24.31120    8.51150    3.33200   -0.05090    0.07550    0.02240    2.77500   51.20900   54.44480   50.75630   93.93590
 4027.50000  137.69950  137.29390   46.85430   29.05640    8.48320    3.27420   -0.04700    0.09810    0.01370    2.78530   52.01580   55.94870   52.60820   96.42230
 4028.00000  160.32590  121.82730  124.47120   36.96800    8.48620    3.15770   -0.03790    0.11460    0.00350    2.79370   57.21610   55.93090   53.93140   98.22870
 4028.50000  177.02010  132.09580  204.09210   43.66900    8.45600    3.09990   -0.03050    0.12160    0.00530    2.80210   56.86580   55.52710   54.19740   99.09090
 4029.00000  156.11130  145.44580  140.30810   54.62630    8.45700    3.07150   -0.03190    0.11630    0.00810    2.80410   55.45820   55.06580   54.11100   99.08880
 4029.50000  139.87290  139.74570  179.84410   55.05010    8.39640    3.17610   -0.04050    0.10040    0.00990    2.80020   55.47010   55.06830   53.83530   98.23750
 4030.00000  130.44120  126.38290  250.40190   54.32410    8.37130    3.24930   -0.05630    0.08490    0.01120    2.79300   56.02660   55.75990   53.49770   97.06790
 4030.50000  127.12290  117.66490  187.46410   54.33280    8.40160    3.19740   -0.05980    0.07510    0.00690    2.78510   56.54220   55.96650   53.89750   96.94010
 4031.00000  154.56250  121.02150   92.80210   55.08320    8.40260    3.07700   -0.05530    0.07900   -0.00040    2.77540   56.72920   55.97030   54.41770   99.41960
