~Version ---------------------------------------------------
VERS.   2.0 : CWLS log ASCII Standard -VERSION 2.0
WRAP.    NO : One line per depth step
DLM . SPACE : Column Data Section Delimiter
~Well ------------------------------------------------------
STRT .F                   87.0 : START DEPTH
STOP .F                 4862.0 : STOP DEPTH
STEP .F                    0.5 : STEP
NULL .                -9999.25 : NULL VALUE
COMP .                         : COMPANY
WELL .                         : WELL
FLD  .                         : FIELD
LOC  .                         : LOCATION
PROV .                         : PROVINCE
CNTY .                         : COUNTY
STAT .                         : STATE
CTRY .                         : COUNTRY
SRVC .                         : SERVICE COMPANY
DATE .                         : DATE
UWI  .                         : UNIQUE WELL ID
API  .                         : API NUMBER
SLAT .WGS84 1.7507506966308917 : SURFACE LATITUDE
SLON .WGS84  7.222160552553007 : SURFACE LONGITUDE
DATUM.F                2663.53 : DEPTH DATUM ELEV
~Curve Information -----------------------------------------
DEPT.F     : 
LLD .OHMM  : LATEROLOG LOG DEEP
LLS .OHMM  : LATEROLOG LOG SHALLOW
MSFL.OHMM  : MICRO SPHERICALLY FOCUSED
GRD .GAPI  : GAMMA RAY FROM DENSITY LOG
CALD.IN    : CALIPER FROM DENSITY LOG
PEF .B/E   : PHOTOELECTRIC FACTOR
DPHI.DEC   : DENSITY POROSITY LIMESTONE
NPHI.DEC   : NEUTRON POROSITY LIMESTONE
DRHO.G/C3  : DENSITY CORRECTION
RHOB.G/C3  : BULK DENSITY
DT  .US/F  : INTERVAL TRANSIT TIME
DTL .US/F  : DELTA-T LONG SPACING
DTCO.US/F  : COMPRESSIONAL-WAVE INTERVAL TRANSIT TIME ACAUSTIC SLOWNESS
DTSM.US/F  : SHEAR-WAVE INTERVAL TRANSIT TIME DELTA-T
~Params ----------------------------------------------------
~Other -----------------------------------------------------
~ASCII -----------------------------------------------------
# ...
 3345.50000  103.74650  110.28270  159.40100   37.54770    8.82560    3.33520    0.01450    0.21780    0.00210    2.67180   49.30530   51.78710   53.16410   95.14550
 3346.00000  160.79450   89.62850  146.73520   30.20970    8.79580    3.34780   -0.01080    0.18500    0.00360    2.69270   49.21790   51.69760   52.10010   93.92770
 3346.50000  179.74040   70.85540  161.59270   24.57360    8.79540    3.34710   -0.02080    0.16370    0.00510    2.71490   50.34780   51.60800   51.73040   93.05870
 3347.00000  126.99150   66.12590   60.70760   22.01390    8.76570    3.34660   -0.01320    0.15600    0.00360    2.72060   51.62570   51.78200   51.81710   92.87200
 3347.50000   59.48070   64.32610   59.05250   21.42910    8.76530    3.34600    0.00110    0.16260   -0.00080    2.74600   53.00200   52.13170   52.09760   93.65140
 3348.00000   79.44510   63.44700   47.35890   21.82300    8.70640    3.31610    0.01050    0.17440   -0.00220    2.73050   53.35330   52.67100   53.05720   94.82720
 3348.50000  100.41670   60.73440   91.90880   21.61720    8.67670    3.28620    0.01230    0.18150   -0.00520    2.70920   53.43990   53.32010   53.57360   95.41650
 3349.00000   66.39080   55.40510  204.20870   20.88760    8.61680    3.25630    0.01420    0.17780   -0.00660    2.69210   53.61490   54.28400   53.57150   96.00590
 3349.50000   45.35870   48.12580   66.00630   19.42490    8.55890    3.28790    0.01780    0.17020   -0.00660    2.68440   53.70170   54.89730   53.48170   96.05880
 3350.00000   37.62630   42.71670   35.44360   18.69530    8.52920    3.34320    0.02050    0.16970   -0.00810    2.68430   53.96480   55.72500   53.39190   96.59820
 3350.50000   37.19110   35.98040   30.59090   18.33230    8.52880    3.33560    0.02440    0.18070   -0.00660    2.68290   54.24080   55.00080   53.47830   96.60120
 3351.00000   38.93690   30.12520   35.03610   17.23610    8.52840    3.23610    0.02890    0.18390   -0.00640    2.68180   54.52950   55.05720   53.56480   96.60410
 3351.50000   38.83720   23.18350   39.79720   15.77400    8.52790    3.07400    0.03470    0.17290   -0.00340    2.67720   54.88070   55.28020   53.65710   96.60700
 3352.00000   36.66280   18.79870   16.82890   13.94470    8.54000    2.92080    0.03930    0.14910   -0.00140    2.66320   55.10500   55.19030   53.92660   96.61000
 3352.50000   35.17450   20.71090   18.53290   12.48200    8.55630    2.88590    0.04170    0.13440    0.00130    2.64550   55.07120   55.10080   54.00020   96.61290
 3353.00000   37.16400   24.45120   29.20910   12.48550    8.60140    2.97530    0.04060    0.13340    0.00430    2.63890   54.93660   54.83550   53.97150   95.44330
 3353.50000   39.81120   29.26890   57.39880   13.95540    8.64300    3.13360    0.03940    0.14320    0.00740    2.64180   54.70320   54.65810   53.84120   95.44610
 3354.00000   40.44510   30.93570   74.58420   15.81400    8.64260    3.25040    0.03700    0.14210    0.00960    2.64610   54.21820   54.39290   53.68990   95.44890
 3354.50000   36.13880   29.80000   71.41990   17.32390    8.67150    3.27920    0.03000    0.14090    0.00960    2.65020   54.04080   54.12770   53.72860   96.03830
 3355.00000   32.31580   22.19710   31.29290   17.99830    8.72950    3.24920    0.02060    0.14150    0.00670    2.65560   54.03950   54.38950   53.81470   96.62760
 3355.50000   27.68790   16.44900   17.45690   17.19040    8.75830    3.16070    0.01410    0.14980    0.00520    2.66330   54.03820   54.47570   53.90130   97.21700
 3356.00000   25.46120   14.19880   11.75270   16.43690    8.78710    3.13080    0.02030    0.17170    0.00380    2.67180   54.30120   54.59900   54.33990   97.30580
 3356.50000   26.29220   14.06890   13.48930   16.05010    8.81630    3.13340    0.02740    0.18120    0.00380    2.68130   54.47620   54.82370   54.42640   97.94350
 3357.00000   32.66530   18.61710   17.33800   15.81310    8.84480    3.22480    0.03120    0.18170    0.00670    2.68560   55.00350   54.90980   54.60080   98.39840
 3357.50000   36.66680   24.18450   31.70670   15.99170    8.84840    3.33440    0.02530    0.17090    0.00970    2.67630   54.90530   54.90780   54.42220   97.81470
 3358.00000   46.41540   28.48840   36.89890   16.38550    8.87310    3.33370    0.02040    0.16050    0.00810    2.66810   54.73660   54.81710   54.32540   97.54040
 3358.50000   52.37960   31.38620   38.45490   16.55860    8.87270    3.33310    0.01940    0.15500    0.00530    2.66950   54.60380   54.50190   54.21420   97.23460
 3359.00000   51.65560   32.71800   24.06170   16.56220    8.87220    3.30320    0.01800    0.15620    0.00380    2.67420   54.14890   54.02370   53.82730   96.65100
 3359.50000   50.94150   33.17580   22.45730   16.56570    8.87180    3.25970    0.01590    0.15910    0.00380    2.67830   53.81690   53.75850   52.94950   96.06780
 3360.00000   51.64190   33.64000   28.78150   16.56930    8.88500    3.21410    0.01510    0.16750    0.00140    2.68040   53.84430   53.93250   52.45810   95.48390
 3360.50000   53.81570   33.18020   40.06800   17.30600    8.90010    3.15470    0.01950    0.17750   -0.00260    2.68290   54.02510   54.10660   52.25570   95.48700
 3361.00000   57.73800   29.24990   19.44730   17.67610    8.89960    3.09550    0.02660    0.18720   -0.00570    2.68360   54.02350   54.28050   52.29600   96.07630
 3361.50000   62.18220   24.99450   11.54310   18.77930    8.89920    3.00700    0.03070    0.19370   -0.00420    2.68100   54.02230   54.19090   52.55830   96.66570
 3362.00000   68.79910   24.14500   50.45210   19.51610    8.89880    2.97710    0.03780    0.19780   -0.00060    2.67420   53.93290   54.10130   52.82090   97.25510
 3362.50000   71.85010   35.64730   35.72790   19.88640    8.89830    3.09380    0.03190    0.20050    0.00240    2.65770   53.75540   53.98240   52.99540   97.25810
 3363.00000   64.79930   50.27780   42.67140   19.38440    8.89790    3.23990    0.02310    0.18840    0.00390    2.65130   53.57790   53.74640   53.25800   97.26100
 3363.50000   57.31610   57.06050   59.74060   18.33390    8.89750    3.29830    0.01410    0.16480    0.00390    2.65790   53.39870   53.51390   53.25630   97.26390
 3364.00000   51.09600   48.22330   28.76530   17.58080    8.89710    3.32670    0.00890    0.14590    0.00390    2.67190   53.58000   53.30400   53.16190   97.26690
 3364.50000   44.31880   33.66120   17.26970   17.33440    8.89810    3.26310    0.00980    0.14000    0.00540    2.68490   53.66220   53.55840   52.79370   96.68330
 3365.00000   38.07700   30.13770   29.97620   17.50370    8.92880    3.20820    0.01280    0.13830    0.00540    2.69300   53.57270   53.65150   52.42580   96.10030
 3365.50000   32.71420   30.13970   41.73110   18.07550    8.95430    3.16990    0.01430    0.14090    0.00390    2.69580   53.48330   53.64940   52.28020   95.51660
 3366.00000   28.49700   28.12800   26.84200   18.44570    8.95380    3.14850    0.00900    0.14390    0.00370    2.69680   53.57030   53.73560   52.51450   96.69240
 3366.50000   24.82340   21.76230   16.50950   18.81660    8.96250    3.20650    0.00230    0.14710    0.00100    2.69800   53.65680   53.73390   53.14330   97.28170
 3367.00000   23.81440   20.75220   15.46090   19.91990    8.98220    3.27890   -0.00040    0.15240   -0.00090    2.70040   53.74360   53.90790   53.33220   97.28450
 3367.50000   27.71090   25.89360   28.38940   21.38970    8.98170    3.32260    0.00630    0.15970   -0.00240    2.70180   53.96840   54.08190   53.59460   97.87390
 3368.00000   25.19620   24.50610   34.25500   22.49300    8.96650    3.35130    0.01780    0.17150   -0.00340    2.69660   54.05380   54.34380   54.12160   97.93940
 3368.50000   23.18210   22.47940   39.38850   23.22960    8.95160    3.35060    0.01980    0.17790   -0.00120    2.68690   54.26670   54.52590   54.30180   98.46630
 3369.00000   21.97600   19.78840   29.71150   23.96630    8.95110    3.35010    0.01430    0.17210    0.00180    2.68270   54.47950   54.69180   54.48310   99.05570
 3369.50000   21.45500   17.65000   12.56690   23.59080    8.95070    3.34950    0.01080    0.16680    0.00250    2.68590   54.69240   54.68990   54.64510   99.05860
