~Version ---------------------------------------------------
VERS.   2.0 : CWLS log ASCII Standard -VERSION 2.0
WRAP.    NO : One line per depth step
DLM . SPACE : Column Data Section Delimiter
~Well ------------------------------------------------------
STRT .F                   87.0 : START DEPTH
STOP .F                 4862.0 : STOP DEPTH
STEP .F                    0.5 : STEP
NULL .                -9999.25 : NULL VALUE
COMP .                         : COMPANY
WELL .                         : WELL
FLD  .                         : FIELD
LOC  .                         : LOCATION
PROV .                         : PROVINCE
CNTY .                         : COUNTY
STAT .                         : STATE
CTRY .                         : COUNTRY
SRVC .                         : SERVICE COMPANY
DATE .                         : DATE
UWI  .                         : UNIQUE WELL ID
API  .                         : API NUMBER
SLAT .WGS84 1.7507506966308917 : SURFACE LATITUDE
SLON .WGS84  7.222160552553007 : SURFACE LONGITUDE
DATUM.F                2663.53 : DEPTH DATUM ELEV
~Curve Information -----------------------------------------
DEPT.F     : 
LLD .OHMM  : LATEROLOG LOG DEEP
LLS .OHMM  : LATEROLOG LOG SHALLOW
MSFL.OHMM  : MICRO SPHERICALLY FOCUSED
GRD .GAPI  : GAMMA RAY FROM DENSITY LOG
CALD.IN    : CALIPER FROM DENSITY LOG
PEF .B/E   : PHOTOELECTRIC FACTOR
DPHI.DEC   : DENSITY POROSITY LIMESTONE
NPHI.DEC   : NEUTRON POROSITY LIMESTONE
DRHO.G/C3  : DENSITY CORRECTION
RHOB.G/C3  : BULK DENSITY
DT  .US/F  : INTERVAL TRANSIT TIME
DTL .US/F  : DELTA-T LONG SPACING
DTCO.US/F  : COMPRESSIONAL-WAVE INTERVAL TRANSIT TIME ACAUSTIC SLOWNESS
DTSM.US/F  : SHEAR-WAVE INTERVAL TRANSIT TIME DELTA-T
~Params ----------------------------------------------------
~Other -----------------------------------------------------
~ASCII -----------------------------------------------------
# ...
 4154.00000  339.16670  189.76530   71.51200   33.76770    8.62770    3.05460    0.02460    0.11250    0.01380    2.75250   50.59390   51.01450   51.52910   93.10260
 4154.50000  124.31800  121.94670   81.01400   39.98900    8.62890    3.05670   -0.02190    0.11130    0.01360    2.76740   50.95090   50.82860   50.74270   92.89620
 4155.00000  110.15370  112.27400   33.08460   38.89370    8.63020    3.15150   -0.03860    0.11360    0.01100    2.77260   51.15450   51.30180   50.53460   92.26740
 4155.50000  113.43900  124.07840   28.42680   28.63330    8.63150    3.23230   -0.03860    0.10830    0.01110    2.77340   51.97000   51.91800   50.81500   91.93840
 4156.00000  117.21740  135.23970   34.80990   23.13830    8.63280    3.23280   -0.03920    0.10120    0.00910    2.77060   52.78630   52.70990   51.81690   92.52850
 4156.50000  129.64650  147.40360   26.95700   29.00700    8.63410    3.24430   -0.03900    0.09180    0.00760    2.76540   53.92520   54.02890   52.69880   93.70430
 4157.00000  136.87950  158.45030   47.59390   37.80820    8.63540    3.29270   -0.03720    0.08710    0.00540    2.75980   54.04530   54.03020   53.31640   94.29360
 4157.50000  144.51610  169.52650  107.28090   52.10800    8.63670    3.24830   -0.02880    0.10210    0.00410    2.75370   53.87220   53.93080   53.50520   96.05600
 4158.00000  153.00200  179.56580  205.01030   53.94440    8.63800    3.17660   -0.02160    0.11820    0.00410    2.75010   52.25770   53.29850   53.23000   96.64530
 4158.50000  164.73720  190.20110   91.78740   49.50490    8.63930    3.14790   -0.02870    0.12640    0.00420    2.75220   49.56080   51.37860   51.77930   94.30210
 4159.00000  179.22900  204.25890   37.03380   44.61070    8.64060    3.11910   -0.03980    0.11580    0.00280    2.76210   49.73960   49.81860   49.52200   91.34510
 4159.50000  190.16390  211.01480   19.37610   40.55740    8.64200    3.11970   -0.04500    0.10520    0.00290    2.77570   53.70690   50.72430   49.89530   90.78870
 4160.00000  192.96180  198.63290   87.73040   30.79210    8.64330    3.17890   -0.04970    0.09520    0.00290    2.78430   57.14550   53.00150   51.79680   91.84940
 4160.50000  190.18010  175.44560 1627.66610   34.94310    8.64480    3.23810   -0.05440    0.08290   -0.00040    2.79070   60.31990   56.62110   54.68600   96.72050
 4161.00000  166.02960  140.66680  817.43370   46.51690    8.61670    3.29740   -0.05610    0.08940   -0.00570    2.79150   60.31530   58.73580   56.09120  102.01040
 4161.50000  122.14580  120.85680   54.83880   72.94890    8.58890    3.30810   -0.03550    0.11260   -0.00240    2.78500   59.67470   59.92270   57.46770  106.30210
 4162.00000   96.92980  105.28250   35.29880   95.22180    8.59020    3.38640    0.00860    0.15120    0.00030    2.76970   59.13640   60.36820   58.24380  107.22580
 4162.50000   95.21600   91.71520  187.32640   92.83950    8.53300    3.27960    0.01290    0.16040    0.00330    2.73750   58.54630   59.11090   57.90750  106.88610
 4163.00000   95.23530   91.83210  250.40090   81.19320    8.53420    3.11660   -0.00620    0.13450    0.00340    2.69840   56.84120   58.39790   57.55610  104.88610
 4163.50000   95.25460   94.35260   82.72640   70.11430    8.50630    2.97810   -0.02340    0.10920    0.00420    2.69900   55.48860   57.80450   57.11640  101.95640
 4164.00000   96.57460   93.08580   44.65300   69.38470    8.50760    2.94900   -0.02790    0.11590    0.00650    2.73260   54.26580   56.50860   56.32430  100.78620
 4164.50000   99.24140   91.83810  147.08910   67.92200    8.50890    2.89100   -0.03160    0.13030    0.00950    2.76620   53.30220   54.75290   55.44410   99.61600
 4165.00000  100.61190   95.84000  454.22830   60.59420    8.51660    2.95020   -0.03510    0.12150    0.00990    2.76990   51.79780   53.34860   53.63550   98.44580
 4165.50000  119.26180  124.46620  125.45640   50.70040    8.54080    3.09740   -0.04390    0.11090    0.00520    2.77860   51.88850   52.03220   51.98040   94.31810
 4166.00000  181.69800  167.41460  345.27000   46.30510    8.54210    3.24460   -0.07020    0.10150    0.00090    2.80230   51.89100   51.41850   50.95320   92.58630
 4166.50000  200.65830  197.20320  549.15300   45.94210    8.54340    3.30380   -0.06960    0.08440   -0.00050    2.81530   51.80550   51.15620   51.18450   92.58940
 4167.00000  177.71950  183.70550   26.60960   46.31230    8.54470    3.24570   -0.06590    0.08030    0.00100    2.81090   51.63180   51.51300   51.57180   92.59240
 4167.50000  156.08620  162.26070  130.00200   45.87700    8.54610    3.18370   -0.05840    0.09180    0.00150    2.79560   51.10140   51.59800   51.57270   92.59530
 4168.00000  146.43600  147.33860   77.03590   42.45820    8.54760    3.12960   -0.04710    0.10690    0.00410    2.77710   50.73130   51.31950   51.38910   92.34840
 4168.50000  145.16180  135.65190   80.34260   30.27970    8.54890    3.13020   -0.03430    0.11080    0.00420    2.76280   50.08180   50.94070   50.86980   91.71960
 4169.00000  146.12020  123.17680  127.02340   23.04170    8.55010    3.14170   -0.02820    0.10400    0.00320    2.75860   49.59420   50.43290   50.51820   91.09080
 4169.50000  149.35700  123.10420  107.46600   16.38190    8.55140    3.17400   -0.02780    0.09940    0.00010    2.75880   49.64700   49.89930   49.81420   90.26100
 4170.00000  152.50030  124.97580  149.71600   14.07550    8.52340    3.19060   -0.02930    0.09720   -0.00150    2.76130   49.86780   49.92350   49.81500   90.26430
 4170.50000  154.74420  128.64420  197.38790   17.12210    8.52470    3.19130   -0.03160    0.09430   -0.00140    2.76580   50.45460   50.52390   50.08020   90.85360
 4171.00000  153.95110  132.17520  123.86820   22.76760    8.49680    3.22120   -0.03220    0.09410    0.00020    2.76830   50.64440   50.90480   50.52860   91.44300
 4171.50000  153.41780  136.30770   38.31090   28.61650    8.49810    3.22180   -0.03220    0.09840    0.00170    2.77870   50.33440   50.90610   50.87490   92.03230
 4172.00000  153.45300  161.41250   31.57560   38.28510    8.49940    3.25170   -0.03330    0.09540    0.00180    2.79320   49.72020   50.29240   50.59500   91.44860
 4172.50000  162.01420  210.01930   15.06020   40.48810    8.50070    3.25220   -0.03980    0.09010    0.00330    2.80710   49.54630   49.76660   50.23650   91.38280
 4173.00000  171.05300  285.05200   43.50370   37.92560    8.50200    3.25320   -0.05040    0.08010    0.00340    2.81680   49.81340   49.50430   50.17250   89.69470
 4173.50000  230.92760  396.67300    9.81310   34.99670    8.50340    3.31480   -0.06750    0.07200    0.00490    2.82110   50.34460   50.12050   50.51290   89.53970
 4174.00000  386.02940  531.79220   17.76560   35.73340    8.50470    3.38140   -0.07020    0.05130    0.00340    2.80940   50.96510   50.57030   51.01310   89.11390
 4174.50000  690.64420  561.35550   63.20710   39.03600    8.46170    3.43790   -0.06640    0.05790    0.00210    2.79830   50.96650   51.17730   51.23280   90.78760
 4175.00000  737.63840  550.76960    4.35890   36.47360    8.44880    3.50930   -0.05750    0.07080    0.00180    2.79220   50.73230   51.06130   51.05740   92.05280
 4175.50000  728.54690  543.39300   25.47610   33.11180    8.45040    3.57330   -0.04450    0.06750   -0.00070    2.79520   49.10010   50.22210   50.61770   91.04210
 4176.00000  708.59580  598.85380  102.61520   30.26250    8.39320    3.70970   -0.04500    0.05920   -0.00060    2.80350   49.03570   49.22180   49.47320   89.12660
 4176.50000  726.26990  707.19330  193.79300   25.35600    8.39440    3.79730   -0.05800    0.05180    0.00100    2.80790   49.07370   49.16180   49.12160   87.36990
 4177.00000  809.43410  894.92290  136.85830   24.39110    8.36650    3.69750   -0.06020    0.04710    0.00250    2.80790   49.34280   49.46620   49.21060   87.37270
 4177.50000  948.52640 1148.25700   11.30010   24.87210    8.36770    3.66080   -0.05440    0.04670    0.00260    2.79940   49.66950   49.78250   49.48170   87.37550
 4178.00000 1185.83830 1345.09580    3.70900   26.12920    8.39820    3.72790   -0.03920    0.05470    0.00560    2.78810   49.75200   49.86880   49.65290   87.37840
