~Version ---------------------------------------------------
VERS.   2.0 : CWLS log ASCII Standard -VERSION 2.0
WRAP.    NO : One line per depth step
DLM . SPACE : Column Data Section Delimiter
~Well ------------------------------------------------------
STRT .FT                 88.0 : START DEPTH
STOP .FT               4846.0 : STOP DEPTH
STEP .FT                  0.5 : STEP
NULL .               -9999.25 : NULL VALUE
COMP .                        : COMPANY
WELL .                        : WELL
FLD  .                        : FIELD
LOC  .                        : LOCATION
PROV .                        : PROVINCE
CNTY .                        : COUNTY
STAT .                        : STATE
CTRY .                        : COUNTRY
SRVC .                        : SERVICE COMPANY
DATE .                        : DATE
UWI  .                        : UNIQUE WELL ID
API  .                        : API NUMBER
SLAT .WGS84   3.0572790899949 : SURFACE LATITUDE
SLON .WGS84 8.811148618575004 : SURFACE LONGITUDE
DATUM.F                   nan : DEPTH DATUM ELEV
~Curve Information -----------------------------------------
DEPT   .FT    : 
C1     .IN    : CALIPER 1
DPHZ_LS.DEC   : HGRD STANDARD RESOLUTION DENSITY POROSITY
DTCO   .US/F  : DELTA-T COMPRESSIONAL
DTSM   .US/F  : DELTA-T SHEAR
HDRA   .G/C3  : HRDD SPINE AND RIBS DENSITY CORRECTION
PEFZ   .B/E   : HRDD STANDARD RESOLUTION FORMATION PHOTOELECTRIC FACTOR
RHOZ   .G/C3  : HRDD STANDARD RESOLUTION FORMATION DENSITY
RLA3   .OHMM  : APPARENT RESISTIVITY FROM COMPUTED FOCUSING MODE 3
RLA5   .OHMM  : APPARENT RESISTIVITY FROM COMPUTED FOCUSING MODE 5
SGRDD  .GAPI  : SPECTROSCOPY GAMMA RAY FROM DENSITY LOG
TNPH_LS.DEC   : THERMAL NEUTRON POROSITY [LIMESTONE]
~Params ----------------------------------------------------
~Other -----------------------------------------------------
~ASCII -----------------------------------------------------
# ...
 2466.50000    8.39610   -0.10040   47.42770   83.88890   -0.00180    3.92900    2.88530 2737.13780 4012.05430   69.72840    0.01490
 2467.00000    8.33260   -0.09290   47.25040   83.42220   -0.00430    3.93300    2.86260 2686.65840 3489.36440   72.88110    0.01950
 2467.50000    8.33120   -0.09090   47.14090   83.34120   -0.00690    4.01240    2.86150 2461.94920 3576.70390   64.88800    0.02250
 2468.00000    8.33770   -0.09860   47.16020   83.34540   -0.00800    4.06530    2.87750 2756.42480 2955.18970   50.43230    0.02240
 2468.50000    8.34420   -0.10520   47.02430   -9999.25   -0.00250    3.98320    2.89350 1809.16790 2768.76930   35.41340    0.02070
 2469.00000    8.34610   -0.10800   46.67410   -9999.25    0.00290    3.76470    2.89350 1633.71990 2488.52350   25.87160    0.01730
 2469.50000    8.33710   -0.09910   46.29930   -9999.25   -0.00040    3.64910    2.87920 2163.15390 4421.89680   22.29420    0.01310
 2470.00000    8.33970   -0.08800   46.11900   -9999.25   -0.00380    3.53360    2.86500 3465.32010 5970.59490   20.67550    0.01150
 2470.50000    8.34220   -0.08570   46.14290   -9999.25   -0.00640    3.52020    2.85600 4075.89570 7493.95920   20.06000    0.01150
 2471.00000    8.33990   -0.08340   46.37550   -9999.25   -0.00800    3.57040    2.85070 3755.74980 6619.03050   20.64930    0.01270
 2471.50000    8.32630   -0.07990   46.67430   -9999.25   -0.00770    3.63250    2.84580 2975.17270 4145.23980   21.25930    0.01370
 2472.00000    8.33630   -0.07850   47.23840   -9999.25   -0.00630    3.68920    2.84730 2506.82650 3860.10400   23.84180    0.01530
 2472.50000    8.32710   -0.08460   47.43790   -9999.25   -0.00480    3.68450    2.85510 2934.32790 3853.98960   27.32280    0.01940
 2473.00000    8.34140   -0.09090   47.51750   -9999.25   -0.00330    3.64900    2.86290 2262.17630 3052.62010   30.80380    0.02350
 2473.50000    8.36170   -0.09010   47.20030   -9999.25   -0.00190    3.56720    2.86830 1954.04300 2833.39560   32.19620    0.02550
 2474.00000    8.33880   -0.08790   46.74780   -9999.25   -0.00040    3.49370    2.86120 1758.50000 2026.10470   29.93080    0.02350
 2474.50000    8.30870   -0.08800   46.30870   -9999.25    0.00120    3.45360    2.85820 1992.54110 3504.85180   26.83810    0.02010
 2475.00000    8.33910   -0.09070   46.25880   -9999.25    0.00110    3.46280    2.86260 3091.69910 3971.92060   24.76970    0.01730
 2475.50000    8.30810   -0.09320   46.32040   -9999.25    0.00100    3.47200    2.86820 2466.07560 3522.77870   24.12160    0.01660
 2476.00000    8.29460   -0.09390   46.46810   -9999.25    0.00080    3.48120    2.87230 3207.36460 4866.90440   24.42600    0.01610
 2476.50000    8.28740   -0.09670   46.50380   -9999.25    0.00070    3.55170    2.87300 4121.46030 6211.03000   24.08420    0.01450
 2477.00000    8.28020   -0.09930   46.49940   -9999.25    0.00060    3.69580    2.89370 4114.32780 7201.59740   22.74130    0.01290
 2477.50000    8.27570   -0.11260   46.45520   -9999.25    0.00040    3.85580    2.91070 5144.13930 8013.15430   21.31420    0.01070
 2478.00000    8.30880   -0.11830   46.51330   -9999.25    0.00030    3.98230    2.91120 4305.35660 7521.36020   19.88700    0.01170
 2478.50000    8.32670   -0.10900   46.42220   -9999.25   -0.00020    3.98420    2.89970 4604.15960 8664.57970   19.79270    0.01460
 2479.00000    8.32270   -0.09800   46.58480   -9999.25   -0.00210    3.85100    2.88210 3341.94850 5736.35560   22.24240    0.01990
 2479.50000    8.31870   -0.09060   46.68780   -9999.25   -0.00410    3.61390    2.86450 3185.57250 4637.14420   25.46320    0.02250
 2480.00000    8.31480   -0.08150   46.48430   -9999.25   -0.00610    3.49760    2.84910 3163.83930 4882.56690   28.13240    0.02520
 2480.50000    8.28500   -0.07560   46.81180   -9999.25   -0.00810    3.48690    2.84140 3296.50210 5125.97900   27.58230    0.02660
 2481.00000    8.28250   -0.07390   46.97170   -9999.25   -0.01000    3.50210    2.83680 3716.98420 6528.32670   25.38980    0.02700
 2481.50000    8.28000   -0.07390   46.79880   -9999.25   -0.00890    3.50300    2.83940 3858.67090 6528.32670   23.45550    0.02650
 2482.00000    8.27740   -0.07850   46.67760   -9999.25   -0.00780    3.46870    2.84640 3445.15970 4733.81040   23.85150    0.02260
 2482.50000    8.28200   -0.08430   46.78750   -9999.25   -0.00720    3.43070    2.85430 2799.60820 3315.96620   24.62280    0.01880
 2483.00000    8.29130   -0.08910   46.82060   -9999.25   -0.00630    3.40600    2.86330 2303.51090 2827.46030   23.37540    0.01490
 2483.50000    8.30060   -0.09100   46.70160   -9999.25   -0.00680    3.36920    2.86300 1985.05700 2729.75910   21.75600    0.01390
 2484.00000    8.29130   -0.08210   46.98280   -9999.25   -0.00740    3.39120    2.85210 2015.94120 4092.17820   20.13670    0.01760
 2484.50000    8.28910   -0.07790   47.23910   -9999.25   -0.00750    3.45660    2.84060 2917.23770 5434.17790   20.87200    0.02310
 2485.00000    8.27560   -0.07150   47.73510   -9999.25   -0.00640    3.52200    2.82680 3603.98280 6776.17750   22.63970    0.02850
 2485.50000    8.27210   -0.06270   47.93920   -9999.25   -0.00520    3.54470    2.81030 3446.68790 6389.72220   24.21790    0.03070
 2486.00000    8.27500   -0.05390   47.88910   -9999.25   -0.00410    3.52590    2.80630 3453.54650 6289.54140   24.31950    0.02910
 2486.50000    8.27790   -0.05620   47.65860   -9999.25   -0.00300    3.51970    2.80980 3889.62000 8093.42420   22.47920    0.02420
 2487.00000    8.28090   -0.06840   47.34170   -9999.25   -0.00320    3.59250    2.82860 5045.32770 12392.13020   21.46780    0.01920
 2487.50000    8.27150   -0.08060   46.84590   -9999.25   -0.00770    3.72980    2.84740 4495.26760 9546.98920   20.02150    0.01420
 2488.00000    8.28240   -0.09110   46.53560   -9999.25   -0.00460    3.82300    2.86620 4315.48810 10881.79810   20.10140    0.01080
 2488.50000    8.27250   -0.09960   46.23100   -9999.25   -0.00140    3.72820    2.88510 4923.68780 13106.47950   22.81070    0.00990
 2489.00000    8.27510   -0.10580   46.36030   -9999.25   -0.00130    3.68890    2.88970 4552.93610 11900.46490   25.88110    0.01110
 2489.50000    8.27940   -0.09920   46.45590   -9999.25   -0.00420    3.69120    2.87920 4936.29730 9335.91080   27.26550    0.01300
 2490.00000    8.26840   -0.09150   46.24190   -9999.25   -0.00610    3.69350    2.86620 4460.65070 8304.88060   25.69460    0.01610
 2490.50000    8.25740   -0.08170   46.20990   -9999.25   -0.00690    3.61190    2.85320 3279.93690 5104.99710   23.05530    0.01920
 2491.00000    8.24650   -0.08110   46.27440   -9999.25   -0.00530    3.45390    2.84980 3722.11300 4918.27270   21.47170    0.02230
 2491.50000    8.22110   -0.08290   46.05340   -9999.25   -0.00100    3.31150    2.85200 3290.98450 4270.88550   23.93800    0.02220
 2492.00000    8.23010   -0.08320   46.03060   -9999.25    0.00080    3.26310    2.85290 2614.93000 2985.12850   26.40430    0.02300
 2492.50000    8.22100   -0.07620   46.20880   -9999.25   -0.00120    3.29300    2.83850 2441.90130 2897.45670   28.28570    0.02660
 2493.00000    8.22390   -0.06890   46.82310   -9999.25   -0.00320    3.30810    2.82140 1794.45740 2087.41210   28.91040    0.03200
 2493.50000    8.22680   -0.06120   47.42250   -9999.25   -0.00510    3.29530    2.81360 1186.76290 1577.58230   29.87700    0.03740
 2494.00000    8.22960   -0.06300   47.54530   -9999.25   -0.00710    3.28410    2.83030  503.87790  845.50840   29.21340    0.03740
 2494.50000    8.22190   -0.07660   47.35750   -9999.25   -0.00560    3.27540    2.85100  385.47660  446.03240   27.60630    0.03070
 2495.00000    8.21870   -0.09120   46.94840   -9999.25   -0.00170    3.26670    2.87160  895.80190  644.87400   24.55060    0.02400
 2495.50000    8.23190   -0.09950   46.59830   -9999.25    0.00220    3.36880    2.89050 1728.75370 2062.42560   22.94700    0.01800
 2496.00000    8.22270   -0.11140   46.11340   -9999.25    0.00250    3.49900    2.89970 2731.80270 5883.82850   24.05400    0.01200
 2496.50000    8.23130   -0.10990   45.90420   -9999.25    0.00000    3.65460    2.90090 4711.48070 7110.92100   26.39320    0.00920
