~Version ---------------------------------------------------
VERS.   2.0 : CWLS log ASCII Standard -VERSION 2.0
WRAP.    NO : One line per depth step
DLM . SPACE : Column Data Section Delimiter
~Well ------------------------------------------------------
STRT .FT                 88.0 : START DEPTH
STOP .FT               4846.0 : STOP DEPTH
STEP .FT                  0.5 : STEP
NULL .               -9999.25 : NULL VALUE
COMP .                        : COMPANY
WELL .                        : WELL
FLD  .                        : FIELD
LOC  .                        : LOCATION
PROV .                        : PROVINCE
CNTY .                        : COUNTY
STAT .                        : STATE
CTRY .                        : COUNTRY
SRVC .                        : SERVICE COMPANY
DATE .                        : DATE
UWI  .                        : UNIQUE WELL ID
API  .                        : API NUMBER
SLAT .WGS84   3.0572790899949 : SURFACE LATITUDE
SLON .WGS84 8.811148618575004 : SURFACE LONGITUDE
DATUM.F                   nan : DEPTH DATUM ELEV
~Curve Information -----------------------------------------
DEPT   .FT    : 
C1     .IN    : CALIPER 1
DPHZ_LS.DEC   : HGRD STANDARD RESOLUTION DENSITY POROSITY
DTCO   .US/F  : DELTA-T COMPRESSIONAL
DTSM   .US/F  : DELTA-T SHEAR
HDRA   .G/C3  : HRDD SPINE AND RIBS DENSITY CORRECTION
PEFZ   .B/E   : HRDD STANDARD RESOLUTION FORMATION PHOTOELECTRIC FACTOR
RHOZ   .G/C3  : HRDD STANDARD RESOLUTION FORMATION DENSITY
RLA3   .OHMM  : APPARENT RESISTIVITY FROM COMPUTED FOCUSING MODE 3
RLA5   .OHMM  : APPARENT RESISTIVITY FROM COMPUTED FOCUSING MODE 5
SGRDD  .GAPI  : SPECTROSCOPY GAMMA RAY FROM DENSITY LOG
TNPH_LS.DEC   : THERMAL NEUTRON POROSITY [LIMESTONE]
~Params ----------------------------------------------------
~Other -----------------------------------------------------
~ASCII -----------------------------------------------------
# ...
 3046.00000    8.11300   -0.04380   48.85370   82.50290   -0.00150    3.16430    2.78160   95.84990  201.05530   18.61270    0.04320
 3046.50000    8.14890   -0.04270   48.70990   82.59720   -0.00360    3.19380    2.78810  230.46670  292.60040   16.25970    0.04550
 3047.00000    8.18480   -0.04570   48.48040   82.89550   -0.00490    3.25310    2.78880  204.08470  202.61160   16.14780    0.04680
 3047.50000    8.20410   -0.04220   48.26190   82.75850   -0.00450    3.30720    2.78010  189.34730  287.24420   17.99810    0.04940
 3048.00000    8.21370   -0.04200   48.20500   82.87140   -0.00400    3.31690    2.78210  271.42060  399.18920   20.94330    0.05330
 3048.50000    8.21710   -0.04750   48.18400   83.32390   -0.00340    3.29980    2.79200  336.66870  368.44370   24.26140    0.05520
 3049.00000    8.21630   -0.05580   48.27060   83.30370   -0.00190    3.33330    2.80180  351.14920  378.89650   25.67390    0.05540
 3049.50000    8.22400   -0.06180   48.35720   83.28360    0.00060    3.41000    2.81170  325.27790  389.46410   25.76500    0.05700
 3050.00000    8.23180   -0.06450   48.59350   83.26340    0.00310    3.46050    2.82070  236.94150  327.71750   24.81590    0.06500
 3050.50000    8.23950   -0.06640   48.82360   84.15720    0.00520    3.49690    2.82370  108.75750  197.53620   23.54750    0.07110
 3051.00000    8.24060   -0.06040   49.14730   85.80240    0.00260    3.53330    2.80730  121.58800  132.31370   22.71880    0.07590
 3051.50000    8.23430   -0.04910   49.36830   84.75180   -0.00060    3.52050    2.79100  155.56550  173.67320   22.52860    0.08010
 3052.00000    8.20930   -0.03880   49.58040   85.38030   -0.00350    3.50820    2.77460  107.24160  143.05230   22.16540    0.07620
 3052.50000    8.20650   -0.03510   49.68190   86.69790   -0.00420    3.51550    2.77070  121.32260  123.70720   22.39580    0.07010
 3053.00000    8.21250   -0.03880   49.69790   85.72040   -0.00480    3.48520    2.77780  160.26240  174.74600   23.12460    0.06520
 3053.50000    8.21130   -0.04030   49.71390   84.56880   -0.00440    3.41240    2.77970  186.70780  202.61160   24.27340    0.06480
 3054.00000    8.21020   -0.03820   49.62000   85.31940   -0.00140    3.36520    2.77450   91.25460  203.86510   24.60960    0.06580
 3054.50000    8.20910   -0.03400   49.53680   86.30800    0.00160    3.39090    2.76810   85.66930   92.03670   24.99630    0.06730
 3055.00000    8.22060   -0.03000   49.41440   84.94680    0.00140    3.46000    2.76260   73.41160   85.47370   25.90810    0.06870
 3055.50000    8.21620   -0.03200   49.40290   85.29940   -0.00070    3.52850    2.76620   88.01440  150.05770   27.58650    0.06820
 3056.00000    8.21960   -0.03560   49.04220   84.67760   -0.00280    3.58790    2.77510  169.54290  282.64580   28.23330    0.06340
 3056.50000    8.21640   -0.04040   48.92040   84.08980   -0.00500    3.64730    2.78440  183.10580  198.89880   25.89110    0.05850
 3057.00000    8.22960   -0.04650   48.81580   84.48660   -0.00710    3.67850    2.79400  188.08570  206.39370   22.51060    0.05430
 3057.50000    8.24270   -0.05190   48.74570   84.88330   -0.00840    3.66090    2.80360  392.88270  462.84530   21.00150    0.05310
 3058.00000    8.26050   -0.06040   48.65050   84.08360   -0.00660    3.53460    2.81320  291.07210  388.43720   20.75680    0.05720
 3058.50000    8.26060   -0.06340   48.54240   84.51440   -0.00490    3.41970    2.82110  194.73830  230.61590   27.26400    0.06180
 3059.00000    8.26070   -0.06370   48.48390   84.56720   -0.00330    3.36280    2.81910  260.20910  309.20350   30.48510    0.06180
 3059.50000    8.26080   -0.05870   48.42530   84.25110   -0.00160    3.38330    2.81020  346.25460  448.79270   30.42770    0.06200
 3060.00000    8.26090   -0.05930   48.36680   84.05190    0.00000    3.39290    2.81910  247.13800  304.10510   28.05880    0.06100
 3060.50000    8.26100   -0.06520   48.22510   83.95840    0.00160    3.37870    2.82820  195.23040  240.85000   24.77560    0.05980
 3061.00000    8.26110   -0.07020   48.17330   83.92610    0.00160    3.39710    2.82960  174.73760  215.56950   23.77220    0.05870
 3061.50000    8.26300   -0.06150   48.16200   83.94240   -0.00020    3.42170    2.82070  255.11590  314.73220   22.55910    0.05680
 3062.00000    8.25560   -0.05580   47.99700   83.95880   -0.00140    3.44630    2.80980  264.20080  325.94200   21.26700    0.05520
 3062.50000    8.27330   -0.05320   47.95570   83.97520   -0.00310    3.46030    2.80520  239.44320  251.63480   19.71610    0.05340
 3063.00000    8.26940   -0.05690   47.92160   83.99160   -0.00510    3.43450    2.80150  239.22100  266.03680   21.73060    0.05220
 3063.50000    8.26390   -0.05120   48.43930   84.19300   -0.00700    3.37870    2.79240  337.11100  375.81230   24.67330    0.05140
 3064.00000    8.24860   -0.04750   48.62810   84.10150   -0.00610    3.30430    2.79150  385.27660  459.35580   26.81820    0.05070
 3064.50000    8.23330   -0.05440   48.68530   84.02840   -0.00500    3.22230    2.81090   52.11340  199.12950   27.26770    0.05040
 3065.00000    8.21800   -0.06440   48.69640   84.90540   -0.00390    3.23030    2.83040   51.75640  128.57580   25.42540    0.04990
 3065.50000    8.20230   -0.07110   48.77830   85.90740   -0.00280    3.30820    2.83170  219.84390  357.99800   23.48090    0.05010
 3066.00000    8.20640   -0.06360   48.78150   85.97600   -0.00270    3.39500    2.81610  166.91220  141.98330   21.71900    0.04940
 3066.50000    8.20140   -0.05220   48.92270   84.98900   -0.00360    3.33360    2.80050  132.65510  138.54410   20.34660    0.05250
 3067.00000    8.20960   -0.04610   48.91940   85.18930   -0.00450    3.27210    2.78750  137.41800  164.57950   19.55850    0.05430
 3067.50000    8.18170   -0.04650   49.03250   84.59610   -0.00490    3.19150    2.78900  164.96860  208.21440   20.03140    0.05120
 3068.00000    8.15380   -0.05030   48.98320   83.97710   -0.00480    3.11440    2.79350  139.40920  160.72570   19.59620    0.04730
 3068.50000    8.16970   -0.05090   48.88810   84.89640   -0.00470    3.11930    2.79560  165.02220  209.57500   18.60820    0.04730
 3069.00000    8.18520   -0.05010   48.76780   84.28480   -0.00460    3.15460    2.79510  160.47980  171.01150   18.36410    0.04960
 3069.50000    8.18790   -0.04820   48.57730   84.14750   -0.00460    3.23030    2.79670  134.19690  156.88740   21.10430    0.05870
 3070.00000    8.17890   -0.05340   48.24370   84.44010   -0.00450    3.33840    2.80340  120.37230  124.12910   24.50780    0.05900
 3070.50000    8.18800   -0.06170   48.16310   85.01230   -0.00440    3.39980    2.81540  348.58600  430.08320   27.45360    0.05210
 3071.00000    8.19720   -0.06990   48.10130   84.84630   -0.00350    3.42020    2.82740  260.48280  353.91420   26.55770    0.04910
 3071.50000    8.20630   -0.07090   48.03960   84.52780   -0.00260    3.39990    2.83460  292.77190  290.55560   23.74610    0.04870
 3072.00000    8.20820   -0.06860   47.99280   84.22230   -0.00180    3.37960    2.82810  328.26460  493.74960   21.33300    0.05850
 3072.50000    8.24110   -0.07100   47.95590   84.20420   -0.00090    3.35930    2.82810  176.91030  235.48160   20.96580    0.05880
 3073.00000    8.26720   -0.08050   47.85860   84.18600    0.00000    3.32260    2.84660  257.14820  361.73280   22.29010    0.05750
 3073.50000    8.25870   -0.08390   47.96740   83.93960    0.00090    3.32370    2.85440  342.14650  441.13510   24.67290    0.05440
 3074.00000    8.26590   -0.08010   47.96310   83.86590    0.00310    3.36920    2.84890  346.90340  466.65530   26.53640    0.05340
 3074.50000    8.26500   -0.07640   47.99400   83.83530   -0.00030    3.40080    2.84210  284.78260  393.57500   27.26850    0.05510
 3075.00000    8.26420   -0.07230   48.20420   83.80470   -0.00030    3.46850    2.83580  222.66180  266.19910   24.90340    0.05680
 3075.50000    8.26880   -0.07250   48.54980   83.84520    0.00360    3.50670    2.83000  199.00840  245.53500   20.88150    0.05680
 3076.00000    8.27350   -0.06400   48.81950   84.69490    0.00360    3.49550    2.81940  236.46820  291.75290   16.77120    0.05990
