~Version ---------------------------------------------------
VERS.   2.0 : CWLS log ASCII Standard -VERSION 2.0
WRAP.    NO : One line per depth step
DLM . SPACE : Column Data Section Delimiter
~Well ------------------------------------------------------
STRT .FT                 88.0 : START DEPTH
STOP .FT               4846.0 : STOP DEPTH
STEP .FT                  0.5 : STEP
NULL .               -9999.25 : NULL VALUE
COMP .                        : COMPANY
WELL .                        : WELL
FLD  .                        : FIELD
LOC  .                        : LOCATION
PROV .                        : PROVINCE
CNTY .                        : COUNTY
STAT .                        : STATE
CTRY .                        : COUNTRY
SRVC .                        : SERVICE COMPANY
DATE .                        : DATE
UWI  .                        : UNIQUE WELL ID
API  .                        : API NUMBER
SLAT .WGS84   3.0572790899949 : SURFACE LATITUDE
SLON .WGS84 8.811148618575004 : SURFACE LONGITUDE
DATUM.F                   nan : DEPTH DATUM ELEV
~Curve Information -----------------------------------------
DEPT   .FT    : 
C1     .IN    : CALIPER 1
DPHZ_LS.DEC   : HGRD STANDARD RESOLUTION DENSITY POROSITY
DTCO   .US/F  : DELTA-T COMPRESSIONAL
DTSM   .US/F  : DELTA-T SHEAR
HDRA   .G/C3  : HRDD SPINE AND RIBS DENSITY CORRECTION
PEFZ   .B/E   : HRDD STANDARD RESOLUTION FORMATION PHOTOELECTRIC FACTOR
RHOZ   .G/C3  : HRDD STANDARD RESOLUTION FORMATION DENSITY
RLA3   .OHMM  : APPARENT RESISTIVITY FROM COMPUTED FOCUSING MODE 3
RLA5   .OHMM  : APPARENT RESISTIVITY FROM COMPUTED FOCUSING MODE 5
SGRDD  .GAPI  : SPECTROSCOPY GAMMA RAY FROM DENSITY LOG
TNPH_LS.DEC   : THERMAL NEUTRON POROSITY [LIMESTONE]
~Params ----------------------------------------------------
~Other -----------------------------------------------------
~ASCII -----------------------------------------------------
# ...
  454.00000    8.88240    0.21930  102.11780   97.40650    0.00530    3.29070    2.34610    8.38090   17.69030   48.30400    0.43650
  454.50000    8.85300    0.22780  103.49810  102.75890    0.01770    3.41590    2.32900   12.57140   19.35230   49.77420    0.49770
  455.00000    8.87590    0.23470  102.80940  100.54310    0.02690    3.40290    2.30820   18.48140   30.35830   48.61120    0.47690
  455.50000    8.95550    0.22390  102.49670   94.07920    0.02970    3.33650    2.30950   17.22030   26.96890   50.06140    0.41970
  456.00000    8.95850    0.21120  101.42700   98.56960   -0.00370    3.07240    2.32960   11.27450   15.87920   52.92320    0.35550
  456.50000    8.94040    0.20220   99.77040  101.34310    0.02510    2.88050    2.34970    5.32860    8.20450   55.64860    0.30040
  457.00000    8.92230    0.20000   97.62190  100.04720    0.04650    2.83690    2.36980    4.06330    5.63190   60.44530    0.28850
  457.50000    8.93860    0.20400   95.94170   96.80750    0.00730    2.79330    2.36680    4.59170    6.04070   63.23560    0.31520
  458.00000    8.96410    0.21230   97.42510   94.62250   -0.02920    2.84700    2.35930    5.12010    7.05180   62.66350    0.33410
  458.50000    8.96190    0.22020   99.33510   97.32920   -0.03580    2.95640    2.35190    6.59580    8.41650   58.82660    0.34410
  459.00000    8.99520    0.22980  101.64660   97.28030   -0.00800    3.07820    2.33370    7.55050    9.57060   53.54280    0.38730
  459.50000    9.05000    0.23820  104.02910   94.45090   -0.00320    3.14330    2.31270    8.75440    9.18280   50.12090    0.41140
  460.00000    9.10480    0.25320  106.92540   91.81240    0.00140    3.22180    2.29180    8.45580    9.25040   47.17910    0.45060
  460.50000    9.11340    0.26320  109.69810  104.96580    0.00630    3.32970    2.27090    7.90570    7.75780   42.70200    0.46110
  461.00000    9.15070    0.27580  101.68680  111.54080    0.01630    3.49690    2.25000    7.02390    8.66790   38.64740    0.45500
  461.50000    9.23490    0.26280   97.26680  107.46020    0.01680    3.68950    2.22910    4.66500    4.85400   31.96380    0.59240
  462.00000    8.82410    0.23910   86.13240   92.12650    0.02410    3.90370    2.22980    8.99160   14.28830   24.35760    0.69970
  462.50000    8.53300    0.21530   88.57130   84.00950    0.03390    4.10390    2.28110   29.52190  103.66140   14.28260    0.70020
  463.00000    8.53970    0.19160   93.74540   79.38110    0.04360    4.18380    2.38340  568.97840  590.29920    8.89040    0.49940
  463.50000    8.66050    0.18700   97.78630   81.45300    0.05340    4.07810    2.38900  377.44420  278.54310   11.50690    0.36900
  464.00000    8.79070    0.18870   98.23370   77.58540    0.05640    3.91850    2.39120  144.60290   31.55750   21.15200    0.39980
  464.50000    8.96340    0.19160   99.56330   75.65170    0.05540    3.64910    2.39120    4.83050    4.80700   30.79710    0.46640
  465.00000    9.11940    0.20860  101.87950   94.92030    0.04860    3.47800    2.38410    8.61420    8.33790   34.01770    0.54140
  465.50000    9.15740    0.22960  104.34600   94.67910    0.04350    3.44210    2.35980   10.33810   11.97140   34.01770    0.51300
  466.00000    9.30790    0.23920  104.97100  100.93300    0.03890    3.40320    2.30950    4.68550    4.95630   39.42870    0.47750
  466.50000    9.34860    0.23580  103.69000  103.76790    0.03430    3.24260    2.30370    2.40210    2.65860   42.94150    0.46620
  467.00000    9.32110    0.22560  107.28800  100.18890    0.02070    3.06970    2.31610    2.81920    3.36010   47.40340    0.43560
  467.50000    9.16650    0.24160  117.36420  106.52280    0.00710    2.93370    2.32360    3.13670    3.61820   50.99310    0.34460
  468.00000    9.11570    0.27190  117.64040  104.18970   -0.00420    2.82600    2.32290    1.59560    1.90550   56.98140    0.30430
  468.50000    9.13750    0.29690  115.65640  101.33590   -0.00640    2.71840    2.22030    0.88260    0.99590   61.10910    0.31150
  469.00000    9.27530    0.30740  112.80630  102.52030   -0.00850    2.66530    2.18430    0.72160    0.71390   63.36380    0.34130
  469.50000    9.43450    0.30450  115.86430  103.34050   -0.00850    2.65010    2.18920    0.76200    0.81500   65.11850    0.37100
  470.00000    9.52300    0.30180  114.87630  102.12650   -0.00770    2.65570    2.19380    0.87970    0.98360   67.05140    0.36420
  470.50000    9.61160    0.29250  113.12190  102.05140   -0.00730    2.66590    2.20860    0.99740    1.05570   68.61000    0.33420
  471.00000    9.59110    0.28760  111.94360  104.24550   -0.00700    2.65980    2.21800    1.08840    1.11740   68.68740    0.34110
  471.50000    9.60080    0.28280  110.82320  109.57360   -0.00650    2.65790    2.22640    1.12480    1.16320   70.40830    0.35270
  472.00000    9.56780    0.27830  109.81800  111.71880   -0.00600    2.69230    2.23400    1.06810    1.19810   70.38490    0.35810
  472.50000    9.54970    0.27420  108.43420  118.28380   -0.00540    2.80040    2.24090    0.99740    1.28080   68.54020    0.36600
  473.00000    9.58910    0.26980  106.50300  109.00850   -0.00490    2.96500    2.24840    1.15840    1.75890   61.70660    0.39490
  473.50000    9.62840    0.26310  104.82660  109.94090   -0.00150    3.16050    2.25990    2.15920    3.81820   52.20630    0.43110
  474.00000    9.63060    0.25340  102.15680  102.29980    0.00260    3.32070    2.27900    3.94270   11.94460   47.79060    0.45290
  474.50000    9.59700    0.23850   98.30260   97.10450    0.00660    3.30160    2.30200    5.79070    8.02800   46.36810    0.47780
  475.00000    9.59930    0.22310   98.64300   92.01890    0.00550    3.23250    2.32840    2.53990    4.02050   49.46600    0.49260
  475.50000    9.57460    0.21370   99.73370   95.12680    0.00390    3.09750    2.34440    2.44580    3.74100   51.99990    0.44940
  476.00000    9.54990    0.22550  100.67260  107.55820    0.00240    2.93980    2.32430    2.36430    3.31800   53.50480    0.34930
  476.50000    9.52760    0.25590  102.45390  113.25590    0.00090    2.72960    2.27230    2.10380    2.82270   54.81220    0.30180
  477.00000    9.30580    0.28560  103.79340  102.27980    0.00130    2.51940    2.22140    1.38000    1.82130   55.54990    0.33010
  477.50000    8.86600    0.30020  102.29710  109.46020    0.00230    2.39450    2.18540    0.62810    0.90780   55.36160    0.33610
  478.00000    8.47270    0.31270  106.06080  136.56490    0.00130    2.29080    2.17510    0.52780    0.78330   53.71620    0.35640
  478.50000    8.38750    0.30720  107.87160  122.15570   -0.00210    2.28040    2.18450    0.57140    0.87240   55.17410    0.35020
  479.00000    8.39110    0.30890  109.90550  107.74660   -0.00550    2.35640    2.18160    0.48480    0.69640   58.06630    0.34640
  479.50000    8.34500    0.31990  112.85800  105.55680   -0.00790    2.44020    2.16280    0.58330    0.89760   60.31090    0.35080
  480.00000    8.34860    0.33190  115.44540  109.01730   -0.00750    2.43950    2.14230    0.50040    0.90280   58.74700    0.37470
  480.50000    8.33190    0.34200  117.46730  112.47780   -0.00710    2.37870    2.12500    0.43880    0.70630   57.15550    0.39510
  481.00000    8.31530    0.35090  118.96990  117.74930   -0.00670    2.34430    2.10990    0.39890    0.65200   56.67860    0.38650
  481.50000    8.30810    0.35800  119.88110  121.46560   -0.00670    2.32730    2.09770    0.38120    0.59740   56.86420    0.37220
  482.00000    8.36740    0.36080  120.09760  125.18190   -0.00690    2.31030    2.09290    0.37050    0.59180   56.77400    0.35930
  482.50000    8.50040    0.36190  120.37010  123.48950   -0.00710    2.31940    2.09100    0.36370    0.62110   57.28870    0.35330
  483.00000    8.61570    0.35990  119.88050  107.97070   -0.00730    2.35060    2.09450    0.36040    0.59740   59.33050    0.32580
  483.50000    8.69520    0.35340  119.06350  100.45950   -0.00760    2.36950    2.10560    0.36040    0.57920   60.94420    0.33420
  484.00000    8.73490    0.34040  116.95650   94.53780   -0.00780    2.38890    2.12790    0.36370    0.60690   60.91710    0.34890
