~Version ---------------------------------------------------
VERS.   2.0 : CWLS log ASCII Standard -VERSION 2.0
WRAP.    NO : One line per depth step
DLM . SPACE : Column Data Section Delimiter
~Well ------------------------------------------------------
STRT .FT                 88.0 : START DEPTH
STOP .FT               4846.0 : STOP DEPTH
STEP .FT                  0.5 : STEP
NULL .               -9999.25 : NULL VALUE
COMP .                        : COMPANY
WELL .                        : WELL
FLD  .                        : FIELD
LOC  .                        : LOCATION
PROV .                        : PROVINCE
CNTY .                        : COUNTY
STAT .                        : STATE
CTRY .                        : COUNTRY
SRVC .                        : SERVICE COMPANY
DATE .                        : DATE
UWI  .                        : UNIQUE WELL ID
API  .                        : API NUMBER
SLAT .WGS84   3.0572790899949 : SURFACE LATITUDE
SLON .WGS84 8.811148618575004 : SURFACE LONGITUDE
DATUM.F                   nan : DEPTH DATUM ELEV
~Curve Information -----------------------------------------
DEPT   .FT    : 
C1     .IN    : CALIPER 1
DPHZ_LS.DEC   : HGRD STANDARD RESOLUTION DENSITY POROSITY
DTCO   .US/F  : DELTA-T COMPRESSIONAL
DTSM   .US/F  : DELTA-T SHEAR
HDRA   .G/C3  : HRDD SPINE AND RIBS DENSITY CORRECTION
PEFZ   .B/E   : HRDD STANDARD RESOLUTION FORMATION PHOTOELECTRIC FACTOR
RHOZ   .G/C3  : HRDD STANDARD RESOLUTION FORMATION DENSITY
RLA3   .OHMM  : APPARENT RESISTIVITY FROM COMPUTED FOCUSING MODE 3
RLA5   .OHMM  : APPARENT RESISTIVITY FROM COMPUTED FOCUSING MODE 5
SGRDD  .GAPI  : SPECTROSCOPY GAMMA RAY FROM DENSITY LOG
TNPH_LS.DEC   : THERMAL NEUTRON POROSITY [LIMESTONE]
~Params ----------------------------------------------------
~Other -----------------------------------------------------
~ASCII -----------------------------------------------------
# ...
 2192.00000    8.19740   -0.08830   45.24870   -9999.25   -0.00320    3.39360    2.86200  181.86260  243.40710   28.54820    0.01820
 2192.50000    8.19380   -0.09320   45.27500   -9999.25   -0.00400    3.53290    2.87000  380.81680  465.91780   25.76860    0.01680
 2193.00000    8.19500   -0.09820   45.22900   -9999.25   -0.00150    3.67260    2.88190  406.20160  440.22410   24.25520    0.01260
 2193.50000    8.22840   -0.10600   45.14050   -9999.25   -0.00010    3.80390    2.89350  626.08150 1440.44230   21.11500    0.00830
 2194.00000    8.23560   -0.10900   45.08910   -9999.25    0.00140    3.88590    2.90240 1783.96210 6482.31570   17.55580    0.00460
 2194.50000    8.26260   -0.11190   45.03770   -9999.25    0.00110    3.90000    2.90560 4917.49650 7018.65530   14.60910    0.00100
 2195.00000    8.25440   -0.11360   44.87930   -9999.25    0.00070    3.85210    2.90370 4850.55510 6110.25230   13.80740    0.00000
 2195.50000    8.24620   -0.10930   44.75580   -9999.25   -0.00010    3.77750    2.89680 1949.64400 1902.33390   13.80190    0.00290
 2196.00000    8.23050   -0.10320   44.67210   -9999.25   -0.00010    3.68880    2.88660 1010.75620 1328.98500   13.78040    0.00570
 2196.50000    8.22430   -0.10020   44.58830   -9999.25   -0.00010    3.60010    2.88020  473.16720  513.51970   14.97010    0.00850
 2197.00000    8.22490   -0.09760   44.50460   -9999.25   -0.00010    3.51130    2.87750  441.73850  457.52540   16.93730    0.01050
 2197.50000    8.23870   -0.09760   44.49700   -9999.25   -0.00010    3.43980    2.88100  278.14170  325.82110   18.16450    0.01120
 2198.00000    8.26930   -0.09920   44.62150   -9999.25   -0.00010    3.43700    2.88720  312.97790  342.32220   17.15670    0.00970
 2198.50000    8.32520   -0.10390   44.74590   -9999.25   -0.00010    3.44800    2.89330  332.36290  392.57590   15.39850    0.00760
 2199.00000    8.26580   -0.10690   44.88270   -9999.25   -0.00070    3.48810    2.89280  321.29830  352.26700   15.06390    0.00710
 2199.50000    8.25730   -0.10580   45.03820   -9999.25   -0.00090    3.57430    2.88750  458.70410  498.67040   15.31000    0.00680
 2200.00000    8.26240   -0.10200   45.27960   -9999.25   -0.00020    3.69460    2.88030  456.82600  498.60070   14.64960    0.00610
 2200.50000    8.26750   -0.10070   45.47540   -9999.25   -0.00110    3.83940    2.87850  527.50710  608.57840   14.53830    0.00490
 2201.00000    8.27260   -0.09790   45.69060   79.10190   -0.00380    3.94060    2.88210  631.63320  718.55610   14.62350    0.00390
 2201.50000    8.27770   -0.10130   45.75410   79.47770   -0.00480    4.02950    2.88580 1146.16580 1506.57510   14.30160    0.00340
 2202.00000    8.28270   -0.10290   45.75520   79.94740   -0.00560    4.09050    2.89070 1668.24040 1993.66350   13.19640    0.00390
 2202.50000    8.28780   -0.10540   45.56740   79.62110   -0.00720    4.16490    2.90070 1282.54140 1680.32100   12.33900    0.00450
 2203.00000    8.28750   -0.11250   45.52720   79.26860   -0.00720    4.25980    2.91070  948.44020 1270.46900   13.42090    0.00520
 2203.50000    8.29000   -0.12120   45.48550   79.53300   -0.00490    4.29360    2.92080 1146.83540 1545.03560   14.87510    0.00640
 2204.00000    8.29180   -0.12350   45.45870   80.05340   -0.00160    4.26690    2.92430 1345.23060 1764.06960   14.90000    0.00690
 2204.50000    8.27530   -0.12460   45.51900   80.57370   -0.00030    4.24920    2.92250 1242.67260 1712.20940   13.97010    0.00610
 2205.00000    8.25890   -0.12070   45.56820   81.09410   -0.00140    4.28510    2.91600 1022.77070 1196.86710   12.58470    0.00580
 2205.50000    8.27370   -0.11690   45.61650   81.61450   -0.00320    4.21860    2.90310 1291.82240 1809.81240   14.19760    0.00850
 2206.00000    8.25330   -0.10340   45.60540   82.13480   -0.00500    4.06370    2.89050 1556.12160 2027.30750   17.85720    0.01120
 2206.50000    8.22530   -0.09730   45.51940   82.33370   -0.00430    3.81640    2.87950 1018.54880 1587.13460   21.21140    0.01390
 2207.00000    8.22610   -0.09730   45.38480   82.49360   -0.00380    3.74320    2.87740  480.97610  601.57810   21.78970    0.01500
 2207.50000    8.23260   -0.10000   45.29900   82.65340   -0.00280    3.85320    2.88540  589.58170  690.97470   21.42900    0.01510
 2208.00000    8.23900   -0.10480   45.40580   82.78050   -0.00200    4.00140    2.89490 1142.59400 1399.67280   23.02120    0.01430
 2208.50000    8.23460   -0.11450   46.00020   83.29430   -0.00130    4.14390    2.90930  903.87460 1981.35720   28.81820    0.01050
 2209.00000    8.22220   -0.12580   47.00510   83.80810   -0.00130    4.31390    2.92500  272.48190  360.88090   31.22640    0.00520
 2209.50000    8.27570   -0.13500   48.25480   84.83990   -0.00130    4.42730    2.94070  505.97080  723.74970   28.22940   -0.00210
 2210.00000    8.29250   -0.14360   49.15500   86.82170   -0.00570    4.54080    2.95650  341.62720  358.95960   21.79830   -0.00920
 2210.50000    8.28450   -0.15050   49.47540   88.80340   -0.00830    4.61740    2.96860  371.11770  426.14930   15.82680   -0.01080
 2211.00000    8.31220   -0.15110   48.75540   89.20190   -0.00800    4.39370    2.96920  431.26720  611.29990   13.09250   -0.00590
 2211.50000    8.28680   -0.13770   47.54500   86.12360   -0.00480    4.09310    2.95320  978.10890 1422.83180   12.95540   -0.00100
 2212.00000    8.24640   -0.12910   46.12810   83.04540   -0.00280    3.82520    2.93260 1854.19310 2072.05730   14.15550    0.00190
 2212.50000    8.22140   -0.12240   45.01580   81.47640   -0.00280    3.65530    2.92190 5622.08350 6839.66190   14.83310    0.00130
 2213.00000    8.21930   -0.11600   44.13760   85.62310   -0.00370    3.60520    2.90730 5755.21080 7962.83170   14.96440    0.00030
 2213.50000    8.21730   -0.10860   43.94690   84.25620   -0.00520    3.62560    2.89940 4791.45860 6378.55760   14.76140   -0.00090
 2214.00000    8.32600   -0.10510   43.99250   82.37450   -0.00510    3.62040    2.89290 4021.57090 4287.09340   14.68350   -0.00060
 2214.50000    8.33890   -0.10580   44.03010   80.49270   -0.00270    3.61430    2.89210 4165.72840 5058.66680   13.89780   -0.00150
 2215.00000    8.24120   -0.10410   43.95180   79.36530   -0.00350    3.66860    2.88520 4750.36880 5717.25580   12.79190   -0.00210
 2215.50000    8.25070   -0.10040   43.94420   79.78380   -0.00540    3.72290    2.87580 4417.36630 6008.83980   11.52990   -0.00130
 2216.00000    8.29490   -0.09170   44.50660   80.52400   -0.00650    3.75770    2.86130 5725.31310 7844.90830   12.93500   -0.00010
 2216.50000    8.27620   -0.08070   45.11840   81.40940   -0.00650    3.78770    2.84330 5063.89880 7445.76020   20.26760    0.00100
 2217.00000    8.28480   -0.07510   46.15320   82.29480   -0.00810    3.87300    2.83950 2003.20140 3489.87480   29.26890    0.00100
 2217.50000    8.30260   -0.08820   47.38610   83.48480   -0.00800    4.10970    2.87080  146.05050  155.66350   30.89860    0.00040
 2218.00000    8.32040   -0.10100   48.61890   85.77790   -0.00880    4.41590    2.90940  404.48060 1021.23710   23.02600   -0.00850
 2218.50000    8.34610   -0.14420   49.40000   88.07090   -0.00020    4.73550    2.94800 1701.61650 2103.20420   13.13220   -0.01750
 2219.00000    8.38370   -0.16740   50.04600   90.36400   -0.00100    5.05520    2.98650 4527.81770 6852.07130    5.95700   -0.02180
 2219.50000    8.40490   -0.16910   50.04250   91.74110    0.00030    5.11930    3.00310 5874.75040 12860.02350    3.69990   -0.02180
 2220.00000    8.40290   -0.16360   49.40340   90.71050    0.00150    4.90860    2.99870 14516.07580 24355.11140    3.92100   -0.01780
 2220.50000    8.36480   -0.15660   48.61440   88.81970    0.00220    4.58330    2.97480 2860.79810 8624.24170    7.69890   -0.01150
 2221.00000    8.30820   -0.14190   47.62600   86.92880    0.00140    4.25810    2.95080 2329.16990 3072.87690   13.50300   -0.00520
 2221.50000    8.31520   -0.12230   46.62220   85.03800    0.00060    3.97040    2.92890 1585.71870 2061.63660   18.34870    0.00030
 2222.00000    8.32890   -0.11120   45.60810   83.14710    0.00050    3.85450    2.90760 1721.63220 3607.43100   20.41180    0.00280
