~Version ---------------------------------------------------
VERS.   2.0 : CWLS log ASCII Standard -VERSION 2.0
WRAP.    NO : One line per depth step
DLM . SPACE : Column Data Section Delimiter
~Well ------------------------------------------------------
STRT .FT                 88.0 : START DEPTH
STOP .FT               4846.0 : STOP DEPTH
STEP .FT                  0.5 : STEP
NULL .               -9999.25 : NULL VALUE
COMP .                        : COMPANY
WELL .                        : WELL
FLD  .                        : FIELD
LOC  .                        : LOCATION
PROV .                        : PROVINCE
CNTY .                        : COUNTY
STAT .                        : STATE
CTRY .                        : COUNTRY
SRVC .                        : SERVICE COMPANY
DATE .                        : DATE
UWI  .                        : UNIQUE WELL ID
API  .                        : API NUMBER
SLAT .WGS84   3.0572790899949 : SURFACE LATITUDE
SLON .WGS84 8.811148618575004 : SURFACE LONGITUDE
DATUM.F                   nan : DEPTH DATUM ELEV
~Curve Information -----------------------------------------
DEPT   .FT    : 
C1     .IN    : CALIPER 1
DPHZ_LS.DEC   : HGRD STANDARD RESOLUTION DENSITY POROSITY
DTCO   .US/F  : DELTA-T COMPRESSIONAL
DTSM   .US/F  : DELTA-T SHEAR
HDRA   .G/C3  : HRDD SPINE AND RIBS DENSITY CORRECTION
PEFZ   .B/E   : HRDD STANDARD RESOLUTION FORMATION PHOTOELECTRIC FACTOR
RHOZ   .G/C3  : HRDD STANDARD RESOLUTION FORMATION DENSITY
RLA3   .OHMM  : APPARENT RESISTIVITY FROM COMPUTED FOCUSING MODE 3
RLA5   .OHMM  : APPARENT RESISTIVITY FROM COMPUTED FOCUSING MODE 5
SGRDD  .GAPI  : SPECTROSCOPY GAMMA RAY FROM DENSITY LOG
TNPH_LS.DEC   : THERMAL NEUTRON POROSITY [LIMESTONE]
~Params ----------------------------------------------------
~Other -----------------------------------------------------
~ASCII -----------------------------------------------------
# ...
 3625.50000    8.46100   -0.08970   45.03090   79.57020   -0.00040    3.16870    2.86590  563.86190  693.44120   38.20400    0.02430
 3626.00000    8.45730   -0.09540   45.13800   79.50550   -0.00110    3.12830    2.87240  526.43400  617.56620   39.37720    0.02330
 3626.50000    8.45730   -0.08940   45.41100   79.44070   -0.00180    3.16490    2.86070  489.48420  522.06580   41.48570    0.02660
 3627.00000    8.46100   -0.07890   45.76530   79.88620   -0.00250    3.22040    2.84190  456.70420  499.99760   40.77930    0.03030
 3627.50000    8.46320   -0.06860   46.13510   80.16850   -0.00160    3.27070    2.82640  437.85230  460.66130   38.95240    0.03790
 3628.00000    8.47440   -0.07190   46.39140   75.87510    0.00080    3.28530    2.82800  410.46860  431.16770   36.89330    0.03900
 3628.50000    8.48550   -0.07580   46.57580   72.45380    0.00330    3.29990    2.83630  385.84150  407.87370   36.66520    0.03680
 3629.00000    8.48420   -0.07700   46.69920   72.78920    0.00290    3.34420    2.84210  399.63630  437.60440   38.18550    0.03240
 3629.50000    8.50160   -0.07700   46.64920   78.75980    0.00180    3.33220    2.84410  437.85230  467.77230   41.57580    0.02870
 3630.00000    8.54210   -0.07890   46.31000   80.39220    0.00070    3.32020    2.84730  364.75300  397.51910   44.84470    0.02830
 3630.50000    8.56130   -0.08380   46.22550   79.96070   -0.00030    3.30830    2.85420  402.57360  464.21780   45.35540    0.02910
 3631.00000    8.51280   -0.08230   46.23510   79.91060   -0.00140    3.26780    2.85370  526.39080  666.07060   42.30160    0.03000
 3631.50000    8.52290   -0.07920   46.24470   79.86060   -0.00250    3.20830    2.84370  549.47260  697.79380   38.08310    0.03350
 3632.00000    8.52940   -0.07440   46.41470   78.00760   -0.00360    3.14390    2.83380  396.90500  439.29320   33.94230    0.03870
 3632.50000    8.46670   -0.06690   46.66230   75.26770   -0.00460    3.11640    2.82390  362.27910  398.01030   32.10640    0.04330
 3633.00000    8.47230   -0.06070   46.96500   73.07100   -0.00570    3.09920    2.81060  340.09700  374.20730   31.05990    0.04770
 3633.50000    8.48710   -0.05490   47.15810   72.93180   -0.00590    3.10930    2.80180  306.10170  330.78110   31.54250    0.05220
 3634.00000    8.50180   -0.05000   47.18920   73.25760   -0.00630    3.10510    2.79300  267.87030  292.39470   31.48430    0.05530
 3634.50000    8.48160   -0.04570   47.38800   73.62190   -0.00570    3.10090    2.78520  209.49890  240.62440   30.12390    0.06240
 3635.00000    8.48540   -0.04320   47.69690   73.98620   -0.00500    3.10130    2.78520  187.88450  205.72370   27.33060    0.06780
 3635.50000    8.52160   -0.04600   47.89510   74.10220   -0.00390    3.09630    2.78740  157.65900  172.90040   24.34720    0.07000
 3636.00000    8.52160   -0.04450   48.05600   74.49790   -0.00390    3.09130    2.78870  127.43350  139.29230   24.27040    0.07100
 3636.50000    8.53090   -0.04210   48.45830   76.00260   -0.00390    3.08630    2.78080  110.58820  111.02990   28.43020    0.07210
 3637.00000    8.55470   -0.03820   48.73290   79.19620   -0.00390    3.07140    2.77050  126.18190  152.81430   33.58370    0.07570
 3637.50000    8.57850   -0.03220   49.12150   84.01010   -0.00390    3.05510    2.75680  172.15480  186.44010   34.52620    0.08280
 3638.00000    8.59060   -0.02200   49.32560   85.08250   -0.00390    3.06500    2.74060  136.20920  162.46300   30.92830    0.08830
 3638.50000    8.58480   -0.00740   49.68770   85.51470   -0.00390    3.12610    2.72060   98.86330  102.50250   25.87710    0.09570
 3639.00000    8.59140   -0.00030   50.16420   86.03560   -0.00390    3.17030    2.71190  106.81130  117.37140   21.89930    0.09780
 3639.50000    8.60930   -0.00890   50.21270   86.81380   -0.00270    3.12430    2.72390  122.92560  124.88850   19.77880    0.09560
 3640.00000    8.63220   -0.01960   49.88670   86.76910   -0.00150    3.07430    2.74220  126.43650  155.06160   20.56340    0.08790
 3640.50000    8.63090   -0.02710   49.43250   86.20800   -0.00030    3.05110    2.75290  146.73230  193.49230   22.54170    0.07710
 3641.00000    8.63210   -0.02840   48.81620   85.30490   -0.00260    3.05640    2.75690  156.03620  170.05700   24.69580    0.06540
 3641.50000    8.70120   -0.02930   48.28500   84.40180   -0.00350    3.09060    2.76700  166.31460  285.27590   26.60450    0.05790
 3642.00000    8.71850   -0.03710   47.44950   83.49860   -0.00440    3.12470    2.77930  155.62040  261.33630   28.23660    0.05420
 3642.50000    8.64580   -0.04640   47.01330   83.00860   -0.00400    3.11220    2.79160  153.78130  163.70380   29.17920    0.05000
 3643.00000    8.58840   -0.05450   46.70750   82.80220   -0.00200    3.08730    2.80290  157.02810  186.30660   29.03960    0.04650
 3643.50000    8.59220   -0.06000   46.54010   82.57210    0.00000    3.05290    2.81270  158.10750  171.49660   28.24110    0.04470
 3644.00000    8.60000   -0.06200   46.48830   81.51010    0.00200    3.02410    2.82010  142.28270  157.67550   28.77410    0.04480
 3644.50000    8.59180   -0.06740   46.39170   80.41390    0.00400    3.02310    2.82440  142.25860  162.19700   28.48110    0.04760
 3645.00000    8.59960   -0.06550   46.35000   78.86770    0.00600    3.04870    2.82460  121.88280  150.03500   29.01130    0.05030
 3645.50000    8.59580   -0.06460   46.45030   77.76170    0.00790    3.05220    2.81710  165.79850  202.48390   28.11850    0.05310
 3646.00000    8.59210   -0.06000   46.70590   77.27440    0.00550    3.04530    2.80810  151.81720  153.67340   27.11850    0.05660
 3646.50000    8.59000   -0.04880   47.10640   75.80150    0.00160    3.04530    2.77790  102.93170  114.38640   24.26940    0.06290
 3647.00000    8.59060   -0.03480   47.64150   77.78590   -0.00240    3.04530    2.74780   93.56260  122.33170   20.13280    0.07010
 3647.50000    8.61870   -0.02030   48.13100   81.96290   -0.00370    3.04530    2.74030   85.13380  112.40020   17.47020    0.07870
 3648.00000    8.65370   -0.01690   48.60920   84.52390   -0.00370    3.04530    2.74100   78.79720   91.34680   16.40110    0.08290
 3648.50000    8.67300   -0.01770   49.06530   84.85980   -0.00380    3.07070    2.73880   66.10490   82.40740   18.49340    0.08840
 3649.00000    8.66860   -0.01520   49.86110   85.19560   -0.00380    3.09420    2.73160   63.81620   86.02860   19.87330    0.09470
 3649.50000    8.66740   -0.01060   49.95530   86.06530   -0.00380    3.14060    2.72870   89.41720  116.35000   20.52490    0.10060
 3650.00000    8.68000   -0.01340   49.96170   87.15290   -0.00390    3.18000    2.73830  119.14870  174.74730   20.90840    0.10350
 3650.50000    8.66680   -0.01990   49.96820   88.11680   -0.00460    3.18280    2.75020  120.85010  163.51840   22.16770    0.10110
 3651.00000    8.67510   -0.02570   49.69450   88.23200   -0.00500    3.15710    2.75640   96.70750  123.28500   23.73200    0.09270
 3651.50000    8.66090   -0.02350   49.71290   88.23030   -0.00540    3.11990    2.75160   74.24660   92.02300   22.50530    0.09070
 3652.00000    8.65720   -0.01420   49.59550   88.39110   -0.00590    3.10730    2.73130   60.77400   74.21820   20.25630    0.09610
 3652.50000    8.66940   -0.00070   49.73310   88.55190   -0.00570    3.05270    2.71090   67.62870   90.97920   18.09780    0.10340
 3653.00000    8.68150    0.01180   50.27530   88.71270   -0.00480    3.00710    2.69130   75.04000   93.26510   18.66450    0.11070
 3653.50000    8.68130    0.01280   50.52690   88.72520   -0.00390    2.97980    2.68900   68.04780   78.73000   21.44700    0.11650
 3654.00000    8.67920    0.01010   50.55470   88.70060   -0.00300    2.95240    2.69710   54.46060   62.87320   25.26180    0.11500
 3654.50000    8.67020    0.00380   50.64700   88.79470   -0.00210    2.91870    2.70510   52.85090   72.01840   29.93380    0.11150
 3655.00000    8.65620   -0.00090   50.52870   88.67550   -0.00120    2.90940    2.71140   36.43540   57.17290   31.99270    0.10780
 3655.50000    8.66060    0.00260   50.43560   87.81730   -0.00250    2.92250    2.70410   35.43160   41.10270   28.95130    0.11140
