~Version ---------------------------------------------------
VERS.   2.0 : CWLS log ASCII Standard -VERSION 2.0
WRAP.    NO : One line per depth step
DLM . SPACE : Column Data Section Delimiter
~Well ------------------------------------------------------
STRT .FT                 88.0 : START DEPTH
STOP .FT               4846.0 : STOP DEPTH
STEP .FT                  0.5 : STEP
NULL .               -9999.25 : NULL VALUE
COMP .                        : COMPANY
WELL .                        : WELL
FLD  .                        : FIELD
LOC  .                        : LOCATION
PROV .                        : PROVINCE
CNTY .                        : COUNTY
STAT .                        : STATE
CTRY .                        : COUNTRY
SRVC .                        : SERVICE COMPANY
DATE .                        : DATE
UWI  .                        : UNIQUE WELL ID
API  .                        : API NUMBER
SLAT .WGS84   3.0572790899949 : SURFACE LATITUDE
SLON .WGS84 8.811148618575004 : SURFACE LONGITUDE
DATUM.F                   nan : DEPTH DATUM ELEV
~Curve Information -----------------------------------------
DEPT   .FT    : 
C1     .IN    : CALIPER 1
DPHZ_LS.DEC   : HGRD STANDARD RESOLUTION DENSITY POROSITY
DTCO   .US/F  : DELTA-T COMPRESSIONAL
DTSM   .US/F  : DELTA-T SHEAR
HDRA   .G/C3  : HRDD SPINE AND RIBS DENSITY CORRECTION
PEFZ   .B/E   : HRDD STANDARD RESOLUTION FORMATION PHOTOELECTRIC FACTOR
RHOZ   .G/C3  : HRDD STANDARD RESOLUTION FORMATION DENSITY
RLA3   .OHMM  : APPARENT RESISTIVITY FROM COMPUTED FOCUSING MODE 3
RLA5   .OHMM  : APPARENT RESISTIVITY FROM COMPUTED FOCUSING MODE 5
SGRDD  .GAPI  : SPECTROSCOPY GAMMA RAY FROM DENSITY LOG
TNPH_LS.DEC   : THERMAL NEUTRON POROSITY [LIMESTONE]
~Params ----------------------------------------------------
~Other -----------------------------------------------------
~ASCII -----------------------------------------------------
# ...
 1887.00000    8.60020    0.02930   64.57290  113.62680   -0.00160    3.10950    2.66090   16.06220   18.01000   78.98930    0.12610
 1887.50000    8.62250    0.03090   65.00510  114.95520   -0.00360    3.14450    2.65290   17.45920   18.96150   77.42500    0.12520
 1888.00000    8.61990    0.02150   64.90200  113.65930   -0.00470    3.19640    2.66840   20.95580   23.06490   73.70120    0.11100
 1888.50000    8.62380    0.00960   63.96460  111.70300   -0.00150    3.24830    2.69110   24.45250   27.16820   67.99490    0.08890
 1889.00000    8.62760   -0.00780   61.86530  109.16600    0.00120    3.32990    2.73040   27.94910   31.27160   59.55790    0.06690
 1889.50000    8.64750   -0.03650   59.71350  106.72110   -0.00010    3.59470    2.78340   28.91620   41.30670   48.55850    0.03970
 1890.00000    8.66000   -0.07090   57.36360  103.42320   -0.00090    3.93490    2.83810   55.64800   70.55530   36.41390    0.00470
 1890.50000    8.71920   -0.10000   55.33930  101.43240    0.00010    4.24690    2.89270  201.34240  352.50000   26.18310   -0.00010
 1891.00000    8.72850   -0.11790   55.00040  100.56030    0.00050    4.47530    2.91460  212.57190  293.67460   15.95240   -0.00200
 1891.50000    8.74360   -0.10070   56.05260  101.23390    0.00030    4.38800    2.89900  286.83380  585.02550   19.35500    0.00790
 1892.00000    8.75870   -0.05090   57.44940  103.13480   -0.00040    4.13850    2.83260  118.62140  397.67990   31.53960    0.02890
 1892.50000    8.75580   -0.02710   58.91690  104.38530   -0.00110    3.90450    2.76630   27.38220   79.31670   42.52060    0.04980
 1893.00000    8.71150   -0.02780   59.71460  106.76600   -0.00180    3.73220    2.75340   19.84880   24.06990   47.99220    0.06660
 1893.50000    8.71280   -0.04600   59.75330  107.51890   -0.00190    3.80520    2.77600   24.06860   31.61890   43.69750    0.06660
 1894.00000    8.71410   -0.05960   59.04540  107.27960    0.00050    3.87820    2.80050   34.61480   50.48610   37.42360    0.05790
 1894.50000    8.70290   -0.06280   57.90530  106.62110    0.00230    3.98430    2.81280   45.16100   57.59780   33.32280    0.04830
 1895.00000    8.68850   -0.05920   56.79970  104.93160   -0.00420    4.10690    2.81500   63.59870   83.85440   29.90860    0.04100
 1895.50000    8.67410   -0.06210   56.16070  102.74000   -0.00530    4.12830    2.81720   62.60200   67.87400   28.09700    0.03880
 1896.00000    8.66270   -0.06500   55.53440  101.52850   -0.00680    4.07550    2.82650   71.96220   92.83270   26.41310    0.04340
 1896.50000    8.65330   -0.07540   54.88640  100.60760   -0.00570    4.00370    2.84890   45.80070   61.79770   24.08930    0.04190
 1897.00000    8.61270   -0.09520   54.42260   99.68660   -0.00240    4.02260    2.87120   71.81910   87.54150   22.02450    0.03490
 1897.50000    8.66220   -0.10510   54.02720   98.74340    0.00150    4.09150    2.89360  113.59570  158.80400   20.64960    0.02780
 1898.00000    8.64840   -0.10760   53.61460   98.13210    0.00380    4.13220    2.89430  122.61580  134.59570   21.21750    0.02070
 1898.50000    8.63470   -0.10540   53.15960   97.77160    0.00230    4.17290    2.89670   97.09700  102.31630   22.32940    0.01730
 1899.00000    8.60580   -0.10760   53.08680   97.62430    0.00030    4.21360    2.90840  105.64060  113.84090   21.11530    0.01730
 1899.50000    8.63070   -0.11850   53.15540   96.47870    0.00260    4.17680    2.91310  154.78220  190.65330   19.83880    0.01890
 1900.00000    8.65230   -0.10100   52.73310   96.55950    0.00930    4.00680    2.88510  139.01140  182.54850   20.35450    0.02910
 1900.50000    8.61140   -0.07730   52.54980   96.85850    0.00730    3.82720    2.83860   66.34040   77.62770   22.98740    0.03940
 1901.00000    8.57600   -0.06430   52.86960   96.81860    0.00410    3.72030    2.81940   72.16360   84.80400   24.56770    0.03790
 1901.50000    8.55610   -0.07300   53.13110   96.95630    0.00090    3.85350    2.83450   96.66280  109.48380   21.89960    0.02880
 1902.00000    8.59880   -0.08670   53.04520   97.09410   -0.00230    4.20880    2.85970  116.26740  118.71250   18.75920    0.01980
 1902.50000    8.63000   -0.10040   52.95920   97.23180   -0.00040    4.38700    2.88490  100.79170  110.34450   16.85290    0.01070
 1903.00000    8.66750   -0.10940   53.10020   97.53550    0.00100    4.58950    2.91000  148.98480  175.19160   17.46600    0.00610
 1903.50000    8.67430   -0.12180   53.31540   98.04980    0.00240    4.67810    2.92800  123.81560  154.43570   18.31670    0.00540
 1904.00000    8.68120   -0.13610   53.59820   98.69980    0.00010    4.73030    2.94420  137.08280  169.62220   18.18660    0.00510
 1904.50000    8.67640   -0.14320   53.85950   99.11570    0.00250    4.77090    2.95770  207.56910  266.08710   17.25510    0.00450
 1905.00000    8.66870   -0.14250   54.40050  100.19680   -0.00760    4.80650    2.95560  185.37450  208.01620   16.12020    0.00450
 1905.50000    8.67130   -0.13740   55.31560  100.96630   -0.01460    4.82760    2.94740  142.08010  148.82060   15.64820    0.00650
 1906.00000    8.68070   -0.13380   56.09790  101.34540   -0.01070    4.75930    2.94050  131.79210  141.27620   16.98770    0.01170
 1906.50000    8.70550   -0.13230   56.04350  101.56350   -0.00330    4.69100    2.93990   86.88600  111.13410   18.72680    0.01700
 1907.00000    8.68200   -0.13290   55.49810  100.50440    0.00410    4.60770    2.94270   43.76990   49.03000   19.09330    0.01850
 1907.50000    8.65850   -0.13540   54.48140   99.44530    0.00030    4.43860    2.93770  119.28930  165.00110   17.87920    0.01850
 1908.00000    8.65230   -0.13270   53.11850   97.49890   -0.00040    4.16510    2.92500  308.07920  358.28100   17.39400    0.01850
 1908.50000    8.55930   -0.11930   51.42150   94.96100   -0.00120    3.92230    2.90250  364.74390  394.29320   19.66280    0.02070
 1909.00000    8.50730   -0.10030   49.52510   92.57360   -0.00070    3.49680    2.88010  270.32730  313.71890   21.19860    0.02410
 1909.50000    8.47780   -0.09020   49.00710   91.68130    0.00050    3.34450    2.85770  194.13690  245.57690   21.43930    0.02380
 1910.00000    8.45380   -0.07100   50.40080   92.09130    0.00210    3.21040    2.83110  240.89820  340.31140   22.92680    0.02030
 1910.50000    8.42990   -0.04650   51.96300   92.50130    0.00280    3.14040    2.80110  159.51060  243.08050   27.71750    0.01690
 1911.00000    8.45690   -0.02110   53.45830   93.82770    0.00160    3.08030    2.77110   68.41040   97.26140   32.50810    0.01520
 1911.50000    8.48660   -0.00570   54.95360   95.38330    0.00040    3.05150    2.74110   54.10200   61.80500   36.95370    0.01430
 1912.00000    8.53800   -0.00150   56.22230   96.64930   -0.00070    3.07080    2.71110   59.79600   70.02940   37.44010    0.01130
 1912.50000    8.53370    0.00190   56.74780   97.38340   -0.00180    3.10270    2.70640   73.05930   82.32720   36.53400    0.00630
 1913.00000    8.56960    0.00360   56.65970   98.45130   -0.00290    3.13210    2.70330   86.32250   94.62500   34.99770    0.00400
 1913.50000    8.60540    0.00200   56.18820   99.02570   -0.00300    3.16160    2.70470   93.52140  101.02960   36.08750    0.00770
 1914.00000    8.59330   -0.00110   56.60500   99.35940    0.00010    3.11660    2.70820   68.98360   86.26230   39.06000    0.01630
 1914.50000    8.51290   -0.00680   57.05600   99.69310    0.00190    3.06430    2.72510   60.67150   65.32520   41.43790    0.02220
 1915.00000    8.49560   -0.02600   56.96620  100.48320    0.00080    3.21220    2.76230   56.92270   65.76240   39.77930    0.02170
 1915.50000    8.51170   -0.05140   56.62620  101.23870    0.00020    3.46860    2.79940   38.37350   44.14110   32.26750    0.01800
 1916.00000    8.57930   -0.07680   56.57870  101.73260   -0.00030    3.69760    2.83660   86.83070  154.91250   26.28150    0.01430
 1916.50000    8.57200   -0.08190   57.61600  102.62250    0.00330    3.80320    2.84440  224.45980  267.98860   22.37750    0.01820
 1917.00000    8.56830   -0.06380   59.39960  100.20820    0.00200    3.88060    2.80930   51.49050   90.02510   26.77510    0.03510
