~Version ---------------------------------------------------
VERS.   2.0 : CWLS log ASCII Standard -VERSION 2.0
WRAP.    NO : One line per depth step
DLM . SPACE : Column Data Section Delimiter
~Well ------------------------------------------------------
STRT .FT                 88.0 : START DEPTH
STOP .FT               4846.0 : STOP DEPTH
STEP .FT                  0.5 : STEP
NULL .               -9999.25 : NULL VALUE
COMP .                        : COMPANY
WELL .                        : WELL
FLD  .                        : FIELD
LOC  .                        : LOCATION
PROV .                        : PROVINCE
CNTY .                        : COUNTY
STAT .                        : STATE
CTRY .                        : COUNTRY
SRVC .                        : SERVICE COMPANY
DATE .                        : DATE
UWI  .                        : UNIQUE WELL ID
API  .                        : API NUMBER
SLAT .WGS84   3.0572790899949 : SURFACE LATITUDE
SLON .WGS84 8.811148618575004 : SURFACE LONGITUDE
DATUM.F                   nan : DEPTH DATUM ELEV
~Curve Information -----------------------------------------
DEPT   .FT    : 
C1     .IN    : CALIPER 1
DPHZ_LS.DEC   : HGRD STANDARD RESOLUTION DENSITY POROSITY
DTCO   .US/F  : DELTA-T COMPRESSIONAL
DTSM   .US/F  : DELTA-T SHEAR
HDRA   .G/C3  : HRDD SPINE AND RIBS DENSITY CORRECTION
PEFZ   .B/E   : HRDD STANDARD RESOLUTION FORMATION PHOTOELECTRIC FACTOR
RHOZ   .G/C3  : HRDD STANDARD RESOLUTION FORMATION DENSITY
RLA3   .OHMM  : APPARENT RESISTIVITY FROM COMPUTED FOCUSING MODE 3
RLA5   .OHMM  : APPARENT RESISTIVITY FROM COMPUTED FOCUSING MODE 5
SGRDD  .GAPI  : SPECTROSCOPY GAMMA RAY FROM DENSITY LOG
TNPH_LS.DEC   : THERMAL NEUTRON POROSITY [LIMESTONE]
~Params ----------------------------------------------------
~Other -----------------------------------------------------
~ASCII -----------------------------------------------------
# ...
 1612.50000    8.72550   -0.00570   61.38600  110.48020   -0.00400    3.69930    2.72580   38.22700   50.64630   42.96060    0.03370
 1613.00000    8.70910    0.00020   60.68460  108.55980   -0.00520    3.60150    2.70920   42.28890   56.74810   44.35910    0.03660
 1613.50000    8.69270    0.00810   61.90540  109.64430   -0.00380    3.53310    2.69260   37.53770   51.12910   48.32700    0.04400
 1614.00000    8.70480    0.01490   62.82580  111.75640   -0.00200    3.65500    2.68780   30.40640   42.78950   51.17170    0.06340
 1614.50000    8.72520    0.00390   62.78670  111.80130   -0.00070    3.77700    2.68890   15.72920   26.60890   52.15520    0.06890
 1615.00000    8.71000   -0.03410   61.74810  111.50080   -0.00190    3.99880    2.74120   16.39110   24.08260   43.93120    0.05030
 1615.50000    8.70200   -0.08080   59.97030  110.81740   -0.00300    4.36550    2.82630   38.98110   63.73760   31.92640    0.02760
 1616.00000    8.73150   -0.10140   57.87300  109.36200   -0.00360    4.70640    2.91140  259.20630  654.58600   19.01340    0.00090
 1616.50000    8.69490   -0.13600   56.94560  106.73300   -0.00360    4.94370    2.94450  792.48950  839.10890   10.68080    0.00000
 1617.00000    8.65830   -0.12660   56.64070  104.98580   -0.00190    4.99270    2.93500  474.61520  767.30520    8.85840    0.00760
 1617.50000    8.66720   -0.11270   57.04080  105.75420   -0.00070    4.95280    2.89830  125.68920  443.78140   13.07660    0.02170
 1618.00000    8.69130   -0.10480   57.53840  106.05000    0.00030    4.94360    2.89080   30.59910   34.99450   15.51320    0.02720
 1618.50000    8.70010   -0.12150   57.30920  104.97020    0.00040    5.01030    2.92490  482.34550  135.02600   12.39960    0.01060
 1619.00000    8.67270   -0.14240   56.09300  103.41730    0.00060    5.07510    2.96680 1606.83900 1748.47860    8.02540   -0.00600
 1619.50000    8.63600   -0.16050   54.48020  101.54890    0.00070    5.08720    3.00040 2075.81930 4102.64750    4.74360   -0.01290
 1620.00000    8.59940   -0.16830   52.41920   99.21880    0.00090    5.06550    3.00040 2048.62490 3053.71160    4.05390   -0.01650
 1620.50000    8.55390   -0.16570   51.27810   97.42440    0.00100    5.05880    2.99550 1013.98610 2004.71740    4.26040   -0.01650
 1621.00000    8.54860   -0.16010   52.17940   95.88440    0.00100    5.02950    2.98870  341.49810  395.36690    5.66940   -0.01500
 1621.50000    8.54550   -0.15570   52.22540   96.43710    0.00100    5.02480    2.98190  613.64110  781.56830    7.54830   -0.01160
 1622.00000    8.50670   -0.14690   52.53250   97.42040    0.00100    5.00560    2.95930  189.36520  974.57640    9.68020   -0.00720
 1622.50000    8.48950   -0.13330   53.01450   98.40380    0.00030    4.90620    2.93370  126.37160  131.01330   11.59520   -0.00100
 1623.00000    8.48480   -0.11580   53.44540   99.38710   -0.00080    4.65730    2.90620  135.31270  145.41070   13.97700    0.00990
 1623.50000    8.48010   -0.09820   53.82490   99.39900   -0.00150    4.33090    2.87870   71.04780   79.45870   16.40500    0.02040
 1624.00000    8.45810   -0.08570   54.00270   99.55230   -0.00220    3.88200    2.85120   84.33420  109.48710   19.71160    0.03070
 1624.50000    8.43370   -0.07150   54.51460  100.06700   -0.00290    3.56060    2.82370  103.53480   97.88350   23.42120    0.04590
 1625.00000    8.40690   -0.05660   55.39960  100.72140   -0.00210    3.38980    2.79250   99.34930   84.42750   28.38180    0.05520
 1625.50000    8.38900   -0.04080   55.88090  101.52130   -0.00360    3.37730    2.75980   75.77050   62.42190   34.42050    0.06080
 1626.00000    8.42240   -0.02790   56.96290  102.65150   -0.00250    3.59680    2.75300   52.19160   40.41640   40.95490    0.05780
 1626.50000    8.40850   -0.04170   57.33610  103.80170   -0.00130    4.01510    2.79850   55.46920   44.59370   44.18300    0.04730
 1627.00000    8.39450   -0.07460   57.08270  103.62570   -0.00130    4.36840    2.85550   29.93910   37.96090   38.31200    0.03000
 1627.50000    8.46660   -0.10140   56.84250  102.41120   -0.00130    4.74330    2.91240   31.19100   78.96150   31.09920    0.01270
 1628.00000    8.52860   -0.13210   55.93390  101.86780    0.00090    4.94310    2.93600  223.95860  309.16170   23.88630    0.00340
 1628.50000    8.54710   -0.12990   54.70660  100.68300    0.00270    5.03860    2.93600  114.59500  355.15970   17.18500   -0.00540
 1629.00000    8.57000   -0.14020   53.70520   99.02340   -0.00250    5.03860    2.95390  114.97340  269.90380   13.84800   -0.00640
 1629.50000    8.57760   -0.13990   53.13640   98.73900   -0.01220    5.00750    2.95390  534.99030  720.91960   12.90570   -0.00540
 1630.00000    8.58520   -0.12230   53.98140   98.88290   -0.02000    4.81170    2.92020  238.14420  422.72400   14.63210   -0.00200
 1630.50000    8.63720   -0.10120   54.88270   99.71510   -0.01510    4.61590    2.87900  163.06260  180.09300   21.10680    0.00900
 1631.00000    8.64870   -0.07090   55.72940  100.65660   -0.00300    4.42010    2.83780   71.89030  123.70570   27.58140    0.01990
 1631.50000    8.65920   -0.05080   56.70420  101.44510   -0.00130    4.25030    2.79660   35.99330   38.54520   31.39010    0.03090
 1632.00000    8.65280   -0.05800   57.59010  102.23360   -0.00020    4.14620    2.80470   35.99330   61.85280   29.91200    0.02690
 1632.50000    8.64280   -0.07340   57.68900  102.40290    0.00250    4.04210    2.83940  107.69110  108.46800   25.72450    0.02000
 1633.00000    8.64630   -0.08470   57.88240  102.62640    0.00370    3.96680    2.85500  105.50080  108.87400   22.30080    0.01560
 1633.50000    8.64990   -0.07670   58.03130  102.15270    0.00130    3.88170    2.84050  156.77550  205.96220   24.36350    0.02150
 1634.00000    8.66100   -0.05860   57.75790  102.26400   -0.00110    3.78340    2.81730   76.98670  209.05500   28.52730    0.02890
 1634.50000    8.65600   -0.05040   57.90360  102.24480   -0.00210    3.74250    2.79860   29.30790   67.54860   33.05000    0.03340
 1635.00000    8.65420   -0.05700   58.18330  101.81820   -0.00290    3.83530    2.80280   42.40350   87.54940   29.99800    0.02420
 1635.50000    8.65670   -0.06460   58.19620  102.10930   -0.00090    4.03270    2.81980  109.87600  143.99640   27.10250    0.01680
 1636.00000    8.63510   -0.06270   57.94380  101.62090    0.00100    4.04960    2.81490  110.85070  130.06010   25.75460    0.01530
 1636.50000    8.60930   -0.05440   57.21360  101.13260    0.00040    3.99150    2.79060  106.65840  113.39790   27.16830    0.01380
 1637.00000    8.59900   -0.03840   56.81990   99.95000   -0.00190    3.86410    2.76640   94.98340  110.67620   28.59830    0.01230
 1637.50000    8.61210   -0.02120   57.04780   98.94810   -0.00420    3.75130    2.74210   81.42710   90.35370   30.99480    0.01080
 1638.00000    8.62060   -0.01310   56.73100   98.88370   -0.00650    3.74400    2.73240   86.49440   92.02900   33.16840    0.00930
 1638.50000    8.61090   -0.02570   56.49040   99.24190   -0.00830    3.84850    2.74060   73.38280   82.44500   33.08460    0.00780
 1639.00000    8.60130   -0.04990   56.67640   99.66700   -0.00640    4.04870    2.78160   81.73040   98.44750   30.25850    0.00660
 1639.50000    8.61080   -0.07200   56.85560  100.09200   -0.00450    4.27860    2.82260  135.24170  193.28830   26.45630    0.00880
 1640.00000    8.59500   -0.09170   56.69250  101.71640   -0.00120    4.55470    2.86040   88.42290  161.87020   24.84380    0.01430
 1640.50000    8.58560   -0.10970   56.12780  102.94010   -0.00760    4.65690    2.89820   41.35450   47.76420   23.49610    0.01270
 1641.00000    8.59580   -0.13050   55.43270  103.15720   -0.01660    4.80190    2.93590   96.24870  148.02400   17.98700    0.00330
 1641.50000    8.56090   -0.14660   54.46920  102.10050   -0.02550    4.96150    2.95920  379.41300  643.92200   11.43720   -0.00620
 1642.00000    8.50360   -0.14130   53.79690  100.49270   -0.03240    4.94100    2.94400  829.35080 1203.45800    6.35370   -0.01090
 1642.50000    8.48920   -0.11810   53.25760   99.03390   -0.02840    4.77920    2.90650 1053.79890 1338.34820    9.48080   -0.00720
