~Version ---------------------------------------------------
VERS.   2.0 : CWLS log ASCII Standard -VERSION 2.0
WRAP.    NO : One line per depth step
DLM . SPACE : Column Data Section Delimiter
~Well ------------------------------------------------------
STRT .FT                 88.0 : START DEPTH
STOP .FT               4846.0 : STOP DEPTH
STEP .FT                  0.5 : STEP
NULL .               -9999.25 : NULL VALUE
COMP .                        : COMPANY
WELL .                        : WELL
FLD  .                        : FIELD
LOC  .                        : LOCATION
PROV .                        : PROVINCE
CNTY .                        : COUNTY
STAT .                        : STATE
CTRY .                        : COUNTRY
SRVC .                        : SERVICE COMPANY
DATE .                        : DATE
UWI  .                        : UNIQUE WELL ID
API  .                        : API NUMBER
SLAT .WGS84   3.0572790899949 : SURFACE LATITUDE
SLON .WGS84 8.811148618575004 : SURFACE LONGITUDE
DATUM.F                   nan : DEPTH DATUM ELEV
~Curve Information -----------------------------------------
DEPT   .FT    : 
C1     .IN    : CALIPER 1
DPHZ_LS.DEC   : HGRD STANDARD RESOLUTION DENSITY POROSITY
DTCO   .US/F  : DELTA-T COMPRESSIONAL
DTSM   .US/F  : DELTA-T SHEAR
HDRA   .G/C3  : HRDD SPINE AND RIBS DENSITY CORRECTION
PEFZ   .B/E   : HRDD STANDARD RESOLUTION FORMATION PHOTOELECTRIC FACTOR
RHOZ   .G/C3  : HRDD STANDARD RESOLUTION FORMATION DENSITY
RLA3   .OHMM  : APPARENT RESISTIVITY FROM COMPUTED FOCUSING MODE 3
RLA5   .OHMM  : APPARENT RESISTIVITY FROM COMPUTED FOCUSING MODE 5
SGRDD  .GAPI  : SPECTROSCOPY GAMMA RAY FROM DENSITY LOG
TNPH_LS.DEC   : THERMAL NEUTRON POROSITY [LIMESTONE]
~Params ----------------------------------------------------
~Other -----------------------------------------------------
~ASCII -----------------------------------------------------
# ...
 2771.50000    8.17550   -0.06860   47.42910   -9999.25   -0.00210    3.36070    2.82700  827.45640  946.49790   35.99120    0.02090
 2772.00000    8.16840   -0.09110   47.06540   -9999.25   -0.00050    3.46790    2.85510 1353.40840 1971.92570   34.59680    0.01690
 2772.50000    8.20020   -0.09940   46.60350   -9999.25    0.00110    3.41710    2.88610 2032.81530 5430.88010   32.66300    0.01700
 2773.00000    8.22060   -0.09540   46.11160   -9999.25    0.00050    3.37710    2.88610 1976.55860 3304.93470   28.48180    0.01750
 2773.50000    8.22160   -0.09190   46.06380   75.91190    0.00000    3.36900    2.87040 1598.09880 2049.41390   22.01180    0.01740
 2774.00000    8.22960   -0.09360   46.33100   75.74430   -0.00060    3.45980    2.86580 1511.11780 1996.39590   16.48100    0.01630
 2774.50000    8.24810   -0.09900   46.47190   77.25370   -0.00120    3.59460    2.88810 2032.81530 5430.88010   13.31130    0.01450
 2775.00000    8.26670   -0.10810   46.39690   76.18200   -0.00170    3.72940    2.89700 4496.04980 6336.29840   13.82730    0.01450
 2775.50000    8.28020   -0.10470   46.16560   78.53460   -0.00230    3.80060    2.89050 3067.20940 6336.29840   17.50100    0.01530
 2776.00000    8.25590   -0.10360   45.93960   78.60210   -0.00220    3.79510    2.88830 1734.30600 2074.86450   21.79130    0.01690
 2776.50000    8.26010   -0.10550   45.89090   74.40250   -0.00020    3.77940    2.89350 1522.24420 1775.61650   25.35630    0.01770
 2777.00000    8.27720   -0.10580   46.04940   76.86230    0.00010    3.74860    2.89550 1814.37820 1996.39590   27.36130    0.01880
 2777.50000    8.27610   -0.10000   46.38720   79.76940   -0.00410    3.59620    2.86670 1789.07310 1996.39590   27.70670    0.02020
 2778.00000    8.27490   -0.07390   46.96350   79.76940   -0.00540    3.42010    2.84020 1567.25550 1666.74490   26.72590    0.02080
 2778.50000    8.27380   -0.06540   47.42400   79.76940   -0.00650    3.33280    2.82000 1341.50950 1430.85540   24.85180    0.01910
 2779.00000    8.27270   -0.06180   47.47330   80.44020   -0.00770    3.35250    2.81540  690.26700  839.66590   23.72480    0.01740
 2779.50000    8.25320   -0.06700   47.23680   74.73800   -0.00820    3.37220    2.82390  548.34360  574.30580   23.52210    0.01810
 2780.00000    8.24810   -0.07350   46.69960   74.42140   -0.00770    3.40040    2.83420 1116.42240 1971.92570   24.99890    0.02320
 2780.50000    8.32350   -0.07940   46.08820   74.22150   -0.00730    3.36950    2.84450 1873.86630 2261.98920   26.65060    0.02830
 2781.00000    8.30270   -0.07940   45.86760   74.06160   -0.00680    3.31050    2.84780 1513.30820 1987.18310   27.63670    0.03330
 2781.50000    8.28190   -0.07910   45.73910   73.94150   -0.00640    3.24430    2.84460  773.54490  956.65710   25.56980    0.03820
 2782.00000    8.27830   -0.07710   45.99580   74.17180   -0.00590    3.23570    2.84130  773.54490  791.47740   22.44880    0.03840
 2782.50000    8.28610   -0.07520   46.04200   74.40220   -0.00540    3.30450    2.83340  822.63460  889.88840   19.32780    0.03820
 2783.00000    8.29390   -0.06790   46.13940   74.49010   -0.00690    3.41860    2.82550  877.76950 1012.95150   20.04160    0.03670
 2783.50000    8.28510   -0.06790   46.04040   74.54240   -0.00660    3.50550    2.82570  941.61570  971.92760   22.50210    0.03430
 2784.00000    8.27630   -0.07150   46.27480   74.61170   -0.00630    3.51020    2.83070  768.13170  964.17480   24.76990    0.03140
 2784.50000    8.28680   -0.07550   46.39220   73.97980   -0.00600    3.51490    2.83580  898.97360 1115.66460   25.33970    0.03030
 2785.00000    8.31010   -0.07400   46.58640   73.01430   -0.00610    3.51960    2.83700 1014.42140 1174.56750   24.34920    0.02960
 2785.50000    8.33340   -0.07230   46.76410   73.41040   -0.00630    3.50710    2.83680  818.60510  859.92070   21.62440    0.02800
 2786.00000    8.34510   -0.07400   46.91690   73.60720   -0.00650    3.49700    2.84510  662.81390  731.88250   18.62260    0.02630
 2786.50000    8.36630   -0.08330   46.90460   73.59840   -0.00460    3.49110    2.85660  583.75140  686.79840   19.32500    0.02550
 2787.00000    8.39650   -0.09560   46.83130   73.58960   -0.00020    3.49550    2.87780  695.99380  888.58900   24.33130    0.02570
 2787.50000    8.38150   -0.10540   46.64380   73.42680    0.00420    3.45970    2.89910  975.68350 1090.77040   31.94110    0.02590
 2788.00000    8.36280   -0.11280   46.55750   73.52410    0.00500    3.43880    2.90390 1017.23350 1145.93980   36.20190    0.02600
 2788.50000    8.34410   -0.10090   46.51560   73.63690    0.00470    3.41790    2.88710  968.43980 1145.93980   34.71710    0.02520
 2789.00000    8.34470   -0.08910   46.54050   73.77350    0.00440    3.40350    2.86700  921.98660 1014.51270   30.76700    0.02900
 2789.50000    8.36200   -0.07900   46.56540   73.79180    0.00410    3.38400    2.84890  675.88870  900.93130   27.52630    0.03280
 2790.00000    8.35060   -0.07470   46.62060   73.74820    0.00390    3.37580    2.83850  469.85440  480.24420   26.66150    0.03660
 2790.50000    8.33920   -0.07670   46.64190   73.70470    0.00360    3.35430    2.83680  483.33090  608.20190   25.26190    0.03600
 2791.00000    8.33820   -0.08260   46.66080   73.66110    0.00330    3.33280    2.85170  769.16640  920.60980   23.80290    0.03180
 2791.50000    8.33730   -0.08700   46.58360   73.65330    0.00300    3.30650    2.85850  996.65320 1132.64360   23.08440    0.02730
 2792.00000    8.34880   -0.08290   46.54760   73.78870    0.00280    3.27310    2.85280 1025.27390 1164.49090   22.84430    0.02300
 2792.50000    8.33720   -0.07520   46.67640   74.04060    0.00250    3.23970    2.84360 1222.81410 1363.47670   22.21170    0.01980
 2793.00000    8.34080   -0.07250   46.69910   74.29960    0.00370    3.17220    2.83550 1369.65650 1679.67870   20.45180    0.01540
 2793.50000    8.30750   -0.07230   46.67450   74.50040    0.00200    3.15940    2.83610 1347.49080 1950.84890   20.41480    0.01650
 2794.00000    8.28790   -0.07530   46.93200   74.35690   -0.00050    3.19810    2.84010 1108.56850 1477.48080   20.29720    0.01920
 2794.50000    8.29920   -0.07920   46.89560   74.51370   -0.00310    3.22910    2.84860 1109.53310 1602.11250   19.89380    0.02060
 2795.00000    8.31050   -0.08630   46.79920   74.93580   -0.00030    3.26010    2.85710  540.49830  654.56980   19.85720    0.02300
 2795.50000    8.31090   -0.09240   46.58350   75.48480    0.00060    3.26460    2.86560  420.81040  469.54840   18.45510    0.02550
 2796.00000    8.28430   -0.09540   46.31300   75.94030    0.00230    3.26310    2.87250  695.67290 1556.25690   17.30910    0.02540
 2796.50000    8.27940   -0.09450   46.31350   76.68200    0.00130    3.26170    2.87310 1429.07000 2543.44070   18.21670    0.02450
 2797.00000    8.27800   -0.09490   46.35000   77.42360    0.00010    3.26030    2.87290 1745.05360 2024.30240   22.13570    0.02280
 2797.50000    8.28520   -0.09420   46.31230   78.03350    0.00010    3.27720    2.86860 1585.78510 1990.90310   25.39440    0.02070
 2798.00000    8.28180   -0.08900   46.50230   78.85250   -0.00300    3.31870    2.86210 1995.17230 2527.83280   25.64430    0.01870
 2798.50000    8.27830   -0.08310   46.69450   79.11470   -0.00420    3.34950    2.85320 1800.22400 2241.55000   24.77050    0.01680
 2799.00000    8.27480   -0.07860   46.93330   78.20080   -0.00540    3.38120    2.84620 1434.79040 1665.93320   23.72540    0.01720
 2799.50000    8.26150   -0.08090   47.26610   75.17480   -0.00650    3.39010    2.84650 1877.39250 1968.24860   21.84000    0.01790
 2800.00000    8.24970   -0.08460   47.37730   75.29310   -0.00440    3.45270    2.85060 1157.45430 3176.30600   19.65490    0.01830
 2800.50000    8.22200   -0.08820   47.48840   76.49900   -0.00260    3.55570    2.85480  938.51560 1040.77160   17.70480    0.01740
 2801.00000    8.22140   -0.08880   47.58380   76.59270   -0.00250    3.64180    2.85600 1625.88600 1992.38540   16.58190    0.01610
 2801.50000    8.22070   -0.08200   47.65560   74.58820   -0.00240    3.59620    2.84490 2038.30830 2575.07740   15.90960    0.01460
