~Version ---------------------------------------------------
VERS.   2.0 : CWLS log ASCII Standard -VERSION 2.0
WRAP.    NO : One line per depth step
DLM . SPACE : Column Data Section Delimiter
~Well ------------------------------------------------------
STRT .FT                 88.0 : START DEPTH
STOP .FT               4846.0 : STOP DEPTH
STEP .FT                  0.5 : STEP
NULL .               -9999.25 : NULL VALUE
COMP .                        : COMPANY
WELL .                        : WELL
FLD  .                        : FIELD
LOC  .                        : LOCATION
PROV .                        : PROVINCE
CNTY .                        : COUNTY
STAT .                        : STATE
CTRY .                        : COUNTRY
SRVC .                        : SERVICE COMPANY
DATE .                        : DATE
UWI  .                        : UNIQUE WELL ID
API  .                        : API NUMBER
SLAT .WGS84   3.0572790899949 : SURFACE LATITUDE
SLON .WGS84 8.811148618575004 : SURFACE LONGITUDE
DATUM.F                   nan : DEPTH DATUM ELEV
~Curve Information -----------------------------------------
DEPT   .FT    : 
C1     .IN    : CALIPER 1
DPHZ_LS.DEC   : HGRD STANDARD RESOLUTION DENSITY POROSITY
DTCO   .US/F  : DELTA-T COMPRESSIONAL
DTSM   .US/F  : DELTA-T SHEAR
HDRA   .G/C3  : HRDD SPINE AND RIBS DENSITY CORRECTION
PEFZ   .B/E   : HRDD STANDARD RESOLUTION FORMATION PHOTOELECTRIC FACTOR
RHOZ   .G/C3  : HRDD STANDARD RESOLUTION FORMATION DENSITY
RLA3   .OHMM  : APPARENT RESISTIVITY FROM COMPUTED FOCUSING MODE 3
RLA5   .OHMM  : APPARENT RESISTIVITY FROM COMPUTED FOCUSING MODE 5
SGRDD  .GAPI  : SPECTROSCOPY GAMMA RAY FROM DENSITY LOG
TNPH_LS.DEC   : THERMAL NEUTRON POROSITY [LIMESTONE]
~Params ----------------------------------------------------
~Other -----------------------------------------------------
~ASCII -----------------------------------------------------
# ...
 3351.00000    8.26880   -0.05180   48.51170   84.66180   -0.00630    3.10040    2.80850   49.42510   60.71950   10.75240    0.08050
 3351.50000    8.27260   -0.06760   48.08430   84.60240   -0.00560    3.06940    2.83370   69.18630   85.36010   10.67130    0.06710
 3352.00000    8.26070   -0.07940   47.62770   84.54790   -0.00480    3.06600    2.84810   74.96770   92.49270    9.98480    0.05370
 3352.50000    8.24130   -0.08450   47.12720   84.34680   -0.00400    3.12260    2.85520  103.21680  127.34470    9.41550    0.03990
 3353.00000    8.23340   -0.08320   46.62520   84.21230   -0.00330    3.19430    2.85420  145.94910  180.06550    8.31260    0.03310
 3353.50000    8.22540   -0.08180   46.41800   84.18050   -0.00170    3.20960    2.85110  210.01290  259.10280    7.68260    0.02960
 3354.00000    8.22220   -0.08190   46.23070   83.75960    0.00040    3.20960    2.85080  254.26890  313.70230    8.78650    0.02930
 3354.50000    8.22220   -0.08310   46.15340   83.55520    0.00110    3.20960    2.84630  258.04610  384.51770    9.41750    0.03090
 3355.00000    8.22220   -0.07760   46.20160   83.15740    0.00050    3.22960    2.83840  151.16070  170.38520    9.37380    0.03440
 3355.50000    8.22220   -0.07260   46.31030   83.19180    0.00000    3.28180    2.83350  225.55380  298.64140    9.33010    0.03830
 3356.00000    8.21530   -0.07270   46.49880   83.22630   -0.00060    3.38240    2.84020  170.16540  178.17220    9.20900    0.04030
 3356.50000    8.21730   -0.07900   46.74430   83.23560   -0.00110    3.43530    2.85220  134.18140  230.50060    8.94040    0.04140
 3357.00000    8.21930   -0.08380   46.88460   83.14470   -0.00170    3.46970    2.85430  491.88130  666.04320    8.06100    0.04280
 3357.50000    8.22140   -0.07760   47.00050   83.05380   -0.00220    3.45030    2.83690  606.74670  748.54180    8.38820    0.05050
 3358.00000    8.21920   -0.06520   47.10400   83.05470   -0.00280    3.39900    2.81560  215.36470  265.69350    8.86480    0.05590
 3358.50000    8.22220   -0.05170   47.37870   83.05560   -0.00330    3.35400    2.79430  170.13670  187.52160    9.82880    0.06270
 3359.00000    8.22220   -0.04200   47.69700   83.05650   -0.00390    3.27480    2.78140  131.64880  156.60330   10.68640    0.07050
 3359.50000    8.22220   -0.03450   47.92090   83.05740   -0.00440    3.16190    2.76860   94.84600  115.60820   11.90950    0.07890
 3360.00000    8.22220   -0.03120   48.27980   83.13630   -0.00490    3.05120    2.75710   82.28250   84.94690   12.73340    0.08030
 3360.50000    8.22220   -0.02760   48.79190   82.75250   -0.00330    2.90810    2.75140   77.64440   81.35290   12.46740    0.07720
 3361.00000    8.22220   -0.02270   49.12280   82.26670    0.00060    2.82030    2.74840   90.64100  114.75630   11.28720    0.07060
 3361.50000    8.20700   -0.02370   49.05970   82.67540    0.00450    2.80930    2.75780  116.63910  163.25720    9.68600    0.07100
 3362.00000    8.20130   -0.03130   48.92960   82.93470    0.00420    2.89580    2.76960   38.74440   99.66050    9.85290    0.07440
 3362.50000    8.25510   -0.04020   49.04970   83.09450    0.00390    2.97840    2.77930   40.04500   41.02180    9.77190    0.07640
 3363.00000    8.26420   -0.03890   49.14590   83.30650    0.00360    3.08980    2.77560   70.34770   86.15460    9.59480    0.07770
 3363.50000    8.27330   -0.03080   49.15150   83.57460    0.00330    3.14570    2.76030   58.24040   84.35310    9.22540    0.08250
 3364.00000    8.27390   -0.02510   49.18650   84.51890    0.00300    3.20160    2.75540   38.69270   51.81110    8.91910    0.08950
 3364.50000    8.28320   -0.02950   49.33920   86.80070    0.00270    3.19340    2.76830   34.12890   36.92490    8.41980    0.09380
 3365.00000    8.33830   -0.03700   49.41890   86.51410    0.00240    3.19310    2.78420   32.48880   33.86760    8.26420    0.09300
 3365.50000    8.31520   -0.04420   49.43250   87.04360    0.00210    3.22210    2.78530   35.76500   49.20620    7.99580    0.09260
 3366.00000    8.22220   -0.04000   49.61930   89.11600    0.00180    3.23280    2.77070   42.11760   48.00510    7.95400    0.09630
 3366.50000    8.22050   -0.03030   49.65650   89.49880    0.00150    3.23920    2.75610   32.53330   40.48760    8.55610    0.10380
 3367.00000    8.21890   -0.02330   49.64550   89.33710    0.00120    3.22980    2.75410   22.07260   25.59390    9.95140    0.10350
 3367.50000    8.21840   -0.03120   49.70810   88.05130    0.00090    3.24670    2.76400   22.53990   23.81750   11.30510    0.09910
 3368.00000    8.22080   -0.04030   49.69120   87.23820    0.00060    3.25870    2.78040   35.92710   49.91850   11.78920    0.09350
 3368.50000    8.22320   -0.05180   49.59350   86.43140    0.00030    3.26350    2.79690   45.47800   53.74810   12.63150    0.08940
 3369.00000    8.22560   -0.05500   49.26260   85.62460    0.00000    3.24600    2.80370   46.57370   60.79920   16.95190    0.09170
 3369.50000    8.22810   -0.05250   49.15060   86.22490   -0.00010    3.22290    2.79800   50.16590   54.40570   23.02060    0.09820
 3370.00000    8.22690   -0.04650   49.08990   85.20300   -0.00250    3.19970    2.78930   40.16570   76.37090   31.05150    0.10130
 3370.50000    8.22220   -0.04450   48.90310   85.05110   -0.00450    3.17660    2.78710   32.22830   37.34200   32.84330    0.09170
 3371.00000    8.24800   -0.04450   48.57480   84.98620   -0.00650    3.15860    2.78560   68.63400  129.80660   29.38400    0.08390
 3371.50000    8.25510   -0.04520   48.44800   85.75180   -0.00640    3.17310    2.78240  101.94760  125.86490   23.48730    0.07990
 3372.00000    8.24540   -0.04130   48.36840   84.91510   -0.00500    3.18760    2.78130   86.11280  165.11160   19.29730    0.08040
 3372.50000    8.23570   -0.04500   48.66700   84.65440   -0.00360    3.21410    2.79740   66.42810   77.31860   16.93430    0.08610
 3373.00000    8.22600   -0.05290   48.58110   84.10260   -0.00210    3.22880    2.81740   79.41500   94.77240   15.37480    0.08730
 3373.50000    8.22220   -0.06610   48.70690   83.08850   -0.00070    3.23880    2.83740   91.54900  119.80540   16.61340    0.07890
 3374.00000    8.25460   -0.07620   48.84190   84.60680    0.00070    3.24470    2.83810   72.42250  131.91860   22.48510    0.07590
 3374.50000    8.22290   -0.06710   48.88830   84.85030    0.00170    3.18300    2.81120   32.00280   52.72300   32.39790    0.07820
 3375.00000    8.22290   -0.04800   48.88900   85.65160    0.00110    3.18490    2.78420   31.55650   37.11230   41.65230    0.07820
 3375.50000    8.22290   -0.02630   48.81360   87.11010    0.00080    3.21360    2.75720   93.70870  111.94570   45.41090    0.07700
 3376.00000    8.22290   -0.01590   48.76580   86.00310   -0.00660    3.24230    2.74090   95.03420  104.60270   40.67880    0.07650
 3376.50000    8.22300   -0.01540   48.69680   85.16110   -0.00710    3.28010    2.73820  118.14650  150.40370   33.83370    0.07790
 3377.00000    8.27100   -0.01880   48.37710   85.91290   -0.00590    3.29890    2.75190  101.32760  149.47720   28.48990    0.07970
 3377.50000    8.27180   -0.02800   48.37030   86.35780   -0.00470    3.21300    2.77070   75.37770   80.23360   27.59910    0.08140
 3378.00000    8.27630   -0.03990   48.50230   86.18460   -0.00340    3.14890    2.78940  158.59210  211.12240   31.09920    0.07950
 3378.50000    8.27330   -0.04870   48.85480   86.28210   -0.00290    3.08760    2.79270  295.50600  369.00850   39.50300    0.07440
 3379.00000    8.27030   -0.04070   49.84110   85.84430   -0.00270    3.04480    2.77180  352.44020  434.83810   51.83200    0.06680
 3379.50000    8.26730   -0.02160   50.82930   85.66580   -0.00310    2.99620    2.74640  177.72420  219.27480   61.03900    0.06660
 3380.00000    8.26430   -0.00240   51.65830   86.48640   -0.00390    2.95060    2.70730   84.04630  108.34910   62.41260    0.07530
 3380.50000    8.26790    0.00110   52.30490   86.32930   -0.00330    2.93190    2.71760   52.32500   67.18190   55.08620    0.08250
 3381.00000    8.27310   -0.01740   51.93150   86.24170   -0.00270    3.00520    2.75020   52.32920   58.95320   50.07070    0.08420
