~Version ---------------------------------------------------
VERS.   2.0 : CWLS log ASCII Standard -VERSION 2.0
WRAP.    NO : One line per depth step
DLM . SPACE : Column Data Section Delimiter
~Well ------------------------------------------------------
STRT .FT                 88.0 : START DEPTH
STOP .FT               4846.0 : STOP DEPTH
STEP .FT                  0.5 : STEP
NULL .               -9999.25 : NULL VALUE
COMP .                        : COMPANY
WELL .                        : WELL
FLD  .                        : FIELD
LOC  .                        : LOCATION
PROV .                        : PROVINCE
CNTY .                        : COUNTY
STAT .                        : STATE
CTRY .                        : COUNTRY
SRVC .                        : SERVICE COMPANY
DATE .                        : DATE
UWI  .                        : UNIQUE WELL ID
API  .                        : API NUMBER
SLAT .WGS84   3.0572790899949 : SURFACE LATITUDE
SLON .WGS84 8.811148618575004 : SURFACE LONGITUDE
DATUM.F                   nan : DEPTH DATUM ELEV
~Curve Information -----------------------------------------
DEPT   .FT    : 
C1     .IN    : CALIPER 1
DPHZ_LS.DEC   : HGRD STANDARD RESOLUTION DENSITY POROSITY
DTCO   .US/F  : DELTA-T COMPRESSIONAL
DTSM   .US/F  : DELTA-T SHEAR
HDRA   .G/C3  : HRDD SPINE AND RIBS DENSITY CORRECTION
PEFZ   .B/E   : HRDD STANDARD RESOLUTION FORMATION PHOTOELECTRIC FACTOR
RHOZ   .G/C3  : HRDD STANDARD RESOLUTION FORMATION DENSITY
RLA3   .OHMM  : APPARENT RESISTIVITY FROM COMPUTED FOCUSING MODE 3
RLA5   .OHMM  : APPARENT RESISTIVITY FROM COMPUTED FOCUSING MODE 5
SGRDD  .GAPI  : SPECTROSCOPY GAMMA RAY FROM DENSITY LOG
TNPH_LS.DEC   : THERMAL NEUTRON POROSITY [LIMESTONE]
~Params ----------------------------------------------------
~Other -----------------------------------------------------
~ASCII -----------------------------------------------------
# ...
 4507.50000    8.04620   -0.09410   44.01940   -9999.25   -0.00560    3.23510    2.87140 13623.96910 29449.52220   42.24650    0.01980
 4508.00000    8.04670   -0.09850   43.96270   -9999.25   -0.00470    3.19720    2.87820 8972.53960 16871.64890   38.91950    0.01920
 4508.50000    8.04720   -0.09750   44.02010   -9999.25   -0.00390    3.19690    2.87810 11630.50260 27570.80040   34.38440    0.01950
 4509.00000    8.04770   -0.09860   43.96760   -9999.25   -0.00310    3.22320    2.87740 10378.33810 19075.57100   29.84930    0.01890
 4509.50000    8.06480   -0.09780   44.04110   -9999.25   -0.00230    3.26350    2.87150 12157.30060 25410.48700   26.23440    0.01680
 4510.00000    8.04800   -0.09680   44.12040   -9999.25   -0.00340    3.33190    2.86430 11428.44640 43867.22870   24.13010    0.01450
 4510.50000    8.03800   -0.09010   44.23680   -9999.25   -0.00280    3.32230    2.86630 13199.63380 56814.93730   24.76590    0.01290
 4511.00000    8.01750   -0.09110   44.45950   -9999.25   -0.00140    3.29660    2.87050 14494.21670 55258.78890   26.76990    0.01360
 4511.50000    8.02630   -0.09680   44.47190   -9999.25    0.00010    3.27090    2.87470 12548.12760 51626.11410   29.09340    0.01430
 4512.00000    8.03500   -0.09570   44.33960   -9999.25    0.00030    3.22230    2.87330 13290.55370 23351.69070   31.03600    0.01480
 4512.50000    8.04380   -0.09400   44.16150   -9999.25   -0.00040    3.19760    2.86450 9378.94640 17576.38850   30.99450    0.01640
 4513.00000    8.05290   -0.08960   44.01940   -9999.25   -0.00100    3.24920    2.86360 14241.06030 33037.77420   28.68360    0.01680
 4513.50000    8.03740   -0.09290   43.90490   -9999.25   -0.00150    3.29540    2.87140 12869.69690 96722.21740   25.43160    0.01640
 4514.00000    8.02160   -0.09660   43.88350   -9999.25   -0.00230    3.33960    2.88270 14485.42870 66572.44630   23.92290    0.01590
 4514.50000    7.98520   -0.09930   43.90470   -9999.25   -0.00180    3.32280    2.88850 16641.06070 37221.34140   25.03790    0.01550
 4515.00000    7.97180   -0.10450   43.90590   -9999.25   -0.00040    3.29440    2.88140 14151.21970 31385.90390   27.09950    0.01500
 4515.50000    8.06190   -0.09740   43.95700   -9999.25    0.00090    3.32280    2.87040 13885.09200 28333.39360   29.15590    0.01490
 4516.00000    8.08720   -0.09170   44.10600   -9999.25    0.00100    3.30990    2.86790 10779.98210 34767.27770   32.12820    0.01570
 4516.50000    8.06000   -0.09400   44.32960   -9999.25    0.00100    3.29280    2.87270 11094.43560 24269.50070   35.19880    0.01630
 4517.00000    8.04610   -0.09730   44.59230   -9999.25    0.00000    3.27580    2.87820 7872.59400 14012.97510   37.96300    0.01680
 4517.50000    8.03200   -0.09970   44.76000   -9999.25   -0.00150    3.17470    2.88170 8159.99840 9910.36490   36.42510    0.01590
 4518.00000    8.02610   -0.09900   44.79650   -9999.25   -0.00310    3.12620    2.88670 6538.78710 10818.92850   31.25150    0.01440
 4518.50000    8.02760   -0.10390   44.77940   -9999.25   -0.00370    3.20280    2.89220 8006.54160 12582.65480   25.61500    0.01300
 4519.00000    8.02910   -0.10710   44.76230   -9999.25   -0.00500    3.37900    2.89370 7580.05360 15334.97430   23.60850    0.01340
 4519.50000    8.03060   -0.10380   44.51760   -9999.25   -0.00650    3.53370    2.88770 9928.63140 20561.94190   23.55070    0.01360
 4520.00000    8.03210   -0.10090   44.21860   -9999.25   -0.00420    3.48080    2.87930 8579.39600 15990.74900   25.11390    0.01460
 4520.50000    8.04390   -0.09890   44.11000   -9999.25   -0.00150    3.34130    2.88320 6538.78710 12243.99270   26.63210    0.01570
 4521.00000    8.07490   -0.10020   44.02910   -9999.25    0.00130    3.21380    2.88740 6622.07130 11495.42300   27.48260    0.01710
 4521.50000    8.12840   -0.10070   43.96760   -9999.25    0.00330    3.18660    2.88080 5998.92340 7752.57420   28.42560    0.01860
 4522.00000    8.10290   -0.09640   44.04170   -9999.25   -0.00060    3.24530    2.87070 5599.74570 8021.51640   30.26930    0.02010
 4522.50000    8.08040   -0.09070   44.12300   -9999.25   -0.00450    3.30990    2.86190 7956.03180 11081.18380   31.33250    0.02110
 4523.00000    8.06220   -0.08720   44.26680   -9999.25   -0.00420    3.27780    2.86260 9260.98960 16417.54860   29.26200    0.02060
 4523.50000    8.06340   -0.09150   44.18220   -9999.25   -0.00040    3.20120    2.87140 7925.73770 12461.08760   26.34980    0.01870
 4524.00000    8.04550   -0.09670   44.16680   -9999.25    0.00340    3.14740    2.87580 6358.88050 8498.76580   23.96570    0.01790
 4524.50000    8.03360   -0.09560   44.13880   -9999.25    0.00550    3.08380    2.86960 5536.32580 6903.72230   23.18860    0.01850
 4525.00000    8.02160   -0.09060   44.10250   -9999.25    0.00430    3.05120    2.85990 5108.75030 6448.48670   24.46250    0.01900
 4525.50000    8.01210   -0.08590   44.03330   -9999.25    0.00320    3.03330    2.85760 6099.14740 7492.57710   24.16370    0.02170
 4526.00000    8.02820   -0.08720   44.08250   -9999.25    0.00200    3.04930    2.86400 5012.67520 6274.92570   21.91270    0.02350
 4526.50000    8.05500   -0.09160   44.05090   -9999.25    0.00080    3.06520    2.86860 5076.52430 7859.02330   19.34540    0.02510
 4527.00000    8.06350   -0.09190   44.01940   -9999.25   -0.00030    3.08870    2.86380 5798.05390 7397.17000   19.57650    0.02430
 4527.50000    8.05770   -0.08730   44.03770   -9999.25   -0.00150    3.18950    2.85480 5511.82120 6763.86870   21.87120    0.02300
 4528.00000    8.05200   -0.08190   44.14700   -9999.25   -0.00420    3.37280    2.84940 4646.10870 6323.18090   26.41860    0.02090
 4528.50000    8.04630   -0.08140   44.35750   -9999.25   -0.00640    3.49930    2.85690 3603.77630 5971.52280   30.14120    0.01810
 4529.00000    8.09020   -0.08710   44.70290   -9999.25   -0.00850    3.59860    2.87210 3198.42080 3586.70290   30.69470    0.01540
 4529.50000    8.15490   -0.09770   44.61620   -9999.25   -0.00670    3.61010    2.88650 5231.42630 6859.06610   27.21980    0.01360
 4530.00000    8.06940   -0.10650   44.98500   -9999.25   -0.00530    3.56590    2.89500 10546.40980 11714.03800   23.64890    0.01170
 4530.50000    8.01210   -0.10560   45.10880   -9999.25   -0.00390    3.50780    2.88540 11928.67060 24551.99330   22.34800    0.01200
 4531.00000    7.99860   -0.09730   45.28180   -9999.25   -0.00460    3.44970    2.86640 8710.65230 20556.23450   22.64470    0.01430
 4531.50000    8.03590   -0.09140   44.95100   -9999.25   -0.00370    3.35620    2.86800 4566.45670 11398.21910   22.83760    0.01690
 4532.00000    8.06580   -0.09150   44.72910   -9999.25   -0.00290    3.26420    2.87200 2002.44430 2240.20380   21.70630    0.01730
 4532.50000    8.06130   -0.09370   44.40230   -9999.25   -0.00240    3.21270    2.87070 2422.27430 2382.05460   20.99420    0.01620
 4533.00000    8.05380   -0.09330   44.23670   -9999.25   -0.00620    3.24340    2.86410 3245.10270 3767.06720   20.90400    0.01510
 4533.50000    8.04640   -0.08940   44.11350   -9999.25   -0.01060    3.32570    2.86130 4067.93110 5152.07980   21.86800    0.01510
 4534.00000    8.03890   -0.08940   44.07270   -9999.25   -0.00930    3.39400    2.87170 5848.46050 6537.09250   24.44640    0.01450
 4534.50000    7.97180   -0.09670   44.26380   -9999.25   -0.00500    3.41580    2.88440 6834.95440 8646.55400   30.94350    0.01380
 4535.00000    7.97180   -0.10330   44.35950   80.56740   -0.00420    3.42200    2.88790 6948.74050 7699.81760   44.10400    0.01350
 4535.50000    8.05230   -0.10290   44.61190   80.70060   -0.00340    3.42810    2.87900 9916.90050 14700.58010   53.10820    0.01570
 4536.00000    8.02170   -0.09680   44.97310   81.01230   -0.00260    3.43430    2.86690 10312.87160 13899.85110   53.81490    0.01800
 4536.50000    8.00250   -0.08620   45.29810   81.23450   -0.00180    3.34270    2.85450 1132.60690 2012.65970   45.82180    0.02090
 4537.00000    7.98330   -0.08230   45.77190   81.50140   -0.00160    3.17380    2.84360  516.72210  595.60800   37.27790    0.02350
