~Version ---------------------------------------------------
VERS.   2.0 : CWLS log ASCII Standard -VERSION 2.0
WRAP.    NO : One line per depth step
DLM . SPACE : Column Data Section Delimiter
~Well ------------------------------------------------------
STRT .FT                 88.0 : START DEPTH
STOP .FT               4846.0 : STOP DEPTH
STEP .FT                  0.5 : STEP
NULL .               -9999.25 : NULL VALUE
COMP .                        : COMPANY
WELL .                        : WELL
FLD  .                        : FIELD
LOC  .                        : LOCATION
PROV .                        : PROVINCE
CNTY .                        : COUNTY
STAT .                        : STATE
CTRY .                        : COUNTRY
SRVC .                        : SERVICE COMPANY
DATE .                        : DATE
UWI  .                        : UNIQUE WELL ID
API  .                        : API NUMBER
SLAT .WGS84   3.0572790899949 : SURFACE LATITUDE
SLON .WGS84 8.811148618575004 : SURFACE LONGITUDE
DATUM.F                   nan : DEPTH DATUM ELEV
~Curve Information -----------------------------------------
DEPT   .FT    : 
C1     .IN    : CALIPER 1
DPHZ_LS.DEC   : HGRD STANDARD RESOLUTION DENSITY POROSITY
DTCO   .US/F  : DELTA-T COMPRESSIONAL
DTSM   .US/F  : DELTA-T SHEAR
HDRA   .G/C3  : HRDD SPINE AND RIBS DENSITY CORRECTION
PEFZ   .B/E   : HRDD STANDARD RESOLUTION FORMATION PHOTOELECTRIC FACTOR
RHOZ   .G/C3  : HRDD STANDARD RESOLUTION FORMATION DENSITY
RLA3   .OHMM  : APPARENT RESISTIVITY FROM COMPUTED FOCUSING MODE 3
RLA5   .OHMM  : APPARENT RESISTIVITY FROM COMPUTED FOCUSING MODE 5
SGRDD  .GAPI  : SPECTROSCOPY GAMMA RAY FROM DENSITY LOG
TNPH_LS.DEC   : THERMAL NEUTRON POROSITY [LIMESTONE]
~Params ----------------------------------------------------
~Other -----------------------------------------------------
~ASCII -----------------------------------------------------
# ...
 1307.50000    8.28630   -0.13150   51.41850   96.80990    0.00580    3.70390    2.93430 1157.46580 2050.81150   21.81680    0.02960
 1308.00000    8.28480   -0.12730   50.88510   95.04900    0.01730    3.56130    2.92710   60.46190   59.10020   25.20260    0.02690
 1308.50000    8.26600   -0.13730   50.85260   94.08070    0.01930    4.04050    2.94420  807.15600  385.28080   20.63200    0.00850
 1309.00000    8.26840   -0.15630   50.46410   93.68090    0.00590    4.66620    2.97760 1739.11240 1439.16950   12.45980   -0.01000
 1309.50000    8.27280   -0.17290   49.66010   92.76630    0.00330    5.01940    2.99940 1984.73040 2008.02060    6.09430   -0.01310
 1310.00000    8.28500   -0.17970   49.25080   91.52750    0.00390    5.07640    3.01630 15010.86130 14984.80950    3.82970   -0.01510
 1310.50000    8.29720   -0.17240   50.85650   92.02440    0.00680    5.10040    3.00520 16644.08320 16495.72260    3.16590   -0.01560
 1311.00000    8.30940   -0.13920   53.90620   96.28140    0.00930    5.12450    2.99860 9369.68860 7060.82490    5.33460   -0.00680
 1311.50000    8.31710   -0.11090   55.57480  100.53850    0.01240    5.11660    2.89710 2095.29400 1438.78870    9.55430    0.01500
 1312.00000    8.34970   -0.08050   56.92990  104.69460    0.01530    5.06100    2.84720  440.54430   16.93970   12.45170    0.03500
 1312.50000    8.39970   -0.09980   56.63430  105.33670    0.01220    5.00530    2.88820   17.30670   16.93920   10.56840    0.01910
 1313.00000    8.40350   -0.13260   55.40000  105.04490    0.00690    4.96330    2.93630 1115.67090  469.25750    6.60290    0.00320
 1313.50000    8.40730   -0.14880   53.25240  103.04740    0.00170    4.97570    2.96400 1994.36230 1951.98890    4.87310   -0.00800
 1314.00000    8.41520   -0.15580   50.61610   96.50810   -0.00360    4.98310    2.97590 3927.93880 4496.50270    6.51790   -0.01090
 1314.50000    8.39370   -0.15890   49.09900   89.29340   -0.00860    4.87550    2.98130 4954.29320 4746.67140    8.74510   -0.00950
 1315.00000    8.41030   -0.16390   49.88690   88.74120   -0.01300    4.74100    2.98980 2000.55580 2050.80600    9.85260   -0.00100
 1315.50000    8.40440   -0.13310   55.39860   94.57520   -0.01580    4.61580    2.93710  660.63790  775.80650   10.01370    0.00750
 1316.00000    8.42300   -0.10160   59.22180  100.40930   -0.00490    4.49990    2.72370  402.22480  358.86430   11.70690    0.02350
 1316.50000    8.46860   -0.02190   60.75800  106.24330    0.00430    4.45660    2.73400  247.21760  161.28450   15.54150    0.05090
 1317.00000    8.51410   -0.02430   61.47500  112.99250    0.00330    4.45660    2.79050   15.19940   15.43760   19.53200    0.06800
 1317.50000    8.44980   -0.06580   59.76570  115.21700   -0.00020    4.65060    2.84700   57.07930   25.95040   17.03550    0.04210
 1318.00000    8.44480   -0.10020   60.25560  114.07430   -0.00410    4.75320    2.90320  440.00600  195.19090   13.14160    0.02040
 1318.50000    8.43980   -0.12090   59.84000  112.25710   -0.00830    4.65660    2.91630 1082.17160 1130.08270   15.04890    0.01740
 1319.00000    8.44830   -0.10000   58.96950  111.85690   -0.01080    4.32000    2.85860  844.91330  715.13460   26.61360    0.04320
 1319.50000    8.46020   -0.03710   61.40680  113.21830   -0.00520    3.86330    2.77300  251.86430   23.62430   37.51020    0.08500
 1320.00000    8.47210   -0.00880   63.58300  116.25620   -0.00170    3.71380    2.72470   20.56300   13.94100   45.20090    0.10390
 1320.50000    8.48170    0.00240   65.23230  117.80730    0.00010    3.65690    2.70550   35.35880   34.52100   46.27520    0.09370
 1321.00000    8.47700   -0.00110   64.42280  117.48210    0.00130    3.77140    2.71150   42.33300   41.41260   44.55960    0.06760
 1321.50000    8.47590   -0.01950   61.94140  115.60620    0.00230    3.91230    2.73990   44.09300   42.70410   40.83650    0.06440
 1322.00000    8.46190   -0.05310   59.81760  112.42050    0.00360    4.04230    2.80040   69.88840   54.26140   34.33250    0.05100
 1322.50000    8.44850   -0.07900   58.48380  108.66050    0.00430    4.29290    2.84480  133.49860   72.19530   26.91610    0.03760
 1323.00000    8.43500   -0.09540   56.96230  105.85410    0.00030    4.51840    2.87270  197.10880  180.82500   20.38730    0.02720
 1323.50000    8.42160   -0.09880   55.72270  103.55080   -0.00980    4.64320    2.88520  169.05420  183.37300   16.60650    0.01880
 1324.00000    8.41800   -0.10810   54.12260  101.43330   -0.00900    4.75450    2.89440  133.62960  166.36210   14.60890    0.01070
 1324.50000    8.41690   -0.12000   53.29110  100.61310   -0.00550    4.85860    2.91470  173.83450  270.44130   12.64980    0.00320
 1325.00000    8.41580   -0.13400   52.83300   99.02560   -0.00190    4.97590    2.93870  404.76860  524.91150    9.77220   -0.00430
 1325.50000    8.40470   -0.15210   52.37490   97.24630   -0.00050    5.09320    2.96970  762.85550 1967.03460    6.24770   -0.00700
 1326.00000    8.41370   -0.15680   51.88920   96.60530   -0.00240    5.11660    2.97780 1815.14480 4326.63360    5.11640   -0.00800
 1326.50000    8.42270   -0.15540   51.80590   97.61770   -0.00420    5.05730    2.97530 1815.00690 3859.96200    4.83920   -0.00800
 1327.00000    8.42470   -0.15150   51.33130   98.73750   -0.00550    4.94860    2.96870 1831.73760 3075.81650    5.48940   -0.00590
 1327.50000    8.39910   -0.14310   52.37900  100.02790   -0.00410    4.78350    2.95430  594.57680  443.41360    7.36620   -0.00250
 1328.00000    8.39920   -0.12070   54.50580  102.48840   -0.00280    4.53810    2.91610  285.23960  723.57040   13.66550    0.00690
 1328.50000    8.40910   -0.07920   56.33850  103.99010   -0.00170    4.23580    2.84510  196.60960  517.22550   23.57870    0.02180
 1329.00000    8.44020   -0.04190   58.66380  106.41610   -0.00170    3.91770    2.78140   55.86120   53.00670   37.47790    0.04510
 1329.50000    8.45500   -0.01090   60.98910  108.04570   -0.00170    3.59790    2.71930   34.09950   27.12250   50.42300    0.04730
 1330.00000    8.46970    0.01160   63.84350  110.56930   -0.00170    3.48880    2.68980   49.42650   59.54260   57.58850    0.04950
 1330.50000    8.47640    0.02990   66.36660  113.20450   -0.00170    3.46620    2.65370   54.92680   46.52550   60.82700    0.05690
 1331.00000    8.47500    0.04520   67.83900  115.47600   -0.00170    3.44370    2.63230   41.82340   35.13840   64.11070    0.07570
 1331.50000    8.47520    0.03460   66.50160  117.46120   -0.00360    3.55400    2.65070   30.11310   26.29770   58.87060    0.09460
 1332.00000    8.56690    0.01340   64.83030  115.33700   -0.00670    3.79780    2.68680   18.96510   14.21120   46.50010    0.09290
 1332.50000    8.53840   -0.04910   61.58990  112.59570   -0.00980    4.16980    2.79370   27.34020   23.94540   30.06540    0.04670
 1333.00000    8.39650   -0.09910   57.63740  109.57420   -0.00890    4.75820    2.88210  596.66530  456.97460   16.44830    0.01010
 1333.50000    8.39160   -0.12490   53.02270  100.10060   -0.00690    4.98240    2.92330 1916.84680 1705.60680    6.48170   -0.01080
 1334.00000    8.36790   -0.13530   49.91100   94.39530   -0.00480    5.07170    2.94110 3497.59740 1928.85270    4.00820   -0.01770
 1334.50000    8.37260   -0.13910   48.59130   88.69000   -0.00270    4.89910    2.94750 6159.35360 19963.42920    3.83460   -0.01770
 1335.00000    8.33900   -0.13560   48.80960   85.68270    0.00260    4.57070    2.94160 6721.15810 21696.30230    5.73670   -0.01250
 1335.50000    8.31340   -0.12570   52.82500   84.90580    0.00790    4.14780    2.92460 5134.67320 22520.04260   10.46700   -0.00390
 1336.00000    8.28770   -0.11530   58.34210   84.75040    0.01320    3.71240    2.90690 3096.95480 15099.38570   16.54010    0.00480
 1336.50000    8.27370   -0.10850   61.78590   83.16190    0.02660    3.43350    2.89520 1184.42940 2050.79020   23.38770    0.01340
 1337.00000    8.27290   -0.10680   61.11260   80.19220    0.03040    3.73610    2.89250 1951.74040 1964.11680   24.96580    0.01680
 1337.50000    8.27920   -0.11170   61.54420   76.67640    0.01930    4.20440    2.90070 2068.08540 3197.08800   21.51560    0.00720
