~Version ---------------------------------------------------
VERS.   2.0 : CWLS log ASCII Standard -VERSION 2.0
WRAP.    NO : One line per depth step
DLM . SPACE : Column Data Section Delimiter
~Well ------------------------------------------------------
STRT .FT                 88.0 : START DEPTH
STOP .FT               4846.0 : STOP DEPTH
STEP .FT                  0.5 : STEP
NULL .               -9999.25 : NULL VALUE
COMP .                        : COMPANY
WELL .                        : WELL
FLD  .                        : FIELD
LOC  .                        : LOCATION
PROV .                        : PROVINCE
CNTY .                        : COUNTY
STAT .                        : STATE
CTRY .                        : COUNTRY
SRVC .                        : SERVICE COMPANY
DATE .                        : DATE
UWI  .                        : UNIQUE WELL ID
API  .                        : API NUMBER
SLAT .WGS84   3.0572790899949 : SURFACE LATITUDE
SLON .WGS84 8.811148618575004 : SURFACE LONGITUDE
DATUM.F                   nan : DEPTH DATUM ELEV
~Curve Information -----------------------------------------
DEPT   .FT    : 
C1     .IN    : CALIPER 1
DPHZ_LS.DEC   : HGRD STANDARD RESOLUTION DENSITY POROSITY
DTCO   .US/F  : DELTA-T COMPRESSIONAL
DTSM   .US/F  : DELTA-T SHEAR
HDRA   .G/C3  : HRDD SPINE AND RIBS DENSITY CORRECTION
PEFZ   .B/E   : HRDD STANDARD RESOLUTION FORMATION PHOTOELECTRIC FACTOR
RHOZ   .G/C3  : HRDD STANDARD RESOLUTION FORMATION DENSITY
RLA3   .OHMM  : APPARENT RESISTIVITY FROM COMPUTED FOCUSING MODE 3
RLA5   .OHMM  : APPARENT RESISTIVITY FROM COMPUTED FOCUSING MODE 5
SGRDD  .GAPI  : SPECTROSCOPY GAMMA RAY FROM DENSITY LOG
TNPH_LS.DEC   : THERMAL NEUTRON POROSITY [LIMESTONE]
~Params ----------------------------------------------------
~Other -----------------------------------------------------
~ASCII -----------------------------------------------------
# ...
 4781.00000    7.92750   -0.08370   44.07710   79.20810    0.00030    3.08660    2.85720   -9999.25   -9999.25   -9999.25    0.03740
 4781.50000    7.94900   -0.08180   44.00300   79.05040   -0.00070    3.08790    2.85190   -9999.25   -9999.25   -9999.25    0.03460
 4782.00000    7.96240   -0.08180   43.96460   78.89280   -0.00170    3.07840    2.85110   -9999.25   -9999.25   -9999.25    0.03270
 4782.50000    7.95560   -0.08180   43.92620   78.73520   -0.00260    3.08300    2.85110   -9999.25   -9999.25   -9999.25    0.02990
 4783.00000    7.94880   -0.08220   43.85900   78.53830   -0.00320    3.08770    2.85110   -9999.25   -9999.25   -9999.25    0.02500
 4783.50000    7.95230   -0.08220   43.74200   78.40420   -0.00290    3.09230    2.85120   -9999.25   -9999.25   -9999.25    0.02310
 4784.00000    7.96440   -0.08190   44.02910   77.77570   -0.00260    3.11070    2.85120   -9999.25   -9999.25   -9999.25    0.02160
 4784.50000    7.94610   -0.08270   43.90220   77.15740   -0.00230    3.07460    2.85360   -9999.25   -9999.25   -9999.25    0.01970
 4785.00000    7.94810   -0.08550   43.71950   76.66280   -0.00200    3.07210    2.85850   -9999.25   -9999.25   -9999.25    0.01960
 4785.50000    7.95350   -0.09100   43.72880   76.70740   -0.00030    3.06030    2.86310   -9999.25   -9999.25   -9999.25    0.01790
 4786.00000    7.96440   -0.09410   43.75290   76.79660    0.00050    3.10360    2.87030   -9999.25   -9999.25   -9999.25    0.01780
 4786.50000    7.97530   -0.09680   43.74310   77.19860    0.00290    3.14910    2.87560   -9999.25   -9999.25   -9999.25    0.01750
 4787.00000    7.98620   -0.09900   61.92400   77.33260    0.00330    3.19720    2.88090   -9999.25   -9999.25   -9999.25    0.01730
 4787.50000    7.98680   -0.10350   62.16570   77.60050    0.00510    3.20310    2.88490   -9999.25   -9999.25   -9999.25    0.01800
 4788.00000    7.97220   -0.10160   62.33830   77.06450    0.00700    3.19880    2.88150   -9999.25   -9999.25   -9999.25    0.02210
 4788.50000    7.97960   -0.09760   -9999.25   -9999.25    0.00580    3.20250    2.87400   -9999.25   -9999.25   -9999.25    0.02410
 4789.00000    7.96320   -0.09220   -9999.25   -9999.25    0.00370    3.20610    2.86660   -9999.25   -9999.25   -9999.25    0.02430
 4789.50000    7.96190   -0.08710   -9999.25   -9999.25    0.00160    3.20900    2.85800   -9999.25   -9999.25   -9999.25    0.02450
 4790.00000    7.96060   -0.08320   -9999.25   -9999.25   -0.00090    3.19620    2.85120   -9999.25   -9999.25   -9999.25    0.02470
 4790.50000    7.95930   -0.07800   -9999.25   -9999.25   -0.00330    3.18300    2.84390   -9999.25   -9999.25   -9999.25    0.02370
 4791.00000    7.94610   -0.07440   -9999.25   -9999.25   -0.00520    3.16880    2.83910   -9999.25   -9999.25   -9999.25    0.02340
 4791.50000    7.96340   -0.07130   -9999.25   -9999.25   -0.00710    3.16190    2.83430   -9999.25   -9999.25   -9999.25    0.02230
 4792.00000    7.96960   -0.06980   -9999.25   -9999.25   -0.00500    3.16310    2.83120   -9999.25   -9999.25   -9999.25    0.01960
 4792.50000    7.91070   -0.07070   -9999.25   -9999.25   -0.00130    3.17750    2.82960   -9999.25   -9999.25   -9999.25    0.01830
 4793.00000    7.95100   -0.07040   -9999.25   -9999.25    0.00480    3.21730    2.82820   -9999.25   -9999.25   -9999.25    0.01350
 4793.50000    8.25910   -0.06760   -9999.25   -9999.25    0.00460    3.24560    2.82490   -9999.25   -9999.25   -9999.25    0.01160
 4794.00000    8.50900   -0.06450   -9999.25   -9999.25    0.00440    3.21840    2.82110   -9999.25   -9999.25   -9999.25    0.01640
 4794.50000    8.60900   -0.06590   -9999.25   -9999.25    0.00420    3.19130    2.82280   -9999.25   -9999.25   -9999.25    0.02190
 4795.00000    8.00470   -0.06800   -9999.25   -9999.25    0.00020    3.16410    2.82760   -9999.25   -9999.25   -9999.25    0.02750
 4795.50000    7.96810   -0.07210   -9999.25   -9999.25   -0.00450    3.15810    2.83260   -9999.25   -9999.25   -9999.25    0.02220
 4796.00000    7.92940   -0.07390   -9999.25   -9999.25   -0.00920    3.21200    2.83790   -9999.25   -9999.25   -9999.25    0.01640
 4796.50000    7.90650   -0.07640   -9999.25   -9999.25   -0.01010    3.24600    2.84200   -9999.25   -9999.25   -9999.25    0.00990
 4797.00000    7.90890   -0.07970   -9999.25   -9999.25   -0.00870    3.29050    2.84720   -9999.25   -9999.25   -9999.25    0.00890
 4797.50000    7.94290   -0.08260   -9999.25   -9999.25   -0.00680    3.36390    2.85160   -9999.25   -9999.25   -9999.25    0.00860
 4798.00000    7.93960   -0.08330   -9999.25   -9999.25   -0.00590    3.45560    2.84680   -9999.25   -9999.25   -9999.25    0.00850
 4798.50000    7.97150   -0.07900   -9999.25   -9999.25   -0.00570    3.53270    2.84110   -9999.25   -9999.25   -9999.25    0.00880
 4799.00000    7.97060   -0.07850   -9999.25   -9999.25   -0.00550    3.51660    2.84620   -9999.25   -9999.25   -9999.25    0.00880
 4799.50000    7.95090   -0.08470   -9999.25   -9999.25   -0.00530    3.42380    2.85910   -9999.25   -9999.25   -9999.25    0.00790
 4800.00000    7.91880   -0.09000   -9999.25   -9999.25   -0.00390    3.31770    2.86950   -9999.25   -9999.25   -9999.25    0.00690
 4800.50000    7.87900   -0.09100   -9999.25   -9999.25   -0.00240    3.24850    2.86470   -9999.25   -9999.25   -9999.25    0.00730
 4801.00000    7.90650   -0.08810   -9999.25   -9999.25   -0.00090    3.20610    2.86310   -9999.25   -9999.25   -9999.25    0.00870
 4801.50000    7.92850   -0.09290   -9999.25   -9999.25    0.00040    3.13580    2.86390   -9999.25   -9999.25   -9999.25    0.01010
 4802.00000    7.92750   -0.09760   -9999.25   -9999.25    0.00150    3.08950    2.88350   -9999.25   -9999.25   -9999.25    0.01060
 4802.50000    7.92650   -0.09990   -9999.25   -9999.25    0.00260    3.09630    2.88230   -9999.25   -9999.25   -9999.25    0.01050
 4803.00000    7.89370   -0.09880   -9999.25   -9999.25    0.00330    3.12950    2.87950   -9999.25   -9999.25   -9999.25    0.00980
 4803.50000    7.86510   -0.09840   -9999.25   -9999.25    0.00350    3.15040    2.88570   -9999.25   -9999.25   -9999.25    0.00930
 4804.00000    7.87110   -0.10440   -9999.25   -9999.25    0.00390    3.15010    2.89000   -9999.25   -9999.25   -9999.25    0.01040
 4804.50000    7.87710   -0.10310   -9999.25   -9999.25    0.00420    3.13510    2.89020   -9999.25   -9999.25   -9999.25    0.01110
 4805.00000    7.87380   -0.10040   -9999.25   -9999.25    0.00110    3.16200    2.88370   -9999.25   -9999.25   -9999.25    0.01060
 4805.50000    7.86430   -0.09720   -9999.25   -9999.25    0.00040    3.19600    2.87840   -9999.25   -9999.25   -9999.25    0.01010
 4806.00000    7.85480   -0.09490   -9999.25   -9999.25    0.00010    3.22990    2.87300   -9999.25   -9999.25   -9999.25    0.00860
 4806.50000    7.87950   -0.09350   -9999.25   -9999.25   -0.00010    3.29990    2.86870   -9999.25   -9999.25   -9999.25    0.00650
 4807.00000    7.87670   -0.09640   -9999.25   -9999.25   -0.00040    3.39370    2.88040   -9999.25   -9999.25   -9999.25    0.00370
 4807.50000    7.87390   -0.10720   -9999.25   -9999.25   -0.00120    3.47020    2.89860   -9999.25   -9999.25   -9999.25    0.00130
 4808.00000    7.86980   -0.11910   -9999.25   -9999.25    0.00010    3.55540    2.91670   -9999.25   -9999.25   -9999.25   -0.00090
 4808.50000    7.91350   -0.12850   -9999.25   -9999.25    0.00160    3.58030    2.93140   -9999.25   -9999.25   -9999.25   -0.00100
 4809.00000    7.95100   -0.12250   -9999.25   -9999.25    0.00320    3.52960    2.92720   -9999.25   -9999.25   -9999.25    0.00280
 4809.50000    7.91690   -0.11130   -9999.25   -9999.25    0.00480    3.45020    2.91230   -9999.25   -9999.25   -9999.25    0.00310
 4810.00000    7.89110   -0.10090   -9999.25   -9999.25    0.00650    3.44420    2.89750   -9999.25   -9999.25   -9999.25    0.00470
 4810.50000    7.87090   -0.10310   -9999.25   -9999.25    0.00920    3.45220    2.88720   -9999.25   -9999.25   -9999.25    0.00450
 4811.00000    7.87260   -0.11160   -9999.25   -9999.25    0.01180    3.46030    2.90060   -9999.25   -9999.25   -9999.25    0.00450
