~Version ---------------------------------------------------
VERS.   2.0 : CWLS log ASCII Standard -VERSION 2.0
WRAP.    NO : One line per depth step
DLM . SPACE : Column Data Section Delimiter
~Well ------------------------------------------------------
STRT .FT                 88.0 : START DEPTH
STOP .FT               4846.0 : STOP DEPTH
STEP .FT                  0.5 : STEP
NULL .               -9999.25 : NULL VALUE
COMP .                        : COMPANY
WELL .                        : WELL
FLD  .                        : FIELD
LOC  .                        : LOCATION
PROV .                        : PROVINCE
CNTY .                        : COUNTY
STAT .                        : STATE
CTRY .                        : COUNTRY
SRVC .                        : SERVICE COMPANY
DATE .                        : DATE
UWI  .                        : UNIQUE WELL ID
API  .                        : API NUMBER
SLAT .WGS84   3.0572790899949 : SURFACE LATITUDE
SLON .WGS84 8.811148618575004 : SURFACE LONGITUDE
DATUM.F                   nan : DEPTH DATUM ELEV
~Curve Information -----------------------------------------
DEPT   .FT    : 
C1     .IN    : CALIPER 1
DPHZ_LS.DEC   : HGRD STANDARD RESOLUTION DENSITY POROSITY
DTCO   .US/F  : DELTA-T COMPRESSIONAL
DTSM   .US/F  : DELTA-T SHEAR
HDRA   .G/C3  : HRDD SPINE AND RIBS DENSITY CORRECTION
PEFZ   .B/E   : HRDD STANDARD RESOLUTION FORMATION PHOTOELECTRIC FACTOR
RHOZ   .G/C3  : HRDD STANDARD RESOLUTION FORMATION DENSITY
RLA3   .OHMM  : APPARENT RESISTIVITY FROM COMPUTED FOCUSING MODE 3
RLA5   .OHMM  : APPARENT RESISTIVITY FROM COMPUTED FOCUSING MODE 5
SGRDD  .GAPI  : SPECTROSCOPY GAMMA RAY FROM DENSITY LOG
TNPH_LS.DEC   : THERMAL NEUTRON POROSITY [LIMESTONE]
~Params ----------------------------------------------------
~Other -----------------------------------------------------
~ASCII -----------------------------------------------------
# ...
 3930.50000    8.41240   -0.04610   48.76700   84.19340    0.00060    3.23220    2.78560  362.53350  396.58260   13.17460    0.05920
 3931.00000    8.36080   -0.05300   48.57040   84.17990   -0.00100    3.19320    2.79500  387.13030  440.47830   13.60240    0.05760
 3931.50000    8.35210   -0.05760   48.21500   -9999.25   -0.00100    3.16830    2.80460  487.02560  577.11860   13.85470    0.05560
 3932.00000    8.34340   -0.06050   48.08640   -9999.25   -0.00100    3.16830    2.81460  500.62790  539.18870   14.53030    0.05220
 3932.50000    8.33630   -0.06490   47.95780   -9999.25   -0.00100    3.23800    2.82160  449.54800  473.53880   15.90680    0.04590
 3933.00000    8.30880   -0.07080   47.76590   -9999.25   -0.00100    3.30180    2.82790  401.16440  436.32180   18.62530    0.04040
 3933.50000    8.26860   -0.07370   47.68760   -9999.25   -0.00100    3.32560    2.83430  349.02650  404.78160   22.58180    0.03700
 3934.00000    8.26890   -0.07590   47.41290   -9999.25   -0.00130    3.33460    2.84070  410.21790  499.42390   31.21840    0.03630
 3934.50000    8.26910   -0.07920   47.05440   -9999.25   -0.00170    3.34350    2.84770  455.29140  679.77060   37.45020    0.03220
 3935.00000    8.26930   -0.08170   46.86820   -9999.25   -0.00310    3.35830    2.84690  421.69140  558.78350   41.43530    0.02930
 3935.50000    8.26950   -0.07840   46.84130   -9999.25   -0.00470    3.39610    2.84210  411.44870  489.96750   34.75770    0.02660
 3936.00000    8.26980   -0.07600   46.81440   -9999.25   -0.00550    3.37360    2.84370  610.81440  855.19400   27.95320    0.02330
 3936.50000    8.27000   -0.07820   46.76460   82.39100   -0.00540    3.33180    2.84530  814.95810 1174.98780   21.64710    0.01970
 3937.00000    8.25820   -0.07490   46.85710   82.70370   -0.00520    3.30990    2.83760 1168.94050 1509.94670   24.05050    0.01760
 3937.50000    8.27210   -0.06920   47.06720   82.83760   -0.00510    3.29590    2.82890 1015.01560 1530.68650   31.89000    0.01950
 3938.00000    8.27210   -0.06250   47.45410   81.36400   -0.00520    3.26710    2.82020  739.08520 1145.28110   44.14070    0.02390
 3938.50000    8.27210   -0.05900   47.75320   82.30170   -0.00490    3.18810    2.81150  533.22750  765.13640   50.28780    0.02700
 3939.00000    8.27210   -0.05560   48.24090   79.22060   -0.00460    3.12700    2.80470  416.68960  546.46920   51.57000    0.03010
 3939.50000    8.27210   -0.05180   48.75380   80.65200   -0.00450    3.08190    2.79920  198.83500  280.80930   45.55080    0.03480
 3940.00000    8.27210   -0.04680   49.47310   82.20070   -0.00490    3.02260    2.79200  146.66820  152.61780   41.96650    0.03940
 3940.50000    8.25960   -0.04460   49.77770   82.39560   -0.00530    3.06250    2.78360  153.32310  162.29060   40.84800    0.04410
 3941.00000    8.25600   -0.04170   49.99090   82.98450   -0.00570    3.08520    2.78100  122.11200  130.75380   38.95860    0.04760
 3941.50000    8.26050   -0.04520   49.94720   83.12220   -0.00540    3.11670    2.78740   87.86690   87.25450   34.74010    0.04980
 3942.00000    8.26490   -0.05200   49.70960   83.25990   -0.00380    3.13670    2.79600  153.35190  124.14690   30.06800    0.04870
 3942.50000    8.27640   -0.05740   49.16850   83.39770   -0.00230    3.16240    2.80460  252.82170  214.87260   26.52280    0.04200
 3943.00000    8.27410   -0.06150   48.56930   82.96890   -0.00340    3.19260    2.81270  256.05230  225.21620   23.12390    0.03840
 3943.50000    8.26370   -0.06280   47.93820   82.29060   -0.00370    3.23290    2.82000  252.84450  240.59530   21.95500    0.03480
 3944.00000    8.27410   -0.06820   47.48850   83.38620   -0.00410    3.27050    2.82760  380.41390  335.68010   20.58690    0.03170
 3944.50000    8.26790   -0.07170   47.14820   82.41180   -0.00450    3.29710    2.83220  507.98330  574.49200   19.11980    0.02970
 3945.00000    8.26170   -0.06770   47.04580   81.27420   -0.00520    3.34110    2.82640  591.07870  732.92090   17.79040    0.02900
 3945.50000    8.25550   -0.05930   47.07700   80.47300   -0.00640    3.38960    2.81550  539.51310  652.71350   17.02710    0.02870
 3946.00000    8.25900   -0.05260   47.36810   79.63490   -0.00760    3.43800    2.80470  635.60700  892.43310   17.51420    0.02970
 3946.50000    8.26410   -0.04950   47.50950   79.76550   -0.00880    3.48640    2.79570  879.49220 1103.60990   16.77310    0.03080
 3947.00000    8.27540   -0.05260   47.52670   80.14680   -0.00780    3.50590    2.80260  741.41290 1030.78540   15.72810    0.02990
 3947.50000    8.30010   -0.06130   47.44240   80.49200   -0.00670    3.50620    2.81170  886.62140 1233.28230   14.59850    0.02590
 3948.00000    8.28940   -0.06690   47.50880   79.42150   -0.00560    3.51150    2.82090 1153.39750 1956.75280   15.44760    0.02400
 3948.50000    8.27870   -0.06930   47.37720   79.34830   -0.00500    3.50540    2.82800 1206.76690 1676.31490   17.13280    0.02400
 3949.00000    8.26800   -0.06860   47.02710   81.44650   -0.00520    3.49080    2.83120  882.29940 1139.17830   18.72330    0.02530
 3949.50000    8.27260   -0.07330   46.80080   82.32420   -0.00540    3.47610    2.83640  736.83050  911.81210   22.41500    0.02370
 3950.00000    8.29960   -0.07950   46.66070   80.28930   -0.00560    3.46160    2.84370  924.42860 1210.99990   28.86470    0.02120
 3950.50000    8.31270   -0.08290   46.55250   80.68210   -0.00580    3.46420    2.84880 1165.14090 1583.96830   34.18500    0.01970
 3951.00000    8.32810   -0.07610   46.41790   80.97950   -0.00580    3.48280    2.83910 1301.95040 1686.71710   33.72990    0.02130
 3951.50000    8.34340   -0.06850   46.22740   80.48530   -0.00580    3.49900    2.82930 1225.65210 2055.06850   29.04710    0.02380
 3952.00000    8.30270   -0.07240   46.31080   79.89050   -0.00580    3.51520    2.83070 1097.52030 1598.69200   24.33290    0.02400
 3952.50000    8.27300   -0.08900   46.27070   79.98420   -0.00230    3.50360    2.85240 1292.48290 1707.30190   21.45080    0.02240
 3953.00000    8.27240   -0.09890   46.24670   80.07800    0.00240    3.47170    2.87410 1083.69130 1317.61060   22.70850    0.02010
 3953.50000    8.27180   -0.11000   46.15550   80.22830    0.00620    3.46390    2.89580 1458.57820 1865.54240   27.95970    0.01850
 3954.00000    8.25760   -0.10770   46.02390   80.60510    0.00620    3.43500    2.89860 1507.18940 1647.57680   34.63690    0.02010
 3954.50000    8.24000   -0.10610   46.07920   80.69420    0.00500    3.41160    2.89370  920.42190 1052.97920   40.34260    0.02160
 3955.00000    8.22240   -0.10260   46.43550   81.73610    0.00260    3.34960    2.88550  554.15340  577.29850   43.31020    0.02380
 3955.50000    8.21240   -0.09230   46.83590   82.83760    0.00020    3.27860    2.86950  582.90460  636.05800   44.74410    0.02750
 3956.00000    8.21380   -0.07420   47.23630   81.89980   -0.00210    3.23750    2.84820  461.98790  587.57620   45.52450    0.03220
 3956.50000    8.21520   -0.06360   47.63530   82.86880   -0.00450    3.19170    2.82700  257.69080  328.22960   43.85070    0.03690
 3957.00000    8.22190   -0.06210   47.86230   82.30650   -0.00580    3.18990    2.81840  227.04720  237.84530   41.75510    0.03840
 3957.50000    8.22130   -0.06910   47.95600   82.32870   -0.00530    3.18820    2.82800  228.47720  234.61060   39.50000    0.03760
 3958.00000    8.22070   -0.07550   47.77000   83.08410   -0.00410    3.18640    2.84090  248.05220  256.35100   36.37340    0.03370
 3958.50000    8.24170   -0.08110   47.57740   83.40380   -0.00260    3.25160    2.84710  464.10280  524.60960   29.37310    0.02980
 3959.00000    8.26380   -0.07760   47.35830   83.25030   -0.00420    3.34440    2.84480  725.89490  817.53520   24.08320    0.02590
 3959.50000    8.26390   -0.07350   47.35850   83.21720   -0.00530    3.39500    2.83880 1018.18130 1165.19210   22.89610    0.02670
 3960.00000    8.26650   -0.06940   47.49950   83.18410   -0.00570    3.36300    2.82490  979.12520 1173.14890   25.61760    0.02980
 3960.50000    8.26430   -0.06390   48.07830   83.82270   -0.00500    3.23670    2.81220  674.54530  844.51280   30.57070    0.03290
