~Version ---------------------------------------------------
VERS.   2.0 : CWLS log ASCII Standard -VERSION 2.0
WRAP.    NO : One line per depth step
DLM . SPACE : Column Data Section Delimiter
~Well ------------------------------------------------------
STRT .FT                 88.0 : START DEPTH
STOP .FT               4846.0 : STOP DEPTH
STEP .FT                  0.5 : STEP
NULL .               -9999.25 : NULL VALUE
COMP .                        : COMPANY
WELL .                        : WELL
FLD  .                        : FIELD
LOC  .                        : LOCATION
PROV .                        : PROVINCE
CNTY .                        : COUNTY
STAT .                        : STATE
CTRY .                        : COUNTRY
SRVC .                        : SERVICE COMPANY
DATE .                        : DATE
UWI  .                        : UNIQUE WELL ID
API  .                        : API NUMBER
SLAT .WGS84   3.0572790899949 : SURFACE LATITUDE
SLON .WGS84 8.811148618575004 : SURFACE LONGITUDE
DATUM.F                   nan : DEPTH DATUM ELEV
~Curve Information -----------------------------------------
DEPT   .FT    : 
C1     .IN    : CALIPER 1
DPHZ_LS.DEC   : HGRD STANDARD RESOLUTION DENSITY POROSITY
DTCO   .US/F  : DELTA-T COMPRESSIONAL
DTSM   .US/F  : DELTA-T SHEAR
HDRA   .G/C3  : HRDD SPINE AND RIBS DENSITY CORRECTION
PEFZ   .B/E   : HRDD STANDARD RESOLUTION FORMATION PHOTOELECTRIC FACTOR
RHOZ   .G/C3  : HRDD STANDARD RESOLUTION FORMATION DENSITY
RLA3   .OHMM  : APPARENT RESISTIVITY FROM COMPUTED FOCUSING MODE 3
RLA5   .OHMM  : APPARENT RESISTIVITY FROM COMPUTED FOCUSING MODE 5
SGRDD  .GAPI  : SPECTROSCOPY GAMMA RAY FROM DENSITY LOG
TNPH_LS.DEC   : THERMAL NEUTRON POROSITY [LIMESTONE]
~Params ----------------------------------------------------
~Other -----------------------------------------------------
~ASCII -----------------------------------------------------
# ...
 4205.00000    8.23440   -0.05270   46.31260   76.14160   -0.00700    3.25880    2.79890  497.35920  565.94370   23.31410    0.03940
 4205.50000    8.22360   -0.06380   46.02690   78.17750   -0.00720    3.23400    2.81770  529.85160  614.21640   23.39300    0.03110
 4206.00000    8.22270   -0.07000   45.44820   80.39900   -0.00760    3.23480    2.82960  746.82220  819.20360   23.54900    0.02520
 4206.50000    8.23460   -0.06710   45.09550   80.06910   -0.00790    3.26460    2.82540  988.03660 1231.64450   22.28620    0.02430
 4207.00000    8.26580   -0.06350   45.07370   78.91930   -0.00460    3.29320    2.81900  966.59640 1078.53280   21.20750    0.02300
 4207.50000    8.27480   -0.06670   45.05190   77.41220   -0.00030    3.29990    2.82440  942.43490 1104.29980   19.84210    0.02140
 4208.00000    8.22740   -0.07280   45.05090   77.22520    0.00320    3.28900    2.83490 1123.94900 1411.66920   17.79760    0.01970
 4208.50000    8.23540   -0.07910   45.08980   78.26450    0.00030    3.31270    2.84530 1213.90870 1421.33180   16.14470    0.01770
 4209.00000    8.27300   -0.08450   45.15590   78.50300   -0.00300    3.35560    2.85570 1188.06400 1629.07650   16.27360    0.01600
 4209.50000    8.27390   -0.08720   45.07580   77.90940   -0.00450    3.40120    2.86900 1168.68050 1685.64130   19.59430    0.01250
 4210.00000    8.27480   -0.09440   44.94400   77.32800   -0.00220    3.43430    2.88660 1297.26690 1585.23570   25.14090    0.01000
 4210.50000    8.27570   -0.10590   44.86240   78.30910    0.00010    3.49590    2.89290 1486.39430 2238.81650   37.88320    0.00880
 4211.00000    8.27660   -0.10070   45.00830   79.22060    0.00030    3.51780    2.87560 1741.16210 3771.64620   52.73350    0.01230
 4211.50000    8.27750   -0.07740   45.18330   79.75640    0.00110    3.49150    2.84820 3499.80890 5938.77320   64.99050    0.01850
 4212.00000    8.26810   -0.06760   45.46970   79.68940    0.01870    3.45960    2.82650 2066.81790 5530.76030   71.85320    0.02660
 4212.50000    8.27050   -0.07730   45.67690   79.57780    0.03470    3.44370    2.84600 1639.64450 2547.70030   70.06920    0.03470
 4213.00000    8.33850   -0.08640   45.97420   79.62260    0.03710    3.44120    2.85640 1221.61600 2105.49670   64.75790    0.03890
 4213.50000    8.40400   -0.07840   46.16840   80.27300    0.02780    3.41710    2.84530  901.59800 1411.66920   58.91670    0.04050
 4214.00000    8.28990   -0.06890   46.35640   79.47650    0.01070    3.36070    2.83200 1083.21670 1532.08220   51.40870    0.04510
 4214.50000    8.26000   -0.06940   46.63420   78.10910    0.00330    3.30300    2.82880  889.72470 1421.33180   43.48380    0.04970
 4215.00000    8.26750   -0.07070   46.86460   76.90420   -0.00210    3.26480    2.83500  506.89180  738.42410   36.89350    0.05050
 4215.50000    8.27250   -0.07380   46.71250   76.47560   -0.00210    3.23970    2.83630  494.22190  662.07620   33.84140    0.05190
 4216.00000    8.27760   -0.07040   46.55450   74.79980   -0.00210    3.21470    2.81870  529.85160  689.73510   34.73390    0.05270
 4216.50000    8.28260   -0.06000   46.46730   74.90650   -0.00210    3.18960    2.80120  669.64370  912.30590   36.00030    0.05320
 4217.00000    8.24210   -0.04760   46.28810   76.08610   -0.00210    3.18320    2.78360  562.68570  708.81360   36.19340    0.05410
 4217.50000    8.21130   -0.04260   46.05500   77.06110   -0.00370    3.18960    2.78230  557.36650  703.99480   34.37480    0.05490
 4218.00000    8.22090   -0.04990   45.81260   77.18000   -0.00530    3.17710    2.79650  616.75780  728.41980   32.66910    0.05250
 4218.50000    8.21500   -0.05730   45.91030   77.23180   -0.00460    3.18620    2.80980  844.85390  946.62530   29.90130    0.04870
 4219.00000    8.20780   -0.06420   46.00800   77.56260   -0.00290    3.21230    2.82320  798.72260 1010.59190   27.93420    0.04620
 4219.50000    8.20060   -0.07180   46.23320   78.07940   -0.00120    3.25890    2.83660  506.89180  550.71070   31.11450    0.04330
 4220.00000    8.20140   -0.07920   46.66400   78.59630    0.00030    3.28990    2.85000  497.35920  606.61590   44.54440    0.04000
 4220.50000    8.20230   -0.08320   47.17910   79.30940    0.00000    3.27440    2.85250  740.99890  834.89010   57.16410    0.03670
 4221.00000    8.19630   -0.08500   47.64520   80.80800   -0.00070    3.21540    2.85500  608.46580  747.30080   62.85660    0.03270
 4221.50000    8.20230   -0.08330   47.83320   82.15550   -0.00130    3.22970    2.85790  340.22980  374.94360   50.43230    0.02960
 4222.00000    8.20810   -0.08680   47.87530   83.02180   -0.00200    3.24400    2.86050  284.98250  300.10360   37.98580    0.02910
 4222.50000    8.20850   -0.08780   47.78210   82.86980   -0.00270    3.26800    2.85930  294.14380  323.48740   28.14250    0.02720
 4223.00000    8.20880   -0.08540   47.46590   82.58350   -0.00340    3.31890    2.85400  423.22000  583.55400   22.40610    0.02500
 4223.50000    8.20910   -0.08540   46.75200   82.12650   -0.00410    3.31410    2.84870  959.95360 1592.08940   19.03130    0.02360
 4224.00000    8.20940   -0.08100   46.17330   81.46350   -0.00450    3.29370    2.84760 1413.01540 2396.84440   17.44900    0.02210
 4224.50000    8.20980   -0.08370   45.62830   80.80050   -0.00340    3.25220    2.85460 1351.78770 1470.64460   16.27340    0.02120
 4225.00000    8.21100   -0.08800   45.29020   80.42830   -0.00050    3.24180    2.86330 1139.46890 1605.49910   16.70060    0.02120
 4225.50000    8.21240   -0.09090   45.27980   80.25080   -0.00170    3.24740    2.86360 1377.69660 1905.80420   17.47030    0.02110
 4226.00000    8.21130   -0.08760   45.20610   -9999.25   -0.00370    3.28800    2.85340 1351.78770 1926.75910   16.03900    0.01980
 4226.50000    8.21020   -0.08180   45.16870   -9999.25   -0.00570    3.31850    2.84830 1682.30940 2535.83460   12.28940    0.01850
 4227.00000    8.23460   -0.08210   45.08130   -9999.25   -0.00660    3.31990    2.85240 2001.25850 2691.55000    9.57760    0.01730
 4227.50000    8.23110   -0.08540   44.98770   -9999.25   -0.00580    3.30580    2.85860 2175.74560 3043.31090    8.13830    0.01570
 4228.00000    8.22640   -0.08880   44.79530   -9999.25   -0.00500    3.29170    2.86470 2360.57600 3608.97220    6.84960    0.01270
 4228.50000    8.22180   -0.09180   44.83060   -9999.25   -0.00420    3.32900    2.87040 2467.49580 3324.67960    6.02300    0.01030
 4229.00000    8.21720   -0.09400   44.93380   -9999.25   -0.00370    3.40210    2.87470 2293.85340 2861.50910    6.07140    0.01010
 4229.50000    8.21630   -0.09610   45.16250   -9999.25   -0.00480    3.46320    2.87400 2066.81790 2496.98320    7.05400    0.01170
 4230.00000    8.26450   -0.09150   45.51210   -9999.25   -0.00590    3.52130    2.86620 1524.48590 2062.86280    7.44800    0.01330
 4230.50000    8.26630   -0.09150   45.84900   -9999.25   -0.00580    3.51340    2.86250 1785.79880 1971.97040    7.35180    0.01370
 4231.00000    8.22310   -0.08900   45.96920   -9999.25   -0.00430    3.48710    2.86290 1741.16210 2269.55730    7.15490    0.01430
 4231.50000    8.22400   -0.09300   45.94460   -9999.25   -0.00360    3.46300    2.86960 1404.10210 1697.13890    7.03360    0.01570
 4232.00000    8.22490   -0.09070   45.87660   -9999.25   -0.00300    3.46380    2.86960 1832.77780 1985.42100    6.84890    0.01730
 4232.50000    8.22590   -0.09130   45.76060   -9999.25   -0.00270    3.48400    2.86560 1976.08800 3043.17130    6.27060    0.02020
 4233.00000    8.22680   -0.08820   45.56330   -9999.25   -0.00270    3.48800    2.86160 1509.77810 2105.49670    5.57300    0.02210
 4233.50000    8.24960   -0.08670   45.47010   -9999.25   -0.00270    3.49200    2.85800 1118.04010 1112.80930    5.13200    0.02130
 4234.00000    8.28710   -0.08580   45.44540   -9999.25   -0.00290    3.49600    2.85690 1214.07620 1140.36560    4.65540    0.01800
 4234.50000    8.26770   -0.08560   45.56280   -9999.25   -0.00340    3.48730    2.85560 1326.36600 1230.53010    6.06100    0.01600
 4235.00000    8.25250   -0.08490   45.53430   -9999.25   -0.00390    3.48550    2.85530 1276.94780 1240.07490    7.01520    0.01370
