~Version ---------------------------------------------------
VERS.   2.0 : CWLS log ASCII Standard -VERSION 2.0
WRAP.    NO : One line per depth step
DLM . SPACE : Column Data Section Delimiter
~Well ------------------------------------------------------
STRT .FT                 88.0 : START DEPTH
STOP .FT               4846.0 : STOP DEPTH
STEP .FT                  0.5 : STEP
NULL .               -9999.25 : NULL VALUE
COMP .                        : COMPANY
WELL .                        : WELL
FLD  .                        : FIELD
LOC  .                        : LOCATION
PROV .                        : PROVINCE
CNTY .                        : COUNTY
STAT .                        : STATE
CTRY .                        : COUNTRY
SRVC .                        : SERVICE COMPANY
DATE .                        : DATE
UWI  .                        : UNIQUE WELL ID
API  .                        : API NUMBER
SLAT .WGS84   3.0572790899949 : SURFACE LATITUDE
SLON .WGS84 8.811148618575004 : SURFACE LONGITUDE
DATUM.F                   nan : DEPTH DATUM ELEV
~Curve Information -----------------------------------------
DEPT   .FT    : 
C1     .IN    : CALIPER 1
DPHZ_LS.DEC   : HGRD STANDARD RESOLUTION DENSITY POROSITY
DTCO   .US/F  : DELTA-T COMPRESSIONAL
DTSM   .US/F  : DELTA-T SHEAR
HDRA   .G/C3  : HRDD SPINE AND RIBS DENSITY CORRECTION
PEFZ   .B/E   : HRDD STANDARD RESOLUTION FORMATION PHOTOELECTRIC FACTOR
RHOZ   .G/C3  : HRDD STANDARD RESOLUTION FORMATION DENSITY
RLA3   .OHMM  : APPARENT RESISTIVITY FROM COMPUTED FOCUSING MODE 3
RLA5   .OHMM  : APPARENT RESISTIVITY FROM COMPUTED FOCUSING MODE 5
SGRDD  .GAPI  : SPECTROSCOPY GAMMA RAY FROM DENSITY LOG
TNPH_LS.DEC   : THERMAL NEUTRON POROSITY [LIMESTONE]
~Params ----------------------------------------------------
~Other -----------------------------------------------------
~ASCII -----------------------------------------------------
# ...
  728.00000    8.23930   -0.12880   51.79130   99.13640    0.01950    5.23140    2.92580 1956.85530 9173.01160   10.04030   -0.00160
  728.50000    8.14530   -0.14620   52.39450   99.48590    0.01170    5.27870    2.95960 3183.44560 2065.22060    8.38700   -0.00720
  729.00000    8.07460   -0.14060   54.66710  101.53400    0.00990    5.31130    2.95010  182.79550  184.09600   10.56860    0.00300
  729.50000    8.05920   -0.12360   56.97590  102.92580    0.00800    5.25770    2.92100  352.81640  353.77990   15.10230    0.02080
  730.00000    8.04920   -0.10410   59.06180  108.09050    0.00620    5.15780    2.88770  184.63820   43.69980   19.63600    0.03860
  730.50000    8.07740   -0.10020   60.17390  110.50570    0.00430    5.05380    2.88100   13.29700   14.96550   21.72920    0.04730
  731.00000    8.10740   -0.11680   60.32350  111.55920    0.00250    4.97970    2.90930   13.29730   33.76090   18.10170    0.02960
  731.50000    8.11330   -0.13880   58.96710  109.94680    0.00060    4.91380    2.94700   86.88790   85.17440   13.07970    0.01110
  732.00000    8.12960   -0.14880   57.37930  106.02080   -0.00670    4.86740    2.96420   80.93230  220.93340    9.32550    0.00980
  732.50000    8.17930   -0.12860   57.27610  104.62230   -0.00980    4.73100    2.92960  874.69700 1247.19900    7.26230    0.01150
  733.00000    8.19590   -0.10220   60.08380  105.30010   -0.00680    4.45330    2.88610 2455.90630 1981.58020    7.64400    0.03310
  733.50000    8.25400   -0.02330   63.92680  107.19140   -0.00350    4.17490    2.71460 1054.35310  251.95360    9.43080    0.07860
  734.00000    8.33170    0.05970   67.45410  109.60860    0.00320    4.01770    2.55550  107.30370  108.15720   11.52420    0.12420
  734.50000    8.37910    0.09290   69.40240  114.46540    0.00960    4.00000    2.57300  228.97250  295.85170   12.67950    0.16050
  735.00000    8.42650    0.05700   68.02860  115.30900    0.01690    4.12420    2.62190  541.54380  537.76240   12.49810    0.14320
  735.50000    8.48540    0.01150   64.13740  115.68620    0.02230    4.36500    2.69010  700.57420 1113.79330   11.11590    0.10350
  736.00000    8.38380   -0.03720   60.24090  115.00100    0.01940    4.51540    2.77340 1958.66830 1910.17890    9.35840    0.05570
  736.50000    8.33420   -0.05540   57.43490  114.77840    0.01220    4.54360    2.80460 1984.71730 2103.84020    8.65540    0.05170
  737.00000    8.28200   -0.04820   60.30030  116.82570    0.01990    4.48320    2.79220 1452.06900  349.01650   16.13670    0.05650
  737.50000    8.22980   -0.02750   65.11850  126.19070    0.02730    4.33660    2.75690  795.84280  115.87210   32.96110    0.09520
  738.00000    8.26700    0.01530   70.26520  134.43670    0.01850    4.20250    2.69790  139.61670    8.55110   49.81910    0.13730
  738.50000    8.34060    0.05240   72.66110  137.94360    0.01120    4.04280    2.61980    7.01760    6.57820   60.28620    0.19960
  739.00000    8.40050    0.03910   74.13320  140.64820    0.00960    4.03230    2.61980    6.28220    7.17160   49.46360    0.17980
  739.50000    8.32960   -0.02080   70.85570  133.46270    0.00130    4.39310    2.72170   16.43890   23.46200   32.84430    0.10620
  740.00000    8.20550   -0.08920   65.78350  126.27730    0.00020    4.75260    2.82360  433.25380  424.29850   16.91210    0.00430
  740.50000    8.13950   -0.14510   58.47330  111.99760   -0.00070    5.00500    2.92550 1483.19170 1615.98300    6.49510   -0.00670
  741.00000    8.12680   -0.14410   54.07510   98.49780   -0.00070    5.05950    2.96630 3427.97110 3469.27390    5.25360   -0.00940
  741.50000    8.12230   -0.10100   53.38680  101.13660   -0.00070    4.78620    2.96630 2021.82970 2065.23150    6.95800    0.00100
  742.00000    8.15030   -0.05560   58.46370  104.30540   -0.00070    4.43500    2.80490  352.50370  703.46080   14.59970    0.02480
  742.50000    8.20070    0.04760   61.34300  110.31750   -0.00170    3.85150    2.62860  135.57500   11.90430   21.00830    0.11610
  743.00000    8.25120    0.11330   64.22630  113.37690   -0.00260    3.43110    2.53860    5.31840    5.33290   23.45020    0.17330
  743.50000    8.27590    0.13300   66.13130  116.43630   -0.00360    3.32770    2.48320   26.03350   21.82060   24.75860    0.19560
  744.00000    8.23470    0.12300   67.08510  118.55970   -0.00460    3.26600    2.48120   28.13040   27.99570   26.11730    0.19840
  744.50000    8.21930    0.12170   66.56870  118.82770   -0.00480    3.32990    2.49880   20.45590   21.20760   29.55890    0.20080
  745.00000    8.23040    0.11680   64.97370  117.29030   -0.00270    3.48800    2.53080   17.88810   16.23230   32.80160    0.23700
  745.50000    8.21500    0.08640   63.65970  115.90500   -0.00070    3.66790    2.58460   12.72220   13.97620   32.39500    0.19260
  746.00000    8.19960    0.03190   63.99570  117.19450    0.00310    3.84850    2.65540   11.47470   42.14190   30.20110    0.14550
  746.50000    8.19220   -0.02620   63.93050  118.24230    0.00630    4.31220    2.75460   93.58120   92.29310   30.25100    0.10050
  747.00000    8.20530   -0.05010   62.45590  118.26740    0.00630    4.54430    2.79550   90.98140  111.32030   33.55790    0.08860
  747.50000    8.31170   -0.06860   62.45790  115.45540    0.00630    4.72970    2.82440    6.70560    6.97770   32.25670    0.07040
  748.00000    8.39340   -0.09320   59.82830  112.49270    0.00440    4.85430    2.86330   89.83020   54.35750   22.16170    0.02960
  748.50000    8.28630   -0.12530   57.22420  108.85670    0.00120    5.01370    2.91510  465.53580  293.89630   10.20540   -0.00800
  749.00000    8.17930   -0.14890   54.65840  103.94150   -0.00200    5.17310    2.96490 1979.89210 1235.99840    5.82530   -0.01590
  749.50000    8.17640   -0.14380   53.11100   99.03010   -0.00510    5.16370    2.95620 5696.44790 6161.64730    4.42280   -0.01310
  750.00000    8.17350   -0.13160   52.32110   96.47630   -0.00690    5.12830    2.93540 4198.67850 3124.79820    6.10710   -0.00320
  750.50000    8.17060   -0.11750   52.92980   96.37860   -0.00840    5.13530    2.91130 2041.06090 1502.54630    8.47010    0.00670
  751.00000    8.17120   -0.12010   54.32700   99.31990   -0.00980    5.14230    2.91560  103.13700  340.69330   10.83310    0.00730
  751.50000    8.17740   -0.13380   54.72660  100.76720   -0.01130    5.21730    2.93910  200.95710  192.38800   10.79920    0.00240
  752.00000    8.18350   -0.14870   55.21030  101.59720   -0.01270    5.28210    2.96470   98.49290  114.53590    9.05440   -0.00110
  752.50000    8.17570   -0.15010   55.90960  101.49360   -0.01420    5.27800    2.96710  204.76280  218.94810    7.80810   -0.00140
  753.00000    8.17030   -0.14040   55.58730  101.56340   -0.01480    5.20710    2.94950 1342.42800 1371.25060    9.84380    0.00450
  753.50000    8.17490   -0.13100   54.54320  102.00790   -0.00960    5.12720    2.93240   66.15720   25.31660   12.67440    0.01270
  754.00000    8.17670   -0.12970   53.96670  101.11940    0.00330    5.04720    2.93330   24.55860   40.55900   12.87240    0.01250
  754.50000    8.17890   -0.13230   54.62280  100.34150    0.00430    4.96720    2.93750   75.33460  327.01960    9.83730    0.01030
  755.00000    8.19100   -0.13420   54.21590   99.08230    0.00340    4.88720    2.93670 1157.84190 1193.70430    8.25670    0.00980
  755.50000    8.20310   -0.12260   53.55000   97.97150    0.00190    4.80720    2.91990  347.99850  362.04320    9.41670    0.01380
  756.00000    8.21150   -0.11430   52.64360   96.92990    0.00050    4.87600    2.90770   18.78530   18.32030   11.07220    0.01470
  756.50000    8.18830   -0.11510   52.45180   96.10670   -0.00100    4.96190    2.90440   59.61660   65.77390   10.05220    0.00420
  757.00000    8.17730   -0.12320   52.10200   96.18070   -0.00250    5.04790    2.91780  100.44790   98.38270    8.60760   -0.00180
  757.50000    8.17300   -0.12930   52.77910   96.39720   -0.00270    5.00780    2.93130  628.55090 1119.14290    7.30680    0.00440
  758.00000    8.17830   -0.11190   55.47440   97.99710   -0.00270    4.67660    2.90910 2048.18450 2092.14350    9.51790    0.01370
