~Version ---------------------------------------------------
VERS.   2.0 : CWLS log ASCII Standard -VERSION 2.0
WRAP.    NO : One line per depth step
DLM . SPACE : Column Data Section Delimiter
~Well ------------------------------------------------------
STRT .FT                 88.0 : START DEPTH
STOP .FT               4846.0 : STOP DEPTH
STEP .FT                  0.5 : STEP
NULL .               -9999.25 : NULL VALUE
COMP .                        : COMPANY
WELL .                        : WELL
FLD  .                        : FIELD
LOC  .                        : LOCATION
PROV .                        : PROVINCE
CNTY .                        : COUNTY
STAT .                        : STATE
CTRY .                        : COUNTRY
SRVC .                        : SERVICE COMPANY
DATE .                        : DATE
UWI  .                        : UNIQUE WELL ID
API  .                        : API NUMBER
SLAT .WGS84   3.0572790899949 : SURFACE LATITUDE
SLON .WGS84 8.811148618575004 : SURFACE LONGITUDE
DATUM.F                   nan : DEPTH DATUM ELEV
~Curve Information -----------------------------------------
DEPT   .FT    : 
C1     .IN    : CALIPER 1
DPHZ_LS.DEC   : HGRD STANDARD RESOLUTION DENSITY POROSITY
DTCO   .US/F  : DELTA-T COMPRESSIONAL
DTSM   .US/F  : DELTA-T SHEAR
HDRA   .G/C3  : HRDD SPINE AND RIBS DENSITY CORRECTION
PEFZ   .B/E   : HRDD STANDARD RESOLUTION FORMATION PHOTOELECTRIC FACTOR
RHOZ   .G/C3  : HRDD STANDARD RESOLUTION FORMATION DENSITY
RLA3   .OHMM  : APPARENT RESISTIVITY FROM COMPUTED FOCUSING MODE 3
RLA5   .OHMM  : APPARENT RESISTIVITY FROM COMPUTED FOCUSING MODE 5
SGRDD  .GAPI  : SPECTROSCOPY GAMMA RAY FROM DENSITY LOG
TNPH_LS.DEC   : THERMAL NEUTRON POROSITY [LIMESTONE]
~Params ----------------------------------------------------
~Other -----------------------------------------------------
~ASCII -----------------------------------------------------
# ...
 1033.00000    8.00190   -0.07120   55.62960  101.98430    0.01150    4.72420    2.83190  738.23270 1978.87520    7.76670    0.00190
 1033.50000    7.95240   -0.07540   54.26340   93.50270    0.01600    4.64790    2.83920  853.23620 2082.17220    8.96540    0.01720
 1034.00000    7.90280   -0.07990   51.73010   84.95200    0.02210    4.59970    2.84680  113.53440  351.31480   12.00340    0.03240
 1034.50000    7.92180   -0.04720   57.01370   86.05720    0.02930    4.64990    2.79100  144.45660  184.88650   11.61550    0.03080
 1035.00000    7.93130    0.04750   62.50370   74.16920    0.03750    4.56190    2.62890  179.78690  211.68060    9.59870    0.03120
 1035.50000    8.01050    0.19970   66.45090   93.48040    0.05700    4.10820    2.36860  185.38980  244.52990   11.78030    0.08470
 1036.00000    8.50250    0.30010   69.91800  112.79150    0.07650    3.32070    2.04860  137.09620  310.63410   15.53450    0.15410
 1036.50000    8.28840    0.56440   72.64270  126.24480    0.09600    2.53310    1.74860   74.57540   53.68090   19.41130    0.30020
 1037.00000   11.16430    0.69950   75.33400  139.02450    0.11410    1.74550    1.45190   37.06290   43.74900   20.53180    0.38070
 1037.50000   14.71100    0.70040   74.07650  146.60910    0.12240    1.76970    1.57750   44.74200   38.79120   21.82590    0.46030
 1038.00000   12.32810    0.38220   67.44650  154.19370    0.13130    2.57770    1.96440   44.44390   29.61810   23.44910    0.39610
 1038.50000    9.94520    0.12040   67.65370  155.91780    0.14010    3.38570    2.00230   35.06150   23.97690   24.69810    0.30120
 1039.00000    8.79300    0.02890   69.30380  129.93030    0.14370    4.19360    2.66070   39.87950   28.85060   19.82330    0.18850
 1039.50000    8.21130    0.01330   78.01670  122.12520    0.09780    4.51680    2.69850   60.93850   71.32220   13.14790    0.07450
 1040.00000    7.61860    0.04440   84.13690  108.55470    0.06950    4.51680    2.66370   82.89200  169.40720    8.06490    0.03480
 1040.50000    8.45140    0.14270   80.41740   97.69850    0.05570    4.25600    2.48420  407.02650  498.56780    6.27990    0.04080
 1041.00000    8.43250    0.24100   77.27580  111.99660    0.05240    3.99520    2.30470  366.23600  510.79050    5.95310    0.05620
 1041.50000    8.28550    0.30000   74.04930  112.41250    0.03740    3.73440    2.03000  254.28410  522.17330    6.75930    0.08070
 1042.00000   10.63290    0.35620   70.69560  112.62130    0.02430    3.88260    2.02930  185.38980  299.72970    7.89630    0.12380
 1042.50000    9.31410    0.30080   67.57910  113.19840    0.02650    4.25290    2.33510 1192.74630  441.64310    7.95340    0.12650
 1043.00000    8.34950    0.06830   63.93530  114.48910    0.03710    4.62330    2.65810 1998.63160  686.41070    6.74610    0.06710
 1043.50000    8.55760    0.02010   60.10740  125.88970    0.04140    4.59700    2.70400 97901.57430 1169.79510    5.71460    0.06410
 1044.00000    8.28660    0.11000   57.18680  116.22040    0.02860    4.09550    2.60260 1928.03150 1924.70500    6.10480    0.08620
 1044.50000    8.20670    0.22870   55.57000  108.69250    0.01130    3.73690    2.34910   67.69680 1003.01090    7.02490    0.10830
 1045.00000    9.13210    0.30000   58.62190  109.85430    0.01510    3.64920    2.19010   32.07210   81.31680    7.00690    0.14080
 1045.50000   10.69200    0.25940   63.39720  110.66400    0.03700    3.49040    2.26640 1013.88600  120.24310    7.35250    0.12760
 1046.00000    8.76790    0.27440   78.50600  117.30710    0.04140    3.24530    2.24080 93892.79860  546.89640    8.65210    0.15360
 1046.50000    8.59040    0.49800   77.60880  118.92010    0.03540    2.85800    1.85600   48.73600  299.81930   10.01840    0.19680
 1047.00000   10.98420    0.64550   78.64960  120.31020    0.03140    2.47060    1.42170   68.35220   97.84570   10.92250    0.30000
 1047.50000   16.01050    0.75350   79.35010  135.69180    0.03910    2.47060    1.49570  100.29080  123.80320   11.62140    0.42100
 1048.00000   17.97680    0.71090   79.05440  141.47590    0.05720    2.94210    1.68200  375.32890  170.41560   11.32910    0.41080
 1048.50000   16.00120    0.53520   78.58140  147.25990    0.07180    3.41350    1.86840  505.35920  207.15280   10.15500    0.30130
 1049.00000   10.89170    0.34670   78.42200  141.26710    0.08650    3.93320    1.99630  753.06890  315.68950    7.97390    0.21360
 1049.50000   10.35000    0.25540   69.11410  133.77550    0.08650    4.45300    2.27320 1208.16150  531.92550    5.89640    0.09120
 1050.00000    8.41210    0.13650   55.06670  126.28390    0.08150    4.68090    2.47640 41653.77880 1328.46430    4.61160    0.02970
 1050.50000    8.51470    0.02470   54.88410  118.79230    0.07650    4.83590    2.66760 2018.96370 1942.59490    4.17430    0.01270
 1051.00000    8.77170   -0.01950   50.91710  110.17100    0.06570    4.95810    2.74290  639.32550 12005.39760    4.32770    0.00710
 1051.50000    8.48310   -0.05220   50.70570  100.79640    0.03160    4.97820    2.80700  818.89510 1994.65150    6.64250    0.00670
 1052.00000    8.38290   -0.07470   51.48270   91.42180   -0.00210    4.88790    2.83750  188.14410  261.75690    8.45900    0.01050
 1052.50000    8.28280   -0.04340   56.40220   82.04720   -0.02880    4.46330    2.78410  407.26440 1108.80420    9.42610    0.01390
 1053.00000    8.24350    0.08570   55.77150   78.29430    0.01710    4.00930    2.56330  527.44870 1231.68100   10.43570    0.04470
 1053.50000    8.12760    0.29890   57.31460  110.61090    0.04600    3.59800    2.13430  146.55560  358.51960   11.91900    0.09750
 1054.00000   10.23490    0.52590   60.05560  115.90680    0.05170    3.37560    1.74800   73.90340  165.27990   14.33510    0.10390
 1054.50000   11.51070    0.54620   64.36470  126.96090    0.05440    3.16140    1.87510  138.64170  226.40140   21.23600    0.11010
 1055.00000    9.32840    0.37920   69.21740  131.69150    0.06530    3.10720    2.19680   78.16780   60.12050   33.22830    0.12530
 1055.50000    9.16210    0.23860   72.68650  138.23900    0.07250    3.19520    2.28510   30.53500   52.17290   42.47200    0.10550
 1056.00000    9.10760    0.16230   69.77340  138.87390    0.03410    3.25300    2.43230   23.07790   44.02280   53.94550    0.08090
 1056.50000    9.01910    0.16070   67.08710  127.89710   -0.00780    3.19030    2.43510   28.41420   55.14580   57.37030    0.06760
 1057.00000    9.15580    0.14970   64.24780  117.98260   -0.03280    3.15270    2.45380   54.68290   85.44960   58.85600    0.06190
 1057.50000    9.24710    0.13870   62.27980  119.68310   -0.04090    3.13650    2.47260   80.65120   77.98790   58.47450    0.05850
 1058.00000    9.12770    0.08830   63.09010  113.67600   -0.00060    3.14940    2.54100   67.76950   66.60990   58.08180    0.06250
 1058.50000    9.19970   -0.01620   63.90460  111.87320    0.07020    3.22240    2.71380   54.88770   55.93740   58.58460    0.06380
 1059.00000    9.22840   -0.17800   64.78100  108.82200    0.27710    3.38940    2.99810   47.59700   53.80290   57.50320    0.06400
 1059.50000    9.27630   -0.31870   66.96550  105.77070    0.38050    3.58000    3.43160   63.40750   63.98150   54.62690    0.06440
 1060.00000    9.29610   -0.49810   65.96250  109.09290    0.44360    3.73780    3.64610   57.61180   66.27340   50.94690    0.06770
 1060.50000    9.31600   -0.57240   63.46310  102.65940    0.33130    3.84650    3.67750   44.58260   55.01940   47.97290    0.07650
 1061.00000    9.32230   -0.54320   60.06210   94.61620    0.20160    3.95520    3.62020   31.55330   42.11740   46.91930    0.09990
 1061.50000    9.16870   -0.50680   61.47330   85.24840    0.13070    3.88830    3.56280   18.52400   29.21540   42.67330    0.11020
 1062.00000    8.85070   -0.23330   65.02580   70.58190    0.12770    3.75460    2.83490   21.08570   38.76400   33.28080    0.16880
 1062.50000    8.90000   -0.10010   69.37940   61.92140    0.12180    3.81480    2.56560   18.18440   86.06870   23.53730    0.24140
 1063.00000   10.18460    0.17930   73.73290   76.48400    0.11590    3.79470    2.29640   17.68660  220.52260   15.74530    0.29950
