~Version ---------------------------------------------------
VERS.   2.0 : CWLS log ASCII Standard -VERSION 2.0
WRAP.    NO : One line per depth step
DLM . SPACE : Column Data Section Delimiter
~Well ------------------------------------------------------
STRT .F                 116.0 : START DEPTH
STOP .F               11854.0 : STOP DEPTH
STEP .F                   0.5 : STEP
NULL .               -9999.25 : NULL VALUE
COMP .                        : COMPANY
WELL .                        : WELL
FLD  .                        : FIELD
LOC  .                        : LOCATION
PROV .                        : PROVINCE
CNTY .                        : COUNTY
STAT .                        : STATE
CTRY .                        : COUNTRY
SRVC .                        : SERVICE COMPANY
DATE .                        : DATE
UWI  .                        : UNIQUE WELL ID
API  .                        : API NUMBER
SLAT .WGS84 3.185062600000002 : SURFACE LATITUDE
SLON .WGS84 8.012964400000001 : SURFACE LONGITUDE
DATUM.F                   nan : DEPTH DATUM ELEV
~Curve Information -----------------------------------------
DEPT   .F     : 
DPHZ_LS.DEC   : HGRD STANDARD RESOLUTION DENSITY POROSITY
DTCO   .US/F  : DELTA-T COMPRESSIONAL
DTSM   .US/F  : DELTA-T SHEAR
HCALD  .IN    : HRCC CALIPER CALIBRATED FROM DENSITY LOG
HDRA   .G/C3  : HRDD SPINE AND RIBS DENSITY CORRECTION
HSGRD  .GAPI  : HNGS STANDARD GAMMA RAY FROM DENSITY LOG
PEFZ   .B/E   : HRDD STANDARD RESOLUTION FORMATION PHOTOELECTRIC FACTOR
RHOZ   .G/C3  : HRDD STANDARD RESOLUTION FORMATION DENSITY
RLA3   .OHMM  : APPARENT RESISTIVITY FROM COMPUTED FOCUSING MODE 3
RLA4   .OHMM  : APPARENT RESISTIVITY FROM COMPUTED FOCUSING MODE 4
RLA5   .OHMM  : APPARENT RESISTIVITY FROM COMPUTED FOCUSING MODE 5
TNPH_LS.DEC   : THERMAL NEUTRON POROSITY [LIMESTONE]
~Params ----------------------------------------------------
~Other -----------------------------------------------------
~ASCII -----------------------------------------------------
# ...
 8516.00000   -0.07230   -9999.25   -9999.25    7.84250   -0.00680   27.51830    3.82720    2.83260  111.82780  128.89950  153.14280    0.04070
 8516.50000   -0.07320   -9999.25   -9999.25    7.85580    0.00610   31.59270    3.74570    2.83530   50.09420   78.58840  111.68790    0.03670
 8517.00000   -0.07850   -9999.25   -9999.25    7.88270    0.01290   34.08340    3.94630    2.84870   47.67900   51.66540   63.67620    0.03040
 8517.50000   -0.09060   -9999.25   -9999.25    7.91160    0.00010   28.44070    4.38120    2.87490   47.38520   51.66540   53.71190    0.02100
 8518.00000   -0.09940   -9999.25   -9999.25    7.95970   -0.01480   21.87040    4.71730    2.89830   51.71460  143.51990  361.72190    0.01200
 8518.50000   -0.09940   -9999.25   -9999.25    8.00800   -0.01550   15.47680    4.87280    2.92380  348.28110  586.33080  866.24680    0.00400
 8519.00000   -0.09960   -9999.25   -9999.25    8.05610   -0.01420   17.50220    4.80510    2.94430  145.88020  418.56270  866.24680    0.00400
 8519.50000   -0.09990   -9999.25   -9999.25    8.09460   -0.01710   24.25540    4.62830    2.93520   44.91890   53.28660   82.07190    0.01570
 8520.00000   -0.09980   -9999.25   -9999.25    8.09450   -0.01960   30.76360    4.34830    2.89100   35.26140   40.37640   51.02640    0.02790
 8520.50000   -0.07280   -9999.25   -9999.25    8.07470   -0.01890   34.51050    4.10350    2.83660   27.00910   27.85650   37.72450    0.04550
 8521.00000   -0.05270   -9999.25   -9999.25    8.05500   -0.01450   37.17150    3.92940    2.79660   25.86620   26.67750   29.11090    0.06150
 8521.50000   -0.03750   -9999.25   -9999.25    8.03530   -0.01280   41.99900    3.84760    2.77820   24.61890   25.70680   27.62490    0.08040
 8522.00000   -0.03630   -9999.25   -9999.25    8.01560   -0.01370   48.46740    3.79300    2.77350   14.65260   15.49030   19.99140    0.09960
 8522.50000   -0.04030   -9999.25   -9999.25    7.99580   -0.01120   53.64150    3.80980    2.78010   14.47270   15.20580   18.60760    0.10000
 8523.00000   -0.04590   -9999.25   -9999.25    7.97610   -0.00880   51.34080    3.84270    2.78790   20.31370   24.77150   26.71270    0.09250
 8523.50000   -0.04950   -9999.25   -9999.25    7.95640    0.00000   47.98950    3.91740    2.79570   24.01850   25.62760   26.71270    0.07940
 8524.00000   -0.04990   -9999.25   -9999.25    7.93670   -0.00200   47.48520    3.90010    2.79730   15.58630   16.37580   22.36110    0.08120
 8524.50000   -0.04610   -9999.25   -9999.25    7.91690   -0.00370   50.26020    3.86010    2.79190   14.21990   14.65260   15.81980    0.09190
 8525.00000   -0.04420   -9999.25   -9999.25    7.90890   -0.00410   53.13600    3.82820    2.78670   12.94970   13.86020   14.58580    0.10990
 8525.50000   -0.05200   -9999.25   -9999.25    7.90900   -0.00410   53.43910    3.82930    2.78770   12.86990   13.86020   15.71390    0.10990
 8526.00000   -0.06900   -9999.25   -9999.25    7.90910   -0.00470   44.35620    3.88130    2.80900   14.65260   34.09550   44.17620    0.10360
 8526.50000   -0.08600   -9999.25   -9999.25    7.90220   -0.00370   39.66240    3.88520    2.85240   65.44260   82.70310   92.66880    0.06230
 8527.00000   -0.09810   -9999.25   -9999.25    7.90220   -0.00270   34.90270    3.82660    2.88090  120.59990  131.31070  154.17550    0.03530
 8527.50000   -0.09270   -9999.25   -9999.25    7.89550   -0.00270   34.60630    3.71220    2.87990  135.42930  144.52260  164.88520    0.03710
 8528.00000   -0.09060   -9999.25   -9999.25    7.89430   -0.00300   36.97800    3.61990    2.87300  157.28770  162.37440  176.33940    0.04050
 8528.50000   -0.09280   -9999.25   -9999.25    7.89130   -0.00410   40.34400    3.57310    2.86810  179.14610  196.89680  246.71300    0.04070
 8529.00000   -0.09150   -9999.25   -9999.25    7.88830   -0.00470   48.32500    3.50390    2.86620  153.07350  180.09630  226.08550    0.04360
 8529.50000   -0.08430   -9999.25   -9999.25    7.88540   -0.00280   58.38930    3.41760    2.85180   40.35460   44.27250   84.83580    0.04750
 8530.00000   -0.07770   -9999.25   -9999.25    7.88220   -0.00080   63.56790    3.36750    2.84370   40.10590   44.27250   73.20120    0.05940
 8530.50000   -0.07600   -9999.25   -9999.25    7.87940   -0.00140   59.41720    3.43500    2.84100   78.81070  116.60840  138.01160    0.06430
 8531.00000   -0.07710   -9999.25   -9999.25    7.87640   -0.00270   53.08370    3.55330    2.84210  136.26890  160.01020  189.86020    0.05900
 8531.50000   -0.07770   -9999.25   -9999.25    7.87340   -0.00270   45.96340    3.66690    2.84310   83.24220  104.40560  116.28070    0.04940
 8532.00000   -0.07640   -9999.25   -9999.25    7.87040   -0.00200   41.40830    3.70760    2.84330   29.12520   63.57740   75.69370    0.04440
 8532.50000   -0.07720   -9999.25   -9999.25    7.86810    0.00170   40.47830    3.62850    2.84290   18.07710   18.64420   28.95970    0.05560
 8533.00000   -0.07700   -9999.25   -9999.25    7.86800    0.00370   35.40270    3.53380    2.84250   18.30180   18.99280   19.61290    0.06730
 8533.50000   -0.07570   -9999.25   -9999.25    7.88150   -0.00110   29.72120    3.51450    2.83810   23.87020   40.90810   97.17180    0.06670
 8534.00000   -0.07090   -9999.25   -9999.25    7.89500   -0.00540   24.03990    3.65870    2.83370   84.68740  135.30820  180.85870    0.05520
 8534.50000   -0.07360   -9999.25   -9999.25    7.90760   -0.00970   20.57000    3.78890    2.83330  151.67570  185.58130  212.82540    0.04200
 8535.00000   -0.08110   -9999.25   -9999.25    7.90560   -0.01100   20.35170    3.94840    2.84290  262.69060  297.36610  351.47120    0.03020
 8535.50000   -0.09170   -9999.25   -9999.25    7.90380   -0.00840   20.99180    3.98040    2.85610  218.50240  264.41930  345.94970    0.02680
 8536.00000   -0.08950   -9999.25   -9999.25    7.90190   -0.00620   25.57170    3.95770    2.86670  100.36950  106.21680  179.69830    0.02940
 8536.50000   -0.08670   -9999.25   -9999.25    7.90010   -0.00540   33.64870    3.83210    2.86300   99.44340  107.92380  111.68810    0.03210
 8537.00000   -0.08710   -9999.25   -9999.25    7.89820   -0.00540   42.07770    3.74540    2.85890  111.82790  120.41890  133.89340    0.03270
 8537.50000   -0.09280   -9999.25   -9999.25    7.89630   -0.00540   48.88300    3.68870    2.86450  224.75070  409.19610  648.95890    0.03290
 8538.00000   -0.08880   -9999.25   -9999.25    7.89480   -0.00710   47.96250    3.67930    2.86940  122.85830  238.46810  503.55950    0.03770
 8538.50000   -0.07330   -9999.25   -9999.25    7.89480   -0.00810   46.22060    3.66990    2.84290   20.32850   21.75780  161.71510    0.05670
 8539.00000   -0.05580   -9999.25   -9999.25    7.89460   -0.00900   46.81410    3.67270    2.81770   21.05700   21.79790   22.43270    0.07430
 8539.50000   -0.04380   -9999.25   -9999.25    7.90140   -0.00990   49.45940    3.72450    2.79320   20.58110   22.71930   24.64420    0.09370
 8540.00000   -0.05080   -9999.25   -9999.25    7.91470   -0.00780   48.68160    3.76070    2.79300   20.45430   21.49070   22.43270    0.08490
 8540.50000   -0.06370   -9999.25   -9999.25    7.91760   -0.00510   45.23440    3.81570    2.81590   35.22660   40.35460   41.33440    0.07430
 8541.00000   -0.07430   -9999.25   -9999.25    7.93270   -0.00250   40.40530    3.81390    2.83370   29.26730   30.59570   33.88460    0.06980
 8541.50000   -0.06390   -9999.25   -9999.25    7.94770   -0.00100   41.11110    3.81210    2.83740   19.11070   20.70870   25.07180    0.07860
 8542.00000   -0.05030   -9999.25   -9999.25    7.96270   -0.00200   48.12370    3.78480    2.80630   19.95530   20.45430   21.69170    0.09810
 8542.50000   -0.04760   -9999.25   -9999.25    7.97790   -0.00370   53.82550    3.86920    2.79320   19.46800   21.75780   26.53380    0.10160
 8543.00000   -0.05760   -9999.25   -9999.25    7.99280   -0.00320   53.42140    4.08510    2.79220   16.99420   20.07880   25.78680    0.08720
 8543.50000   -0.07450   -9999.25   -9999.25    8.00190    0.00000   45.66980    4.31350    2.80450   24.23310   37.16120   46.96350    0.06750
