~Version ---------------------------------------------------
VERS.   2.0 : CWLS log ASCII Standard -VERSION 2.0
WRAP.    NO : One line per depth step
DLM . SPACE : Column Data Section Delimiter
~Well ------------------------------------------------------
STRT .F                 116.0 : START DEPTH
STOP .F               11854.0 : STOP DEPTH
STEP .F                   0.5 : STEP
NULL .               -9999.25 : NULL VALUE
COMP .                        : COMPANY
WELL .                        : WELL
FLD  .                        : FIELD
LOC  .                        : LOCATION
PROV .                        : PROVINCE
CNTY .                        : COUNTY
STAT .                        : STATE
CTRY .                        : COUNTRY
SRVC .                        : SERVICE COMPANY
DATE .                        : DATE
UWI  .                        : UNIQUE WELL ID
API  .                        : API NUMBER
SLAT .WGS84 3.185062600000002 : SURFACE LATITUDE
SLON .WGS84 8.012964400000001 : SURFACE LONGITUDE
DATUM.F                   nan : DEPTH DATUM ELEV
~Curve Information -----------------------------------------
DEPT   .F     : 
DPHZ_LS.DEC   : HGRD STANDARD RESOLUTION DENSITY POROSITY
DTCO   .US/F  : DELTA-T COMPRESSIONAL
DTSM   .US/F  : DELTA-T SHEAR
HCALD  .IN    : HRCC CALIPER CALIBRATED FROM DENSITY LOG
HDRA   .G/C3  : HRDD SPINE AND RIBS DENSITY CORRECTION
HSGRD  .GAPI  : HNGS STANDARD GAMMA RAY FROM DENSITY LOG
PEFZ   .B/E   : HRDD STANDARD RESOLUTION FORMATION PHOTOELECTRIC FACTOR
RHOZ   .G/C3  : HRDD STANDARD RESOLUTION FORMATION DENSITY
RLA3   .OHMM  : APPARENT RESISTIVITY FROM COMPUTED FOCUSING MODE 3
RLA4   .OHMM  : APPARENT RESISTIVITY FROM COMPUTED FOCUSING MODE 4
RLA5   .OHMM  : APPARENT RESISTIVITY FROM COMPUTED FOCUSING MODE 5
TNPH_LS.DEC   : THERMAL NEUTRON POROSITY [LIMESTONE]
~Params ----------------------------------------------------
~Other -----------------------------------------------------
~ASCII -----------------------------------------------------
# ...
 5688.00000   -9999.25   -9999.25   -9999.25    8.54460   -0.01110   44.39960    3.66520    2.74350   73.66760   79.47810   93.97100    0.07230
 5688.50000   -9999.25   -9999.25   -9999.25    8.56570   -0.01060   43.00590    3.71850    2.76570   91.76910  133.96020  159.03320    0.06600
 5689.00000   -9999.25   -9999.25   -9999.25    8.58830   -0.00770   41.57810    3.69690    2.78800  191.36640  236.72420  259.70730    0.05960
 5689.50000   -9999.25   -9999.25   -9999.25    8.61980   -0.00360   39.40770    3.61220    2.80660  216.57210  230.23440  257.31190    0.05960
 5690.00000   -9999.25   -9999.25   -9999.25    8.65420    0.00010   38.60790    3.51860    2.81130  178.23290  243.39690  290.80840    0.06440
 5690.50000   -9999.25   -9999.25   -9999.25    8.67210    0.00010   34.89770    3.41940    2.79040   55.08590   57.88570  117.13830    0.07150
 5691.00000   -9999.25   -9999.25   -9999.25    8.64910   -0.00150   32.77540    3.37640    2.76940   54.61900   57.08680   59.52120    0.07900
 5691.50000   -9999.25   -9999.25   -9999.25    8.61170   -0.00420   31.32300    3.37450    2.75430   74.86000   91.78550  114.22820    0.08240
 5692.00000   -9999.25   -9999.25   -9999.25    8.61610   -0.00600   29.10640    3.44690    2.75990   83.64790   87.02400  109.24900    0.08020
 5692.50000   -9999.25   -9999.25   -9999.25    8.64490   -0.00650   25.11730    3.45280    2.77100  119.27170  116.73200  180.75020    0.07920
 5693.00000   -9999.25   -9999.25   -9999.25    8.67380   -0.00650   25.44500    3.41980    2.78220  178.64490  191.04320  252.25100    0.07690
 5693.50000   -9999.25   -9999.25   -9999.25    8.70080   -0.00730   29.85360    3.38240    2.78980  226.14330  237.82350  297.34800    0.07190
 5694.00000   -9999.25   -9999.25   -9999.25    8.70610   -0.00700   37.35100    3.41420    2.79740  189.17780  208.59580  228.38510    0.06580
 5694.50000   -9999.25   -9999.25   -9999.25    8.70010   -0.00550   42.30290    3.45600    2.80820  173.38960  207.66870  221.05090    0.05970
 5695.00000   -9999.25   -9999.25   -9999.25    8.69690   -0.00420   39.82210    3.50140    2.81900  250.56930  280.08910  337.12950    0.05290
 5695.50000   -9999.25   -9999.25   -9999.25    8.72760   -0.00340   35.52580    3.54750    2.83010  342.99010  396.67020  453.20820    0.04820
 5696.00000   -9999.25   -9999.25   -9999.25    8.72690   -0.00450   31.77780    3.59350    2.83580  391.11190  503.83130  558.35110    0.04350
 5696.50000   -9999.25   -9999.25   -9999.25    8.70150   -0.00640   40.60910    3.67950    2.83650  414.27880  599.43730  708.69980    0.03720
 5697.00000   -9999.25   -9999.25   -9999.25    8.67440   -0.00950   52.84880    3.79190    2.83580  498.20690  703.20220  820.94060    0.03410
 5697.50000   -9999.25   -9999.25   -9999.25    8.68460   -0.00980   63.81710    3.80120    2.83150  554.22660  734.89260  845.64630    0.03350
 5698.00000   -9999.25   -9999.25   -9999.25    8.71720   -0.00540   68.37530    3.77990    2.82520  712.04640 1076.32820 1463.58670    0.03320
 5698.50000   -9999.25   -9999.25   -9999.25    8.73470    0.00100   63.16530    3.74400    2.81820  651.46830  972.56670 1485.44640    0.03600
 5699.00000   -9999.25   -9999.25   -9999.25    8.74000    0.00730   54.99030    3.70330    2.81270  512.25080  763.63680  903.98850    0.03830
 5699.50000   -9999.25   -9999.25   -9999.25    8.77000    0.01400   44.82430    3.63140    2.81670  540.70810  797.38480  890.68450    0.04020
 5700.00000   -9999.25   -9999.25   -9999.25    8.80970    0.01400   33.85960    3.58830    2.82040  536.99390  782.74390 1049.41710    0.04150
 5700.50000   -9999.25   -9999.25   -9999.25    8.86460    0.01010   24.33990    3.58010    2.81860  574.74920 1033.59620 1274.91780    0.04200
 5701.00000   -9999.25   -9999.25   -9999.25    8.89990    0.00530   17.95430    3.57210    2.81240  769.83930 1402.42290 1500.41780    0.04410
 5701.50000   -9999.25   -9999.25   -9999.25    8.93600    0.00040   26.70000    3.56400    2.80410  878.03300 1468.92700 1660.14970    0.04610
 5702.00000   -9999.25   -9999.25   -9999.25    8.91370   -0.00200   38.63690    3.50670    2.79580  838.93740 1359.87630 1538.15150    0.04940
 5702.50000   -9999.25   -9999.25   -9999.25    8.80170   -0.00200   52.76110    3.48870    2.79340  658.53310  975.43660 1319.31420    0.05170
 5703.00000   -9999.25   -9999.25   -9999.25    8.68970   -0.00200   62.33600    3.48140    2.79700  370.68370  480.48470  825.18290    0.05380
 5703.50000   -9999.25   -9999.25   -9999.25    8.59060   -0.00200   55.25360    3.48150    2.80130  398.89920  480.48530  542.03870    0.05530
 5704.00000   -9999.25   -9999.25   -9999.25    8.58100   -0.00560   46.85280    3.48150    2.80510  516.94150  637.33730  844.30640    0.05410
 5704.50000   -9999.25   -9999.25   -9999.25    8.57140   -0.00710   40.25540    3.48150    2.80420  615.16610  920.96290 1146.57370    0.05180
 5705.00000   -9999.25   -9999.25   -9999.25    8.57140   -0.00660   34.54520    3.48150    2.79560  544.52870  778.06200 1180.48100    0.04950
 5705.50000   -9999.25   -9999.25   -9999.25    8.58670   -0.00450   29.52010    3.49600    2.78600  406.76420  435.26630  672.50320    0.04900
 5706.00000   -9999.25   -9999.25   -9999.25    8.60600   -0.00610   23.29840    3.51190    2.76580  253.65730  314.09290  412.22260    0.05100
 5706.50000   -9999.25   -9999.25   -9999.25    8.62520   -0.00930   16.12020    3.49800    2.75150  100.55030  179.17300  213.86620    0.06330
 5707.00000   -9999.25   -9999.25   -9999.25    8.57140   -0.01060   11.84650    3.48400    2.74140   62.57020   68.22210   75.45570    0.07680
 5707.50000   -9999.25   -9999.25   -9999.25    8.57140   -0.01110    9.92430    3.45140    2.74260   61.42130   65.33540   72.71030    0.08260
 5708.00000   -9999.25   -9999.25   -9999.25    8.60640   -0.00880    9.72760    3.40670    2.74870   42.24250   50.33740   62.19390    0.08160
 5708.50000   -9999.25   -9999.25   -9999.25    8.64120   -0.00450    9.77430    3.40370    2.75270   24.19130   34.07440   40.28460    0.08500
 5709.00000   -9999.25   -9999.25   -9999.25    8.60510   -0.00250    9.61290    3.40070    2.75520   19.58890   23.50450   25.19020    0.09040
 5709.50000   -9999.25   -9999.25   -9999.25    8.55220   -0.00250    8.91380    3.42100    2.75840   25.00890   28.85650   35.89880    0.09260
 5710.00000   -9999.25   -9999.25   -9999.25    8.54180   -0.00470    8.46120    3.45350    2.76300   30.37270   36.78340   42.95600    0.09210
 5710.50000   -9999.25   -9999.25   -9999.25    8.63860   -0.00630    8.22640    3.51920    2.76690   25.57780   28.63810   33.44500    0.09220
 5711.00000   -9999.25   -9999.25   -9999.25    8.65670   -0.00480    8.71530    3.56260    2.76850   23.14430   26.84290   27.73850    0.09360
 5711.50000   -9999.25   -9999.25   -9999.25    8.65530   -0.00350    8.09170    3.53280    2.76330   28.61420   35.66430   40.18370    0.09290
 5712.00000   -9999.25   -9999.25   -9999.25    8.65220   -0.00200    7.62190    3.45490    2.74500   17.86280   23.21760   28.95640    0.09620
 5712.50000   -9999.25   -9999.25   -9999.25    8.65710   -0.00200    6.91570    3.29340    2.72680   13.94610   15.01920   16.02700    0.10000
 5713.00000   -9999.25   -9999.25   -9999.25    8.80090   -0.00260    7.44290    3.23940    2.72360   14.74410   14.92660   16.26630    0.10460
 5713.50000   -9999.25   -9999.25   -9999.25    8.82510   -0.00300    7.95070    3.25420    2.73980   18.30180   21.22660   25.30440    0.10080
 5714.00000   -9999.25   -9999.25   -9999.25    8.74060   -0.00350    8.04580    3.34380    2.75960   52.04030   66.05770   79.57520    0.08930
 5714.50000   -9999.25   -9999.25   -9999.25    8.76280   -0.00810    7.28180    3.52810    2.77960   84.73230  110.88870  144.62710    0.07650
 5715.00000   -9999.25   -9999.25   -9999.25    8.83620   -0.01030    6.11850    3.71230    2.79650  117.42450  151.35660  186.40110    0.06110
 5715.50000   -9999.25   -9999.25   -9999.25    8.91130   -0.01060    6.46690    3.82220    2.80920  136.26860  142.29080  148.13220    0.04960
