~Version ---------------------------------------------------
VERS.   2.0 : CWLS log ASCII Standard -VERSION 2.0
WRAP.    NO : One line per depth step
DLM . SPACE : Column Data Section Delimiter
~Well ------------------------------------------------------
STRT .F                 116.0 : START DEPTH
STOP .F               11854.0 : STOP DEPTH
STEP .F                   0.5 : STEP
NULL .               -9999.25 : NULL VALUE
COMP .                        : COMPANY
WELL .                        : WELL
FLD  .                        : FIELD
LOC  .                        : LOCATION
PROV .                        : PROVINCE
CNTY .                        : COUNTY
STAT .                        : STATE
CTRY .                        : COUNTRY
SRVC .                        : SERVICE COMPANY
DATE .                        : DATE
UWI  .                        : UNIQUE WELL ID
API  .                        : API NUMBER
SLAT .WGS84 3.185062600000002 : SURFACE LATITUDE
SLON .WGS84 8.012964400000001 : SURFACE LONGITUDE
DATUM.F                   nan : DEPTH DATUM ELEV
~Curve Information -----------------------------------------
DEPT   .F     : 
DPHZ_LS.DEC   : HGRD STANDARD RESOLUTION DENSITY POROSITY
DTCO   .US/F  : DELTA-T COMPRESSIONAL
DTSM   .US/F  : DELTA-T SHEAR
HCALD  .IN    : HRCC CALIPER CALIBRATED FROM DENSITY LOG
HDRA   .G/C3  : HRDD SPINE AND RIBS DENSITY CORRECTION
HSGRD  .GAPI  : HNGS STANDARD GAMMA RAY FROM DENSITY LOG
PEFZ   .B/E   : HRDD STANDARD RESOLUTION FORMATION PHOTOELECTRIC FACTOR
RHOZ   .G/C3  : HRDD STANDARD RESOLUTION FORMATION DENSITY
RLA3   .OHMM  : APPARENT RESISTIVITY FROM COMPUTED FOCUSING MODE 3
RLA4   .OHMM  : APPARENT RESISTIVITY FROM COMPUTED FOCUSING MODE 4
RLA5   .OHMM  : APPARENT RESISTIVITY FROM COMPUTED FOCUSING MODE 5
TNPH_LS.DEC   : THERMAL NEUTRON POROSITY [LIMESTONE]
~Params ----------------------------------------------------
~Other -----------------------------------------------------
~ASCII -----------------------------------------------------
# ...
 4764.00000   -9999.25   -9999.25   -9999.25    8.16990    0.05620   20.77890    3.79650    2.87580 23517.38090 2006.81620 1439.21450    0.04400
 4764.50000   -9999.25   -9999.25   -9999.25    8.16350    0.02430   19.74110    3.69780    2.87710  339.14740  418.61170  442.15410    0.03410
 4765.00000   -9999.25   -9999.25   -9999.25    8.17480    0.00940   18.50530    3.68190    2.85620  405.99150  497.08330  546.98460    0.02220
 4765.50000   -9999.25   -9999.25   -9999.25    8.18160    0.00010   16.82700    3.72740    2.85880  506.82090  779.95490  987.61890    0.01680
 4766.00000   -9999.25   -9999.25   -9999.25    8.18380   -0.00090   16.08790    3.68160    2.87200  824.03540 1062.82700 1428.25450    0.01480
 4766.50000   -9999.25   -9999.25   -9999.25    8.18930   -0.00590   16.52750    3.64870    2.87200 1077.80620 1345.69790 1705.23400    0.01400
 4767.00000   -9999.25   -9999.25   -9999.25    8.19470   -0.00020   17.77680    3.60750    2.87150  983.02930 1284.06410 1503.23780    0.01580
 4767.50000   -9999.25   -9999.25   -9999.25    8.20010    0.01320   18.71940    3.58200    2.86870 1041.91020 1213.10640 1809.46670    0.01790
 4768.00000   -9999.25   -9999.25   -9999.25    8.20560    0.02880   18.50430    3.58160    2.86230 1075.46200 1225.94530 1555.59770    0.01840
 4768.50000   -9999.25   -9999.25   -9999.25    8.21100    0.01260   18.29930    3.64020    2.85440  993.78850 1240.73010 1391.12770    0.01830
 4769.00000   -9999.25   -9999.25   -9999.25    8.21650    0.00360   18.09070    3.65120    2.84550  860.87860 1059.59770 1206.74370    0.01750
 4769.50000   -9999.25   -9999.25   -9999.25    8.22190   -0.00860   17.97180    3.66230    2.84520  708.19360  858.16770  935.16120    0.01690
 4770.00000   -9999.25   -9999.25   -9999.25    8.17150   -0.00440   17.89800    3.67330    2.85100  672.11770  697.02400  743.76600    0.01650
 4770.50000   -9999.25   -9999.25   -9999.25    8.17150    0.00120   18.01170    3.65850    2.85690  686.08030  698.64290  705.48830    0.01570
 4771.00000   -9999.25   -9999.25   -9999.25    8.22190    0.00660   17.62100    3.69040    2.86310  690.33650  723.35660  907.56990    0.01270
 4771.50000   -9999.25   -9999.25   -9999.25    8.27690    0.01140   16.25760    3.77830    2.86430 1346.95030 1374.11060 1811.76160    0.00970
 4772.00000   -9999.25   -9999.25   -9999.25    8.33190    0.00120   14.89420    3.91670    2.86350 8785.08500 1987.02580 2199.28130    0.00660
 4772.50000   -9999.25   -9999.25   -9999.25    8.34280   -0.00740   13.91000    4.03350    2.86100 7908.90090 6572.93510 2361.01390    0.00580
 4773.00000   -9999.25   -9999.25   -9999.25    8.34960   -0.00850   14.90420    4.05250    2.85800 5329.94870 3705.14060 1976.04240    0.00640
 4773.50000   -9999.25   -9999.25   -9999.25    8.36650   -0.00950   15.74160    3.98490    2.85560 4717.68990 4311.87990 1717.91110    0.00700
 4774.00000   -9999.25   -9999.25   -9999.25    8.38340   -0.00840   17.08130    3.97840    2.85950 5308.75930 4166.07180 1920.05970    0.00720
 4774.50000   -9999.25   -9999.25   -9999.25    8.40030   -0.00620   18.91120    3.97940    2.86620 5526.33840 4003.66090 1743.58440    0.00620
 4775.00000   -9999.25   -9999.25   -9999.25    8.41730   -0.00400   19.15500    4.02410    2.87370 7951.26320 4652.34520 1796.08750    0.00490
 4775.50000   -9999.25   -9999.25   -9999.25    8.42780   -0.00100   17.34530    4.12230    2.88500 13402.73730 6982.77000 2007.43070    0.00360
 4776.00000   -9999.25   -9999.25   -9999.25    8.45420   -0.00240   14.62580    4.15940    2.89560 20741.41210 14078.88570 2241.56740    0.00250
 4776.50000   -9999.25   -9999.25   -9999.25    8.53830   -0.00390   14.67180    4.22830    2.90490 19050.59570 15498.10550 2258.25370    0.00280
 4777.00000   -9999.25   -9999.25   -9999.25    8.53530   -0.00540   16.49730    4.19310    2.89400 16706.85350 11747.89160 2292.00050    0.00470
 4777.50000   -9999.25   -9999.25   -9999.25    8.48370   -0.00680   18.74150    4.01960    2.88260 10656.15040 6206.02490 1961.45830    0.00650
 4778.00000   -9999.25   -9999.25   -9999.25    8.48370   -0.00670   21.40920    3.84310    2.88700 3476.39580 2841.11790 1806.72070    0.00770
 4778.50000   -9999.25   -9999.25   -9999.25    8.53530   -0.00570   23.93280    3.81080    2.89620 2564.91700 2432.42290 1606.00020    0.01040
 4779.00000   -9999.25   -9999.25   -9999.25    8.55010   -0.00480   25.16310    3.80170    2.90030 2018.02890 1254.25160 1514.44230    0.01250
 4779.50000   -9999.25   -9999.25   -9999.25    8.49260   -0.00380   24.71070    3.77900    2.89660 1002.41680 1483.34780 1742.38900    0.01400
 4780.00000   -9999.25   -9999.25   -9999.25    8.42060   -0.00420   22.16790    3.75620    2.88320 1061.12880 1955.10240 1946.98160    0.01550
 4780.50000   -9999.25   -9999.25   -9999.25    8.34860   -0.00530   18.54370    3.71560    2.87450  849.33610 1570.29930 1459.30330    0.01620
 4781.00000   -9999.25   -9999.25   -9999.25    8.27670   -0.00640   16.03520    3.64820    2.87910  916.21550 1083.65450 1448.51340    0.01460
 4781.50000   -9999.25   -9999.25   -9999.25    8.23570   -0.00470   17.06040    3.54660    2.88790  656.91720  795.90280 1437.81120    0.01310
 4782.00000   -9999.25   -9999.25   -9999.25    8.20240   -0.00290   20.31290    3.49500    2.87680  645.61310  692.09340 1437.81120    0.01520
 4782.50000   -9999.25   -9999.25   -9999.25    8.17360   -0.00110   23.93240    3.49570    2.85120  360.10880  403.12500 1437.80630    0.01790
 4783.00000   -9999.25   -9999.25   -9999.25    8.17360   -0.00040   27.05530    3.52750    2.85800   74.60690  114.15920 1437.80140    0.02140
 4783.50000   -9999.25   -9999.25   -9999.25    8.19400   -0.00040   25.13400    3.61880    2.87470  307.22010  323.29720 1437.80140    0.02080
 4784.00000   -9999.25   -9999.25   -9999.25    8.21060   -0.00170   21.93180    3.72490    2.89150  889.90290 1397.04220 1437.80140    0.01560
 4784.50000   -9999.25   -9999.25   -9999.25    8.24010   -0.00260   20.20000    3.81990    2.89480 1127.04480 1589.17210 2022.37270    0.01040
 4785.00000   -9999.25   -9999.25   -9999.25    8.24420   -0.00670   18.89650    3.84970    2.88100 1422.65840 2000.89530 2800.14110    0.00660
 4785.50000   -9999.25   -9999.25   -9999.25    8.24830   -0.01090   17.88930    3.83630    2.86650  962.79350 1102.91410 1976.04240    0.00640
 4786.00000   -9999.25   -9999.25   -9999.25    8.25240   -0.01060   16.39930    3.76250    2.85490  778.84790 1102.91540 1142.48290    0.00620
 4786.50000   -9999.25   -9999.25   -9999.25    8.25650   -0.00860   14.90940    3.76550    2.86060 1082.53430 1523.67370 1977.87700    0.00600
 4787.00000   -9999.25   -9999.25   -9999.25    8.26060   -0.00650   14.98100    3.83580    2.86760 1117.94580 1968.69230 2275.06520    0.00570
 4787.50000   -9999.25   -9999.25   -9999.25    8.26230   -0.00490   17.42110    3.95130    2.87470 1138.86850 2223.83670 2414.13310    0.00550
 4788.00000   -9999.25   -9999.25   -9999.25    8.28690   -0.00570   19.64160    4.14050    2.88020  690.89060 1975.01400 1961.45150    0.00400
 4788.50000   -9999.25   -9999.25   -9999.25    8.31400   -0.00650   20.33260    4.39130    2.88360  239.92630  301.21720  677.54970    0.00110
 4789.00000   -9999.25   -9999.25   -9999.25    8.50250   -0.00730   18.44790    4.64840    2.89350  274.90450  320.69980  389.77630   -0.00060
 4789.50000   -9999.25   -9999.25   -9999.25    8.66090   -0.00680   17.21980    4.94370    2.90460  240.22110  296.79310  352.38070   -0.00060
 4790.00000   -9999.25   -9999.25   -9999.25    8.71700   -0.00600   16.12810    5.12340    2.91700  153.26560  246.54820  283.34590   -0.00050
 4790.50000   -9999.25   -9999.25   -9999.25    8.75390   -0.00510   14.52160    5.03740    2.93050  218.87270  289.05940  481.04610    0.00010
 4791.00000   -9999.25   -9999.25   -9999.25    8.77600   -0.00350   12.28840    4.92710    2.94380  633.86560  685.22370  970.02470    0.00080
 4791.50000   -9999.25   -9999.25   -9999.25    8.76530   -0.00210   11.72530    4.81660    2.95450 1048.85930 1081.38950 1459.00460    0.00160
