~Version ---------------------------------------------------
VERS.   2.0 : CWLS log ASCII Standard -VERSION 2.0
WRAP.    NO : One line per depth step
DLM . SPACE : Column Data Section Delimiter
~Well ------------------------------------------------------
STRT .F                 116.0 : START DEPTH
STOP .F               11854.0 : STOP DEPTH
STEP .F                   0.5 : STEP
NULL .               -9999.25 : NULL VALUE
COMP .                        : COMPANY
WELL .                        : WELL
FLD  .                        : FIELD
LOC  .                        : LOCATION
PROV .                        : PROVINCE
CNTY .                        : COUNTY
STAT .                        : STATE
CTRY .                        : COUNTRY
SRVC .                        : SERVICE COMPANY
DATE .                        : DATE
UWI  .                        : UNIQUE WELL ID
API  .                        : API NUMBER
SLAT .WGS84 3.185062600000002 : SURFACE LATITUDE
SLON .WGS84 8.012964400000001 : SURFACE LONGITUDE
DATUM.F                   nan : DEPTH DATUM ELEV
~Curve Information -----------------------------------------
DEPT   .F     : 
DPHZ_LS.DEC   : HGRD STANDARD RESOLUTION DENSITY POROSITY
DTCO   .US/F  : DELTA-T COMPRESSIONAL
DTSM   .US/F  : DELTA-T SHEAR
HCALD  .IN    : HRCC CALIPER CALIBRATED FROM DENSITY LOG
HDRA   .G/C3  : HRDD SPINE AND RIBS DENSITY CORRECTION
HSGRD  .GAPI  : HNGS STANDARD GAMMA RAY FROM DENSITY LOG
PEFZ   .B/E   : HRDD STANDARD RESOLUTION FORMATION PHOTOELECTRIC FACTOR
RHOZ   .G/C3  : HRDD STANDARD RESOLUTION FORMATION DENSITY
RLA3   .OHMM  : APPARENT RESISTIVITY FROM COMPUTED FOCUSING MODE 3
RLA4   .OHMM  : APPARENT RESISTIVITY FROM COMPUTED FOCUSING MODE 4
RLA5   .OHMM  : APPARENT RESISTIVITY FROM COMPUTED FOCUSING MODE 5
TNPH_LS.DEC   : THERMAL NEUTRON POROSITY [LIMESTONE]
~Params ----------------------------------------------------
~Other -----------------------------------------------------
~ASCII -----------------------------------------------------
# ...
 7116.00000   -9999.25   -9999.25   -9999.25    8.17020   -0.00380   19.84340    3.46200    2.85700 1392.48380 2538.24100 2902.69170    0.01760
 7116.50000   -9999.25   -9999.25   -9999.25    8.20790   -0.00320   17.33860    3.45420    2.86230 1341.16240 2034.51680 2312.12940    0.01930
 7117.00000   -9999.25   -9999.25   -9999.25    8.22100   -0.00220   15.68070    3.47610    2.86550 1309.08720 2051.02810 1909.50390    0.02090
 7117.50000   -9999.25   -9999.25   -9999.25    8.20170   -0.00130   17.87270    3.47920    2.86600 1640.05960 2085.99390 3196.33540    0.02120
 7118.00000   -9999.25   -9999.25   -9999.25    8.18250   -0.00050   21.12260    3.49960    2.86500 1440.96770 2448.45780 3126.21170    0.01780
 7118.50000   -9999.25   -9999.25   -9999.25    8.15380    0.00050   24.80850    3.54860    2.84930 1585.26780 2825.84740 3362.43970    0.01390
 7119.00000   -9999.25   -9999.25   -9999.25    8.17290    0.00130   27.24070    3.55270    2.83220 1641.96220 3278.62870 3652.58740    0.01070
 7119.50000   -9999.25   -9999.25   -9999.25    8.19210    0.00050   27.42100    3.54820    2.83170 1466.37550 2514.04690 3080.04470    0.01250
 7120.00000   -9999.25   -9999.25   -9999.25    8.17290   -0.00090   28.02900    3.52670    2.83560 1313.06010 2070.64580 2110.42650    0.01640
 7120.50000   -9999.25   -9999.25   -9999.25    8.12490   -0.00450   29.57830    3.52850    2.84140 1168.60670 1508.97020 1761.56200    0.01840
 7121.00000   -9999.25   -9999.25   -9999.25    8.07700   -0.00440   31.91810    3.53040    2.84720 1078.19260 1454.06580 1586.52890    0.01840
 7121.50000   -9999.25   -9999.25   -9999.25    8.06740   -0.00430   31.26780    3.61970    2.85450 1255.15780 2024.06050 1885.58150    0.01680
 7122.00000   -9999.25   -9999.25   -9999.25    8.07700   -0.00420   28.80380    3.78730    2.86450 1836.21110 2057.68650 2064.01170    0.01390
 7122.50000   -9999.25   -9999.25   -9999.25    8.10570   -0.00190   26.98360    3.94180    2.87450 1998.04860 6256.41800 5672.51320    0.01170
 7123.00000   -9999.25   -9999.25   -9999.25    8.17420    0.00250   28.58340    4.07470    2.88760 2168.82150 11496.44340 15616.68950    0.00950
 7123.50000   -9999.25   -9999.25   -9999.25    8.24280    0.00700   29.13530    4.12900    2.89330 2629.13110 12459.81150 15732.86230    0.00910
 7124.00000   -9999.25   -9999.25   -9999.25    8.22310    0.00750   28.51980    4.09980    2.89780 2849.92820 10572.09380 11782.94530    0.00930
 7124.50000   -9999.25   -9999.25   -9999.25    8.20430    0.00800   27.77780    4.02350    2.89970 2847.36180 9994.29390 10944.33590    0.00950
 7125.00000   -9999.25   -9999.25   -9999.25    8.18560    0.00850   28.17840    3.94720    2.90010 2984.94240 8402.05180 9987.41700    0.00970
 7125.50000   -9999.25   -9999.25   -9999.25    8.16690    0.00700   32.01190    3.87460    2.90200 2060.48610 6535.06400 6872.30420    0.01150
 7126.00000   -9999.25   -9999.25   -9999.25    8.14820    0.00350   34.79240    3.78410    2.89510 1925.17270 4668.07760 3573.74120    0.01330
 7126.50000   -9999.25   -9999.25   -9999.25    8.13310    0.00020   36.46040    3.66250    2.88430 1761.94260 2801.09250 2443.81080    0.01530
 7127.00000   -9999.25   -9999.25   -9999.25    8.13320   -0.00180   34.67180    3.52530    2.87340 1473.77160 2041.64820 2048.76730    0.01630
 7127.50000   -9999.25   -9999.25   -9999.25    8.11300   -0.00050   30.35380    3.47440    2.86390 1366.91300 2029.07600 2634.74440    0.01740
 7128.00000   -9999.25   -9999.25   -9999.25    8.11300    0.00360   25.48640    3.53950    2.85890 1955.88340 2869.10330 3705.58200    0.01560
 7128.50000   -9999.25   -9999.25   -9999.25    8.11300    0.00620   21.53430    3.68310    2.86000 2261.95650 4985.19190 6236.66650    0.01210
 7129.00000   -9999.25   -9999.25   -9999.25    8.12030    0.00620   23.94020    3.76700    2.86680 2738.05830 6371.83790 14826.92680    0.00890
 7129.50000   -9999.25   -9999.25   -9999.25    8.12940    0.00410   25.73600    3.85060    2.87320 3063.39360 17657.17190 25283.78130    0.00560
 7130.00000   -9999.25   -9999.25   -9999.25    8.14330    0.00040   24.92720    3.84240    2.87960 2895.97530 17876.66990 20347.36330    0.00640
 7130.50000   -9999.25   -9999.25   -9999.25    8.14330   -0.00320   22.03780    3.90130    2.87960 2882.42990 11600.90140 16448.33590    0.00780
 7131.00000   -9999.25   -9999.25   -9999.25    8.15670   -0.00320   25.49250    4.00930    2.87180 2706.79000 13126.52640 14826.88960    0.01060
 7131.50000   -9999.25   -9999.25   -9999.25    8.17350   -0.00230   31.12870    4.12820    2.87310 3005.25930 9189.64160 12146.51460    0.01280
 7132.00000   -9999.25   -9999.25   -9999.25    8.18360   -0.00140   39.51870    4.07740    2.88160 2487.00560 5129.56540 7840.88180    0.01500
 7132.50000   -9999.25   -9999.25   -9999.25    8.18360   -0.00090   50.38170    4.01070    2.87030 1999.58830 4186.02340 4331.19730    0.01650
 7133.00000   -9999.25   -9999.25   -9999.25    8.22020    0.00010   61.54070    3.93510    2.86550 2039.37870 4023.72310 4912.56640    0.01830
 7133.50000   -9999.25   -9999.25   -9999.25    8.26610    0.00110   71.58490    3.85950    2.87150 2012.83350 3666.66110 4204.49710    0.01930
 7134.00000   -9999.25   -9999.25   -9999.25    8.28450    0.00120   63.57970    3.78380    2.87760 2143.96780 3862.76460 4494.32620    0.02010
 7134.50000   -9999.25   -9999.25   -9999.25    8.24860    0.00050   49.62290    3.67620    2.87210 2000.43880 2344.41430 3127.30860    0.02310
 7135.00000   -9999.25   -9999.25   -9999.25    8.20930    0.00040   41.11230    3.52050    2.84700  726.62540  897.07160 2033.62990    0.02620
 7135.50000   -9999.25   -9999.25   -9999.25    8.17010   -0.00090   45.49450    3.38440    2.82190  293.50780  403.94590  672.11700    0.03310
 7136.00000   -9999.25   -9999.25   -9999.25    8.13080   -0.00160   53.21860    3.31320    2.79680   72.43120  173.52410  261.30090    0.03990
 7136.50000   -9999.25   -9999.25   -9999.25    8.12300   -0.00290   57.54990    3.27190    2.78130   27.17510   30.36980   35.33270    0.05640
 7137.00000   -9999.25   -9999.25   -9999.25    8.11420   -0.00410   51.07400    3.22550    2.78130   28.90580   30.74690   35.07210    0.06710
 7137.50000   -9999.25   -9999.25   -9999.25    8.10320   -0.00350   39.93310    3.18470    2.82300  351.64710  383.96480  271.30070    0.07430
 7138.00000   -9999.25   -9999.25   -9999.25    8.09220   -0.00370   30.51480    3.27530    2.84230  674.25290  737.03350  664.45730    0.07010
 7138.50000   -9999.25   -9999.25   -9999.25    8.08120   -0.00380   27.02610    3.36600    2.84230  997.15990 1090.43570 1057.91330    0.05320
 7139.00000   -9999.25   -9999.25   -9999.25    8.07020   -0.00420   25.30660    3.45680    2.83220 1319.60580 1443.32730 1450.87590    0.03610
 7139.50000   -9999.25   -9999.25   -9999.25    8.05920   -0.00480   31.50540    3.56210    2.83860 1369.43010 1796.86150 1844.54390    0.03130
 7140.00000   -9999.25   -9999.25   -9999.25    8.04810   -0.00530   44.34820    3.61590    2.85140  881.51690 1378.18480 1105.61250    0.03030
 7140.50000   -9999.25   -9999.25   -9999.25    8.03710   -0.00680   55.64060    3.64230    2.84170  360.79890  120.94260  131.95330    0.03650
 7141.00000   -9999.25   -9999.25   -9999.25    8.02610   -0.00630   55.43870    3.58840    2.83660  114.40510  120.19620  186.78880    0.04660
 7141.50000   -9999.25   -9999.25   -9999.25    8.01510   -0.00590   44.30070    3.53620    2.83720  240.34150  267.27890  461.07800    0.04380
 7142.00000   -9999.25   -9999.25   -9999.25    8.00410   -0.00440   30.63050    3.48920    2.84950  395.87280  532.95370  735.16280    0.02860
 7142.50000   -9999.25   -9999.25   -9999.25    8.00190    0.00040   31.38820    3.46170    2.86190  712.96020  805.60260  954.79480    0.01920
 7143.00000   -9999.25   -9999.25   -9999.25    8.02260    0.00040   35.72040    3.43720    2.87310  659.90080  825.72960  818.06860    0.02120
 7143.50000   -9999.25   -9999.25   -9999.25    8.04840   -0.00140   43.78160    3.41280    2.87260  357.13320  504.30260  583.57770    0.02540
