~Version ---------------------------------------------------
VERS.   2.0 : CWLS log ASCII Standard -VERSION 2.0
WRAP.    NO : One line per depth step
DLM . SPACE : Column Data Section Delimiter
~Well ------------------------------------------------------
STRT .F                 116.0 : START DEPTH
STOP .F               11854.0 : STOP DEPTH
STEP .F                   0.5 : STEP
NULL .               -9999.25 : NULL VALUE
COMP .                        : COMPANY
WELL .                        : WELL
FLD  .                        : FIELD
LOC  .                        : LOCATION
PROV .                        : PROVINCE
CNTY .                        : COUNTY
STAT .                        : STATE
CTRY .                        : COUNTRY
SRVC .                        : SERVICE COMPANY
DATE .                        : DATE
UWI  .                        : UNIQUE WELL ID
API  .                        : API NUMBER
SLAT .WGS84 3.185062600000002 : SURFACE LATITUDE
SLON .WGS84 8.012964400000001 : SURFACE LONGITUDE
DATUM.F                   nan : DEPTH DATUM ELEV
~Curve Information -----------------------------------------
DEPT   .F     : 
DPHZ_LS.DEC   : HGRD STANDARD RESOLUTION DENSITY POROSITY
DTCO   .US/F  : DELTA-T COMPRESSIONAL
DTSM   .US/F  : DELTA-T SHEAR
HCALD  .IN    : HRCC CALIPER CALIBRATED FROM DENSITY LOG
HDRA   .G/C3  : HRDD SPINE AND RIBS DENSITY CORRECTION
HSGRD  .GAPI  : HNGS STANDARD GAMMA RAY FROM DENSITY LOG
PEFZ   .B/E   : HRDD STANDARD RESOLUTION FORMATION PHOTOELECTRIC FACTOR
RHOZ   .G/C3  : HRDD STANDARD RESOLUTION FORMATION DENSITY
RLA3   .OHMM  : APPARENT RESISTIVITY FROM COMPUTED FOCUSING MODE 3
RLA4   .OHMM  : APPARENT RESISTIVITY FROM COMPUTED FOCUSING MODE 4
RLA5   .OHMM  : APPARENT RESISTIVITY FROM COMPUTED FOCUSING MODE 5
TNPH_LS.DEC   : THERMAL NEUTRON POROSITY [LIMESTONE]
~Params ----------------------------------------------------
~Other -----------------------------------------------------
~ASCII -----------------------------------------------------
# ...
 11790.50000    0.03350   83.38650  157.54980    7.74430   -0.00040   -9999.25    3.74700    2.64800   11.42960   11.74160   11.97560    0.29870
 11791.00000    0.03550   82.63730  157.45100    7.73080    0.00030   -9999.25    3.64190    2.63950   11.26590   11.66710   11.84720    0.29980
 11791.50000    0.04480   82.26070  156.95790    7.70010    0.00020   -9999.25    3.68400    2.63100   11.21370   11.60690   11.84960    0.30770
 11792.00000    0.05020   82.82290  156.66160    7.67720   -0.00040   -9999.25    3.76430    2.62260   11.05980   11.52640   11.60000    0.33030
 11792.50000    0.04750   82.50160  156.35060    7.68020   -0.00040   -9999.25    3.80500    2.62270   10.85960   11.42300   11.53710    0.33010
 11793.00000    0.04670   82.94340  156.04400    7.70830   -0.00040   -9999.25    3.80500    2.62580   10.82630   11.37630   11.47740    0.32130
 11793.50000    0.04570   83.01200  155.56990    7.67730    0.00030   -9999.25    3.80500    2.62850   10.95550   11.30250   11.82990    0.31040
 11794.00000    0.04410   83.01210  155.57130    7.63850    0.00030   -9999.25    3.77950    2.63160   11.00270   11.37930   12.24370    0.29980
 11794.50000    0.04230   82.87150  155.39690    7.66450    0.00030   -9999.25    3.78320    2.63500   10.94560   11.42770   11.61240    0.29580
 11795.00000    0.04010   82.88900  155.96020    7.69450    0.00030   -9999.25    3.80500    2.63760   10.54650   10.83060   11.23730    0.29580
 11795.50000    0.04050   82.89750  155.93910    7.73670    0.00030   -9999.25    3.83070    2.63380   10.37390   11.24690   12.24890    0.29500
 11796.00000    0.04780   82.74270  153.55810    7.75790   -0.00040   -9999.25    3.84250    2.62210   10.77460   10.83120   11.69570    0.29170
 11796.50000    0.05450   82.69540  153.03170    7.75180   -0.00170   -9999.25    3.80460    2.61000    9.88500   10.30910   10.63540    0.28150
 11797.00000    0.06050   82.69240  154.23650    7.72300   -0.00390   -9999.25    3.77230    2.59980    9.83170   10.10020   10.36680    0.28190
 11797.50000    0.05750   82.78460  154.73850    7.69420   -0.00450   -9999.25    3.72370    2.61000    9.83360   10.23940   10.48180    0.29960
 11798.00000    0.05000   83.20450  154.48750    7.68100   -0.00320   -9999.25    3.74910    2.62740    9.88700   10.26680   10.79400    0.29960
 11798.50000    0.03890   82.69030  153.73450    7.67820   -0.00110   -9999.25    3.77450    2.64490    9.99600   10.31910   11.00450    0.30870
 11799.00000    0.02790   82.79400  153.98550    7.67410   -0.00040   -9999.25    3.80000    2.65680    9.99790   10.40470   11.00670    0.31610
 11799.50000    0.02810   83.07700  153.18230    7.66780   -0.00040   -9999.25    3.79020    2.65720    9.94410   10.35500   11.00670    0.30640
 11800.00000    0.03450   83.06960  152.42930    7.66160   -0.00110   -9999.25    3.71880    2.63750    9.51330    9.94290   10.76560    0.30940
 11800.50000    0.04750   82.55630  151.77660    7.66800   -0.00220   -9999.25    3.66120    2.62030    9.07580    9.52650    9.83140    0.31730
 11801.00000    0.05260   83.08500  151.77660    7.68270   -0.00470   -9999.25    3.62420    2.61410    9.28010    9.52500   10.06680    0.32640
 11801.50000    0.05540   82.99870  151.67630    7.68560   -0.00690   -9999.25    3.64790    2.61130    9.79550   10.01910   10.66040    0.31530
 11802.00000    0.05070   82.91680  151.46990    7.67280   -0.00830   -9999.25    3.73370    2.61510   10.31080   10.57290   11.25400    0.31730
 11802.50000    0.04710   82.98360  151.17420    7.66010   -0.00710   -9999.25    3.80870    2.62330   10.77900   11.01370   11.48920    0.31810
 11803.00000    0.04640   83.14420  149.59290    7.66450   -0.00600   -9999.25    3.79580    2.62800   10.48030   10.83940   11.36370    0.31270
 11803.50000    0.04380   83.26470  148.26260    7.69470   -0.00430   -9999.25    3.67180    2.63070    9.98590   10.27400   10.76550    0.31410
 11804.00000    0.04330   83.26470  148.26260    7.71250   -0.00410   -9999.25    3.52760    2.63180    9.88690   10.05560   10.09370    0.30100
 11804.50000    0.04550   83.30480  149.77980    7.71380   -0.00380   -9999.25    3.48130    2.62460    9.97410   10.09250   10.25700    0.31230
 11805.00000    0.04910   83.30480  151.42530    7.69820   -0.00400   -9999.25    3.51400    2.62300    9.99200   10.20970   10.53620    0.31310
 11805.50000    0.04220   83.30480  151.82690    7.68270   -0.00430   -9999.25    3.57680    2.63340   10.03050   10.26290   10.64850    0.30920
 11806.00000    0.03570   83.57190  153.93530    7.70260   -0.00470   -9999.25    3.71700    2.64600    9.98820   10.26070   10.76130    0.30880
 11806.50000    0.03430   83.83890  180.17360    7.72100   -0.00510   -9999.25    3.90810    2.64660    9.85470   10.26110   10.60340    0.30340
 11807.00000    0.03930   84.01400  180.34090    7.71950   -0.00540   -9999.25    4.04980    2.64170    9.82800   10.26090   10.47550    0.29920
 11807.50000    0.04060   83.66880  180.31580    7.70620   -0.00540   -9999.25    3.95240    2.63710   10.25860   10.51100   10.88980    0.29630
 11808.00000    0.03880   83.35830  159.90920    7.70300    0.00070   -9999.25    3.85510    2.63910   10.32600   10.82420   11.23070    0.29330
 11808.50000    0.03430   83.25010  154.77520    7.69960    0.00740   -9999.25    3.75760    2.65270   10.39580   10.82450   11.06020    0.29330
 11809.00000    0.02360   82.82520  154.92580    7.68290    0.01350   -9999.25    3.69290    2.66870   10.42380   10.82430   10.93230    0.29660
 11809.50000    0.00930   82.21850  154.47400    7.68310    0.03000   -9999.25    3.71160    2.68470   10.47790   10.82210   11.34980    0.29960
 11810.00000   -0.00110   81.56990  154.22300    7.68340    0.03470   -9999.25    3.75720    2.70420   10.93710   11.08270   11.53260    0.30920
 11810.50000   -0.00500   81.12120  153.72050    7.68380    0.04080   -9999.25    3.80460    2.71470   10.08760   11.23540   12.30230    0.30960
 11811.00000   -0.00270   81.02470  153.18560    7.68410    0.03920   -9999.25    3.83560    2.71190    9.61110   10.37050   11.22140    0.30900
 11811.50000   -0.00040   80.91910  152.58100    7.68420    0.03370   -9999.25    3.83310    2.70420   10.06620   10.28100   10.61480    0.30580
 11812.00000    0.00510   81.13100  153.14240    7.68440    0.03080   -9999.25    3.82480    2.69550   10.57020   10.69800   11.12460    0.30160
 11812.50000    0.00560   81.34300  153.34240    7.68480    0.03720   -9999.25    3.80200    2.69500   11.07430   11.11510   11.53250    0.29960
 11813.00000    0.00200   81.49840  153.90430    7.69130    0.04380   -9999.25    3.76900    2.70000   10.94790   10.72950   11.06640    0.29860
 11813.50000   -0.00440   81.73000  154.34720    7.68660    0.04780   -9999.25    3.73600    2.71210    9.81220   10.08670   10.28960   -9999.25
 11814.00000   -0.00900   81.96830  153.71950    7.68180    0.05320   -9999.25    3.72850    2.71790    8.67640    9.44400    9.40710   -9999.25
 11814.50000   -0.01070   81.98240  154.37220    7.67710    0.05460   -9999.25    3.72750    2.72370    8.83660    9.00970    9.19810   -9999.25
 11815.00000   -0.01050   82.14870  153.45330    7.67250    0.05690   -9999.25    3.72650    2.72430    9.35360    9.48260    9.70060   -9999.25
 11815.50000   -0.01090   82.22120  152.41570    7.67390    0.06220   -9999.25    3.72550    2.72320    9.66300    9.95560   10.15350   -9999.25
 11816.00000   -0.00990   82.34920  155.02620    7.67710    0.06620   -9999.25    3.72450    2.72220   10.03410   10.42850   10.79830   -9999.25
 11816.50000   -0.00880   82.10200  153.92170    7.68000    0.07130   -9999.25    3.72350    2.72110   10.44930   10.90150   11.40890   -9999.25
 11817.00000   -0.00840   82.14120  156.18080    7.68300    0.07620   -9999.25    3.72240    2.72020   10.58930   10.92830   10.89460   -9999.25
 11817.50000   -0.01070   82.03450  155.47800    7.67830    0.07750   -9999.25    3.69360    2.72320   10.34440   10.58930   10.89220   -9999.25
 11818.00000   -0.01520   81.96070  155.07640    7.67010    0.07670   -9999.25    3.68860    2.72870   10.19750   10.41950   11.52890   -9999.25
