~Version ---------------------------------------------------
VERS.   2.0 : CWLS log ASCII Standard -VERSION 2.0
WRAP.    NO : One line per depth step
DLM . SPACE : Column Data Section Delimiter
~Well ------------------------------------------------------
STRT .F                 116.0 : START DEPTH
STOP .F               11854.0 : STOP DEPTH
STEP .F                   0.5 : STEP
NULL .               -9999.25 : NULL VALUE
COMP .                        : COMPANY
WELL .                        : WELL
FLD  .                        : FIELD
LOC  .                        : LOCATION
PROV .                        : PROVINCE
CNTY .                        : COUNTY
STAT .                        : STATE
CTRY .                        : COUNTRY
SRVC .                        : SERVICE COMPANY
DATE .                        : DATE
UWI  .                        : UNIQUE WELL ID
API  .                        : API NUMBER
SLAT .WGS84 3.185062600000002 : SURFACE LATITUDE
SLON .WGS84 8.012964400000001 : SURFACE LONGITUDE
DATUM.F                   nan : DEPTH DATUM ELEV
~Curve Information -----------------------------------------
DEPT   .F     : 
DPHZ_LS.DEC   : HGRD STANDARD RESOLUTION DENSITY POROSITY
DTCO   .US/F  : DELTA-T COMPRESSIONAL
DTSM   .US/F  : DELTA-T SHEAR
HCALD  .IN    : HRCC CALIPER CALIBRATED FROM DENSITY LOG
HDRA   .G/C3  : HRDD SPINE AND RIBS DENSITY CORRECTION
HSGRD  .GAPI  : HNGS STANDARD GAMMA RAY FROM DENSITY LOG
PEFZ   .B/E   : HRDD STANDARD RESOLUTION FORMATION PHOTOELECTRIC FACTOR
RHOZ   .G/C3  : HRDD STANDARD RESOLUTION FORMATION DENSITY
RLA3   .OHMM  : APPARENT RESISTIVITY FROM COMPUTED FOCUSING MODE 3
RLA4   .OHMM  : APPARENT RESISTIVITY FROM COMPUTED FOCUSING MODE 4
RLA5   .OHMM  : APPARENT RESISTIVITY FROM COMPUTED FOCUSING MODE 5
TNPH_LS.DEC   : THERMAL NEUTRON POROSITY [LIMESTONE]
~Params ----------------------------------------------------
~Other -----------------------------------------------------
~ASCII -----------------------------------------------------
# ...
 11314.50000   -0.00220   58.49160  102.32190    7.63400    0.00130   41.08210    4.86820    2.71390 1115.57430 2065.65820 2099.17870    0.06130
 11315.00000   -0.00480   59.11010  102.85330    7.65270    0.00110   50.31380    4.83600    2.71890  640.40050  902.38770  987.10270    0.06150
 11315.50000   -0.00720   59.05820  103.43370    7.63250    0.00100   61.88310    4.80320    2.70810  333.06450  392.36490  492.73490    0.06650
 11316.00000   -0.00340   59.05440  103.56090    7.62830    0.00020   73.42990    4.65950    2.70040  249.94200  307.51640  347.47920    0.07230
 11316.50000    0.00370   58.94780  103.54490    7.64820   -0.00100   77.04160    4.40390    2.69270  159.27510  224.66130  201.22710    0.07810
 11317.00000    0.00750   59.16030  102.98280    7.65840   -0.00230   73.75030    4.12910    2.68500  167.00120  186.81840  256.40000    0.08200
 11317.50000    0.01330   59.55990  103.01040    7.69240   -0.00350   70.45900    3.95880    2.66950  168.48110  180.78800  192.74250    0.08400
 11318.00000    0.02370   60.10130  102.56860    7.71060   -0.00480   67.04370    3.78750    2.64960  203.20900  227.14440  263.29830    0.08200
 11318.50000    0.03470   60.77030  102.67740    7.72130   -0.00600   62.90810    3.77600    2.64500  259.98910  276.49190  312.92840    0.07500
 11319.00000    0.02970   62.03890  103.76850    7.71560   -0.00470   58.80610    3.84830    2.66840  393.48980  450.16990  789.42210    0.06660
 11319.50000    0.01930   63.88550  106.44540    7.68790   -0.00230   68.65080    3.88920    2.68890  408.34810  578.18220 1444.07590    0.06230
 11320.00000    0.01420   66.90030  110.21060    7.66860    0.00000   82.44810    3.80630    2.68190  124.74420  315.31460  676.74890    0.08220
 11320.50000    0.02810   69.72990  113.57400    7.63460    0.00140   99.66500    3.59270    2.65190   53.09900   58.32390   62.21320    0.10680
 11321.00000    0.04040   72.14830  118.64420    7.63780    0.00040   99.70390    3.41410    2.63340   60.25560   67.44690   73.14260    0.13120
 11321.50000    0.04530   74.56650  121.95750    7.64090    0.00040   99.74260    3.34240    2.62040   78.14710   87.08030   96.22130    0.20820
 11322.00000    0.05080   76.98490  126.99010    7.64410    0.00050   99.78140    3.29910    2.59870   92.46030   98.86030  105.45270    0.21730
 11322.50000    0.06590   79.27430  132.19850    7.63740   -0.00340   99.82030    3.27560    2.57710   87.13710   91.94210   92.01530    0.21790
 11323.00000    0.08290   80.87760  133.63280    7.62680   -0.00740   99.85900    3.35630    2.55540   84.10100   89.24650   89.48970    0.21790
 11323.50000    0.09630   82.06490  135.96350    7.58420   -0.00980   99.89780    3.44130    2.54250   84.82790   88.29070   90.69450    0.21890
 11324.00000    0.09970   82.34640  137.62730    7.58460   -0.00820   99.93660    3.53550    2.53530   79.09290   84.11330   85.47810    0.21670
 11324.50000    0.10070   82.13830  139.52770    7.58510   -0.00660   99.75810    3.59540    2.53290  107.32280  145.85870  172.13660    0.21140
 11325.00000    0.10270   81.73140  138.52760    7.58550   -0.00580  107.91800    3.53940    2.52740  149.30900  163.60760  159.63440    0.23070
 11325.50000    0.10450   80.21720  135.28380    7.58590   -0.00610  110.99450    3.56130    2.52260  128.99550  160.60150  204.96010    0.26630
 11326.00000    0.10860   77.66170  132.04010    7.58630   -0.00650  102.39550    3.58310    2.52330   96.47630  121.22750  165.97770    0.27180
 11326.50000    0.10710   74.67930  130.09010    7.58680   -0.00690  100.14120    3.56690    2.53200   81.25130   89.24650   94.34780    0.25670
 11327.00000    0.10230   71.86590  125.35680    7.58720   -0.00570  100.09080    3.75120    2.54900   91.46990  191.20300  221.45030    0.23010
 11327.50000    0.08940   68.92530  121.42200    7.58760   -0.00290   81.40020    3.76050    2.57580  236.39960  353.74450  423.09360    0.20380
 11328.00000    0.07040   65.18120  114.47760    7.58810    0.00000   62.21520    3.91360    2.60910  509.65070  516.28590  611.28260    0.15630
 11328.50000    0.04370   62.65370  111.43200    7.58850    0.00110   53.15720    4.13930    2.64240  493.57720  546.80620  648.50840    0.11510
 11329.00000    0.02850   61.54710  108.36430    7.58890   -0.00370   57.63580    4.28520    2.66580  440.00400  478.86570  565.89880    0.08500
 11329.50000    0.01880   60.54040  104.78890    7.60330   -0.00620   68.32170    4.30030    2.68180  338.66630  378.32860  464.78250    0.08160
 11330.00000    0.01320   61.02810  104.68490    7.63020   -0.00570   68.04640    4.25680    2.69170  196.49770  227.77030  275.61640    0.09300
 11330.50000    0.00820   61.75150  106.16350    7.64140   -0.00570   63.84890    4.20870    2.68640  249.28390  277.32910  313.72610    0.09900
 11331.00000    0.01270   62.61430  108.20690    7.63540   -0.00570   59.75360    4.13930    2.67750  322.47560  346.65990  414.04790    0.09700
 11331.50000    0.01900   63.62580  108.70930    7.62780   -0.00540   62.84380    4.06980    2.66230  262.01790  267.94300  302.15870    0.09520
 11332.00000    0.02850   64.33930  109.49320    7.64020   -0.00580   70.04080    4.00020    2.64560  231.37810  237.17870  243.95860    0.10510
 11332.50000    0.03880   65.32010  110.59410    7.62340   -0.00620   78.75950    3.92490    2.63350  221.82360  227.77030  230.22320    0.11840
 11333.00000    0.04670   66.66250  111.92810    7.63830   -0.00660   85.11180    3.95400    2.62260  187.88390  201.92090  205.01930    0.13490
 11333.50000    0.04990   68.09370  115.34990    7.64090   -0.00690   83.98760    3.97000    2.61410  161.86920  172.14380  200.55790    0.14020
 11334.00000    0.05220   69.69680  117.95410    7.64110   -0.00710   84.72890    3.90090    2.60730  171.74650  183.13470  248.25040    0.13550
 11334.50000    0.05750   71.98820  119.61930    7.64330   -0.00770   95.50920    3.79040    2.60200  133.46970  150.47960  173.88340    0.13350
 11335.00000    0.06060   73.44070  122.33010    7.64550   -0.00770  100.43990    3.67290    2.60370  106.35510  117.82470  127.32380    0.13940
 11335.50000    0.05960   74.72560  124.34080    7.64470   -0.00560  100.40440    3.58280    2.60270  107.50660  109.51660  128.70230    0.17980
 11336.00000    0.05880   75.96700  127.12020    7.64590   -0.00350  100.38910    3.48470    2.59900  107.50660  107.17670  128.70230    0.20580
 11336.50000    0.06300   77.19330  129.82930    7.63880   -0.00480  100.35350    3.47480    2.59020  101.87090  106.03060  122.61400    0.21640
 11337.00000    0.06950   78.63500  131.87500    7.64040   -0.00700  100.31800    3.54680    2.58010   90.71740  103.21200  105.92780    0.20520
 11337.50000    0.07650   80.06160  134.08830    7.63650   -0.00940  100.30260    3.62740    2.57430   80.11110   91.00550   89.24180    0.21000
 11338.00000    0.07700   81.46370  134.87580    7.64500   -0.01080  100.28710    3.61680    2.57910   69.50470   78.79910   82.90620    0.21340
 11338.50000    0.07280   82.40290  136.34810    7.63410   -0.01060  100.25160    3.58850    2.58650   68.76020   72.73220   82.23230    0.20850
 11339.00000    0.07000   83.37380  140.25710    7.62530   -0.00950  100.21610    3.54860    2.58140   77.37100   81.87960   90.69470    0.20700
 11339.50000    0.07450   84.56130  141.89040    7.62710   -0.00830  100.20070    3.51290    2.56700   84.82810  106.78930   97.79630    0.20960
 11340.00000    0.08600   85.05450  143.70560    7.63000   -0.00800  100.18570    3.49790    2.54470  109.83440  134.05700  136.39970    0.21580
 11340.50000    0.10290   85.34360  144.92650    7.63290   -0.00890   99.98110    3.49170    2.52240  135.50460  161.22960  174.92510    0.23090
 11341.00000    0.11630   86.19790  145.70590    7.62550   -0.00980  108.47300    3.54610    2.50000  141.41140  173.60760  183.52760    0.24540
 11341.50000    0.12640   85.59510  143.64720    7.61130   -0.01060  116.74440    3.64720    2.48610  181.32140  190.82580  214.07230    0.25550
 11342.00000    0.12780   85.86550  143.66490    7.60980   -0.01060  122.99830    3.73030    2.48970  152.35470  199.87650  236.80970    0.26090
