~Version ---------------------------------------------------
VERS.   2.0 : CWLS log ASCII Standard -VERSION 2.0
WRAP.    NO : One line per depth step
DLM . SPACE : Column Data Section Delimiter
~Well ------------------------------------------------------
STRT .F                 116.0 : START DEPTH
STOP .F               11854.0 : STOP DEPTH
STEP .F                   0.5 : STEP
NULL .               -9999.25 : NULL VALUE
COMP .                        : COMPANY
WELL .                        : WELL
FLD  .                        : FIELD
LOC  .                        : LOCATION
PROV .                        : PROVINCE
CNTY .                        : COUNTY
STAT .                        : STATE
CTRY .                        : COUNTRY
SRVC .                        : SERVICE COMPANY
DATE .                        : DATE
UWI  .                        : UNIQUE WELL ID
API  .                        : API NUMBER
SLAT .WGS84 3.185062600000002 : SURFACE LATITUDE
SLON .WGS84 8.012964400000001 : SURFACE LONGITUDE
DATUM.F                   nan : DEPTH DATUM ELEV
~Curve Information -----------------------------------------
DEPT   .F     : 
DPHZ_LS.DEC   : HGRD STANDARD RESOLUTION DENSITY POROSITY
DTCO   .US/F  : DELTA-T COMPRESSIONAL
DTSM   .US/F  : DELTA-T SHEAR
HCALD  .IN    : HRCC CALIPER CALIBRATED FROM DENSITY LOG
HDRA   .G/C3  : HRDD SPINE AND RIBS DENSITY CORRECTION
HSGRD  .GAPI  : HNGS STANDARD GAMMA RAY FROM DENSITY LOG
PEFZ   .B/E   : HRDD STANDARD RESOLUTION FORMATION PHOTOELECTRIC FACTOR
RHOZ   .G/C3  : HRDD STANDARD RESOLUTION FORMATION DENSITY
RLA3   .OHMM  : APPARENT RESISTIVITY FROM COMPUTED FOCUSING MODE 3
RLA4   .OHMM  : APPARENT RESISTIVITY FROM COMPUTED FOCUSING MODE 4
RLA5   .OHMM  : APPARENT RESISTIVITY FROM COMPUTED FOCUSING MODE 5
TNPH_LS.DEC   : THERMAL NEUTRON POROSITY [LIMESTONE]
~Params ----------------------------------------------------
~Other -----------------------------------------------------
~ASCII -----------------------------------------------------
# ...
 8040.00000   -9999.25   -9999.25   -9999.25    7.84700   -0.00600   21.30260    3.93740    2.87290 1944.63590 2633.21190 2745.62330    0.02540
 8040.50000   -9999.25   -9999.25   -9999.25    7.84320   -0.00810   22.50640    4.10850    2.86480 1942.83840 2722.27000 2836.06880    0.02690
 8041.00000   -9999.25   -9999.25   -9999.25    7.83940   -0.00870   26.80810    4.20070    2.85680 1238.97910 1961.34070 2242.31810    0.02910
 8041.50000   -9999.25   -9999.25   -9999.25    7.83550   -0.00760   32.15000    4.14420    2.84880  535.53480 1003.88100  687.35650    0.04040
 8042.00000   -9999.25   -9999.25   -9999.25    7.83170   -0.00500   37.11580    3.98710    2.83540   55.01710  327.65370  205.49430    0.05220
 8042.50000   -9999.25   -9999.25   -9999.25    7.82790   -0.00440   38.92940    3.84390    2.82060   51.08510   54.00620   82.19990    0.06690
 8043.00000   -9999.25   -9999.25   -9999.25    7.82560   -0.00690   37.12910    3.78750    2.80590   50.77060   53.67290   55.57830    0.07350
 8043.50000   -9999.25   -9999.25   -9999.25    7.83570   -0.00890   34.02390    3.81210    2.80490   57.16720   67.54450   85.38020    0.07270
 8044.00000   -9999.25   -9999.25   -9999.25    7.83810   -0.01080   31.53520    3.82320    2.81040   84.36030  102.21080  117.86570    0.06670
 8044.50000   -9999.25   -9999.25   -9999.25    7.84220   -0.00970   29.45740    3.80280    2.81740  111.53330  130.72800  143.82960    0.06070
 8045.00000   -9999.25   -9999.25   -9999.25    7.84630   -0.00660   27.76470    3.78240    2.82600  130.81780  136.50530  161.39350    0.05850
 8045.50000   -9999.25   -9999.25   -9999.25    7.85040   -0.00400   27.23410    3.68450    2.82880  150.73150  180.57610  218.60980    0.05430
 8046.00000   -9999.25   -9999.25   -9999.25    7.85440   -0.00710   27.83260    3.63150    2.83010  219.64810  261.68020  356.86680    0.04940
 8046.50000   -9999.25   -9999.25   -9999.25    7.85850   -0.00900   28.66190    3.64640    2.82920  297.52750  797.82840  939.56930    0.04540
 8047.00000   -9999.25   -9999.25   -9999.25    7.86270   -0.01010   28.38030    3.71490    2.82600  910.80120 1195.36240 1427.91500    0.03990
 8047.50000   -9999.25   -9999.25   -9999.25    7.86680   -0.01080   27.28370    3.81970    2.82360  555.16330  562.44810 1106.86430    0.03530
 8048.00000   -9999.25   -9999.25   -9999.25    7.87090   -0.00920   26.16590    3.92450    2.82960  410.38940  548.70720  630.36260    0.03230
 8048.50000   -9999.25   -9999.25   -9999.25    7.87500   -0.00810   24.00580    3.94350    2.84190  767.27890  989.45410 1193.43550    0.02950
 8049.00000   -9999.25   -9999.25   -9999.25    7.87910   -0.00810   22.59100    3.91780    2.85170 1210.30820 1536.27510 1756.70460    0.02770
 8049.50000   -9999.25   -9999.25   -9999.25    7.88310   -0.00830   25.25800    3.92630    2.85170 1485.03440 2023.09090 2547.76440    0.02710
 8050.00000   -9999.25   -9999.25   -9999.25    7.88720   -0.00830   29.26780    3.93540    2.84220  672.05530 1086.24900 1984.28880    0.03090
 8050.50000   -9999.25   -9999.25   -9999.25    7.89170   -0.00820   31.42590    3.88460    2.80490   59.35700   63.53150  155.87470    0.04410
 8051.00000   -9999.25   -9999.25   -9999.25    7.89540   -0.00760   31.76010    3.70470    2.79430   56.84220   60.09470   62.62160    0.05510
 8051.50000   -9999.25   -9999.25   -9999.25    7.89490   -0.00750   31.82640    3.52440    2.79220   59.33950  201.05090  129.76060    0.06190
 8052.00000   -9999.25   -9999.25   -9999.25    7.89360   -0.00740   32.55460    3.47080    2.80860  455.43060  906.13160  758.30980    0.05810
 8052.50000   -9999.25   -9999.25   -9999.25    7.90420   -0.00810   30.45590    3.45900    2.82790 1112.89810 1610.84750 1776.81560    0.03820
 8053.00000   -9999.25   -9999.25   -9999.25    7.91480   -0.00340   25.99700    3.45080    2.84840 1770.05830 2033.30480 8786.60640    0.01930
 8053.50000   -9999.25   -9999.25   -9999.25    7.91350   -0.00340   21.02100    3.53470    2.86020 3641.52830 10487.93850 15281.76760    0.00910
 8054.00000   -9999.25   -9999.25   -9999.25    7.91400   -0.00340   18.24090    3.69730    2.86600 5950.93850 15989.28030 20001.67970    0.00670
 8054.50000   -9999.25   -9999.25   -9999.25    7.91270   -0.00610   16.82190    3.75120    2.87410 5703.04350 15712.14940 19670.81250    0.00590
 8055.00000   -9999.25   -9999.25   -9999.25    7.90310   -0.00810   17.06280    3.82590    2.88380 3994.98410 9765.87600 12166.30080    0.00840
 8055.50000   -9999.25   -9999.25   -9999.25    7.87960   -0.00810   18.46200    3.85890    2.88790 3687.63960 9011.33010 9618.31540    0.01090
 8056.00000   -9999.25   -9999.25   -9999.25    7.86010   -0.00810   21.78130    3.81820    2.86920 2037.06770 3754.97800 7920.88770    0.01570
 8056.50000   -9999.25   -9999.25   -9999.25    7.86070   -0.00810   25.18830    3.85510    2.84470 1077.44370 1307.92530 2045.10460    0.02330
 8057.00000   -9999.25   -9999.25   -9999.25    7.87000   -0.00810   28.68840    3.82470    2.83540  588.44010  705.86310  912.95130    0.03090
 8057.50000   -9999.25   -9999.25   -9999.25    7.88130   -0.00880   32.14270    3.76980    2.84570  119.06730  290.43280  524.67680    0.03670
 8058.00000   -9999.25   -9999.25   -9999.25    7.89250   -0.00810   36.07170    3.72800    2.86050  114.69950  122.57700  127.74520    0.03710
 8058.50000   -9999.25   -9999.25   -9999.25    7.90190   -0.00510   37.91820    3.73860    2.87350  114.69920  353.41280  494.68040    0.03410
 8059.00000   -9999.25   -9999.25   -9999.25    7.91310   -0.00340   37.05300    3.87070    2.87620  460.32740  492.71190  558.97880    0.03020
 8059.50000   -9999.25   -9999.25   -9999.25    7.92240   -0.00610   34.90630    3.95260    2.87360  752.20630 1104.24410 1256.41860    0.02660
 8060.00000   -9999.25   -9999.25   -9999.25    7.92860   -0.00680   35.99160    4.07550    2.87050 1149.34480 1715.29690 1837.15590    0.02300
 8060.50000   -9999.25   -9999.25   -9999.25    7.87420   -0.00660   38.75100    4.14610    2.86670  827.52840  880.22830 1413.34590    0.02020
 8061.00000   -9999.25   -9999.25   -9999.25    7.87420   -0.00570   40.47500    4.12200    2.86070  605.91940  858.73840 1009.58190    0.02340
 8061.50000   -9999.25   -9999.25   -9999.25    7.87340   -0.00490   37.48110    4.07500    2.85480  101.33700  326.30920  810.57760    0.02890
 8062.00000   -9999.25   -9999.25   -9999.25    7.87220   -0.00470   31.67680    3.99640    2.84980   99.50620  111.21010  131.05180    0.03500
 8062.50000   -9999.25   -9999.25   -9999.25    7.87100   -0.00420   23.08140    3.97150    2.84830  192.92880  190.26420  290.94810    0.04110
 8063.00000   -9999.25   -9999.25   -9999.25    7.86970   -0.00600   17.58970    3.99100    2.85270  309.00590  333.42790  472.63050    0.04400
 8063.50000   -9999.25   -9999.25   -9999.25    7.86850   -0.00670   17.12960    4.01520    2.85850  528.35700  636.29060  842.39520    0.03460
 8064.00000   -9999.25   -9999.25   -9999.25    7.86730   -0.00530   20.19800    4.04850    2.86900  816.51650  978.95800 1143.88420    0.02510
 8064.50000   -9999.25   -9999.25   -9999.25    7.86610   -0.00140   22.32270    3.94210    2.88520 1103.95230 1284.67640 1723.60000    0.01680
 8065.00000   -9999.25   -9999.25   -9999.25    7.86480    0.00010   21.33880    3.86680    2.90140 1757.62180 1993.99910 4729.62890    0.01440
 8065.50000   -9999.25   -9999.25   -9999.25    7.86410   -0.00050   19.21140    3.83010    2.90570 2803.03540 7330.41260 8136.71780    0.01030
 8066.00000   -9999.25   -9999.25   -9999.25    7.88270   -0.00360   17.64490    3.81780    2.88980 3341.79590 7064.08400 8022.49070    0.00970
 8066.50000   -9999.25   -9999.25   -9999.25    7.90390   -0.00560   17.63390    3.80290    2.87030 1592.79910 2052.77120 4307.35400    0.01320
 8067.00000   -9999.25   -9999.25   -9999.25    7.92510   -0.00670   19.47550    3.78290    2.85090  556.84560  490.63030 1280.03880    0.02050
 8067.50000   -9999.25   -9999.25   -9999.25    7.94630   -0.00530   21.63460    3.88580    2.83900  121.28710  145.39220  166.04890    0.02790
