~Version ---------------------------------------------------
VERS.   2.0 : CWLS log ASCII Standard -VERSION 2.0
WRAP.    NO : One line per depth step
DLM . SPACE : Column Data Section Delimiter
~Well ------------------------------------------------------
STRT .F                 116.0 : START DEPTH
STOP .F               11854.0 : STOP DEPTH
STEP .F                   0.5 : STEP
NULL .               -9999.25 : NULL VALUE
COMP .                        : COMPANY
WELL .                        : WELL
FLD  .                        : FIELD
LOC  .                        : LOCATION
PROV .                        : PROVINCE
CNTY .                        : COUNTY
STAT .                        : STATE
CTRY .                        : COUNTRY
SRVC .                        : SERVICE COMPANY
DATE .                        : DATE
UWI  .                        : UNIQUE WELL ID
API  .                        : API NUMBER
SLAT .WGS84 3.185062600000002 : SURFACE LATITUDE
SLON .WGS84 8.012964400000001 : SURFACE LONGITUDE
DATUM.F                   nan : DEPTH DATUM ELEV
~Curve Information -----------------------------------------
DEPT   .F     : 
DPHZ_LS.DEC   : HGRD STANDARD RESOLUTION DENSITY POROSITY
DTCO   .US/F  : DELTA-T COMPRESSIONAL
DTSM   .US/F  : DELTA-T SHEAR
HCALD  .IN    : HRCC CALIPER CALIBRATED FROM DENSITY LOG
HDRA   .G/C3  : HRDD SPINE AND RIBS DENSITY CORRECTION
HSGRD  .GAPI  : HNGS STANDARD GAMMA RAY FROM DENSITY LOG
PEFZ   .B/E   : HRDD STANDARD RESOLUTION FORMATION PHOTOELECTRIC FACTOR
RHOZ   .G/C3  : HRDD STANDARD RESOLUTION FORMATION DENSITY
RLA3   .OHMM  : APPARENT RESISTIVITY FROM COMPUTED FOCUSING MODE 3
RLA4   .OHMM  : APPARENT RESISTIVITY FROM COMPUTED FOCUSING MODE 4
RLA5   .OHMM  : APPARENT RESISTIVITY FROM COMPUTED FOCUSING MODE 5
TNPH_LS.DEC   : THERMAL NEUTRON POROSITY [LIMESTONE]
~Params ----------------------------------------------------
~Other -----------------------------------------------------
~ASCII -----------------------------------------------------
# ...
 9916.00000   -0.00100   -9999.25   -9999.25    7.72970   -0.00080   48.98010    5.23720    2.70150  341.14550  428.07510  721.69510    0.00440
 9916.50000    0.00320   -9999.25   -9999.25    7.73260    0.00160   43.45230    5.23560    2.69340  235.39810  301.26430  306.40070    0.01010
 9917.00000    0.01010   -9999.25   -9999.25    7.73540    0.00390   36.41350    5.27460    2.68530  129.65070  174.45350  192.35170    0.01580
 9917.50000    0.01650   -9999.25   -9999.25    7.73830    0.00310   29.69520    5.31360    2.67590   52.97970   72.61290   92.90050    0.02150
 9918.00000    0.02300   -9999.25   -9999.25    7.74110    0.00210   24.83980    5.38660    2.65580   39.46940   41.02050   51.84020    0.02720
 9918.50000    0.02440   -9999.25   -9999.25    7.74400    0.00120   21.42300    5.40140    2.64910   39.68260   45.06200   43.09200    0.03300
 9919.00000    0.02240   -9999.25   -9999.25    7.74680    0.00110   22.48740    5.33370    2.65840   49.52870   66.37120   74.99400    0.02930
 9919.50000    0.01850   -9999.25   -9999.25    7.74970    0.00300   24.14480    5.18790    2.67340   77.39730   87.68030  107.55920    0.02150
 9920.00000    0.01550   -9999.25   -9999.25    7.75780    0.00540   23.46530    5.13580    2.67910   66.03740   80.42790  106.23800    0.02030
 9920.50000    0.01940   -9999.25   -9999.25    7.75850    0.00750   19.78340    5.12390    2.66540   48.48640   62.29680   73.62570    0.02880
 9921.00000    0.03020   -9999.25   -9999.25    7.75920    0.00550   16.10730    5.14050    2.64670   30.93540   44.16560   41.01330    0.03920
 9921.50000    0.04110   -9999.25   -9999.25    7.75990    0.00350   13.97050    5.14580    2.62810   19.29150   26.03450   29.19790    0.04940
 9922.00000    0.04780   -9999.25   -9999.25    7.76060    0.00240   14.56790    5.16290    2.61230   17.68650   18.58080   20.39960    0.05670
 9922.50000    0.04840   -9999.25   -9999.25    7.76130    0.00340   15.49260    5.23190    2.61430   19.78580   19.61160   22.25030    0.05230
 9923.00000    0.03930   -9999.25   -9999.25    7.76210    0.00440   16.28070    5.27390    2.63100   31.57400   39.77530   30.23590    0.04180
 9923.50000    0.02530   -9999.25   -9999.25    7.76280    0.00530   17.05350    5.22950    2.65690   47.63120   82.51450   88.57600    0.03120
 9924.00000    0.01130   -9999.25   -9999.25    7.76350    0.00380   17.56820    5.15800    2.68120   89.84550  125.25380  159.50470    0.02070
 9924.50000    0.01050   -9999.25   -9999.25    7.76420    0.00070   17.19290    5.14180    2.69100  119.09770  159.44530  217.58930    0.02100
 9925.00000    0.01420   -9999.25   -9999.25    7.76430   -0.00120   16.26260    5.14000    2.68330  102.52680  130.03360  190.54790    0.02590
 9925.50000    0.01930   -9999.25   -9999.25    7.76030   -0.00010   15.18430    5.11270    2.67430   72.11890   94.33990  132.93750    0.03220
 9926.00000    0.02430   -9999.25   -9999.25    7.75080    0.00240   14.80150    5.07280    2.66530   41.71100   58.64600   75.32700    0.03860
 9926.50000    0.02620   -9999.25   -9999.25    7.73740    0.00380   16.19490    4.99350    2.66070   34.49610   37.02960   41.01340    0.03890
 9927.00000    0.02030   -9999.25   -9999.25    7.72620    0.00370   21.18630    4.68960    2.66070   49.55380   51.14480   71.55300    0.03560
 9927.50000    0.01280   -9999.25   -9999.25    7.72050    0.00370   27.82060    4.39490    2.67300   84.36510  115.63730  207.09370    0.02830
 9928.00000    0.01010   -9999.25   -9999.25    7.71490    0.00360   31.67200    4.03490    2.68540   83.02340   85.35100  179.23100    0.02100
 9928.50000    0.00480   -9999.25   -9999.25    7.70930    0.00360   30.67230    3.86450    2.69480   82.56700  103.20130   95.64230    0.01720
 9929.00000   -0.00210   -9999.25   -9999.25    7.70370    0.00360   28.17520    3.99730    2.70410  111.05450  146.67480  166.44860    0.01550
 9929.50000   -0.00870   -9999.25   -9999.25    7.70370    0.00350   26.67710    4.16380    2.70820  152.47310  181.45390  237.25520    0.01340
 9930.00000   -0.00680   -9999.25   -9999.25    7.70370    0.00350   26.16840    4.26520    2.70970  134.47280  147.86330  178.55030    0.01110
 9930.50000   -0.00210   -9999.25   -9999.25    7.71040    0.00140   26.77720    4.28710    2.71010  118.45860  218.37170  208.53390    0.00870
 9931.00000   -0.00160   -9999.25   -9999.25    7.71020    0.00000   28.24030    4.21550    2.70860  237.68270  305.50920  396.27780    0.00620
 9931.50000    0.00090   -9999.25   -9999.25    7.70920   -0.00140   29.66380    4.13650    2.69950  356.90650  402.32880  483.45170    0.00430
 9932.00000    0.00350   -9999.25   -9999.25    7.70820    0.00010   28.59840    4.08560    2.69310  406.78150  501.56880  592.41980    0.00660
 9932.50000    0.00310   -9999.25   -9999.25    7.70720    0.00060   26.74780    4.05480    2.68670  357.08830  580.96060  661.87950    0.01070
 9933.00000    0.00390   -9999.25   -9999.25    7.70620    0.00120   24.75970    4.10620    2.68140  305.74120  335.34730  509.31510    0.00930
 9933.50000    0.00410   -9999.25   -9999.25    7.70520    0.00150   23.57480    4.13530    2.68190  323.87400  371.48810  356.75150    0.00870
 9934.00000    0.00230   -9999.25   -9999.25    7.70420    0.00190   23.79630    4.13890    2.69180  389.62060  416.66400  427.16050    0.00890
 9934.50000    0.00190   -9999.25   -9999.25    7.70320    0.00230   24.07320    4.13590    2.69970  387.52750  443.76930  474.06270    0.00830
 9935.00000    0.00210   -9999.25   -9999.25    7.70220    0.00390   24.51840    4.09580    2.70030  353.61310  443.76930  474.06270    0.00670
 9935.50000    0.00150   -9999.25   -9999.25    7.70120    0.00180   25.76170    4.04480    2.69970  518.43620  573.05700  693.82410    0.00580
 9936.00000    0.00170   -9999.25   -9999.25    7.70020    0.00050   27.59790    4.06750    2.69890  786.75960  847.41590  989.10870    0.00490
 9936.50000    0.00010   -9999.25   -9999.25    7.69920   -0.00080   28.08190    3.98340    2.70360  978.89080 1121.77290 1322.51160    0.00470
 9937.00000   -0.00160   -9999.25   -9999.25    7.69820    0.00140   26.02730    3.85180    2.71030 1038.65040 1101.13450 1330.70250    0.00430
 9937.50000   -0.00280   -9999.25   -9999.25    7.69720   -0.00040   24.14460    3.72030    2.71040  760.67910  848.97480 1056.70700    0.00430
 9938.00000    0.00200   -9999.25   -9999.25    7.69620   -0.00200   23.27680    3.68920    2.69420  535.40960  596.81650  714.21140    0.00740
 9938.50000    0.00530   -9999.25   -9999.25    7.69520   -0.00310   24.19740    3.72240    2.67050  618.66080  596.81650  641.73790    0.01920
 9939.00000    0.00610   -9999.25   -9999.25    7.69420   -0.00250   25.28630    3.74250    2.66960  762.21460  790.64750  858.54850    0.02030
 9939.50000    0.00530   -9999.25   -9999.25    7.69320   -0.00180   25.09120    3.74190    2.68040  905.76810 1075.46940 1288.69060    0.01480
 9940.00000    0.00530   -9999.25   -9999.25    7.69220   -0.00120   25.58410    3.65800    2.69120  968.40030 1118.68870 1397.57350    0.01000
 9940.50000    0.00630   -9999.25   -9999.25    7.69120   -0.00090   25.73200    3.63810    2.69210  883.63090 1014.70220 1175.27380    0.00740
 9941.00000    0.00650   -9999.25   -9999.25    7.69020   -0.00120   26.04020    3.63390    2.69190  777.66950  889.91800  952.97470    0.00710
 9941.50000    0.00590   -9999.25   -9999.25    7.67370   -0.00150   26.35190    3.62020    2.68830  671.70860  765.13400  730.67470    0.00790
 9942.00000    0.00570   -9999.25   -9999.25    7.64170   -0.00130   26.01960    3.65010    2.69050  690.18730  690.26390  924.48730    0.00870
 9942.50000    0.00470   -9999.25   -9999.25    7.66560   -0.00030   26.86030    3.70630    2.69800 1011.40390 1190.29040 1684.57860    0.00590
 9943.00000   -0.00030   -9999.25   -9999.25    7.67860    0.00060   28.18660    3.81270    2.71090 1332.62080 1679.07250 2253.73100    0.00530
 9943.50000   -0.00580   -9999.25   -9999.25    7.67810    0.00150   30.54800    3.95590    2.71950 1243.55690 1360.88070 2041.53060    0.00750
