~Version ---------------------------------------------------
VERS.   2.0 : CWLS log ASCII Standard -VERSION 2.0
WRAP.    NO : One line per depth step
DLM . SPACE : Column Data Section Delimiter
~Well ------------------------------------------------------
STRT .F                 116.0 : START DEPTH
STOP .F               11854.0 : STOP DEPTH
STEP .F                   0.5 : STEP
NULL .               -9999.25 : NULL VALUE
COMP .                        : COMPANY
WELL .                        : WELL
FLD  .                        : FIELD
LOC  .                        : LOCATION
PROV .                        : PROVINCE
CNTY .                        : COUNTY
STAT .                        : STATE
CTRY .                        : COUNTRY
SRVC .                        : SERVICE COMPANY
DATE .                        : DATE
UWI  .                        : UNIQUE WELL ID
API  .                        : API NUMBER
SLAT .WGS84 3.185062600000002 : SURFACE LATITUDE
SLON .WGS84 8.012964400000001 : SURFACE LONGITUDE
DATUM.F                   nan : DEPTH DATUM ELEV
~Curve Information -----------------------------------------
DEPT   .F     : 
DPHZ_LS.DEC   : HGRD STANDARD RESOLUTION DENSITY POROSITY
DTCO   .US/F  : DELTA-T COMPRESSIONAL
DTSM   .US/F  : DELTA-T SHEAR
HCALD  .IN    : HRCC CALIPER CALIBRATED FROM DENSITY LOG
HDRA   .G/C3  : HRDD SPINE AND RIBS DENSITY CORRECTION
HSGRD  .GAPI  : HNGS STANDARD GAMMA RAY FROM DENSITY LOG
PEFZ   .B/E   : HRDD STANDARD RESOLUTION FORMATION PHOTOELECTRIC FACTOR
RHOZ   .G/C3  : HRDD STANDARD RESOLUTION FORMATION DENSITY
RLA3   .OHMM  : APPARENT RESISTIVITY FROM COMPUTED FOCUSING MODE 3
RLA4   .OHMM  : APPARENT RESISTIVITY FROM COMPUTED FOCUSING MODE 4
RLA5   .OHMM  : APPARENT RESISTIVITY FROM COMPUTED FOCUSING MODE 5
TNPH_LS.DEC   : THERMAL NEUTRON POROSITY [LIMESTONE]
~Params ----------------------------------------------------
~Other -----------------------------------------------------
~ASCII -----------------------------------------------------
# ...
 6640.00000   -9999.25   -9999.25   -9999.25    8.43810   -0.00300   37.93180    3.55760    2.84270  944.66500 1358.92470 1597.17770    0.03520
 6640.50000   -9999.25   -9999.25   -9999.25    8.41890   -0.00130   36.88460    3.53090    2.85550  738.40030 1055.10580 1751.69100    0.03310
 6641.00000   -9999.25   -9999.25   -9999.25    8.39710   -0.00060   36.90260    3.52780    2.86820  453.32300  611.58760  719.35730    0.03260
 6641.50000   -9999.25   -9999.25   -9999.25    8.37940   -0.00100   33.94230    3.58600    2.86990  492.35530  617.28380  847.46680    0.03170
 6642.00000   -9999.25   -9999.25   -9999.25    8.38000   -0.00260   31.86460    3.65430    2.86640  647.95610  995.02190 1423.21730    0.03050
 6642.50000   -9999.25   -9999.25   -9999.25    8.37880   -0.00400   36.67000    3.57390    2.84540  538.93670  438.27930 1146.73140    0.03010
 6643.00000   -9999.25   -9999.25   -9999.25    8.38660   -0.00400   44.79850    3.38410    2.83220   35.89060   77.00490  159.37140    0.03310
 6643.50000   -9999.25   -9999.25   -9999.25    8.39610   -0.00260   53.63830    3.24570    2.80780   27.20150   30.44020   33.11000    0.03720
 6644.00000   -9999.25   -9999.25   -9999.25    8.40390   -0.00330   59.84510    3.13890    2.79550   26.53750   29.19640   30.53680    0.05770
 6644.50000   -9999.25   -9999.25   -9999.25    8.41340   -0.00540   65.38160    3.15020    2.77260   28.40420   29.50300   31.45630    0.08300
 6645.00000   -9999.25   -9999.25   -9999.25    8.42300   -0.00840   71.61280    3.20260    2.75530   22.83510   27.75190   30.08720    0.09190
 6645.50000   -9999.25   -9999.25   -9999.25    8.43080   -0.01020   75.74050    3.21250    2.72160   15.87380   17.10670   20.92940    0.09620
 6646.00000   -9999.25   -9999.25   -9999.25    8.43500   -0.00990   77.26040    3.13490    2.68790   13.95430   14.70250   15.54960    0.09380
 6646.50000   -9999.25   -9999.25   -9999.25    8.43370   -0.00700   70.59430    3.01810    2.67280   15.11310   16.66270   18.57890    0.08970
 6647.00000   -9999.25   -9999.25   -9999.25    8.42480    0.00240   58.61900    2.99430    2.67700   37.63120   41.42040   91.22730    0.08490
 6647.50000   -9999.25   -9999.25   -9999.25    8.44270    0.00300   46.68310    3.01950    2.71750   89.97510  114.35350  163.87560    0.07640
 6648.00000   -9999.25   -9999.25   -9999.25    8.31210    0.00200   38.39030    3.11860    2.75810  123.65300  148.99470  175.77850    0.06020
 6648.50000   -9999.25   -9999.25   -9999.25    8.08740   -0.00060   37.50570    3.13030    2.79080   61.98700   67.56130  102.18600    0.06020
 6649.00000   -9999.25   -9999.25   -9999.25    8.10420   -0.00360   43.21260    3.20250    2.78740   41.79890   45.77190   58.13280    0.06400
 6649.50000   -9999.25   -9999.25   -9999.25    8.12230   -0.00660   48.33030    3.26810    2.77130   35.33780   40.25870   44.95540    0.06820
 6650.00000   -9999.25   -9999.25   -9999.25    8.10160   -0.00960   48.70750    3.31980    2.75620   30.40460   36.51580   38.52510    0.07280
 6650.50000   -9999.25   -9999.25   -9999.25    8.08500   -0.01070   43.77650    3.34780    2.74520   28.05850   32.63540   35.16130    0.08180
 6651.00000   -9999.25   -9999.25   -9999.25    8.06750   -0.00980   38.07700    3.31320    2.74810   27.89050   31.01920   35.16840    0.08690
 6651.50000   -9999.25   -9999.25   -9999.25    8.05130   -0.00540   31.97620    3.28500    2.76830   28.24410   37.02250   46.62660    0.08690
 6652.00000   -9999.25   -9999.25   -9999.25    8.03520   -0.00190   27.21490    3.25660    2.78670   40.93930   45.60180   61.46710    0.08160
 6652.50000   -9999.25   -9999.25   -9999.25    8.01720   -0.00170   27.17590    3.24750    2.80510   38.89560   41.62730   59.56450    0.07270
 6653.00000   -9999.25   -9999.25   -9999.25    8.00610   -0.00370   32.55430    3.23840    2.80850   37.52810   39.66260   59.54980    0.06650
 6653.50000   -9999.25   -9999.25   -9999.25    8.00740   -0.00580   39.64810    3.22840    2.79700   37.54420   41.90650   62.74730    0.06400
 6654.00000   -9999.25   -9999.25   -9999.25    8.02800   -0.00890   44.13430    3.23030    2.78330   40.50090   49.32380   67.06130    0.05770
 6654.50000   -9999.25   -9999.25   -9999.25    8.02360   -0.01060   46.27520    3.19760    2.76960   44.92010   47.10930   65.27720    0.05300
 6655.00000   -9999.25   -9999.25   -9999.25    8.01940   -0.01020   49.29020    3.25940    2.76640   39.68880   57.88740   88.20720    0.05340
 6655.50000   -9999.25   -9999.25   -9999.25    8.01680   -0.00850   51.94570    3.32210    2.77000   52.75840   62.42360   96.11140    0.06040
 6656.00000   -9999.25   -9999.25   -9999.25    8.01260   -0.00760   50.51260    3.35000    2.77290   30.64290   42.96460   45.65040    0.07190
 6656.50000   -9999.25   -9999.25   -9999.25    8.01000   -0.00670   45.46580    3.33030    2.77120   26.13180   45.41040   50.03520    0.08330
 6657.00000   -9999.25   -9999.25   -9999.25    8.00750   -0.00580   36.85330    3.30080    2.77460   20.76700   30.21630   32.94940    0.08590
 6657.50000   -9999.25   -9999.25   -9999.25    8.00400   -0.00370   30.35030    3.28340    2.78490   55.45030   40.82650  201.29300    0.08280
 6658.00000   -9999.25   -9999.25   -9999.25    7.99960   -0.00300   25.27650    3.28240    2.80490  113.01850  165.42090  196.94860    0.06610
 6658.50000   -9999.25   -9999.25   -9999.25    7.99710   -0.00300   25.43230    3.28060    2.82750  112.61630  118.53760  130.82200    0.04890
 6659.00000   -9999.25   -9999.25   -9999.25    7.99480   -0.00300   33.61970    3.27890    2.84240   84.91700  113.94650  120.54900    0.04870
 6659.50000   -9999.25   -9999.25   -9999.25    7.99040   -0.00300   44.08610    3.27130    2.83940   58.88620   74.76750   88.87220    0.05280
 6660.00000   -9999.25   -9999.25   -9999.25    7.98800    0.00100   54.56760    3.26510    2.83650   34.48500   35.72060   45.29300    0.06340
 6660.50000   -9999.25   -9999.25   -9999.25    7.98700    0.00350   57.90950    3.26920    2.84030   34.46950   38.49450   41.99220    0.07390
 6661.00000   -9999.25   -9999.25   -9999.25    8.00900    0.00280   52.73780    3.27050    2.83950   46.86930   51.61380   56.25960    0.07880
 6661.50000   -9999.25   -9999.25   -9999.25    8.03640    0.00030   49.99670    3.31620    2.83180   59.03340   64.70890   70.50060    0.08100
 6662.00000   -9999.25   -9999.25   -9999.25    8.06380   -0.00190   59.55550    3.34920    2.79650   48.03660   60.82320   63.39320    0.07750
 6662.50000   -9999.25   -9999.25   -9999.25    8.08300   -0.00330   84.16420    3.37340    2.72720    8.37040   23.70240   24.31380    0.07650
 6663.00000   -9999.25   -9999.25   -9999.25    8.12150   -0.00330   99.95950    3.34120    2.65790    7.87100    8.52660    8.93440    0.11050
 6663.50000   -9999.25   -9999.25   -9999.25    8.20780   -0.00210  100.04700    3.34990    2.64380    7.81860    8.28870    8.73360    0.16190
 6664.00000   -9999.25   -9999.25   -9999.25    8.11350   -0.00070   99.15250    3.39850    2.67740    8.01030   22.00870   51.27370    0.14200
 6664.50000   -9999.25   -9999.25   -9999.25    7.97750    0.00080   79.98770    3.44710    2.73150   81.73000   81.28510   93.84670    0.09820
 6665.00000   -9999.25   -9999.25   -9999.25    7.99250   -0.00060   59.20910    3.50990    2.78550  155.44240  204.67830  319.90310    0.05160
 6665.50000   -9999.25   -9999.25   -9999.25    8.01730   -0.00330   44.28070    3.50700    2.82420  199.08510  541.75320  753.41870    0.03000
 6666.00000   -9999.25   -9999.25   -9999.25    8.01730   -0.00670   43.61780    3.50410    2.83540  679.57900  954.97260 1098.17290    0.02390
 6666.50000   -9999.25   -9999.25   -9999.25    8.01730   -0.00740   44.16560    3.55380    2.83190  361.38810  784.52480 1182.21570    0.02020
 6667.00000   -9999.25   -9999.25   -9999.25    8.02030   -0.00300   43.42570    3.60350    2.83140  221.04080  261.82820  280.42970    0.01850
 6667.50000   -9999.25   -9999.25   -9999.25    8.02530    0.00150   44.09460    3.62450    2.84040  267.80300  344.32580  619.48470    0.02010
