~Version ---------------------------------------------------
VERS.   2.0 : CWLS log ASCII Standard -VERSION 2.0
WRAP.    NO : One line per depth step
DLM . SPACE : Column Data Section Delimiter
~Well ------------------------------------------------------
STRT .F                 116.0 : START DEPTH
STOP .F               11854.0 : STOP DEPTH
STEP .F                   0.5 : STEP
NULL .               -9999.25 : NULL VALUE
COMP .                        : COMPANY
WELL .                        : WELL
FLD  .                        : FIELD
LOC  .                        : LOCATION
PROV .                        : PROVINCE
CNTY .                        : COUNTY
STAT .                        : STATE
CTRY .                        : COUNTRY
SRVC .                        : SERVICE COMPANY
DATE .                        : DATE
UWI  .                        : UNIQUE WELL ID
API  .                        : API NUMBER
SLAT .WGS84 3.185062600000002 : SURFACE LATITUDE
SLON .WGS84 8.012964400000001 : SURFACE LONGITUDE
DATUM.F                   nan : DEPTH DATUM ELEV
~Curve Information -----------------------------------------
DEPT   .F     : 
DPHZ_LS.DEC   : HGRD STANDARD RESOLUTION DENSITY POROSITY
DTCO   .US/F  : DELTA-T COMPRESSIONAL
DTSM   .US/F  : DELTA-T SHEAR
HCALD  .IN    : HRCC CALIPER CALIBRATED FROM DENSITY LOG
HDRA   .G/C3  : HRDD SPINE AND RIBS DENSITY CORRECTION
HSGRD  .GAPI  : HNGS STANDARD GAMMA RAY FROM DENSITY LOG
PEFZ   .B/E   : HRDD STANDARD RESOLUTION FORMATION PHOTOELECTRIC FACTOR
RHOZ   .G/C3  : HRDD STANDARD RESOLUTION FORMATION DENSITY
RLA3   .OHMM  : APPARENT RESISTIVITY FROM COMPUTED FOCUSING MODE 3
RLA4   .OHMM  : APPARENT RESISTIVITY FROM COMPUTED FOCUSING MODE 4
RLA5   .OHMM  : APPARENT RESISTIVITY FROM COMPUTED FOCUSING MODE 5
TNPH_LS.DEC   : THERMAL NEUTRON POROSITY [LIMESTONE]
~Params ----------------------------------------------------
~Other -----------------------------------------------------
~ASCII -----------------------------------------------------
# ...
 5240.00000   -9999.25   -9999.25   -9999.25    8.33300    0.00030   14.43640    3.86880    2.88870  955.78140 2022.21260 2222.08910    0.01770
 5240.50000   -9999.25   -9999.25   -9999.25    8.29330   -0.00130   15.79900    3.81870    2.88160  920.18050 1636.62190 1743.71150    0.01840
 5241.00000   -9999.25   -9999.25   -9999.25    8.26160   -0.00330   15.25760    3.82760    2.87540 1725.34140 1972.99280 8296.33400    0.01810
 5241.50000   -9999.25   -9999.25   -9999.25    8.26140   -0.00460   14.44860    3.87320    2.86920 1949.38550 6203.77540 7812.16600    0.01780
 5242.00000   -9999.25   -9999.25   -9999.25    8.24630   -0.00600   13.98000    3.96500    2.86310 1448.80320 3014.65700 4776.91550    0.01740
 5242.50000   -9999.25   -9999.25   -9999.25    8.21120   -0.00850   13.65120    3.97640    2.85860 1580.92820 2462.90480 2980.80910    0.01720
 5243.00000   -9999.25   -9999.25   -9999.25    8.17840   -0.01000   12.98420    3.91460    2.85540 1948.92790 3112.50630 4252.14550    0.01610
 5243.50000   -9999.25   -9999.25   -9999.25    8.17000   -0.00930   13.40400    3.84070    2.84610 1263.37850 2102.93510 3147.57790    0.01480
 5244.00000   -9999.25   -9999.25   -9999.25    8.16950   -0.00900   15.48900    3.76620    2.83300  683.95850 1093.33500 2040.26900    0.01590
 5244.50000   -9999.25   -9999.25   -9999.25    8.11600   -0.00860   18.80230    3.73310    2.81990  104.23350  274.66180  322.83490    0.02090
 5245.00000   -9999.25   -9999.25   -9999.25    8.06250   -0.00860   21.21480    3.75560    2.81600  101.65010  110.14610  114.67600    0.02580
 5245.50000   -9999.25   -9999.25   -9999.25    8.01900   -0.01000   18.76860    3.72750    2.81570  316.38190  554.01510  848.26540    0.02740
 5246.00000   -9999.25   -9999.25   -9999.25    8.02220   -0.01270   16.01020    3.69940    2.83590  843.74430 1288.27490 1582.17490    0.02130
 5246.50000   -9999.25   -9999.25   -9999.25    8.09610   -0.01270   13.69180    3.68340    2.86780 1370.66910 2022.47730 2022.49560    0.01450
 5247.00000   -9999.25   -9999.25   -9999.25    8.16500   -0.00830   15.61480    3.73280    2.88800 1449.39150 2629.41360 3206.01250    0.01030
 5247.50000   -9999.25   -9999.25   -9999.25    8.21330   -0.00430   18.38270    3.80560    2.90510 1606.39580 3362.23440 3938.88040    0.00930
 5248.00000   -9999.25   -9999.25   -9999.25    8.25260   -0.00190   19.66270    3.87990    2.91990 1871.22350 3811.92480 4963.54880    0.01130
 5248.50000   -9999.25   -9999.25   -9999.25    8.28110   -0.00190   19.37930    3.96680    2.92280 1439.68460 3192.26930 3179.86400    0.01350
 5249.00000   -9999.25   -9999.25   -9999.25    8.25410   -0.00210   18.18000    4.08810    2.91660 1146.50280 2111.46700 1992.04940    0.01570
 5249.50000   -9999.25   -9999.25   -9999.25    8.24450   -0.00320   18.38840    4.09640    2.90290 1559.24260 3234.18040 3975.43970    0.01780
 5250.00000   -9999.25   -9999.25   -9999.25    8.24520   -0.00390   19.13350    4.04640    2.88740 1556.04310 3478.45970 4250.26420    0.02050
 5250.50000   -9999.25   -9999.25   -9999.25    8.23590   -0.00470   17.35430    3.99410    2.87230 1448.49520 2613.52050 2841.98610    0.02220
 5251.00000   -9999.25   -9999.25   -9999.25    8.22670   -0.00480   16.13600    3.94140    2.85810 1432.56030 2384.20260 2820.98510    0.02300
 5251.50000   -9999.25   -9999.25   -9999.25    8.20050   -0.00470   17.87320    3.82970    2.82270 1435.39530 2084.62920 2494.20920    0.02450
 5252.00000   -9999.25   -9999.25   -9999.25    8.11530   -0.00250   23.72400    3.71870    2.80180  933.79280 1346.88020 1976.05130    0.03040
 5252.50000   -9999.25   -9999.25   -9999.25    8.03910    0.00850   27.64860    3.52790    2.80130  519.50510  614.45690 2017.69340    0.04310
 5253.00000   -9999.25   -9999.25   -9999.25    8.01620    0.01740   27.46070    3.43770    2.81840  516.30270  618.42700 1974.98940    0.05070
 5253.50000   -9999.25   -9999.25   -9999.25    8.12950    0.01540   23.08450    3.63400    2.83890  844.95490 1270.82510 1986.02770    0.04520
 5254.00000   -9999.25   -9999.25   -9999.25    8.25930    0.00750   19.16460    3.82820    2.85680 1371.16700 1898.12270 3289.21190    0.03480
 5254.50000   -9999.25   -9999.25   -9999.25    8.30150   -0.00020   17.26120    4.10100    2.87460 1663.69700 3819.29860 5428.61570    0.02440
 5255.00000   -9999.25   -9999.25   -9999.25    8.30390   -0.00970   17.62650    4.13700    2.88520 1961.88000 4654.38870 6378.28660    0.01940
 5255.50000   -9999.25   -9999.25   -9999.25    8.30720   -0.00960   20.49340    4.08460    2.88270 1994.23680 2462.94600 4786.57860    0.01960
 5256.00000   -9999.25   -9999.25   -9999.25    8.31050   -0.00950   24.35920    4.00320    2.85600  698.91890 1166.71850 1976.04690    0.02440
 5256.50000   -9999.25   -9999.25   -9999.25    8.31280   -0.00930   26.77340    3.90520    2.85020  691.60020  891.69130  970.48690    0.02890
 5257.00000   -9999.25   -9999.25   -9999.25    8.31530   -0.00910   25.06280    3.80510    2.86080  725.32220  919.67270  963.31440    0.03070
 5257.50000   -9999.25   -9999.25   -9999.25    8.31680   -0.00910   21.01280    3.71700    2.87790  625.70380  875.30960  970.48580    0.02580
 5258.00000   -9999.25   -9999.25   -9999.25    8.32010   -0.00910   19.56860    3.65490    2.89510  523.32160  616.86900  705.48750    0.02170
 5258.50000   -9999.25   -9999.25   -9999.25    8.32420   -0.00910   19.57670    3.66150    2.90630  482.36910  560.92590  586.09150    0.02240
 5259.00000   -9999.25   -9999.25   -9999.25    8.32750   -0.00910   19.57690    3.78000    2.90750  445.12780  554.03180  581.76120    0.02400
 5259.50000   -9999.25   -9999.25   -9999.25    8.32310   -0.00710   19.48350    3.89460    2.89100  439.66080  485.09580  548.24820    0.02660
 5260.00000   -9999.25   -9999.25   -9999.25    8.29040   -0.00470   19.28980    3.89790    2.85640  587.85440  816.29810  941.02930    0.02840
 5260.50000   -9999.25   -9999.25   -9999.25    8.19750   -0.00210   17.66000    3.70140    2.84230  415.87300  548.21900  614.54170    0.03210
 5261.00000   -9999.25   -9999.25   -9999.25    8.04980    0.00040   15.70780    3.59480    2.83340  490.03180  675.15780 1181.55090    0.03510
 5261.50000   -9999.25   -9999.25   -9999.25    7.94650    0.00020   15.60710    3.50130    2.81490  786.00670 1471.04930 1822.92490    0.03770
 5262.00000   -9999.25   -9999.25   -9999.25    7.90220   -0.00050   16.11090    3.40890    2.80330  575.97620  947.09590 1335.79170    0.04240
 5262.50000   -9999.25   -9999.25   -9999.25    7.87850   -0.00150   17.34870    3.32410    2.77510  408.23330  436.71580  726.87280    0.04800
 5263.00000   -9999.25   -9999.25   -9999.25    7.84310   -0.00220   18.32750    3.31810    2.75880  413.30990  447.64450  472.67100    0.05630
 5263.50000   -9999.25   -9999.25   -9999.25    7.81350   -0.00300   18.42040    3.28310    2.74460  504.65120  567.35860  562.57370    0.05730
 5264.00000   -9999.25   -9999.25   -9999.25    7.77410   -0.00380   18.53670    3.20460    2.73820  545.83440  650.61600  665.87410    0.05440
 5264.50000   -9999.25   -9999.25   -9999.25    7.75450   -0.00450   18.83120    3.13950    2.75200  569.96870  700.70320  874.26810    0.04960
 5265.00000   -9999.25   -9999.25   -9999.25    7.75450   -0.00530   20.24180    3.08330    2.76620 1038.03470 1109.85170 1335.02840    0.04840
 5265.50000   -9999.25   -9999.25   -9999.25    7.77660   -0.00600   22.76070    3.13820    2.77360 1044.46250 1408.76180 1515.74540    0.05000
 5266.00000   -9999.25   -9999.25   -9999.25    7.84170   -0.00730   24.87650    3.23560    2.76650  940.29630 1369.34960 1562.64470    0.05120
 5266.50000   -9999.25   -9999.25   -9999.25    7.91390   -0.00870   24.87660    3.29050    2.78130  825.84460  908.65300 1051.94870    0.05180
 5267.00000   -9999.25   -9999.25   -9999.25    7.98600   -0.00540   20.90920    3.32150    2.79910  739.25060  840.83990  888.26490    0.05200
 5267.50000   -9999.25   -9999.25   -9999.25    8.05820   -0.00400   15.80850    3.37840    2.82500  686.08030  775.92980  812.24660    0.04100
