~Version ---------------------------------------------------
VERS.   2.0 : CWLS log ASCII Standard -VERSION 2.0
WRAP.    NO : One line per depth step
DLM . SPACE : Column Data Section Delimiter
~Well ------------------------------------------------------
STRT .F                 116.0 : START DEPTH
STOP .F               11854.0 : STOP DEPTH
STEP .F                   0.5 : STEP
NULL .               -9999.25 : NULL VALUE
COMP .                        : COMPANY
WELL .                        : WELL
FLD  .                        : FIELD
LOC  .                        : LOCATION
PROV .                        : PROVINCE
CNTY .                        : COUNTY
STAT .                        : STATE
CTRY .                        : COUNTRY
SRVC .                        : SERVICE COMPANY
DATE .                        : DATE
UWI  .                        : UNIQUE WELL ID
API  .                        : API NUMBER
SLAT .WGS84 3.185062600000002 : SURFACE LATITUDE
SLON .WGS84 8.012964400000001 : SURFACE LONGITUDE
DATUM.F                   nan : DEPTH DATUM ELEV
~Curve Information -----------------------------------------
DEPT   .F     : 
DPHZ_LS.DEC   : HGRD STANDARD RESOLUTION DENSITY POROSITY
DTCO   .US/F  : DELTA-T COMPRESSIONAL
DTSM   .US/F  : DELTA-T SHEAR
HCALD  .IN    : HRCC CALIPER CALIBRATED FROM DENSITY LOG
HDRA   .G/C3  : HRDD SPINE AND RIBS DENSITY CORRECTION
HSGRD  .GAPI  : HNGS STANDARD GAMMA RAY FROM DENSITY LOG
PEFZ   .B/E   : HRDD STANDARD RESOLUTION FORMATION PHOTOELECTRIC FACTOR
RHOZ   .G/C3  : HRDD STANDARD RESOLUTION FORMATION DENSITY
RLA3   .OHMM  : APPARENT RESISTIVITY FROM COMPUTED FOCUSING MODE 3
RLA4   .OHMM  : APPARENT RESISTIVITY FROM COMPUTED FOCUSING MODE 4
RLA5   .OHMM  : APPARENT RESISTIVITY FROM COMPUTED FOCUSING MODE 5
TNPH_LS.DEC   : THERMAL NEUTRON POROSITY [LIMESTONE]
~Params ----------------------------------------------------
~Other -----------------------------------------------------
~ASCII -----------------------------------------------------
# ...
 9440.00000   -0.08850   -9999.25   -9999.25    8.03840    0.07330   70.73500    4.26040    2.86300   14.18120   24.98900   31.25990    0.08070
 9440.50000   -0.10060   -9999.25   -9999.25    8.15920    0.06130   69.88930    4.19940    2.87720   41.33390   62.60210  137.57450    0.10460
 9441.00000   -0.09490   -9999.25   -9999.25    7.97210    0.03310   63.41800    3.99970    2.87020   86.20320  108.76580  270.46800    0.08910
 9441.50000   -0.08860   -9999.25   -9999.25    7.90440    0.00620   71.70100    3.90170    2.84360   80.43180   98.20010  258.46910    0.05730
 9442.00000   -0.07730   -9999.25   -9999.25    7.89270    0.00130   76.72120    3.81860    2.83340   72.55270   86.74140  101.87900    0.04430
 9442.50000   -0.07610   -9999.25   -9999.25    7.88870    0.00640   69.44100    3.80650    2.83800  120.10540  138.27930  165.77240    0.04570
 9443.00000   -0.07740   -9999.25   -9999.25    7.88460    0.00570   57.50600    3.88050    2.84180  155.91730  179.50950  208.78660    0.04450
 9443.50000   -0.07900   -9999.25   -9999.25    7.88050   -0.00310   50.22080    4.00400    2.84890  132.64830  149.81460  179.98310    0.04000
 9444.00000   -0.08450   -9999.25   -9999.25    7.87650   -0.00560   50.36850    4.15580    2.85660  124.34380  157.73770  319.93750    0.03480
 9444.50000   -0.09160   -9999.25   -9999.25    7.87240   -0.00890   54.27860    4.19720    2.86620   74.12940  110.25330  227.22700    0.03260
 9445.00000   -0.09860   -9999.25   -9999.25    7.89100   -0.01030   60.15080    4.17720    2.87070   23.91510   42.20220   72.71000    0.03640
 9445.50000   -0.09490   -9999.25   -9999.25    7.92460   -0.01190   53.81050    4.08200    2.87220   23.40510   28.43840  158.34560    0.05550
 9446.00000   -0.09700   -9999.25   -9999.25    7.92900   -0.01390   43.29180    3.95550    2.88000   55.23420  299.95560  741.04390    0.04570
 9446.50000   -0.10130   -9999.25   -9999.25    7.89230   -0.01590   30.33220    3.86600    2.89530  643.04500  720.41150 1764.03470    0.03360
 9447.00000   -0.10160   -9999.25   -9999.25    7.85200   -0.01640   25.01990    3.78320    2.90150  574.91800  824.96940 1274.26550    0.02140
 9447.50000   -0.10160   -9999.25   -9999.25    7.83670   -0.00790   25.93290    3.72130    2.89830  404.59940  551.60500  784.49600    0.01630
 9448.00000   -0.10150   -9999.25   -9999.25    7.85070   -0.00500   27.42610    3.69960    2.88450  483.41670  589.24580  998.11760    0.01610
 9448.50000   -0.09810   -9999.25   -9999.25    7.86470   -0.00460   27.53280    3.66480    2.87300  674.99440  820.02500 1220.91670    0.01580
 9449.00000   -0.09740   -9999.25   -9999.25    7.87870   -0.00400   28.70130    3.63000    2.87020  790.31830 1050.80410 1842.09060    0.01550
 9449.50000   -0.09750   -9999.25   -9999.25    7.88430   -0.00330   29.51010    3.59700    2.87150  860.17840 1189.42190 1770.38840    0.01360
 9450.00000   -0.10070   -9999.25   -9999.25    7.88350   -0.00070   29.33300    3.58550    2.88090  700.93630 1203.26090 1411.87410    0.01260
 9450.50000   -0.10090   -9999.25   -9999.25    7.88500    0.00180   27.74460    3.64950    2.89230 1050.21560 1176.66580 1996.33450    0.01190
 9451.00000   -0.10230   -9999.25   -9999.25    7.88960    0.00430   26.08120    3.72700    2.90160 1619.69820 1900.59890 3274.39720    0.01110
 9451.50000   -0.10210   -9999.25   -9999.25    7.89400    0.00340   24.42660    3.83900    2.90470 1961.38720 4586.61620 6904.75240    0.00730
 9452.00000   -0.10180   -9999.25   -9999.25    7.89720    0.00200   23.60210    3.92170    2.90020 2392.75880 7060.90190 11340.16800    0.00460
 9452.50000   -0.10150   -9999.25   -9999.25    7.90240    0.00050   24.30220    3.93880    2.89570 2632.25610 5094.21190 10870.25590    0.00620
 9453.00000   -0.10130   -9999.25   -9999.25    7.90750    0.00070   28.59640    3.80540    2.88160 1231.59660 2067.30200 5947.14750    0.00860
 9453.50000   -0.10090   -9999.25   -9999.25    7.91090   -0.00120   35.71600    3.67220    2.86690  136.27000  641.81860 2008.66560    0.01630
 9454.00000   -0.08970   -9999.25   -9999.25    7.91420   -0.00310   44.33430    3.62680    2.85220   74.70650   99.02470  360.79650    0.02640
 9454.50000   -0.08000   -9999.25   -9999.25    7.91940   -0.00410   48.49230    3.67210    2.83650   62.62150   66.25870   76.65050    0.03330
 9455.00000   -0.07560   -9999.25   -9999.25    7.92270   -0.00100   49.60810    3.84350    2.83390  123.25080  148.16780  195.97540    0.03350
 9455.50000   -0.08120   -9999.25   -9999.25    7.92780    0.00140   46.88430    4.09490    2.84310  198.47780  228.75910  243.70540    0.03040
 9456.00000   -0.09230   -9999.25   -9999.25    7.93300    0.00000   45.91660    4.56730    2.86400  233.54600  241.42050  309.62810    0.02650
 9456.50000   -0.10030   -9999.25   -9999.25    7.93630   -0.00170   43.49670    4.72560    2.88480  439.50960  448.69480  460.85010    0.02430
 9457.00000   -0.10070   -9999.25   -9999.25    7.93970   -0.00170   40.64410    4.80340    2.91360  693.80210  755.56150  912.06920    0.02210
 9457.50000   -0.10070   -9999.25   -9999.25    7.94410   -0.00170   38.60670    4.70780    2.91310  846.37800 1001.05540 1360.43120    0.01930
 9458.00000   -0.10080   -9999.25   -9999.25    7.94530   -0.00260   37.07110    4.74030    2.90960  713.13560  847.09090 1158.32250    0.01520
 9458.50000   -0.10090   -9999.25   -9999.25    7.93150   -0.00340   37.40730    4.79400    2.90380  821.88220 1275.06320 1820.31510    0.01280
 9459.00000   -0.10090   -9999.25   -9999.25    7.91070   -0.00470   37.67270    4.73770    2.89590 1628.27910 1941.97990 4636.94480    0.01130
 9459.50000   -0.10080   -9999.25   -9999.25    7.91210   -0.00540   37.45470    4.58940    2.87930 2087.94870 4689.57420 6360.19820    0.00960
 9460.00000   -0.10020   -9999.25   -9999.25    7.91590   -0.00600   37.62060    4.38630    2.87130 2338.05200 4032.82500 6307.92920    0.01060
 9460.50000   -0.09560   -9999.25   -9999.25    7.92010   -0.00650   38.52490    4.44930    2.86780 2076.73070 2078.46800 3933.33790    0.01270
 9461.00000   -0.09170   -9999.25   -9999.25    7.92310   -0.00600   39.84420    4.56400    2.86420  532.53330  666.53750 2033.66890    0.01470
 9461.50000   -0.09250   -9999.25   -9999.25    7.92620   -0.00550   41.01390    4.55090    2.86610 1188.40730 1126.53600 1778.00590    0.01550
 9462.00000   -0.09610   -9999.25   -9999.25    7.92920   -0.00500   41.24870    4.35650    2.86950  905.19020 1451.77250 2478.81590    0.01460
 9462.50000   -0.09320   -9999.25   -9999.25    7.93230   -0.00370   42.04750    4.18030    2.87370  213.10630  250.69810 1996.30070    0.01400
 9463.00000   -0.09990   -9999.25   -9999.25    7.93530   -0.00150   40.53880    4.15630    2.87780  248.18550  407.35830 1544.89090    0.01390
 9463.50000   -0.10120   -9999.25   -9999.25    7.93840    0.00080   38.11010    4.14070    2.89130  271.57180 1001.05200 2620.72950    0.01570
 9464.00000   -0.10130   -9999.25   -9999.25    7.94140   -0.00110   36.86670    4.12510    2.89540  147.77400  483.95530 2071.76250    0.01770
 9464.50000   -0.10140   -9999.25   -9999.25    7.94330   -0.00220   37.07630    4.10940    2.89160  105.64940  100.32210  113.17570    0.02140
 9465.00000   -0.10150   -9999.25   -9999.25    7.95670   -0.00330   36.91030    4.09370    2.87410   95.54420  103.91440  118.91740    0.02830
 9465.50000   -0.09540   -9999.25   -9999.25    7.95810   -0.00450   34.13640    4.10690    2.85670   98.10180  102.03000  108.48050    0.03730
 9466.00000   -0.08380   -9999.25   -9999.25    7.96490   -0.00510   30.05840    4.12730    2.84900   87.13710   96.60910  487.34130    0.03280
 9466.50000   -0.08590   -9999.25   -9999.25    7.97160   -0.00570   24.51070    4.15380    2.85970  565.47080  856.83920 1422.75670    0.02370
 9467.00000   -0.09280   -9999.25   -9999.25    7.97840   -0.00610   19.05920    4.17980    2.87640 1358.72790 1617.07010 1984.00590    0.01470
 9467.50000   -0.09970   -9999.25   -9999.25    7.98530   -0.00580   16.03790    4.16480    2.89480 1971.95650 1921.16170 5541.93260    0.00570
