~Version ---------------------------------------------------
VERS.   2.0 : CWLS log ASCII Standard -VERSION 2.0
WRAP.    NO : One line per depth step
DLM . SPACE : Column Data Section Delimiter
~Well ------------------------------------------------------
STRT .F                 116.0 : START DEPTH
STOP .F               11854.0 : STOP DEPTH
STEP .F                   0.5 : STEP
NULL .               -9999.25 : NULL VALUE
COMP .                        : COMPANY
WELL .                        : WELL
FLD  .                        : FIELD
LOC  .                        : LOCATION
PROV .                        : PROVINCE
CNTY .                        : COUNTY
STAT .                        : STATE
CTRY .                        : COUNTRY
SRVC .                        : SERVICE COMPANY
DATE .                        : DATE
UWI  .                        : UNIQUE WELL ID
API  .                        : API NUMBER
SLAT .WGS84 3.185062600000002 : SURFACE LATITUDE
SLON .WGS84 8.012964400000001 : SURFACE LONGITUDE
DATUM.F                   nan : DEPTH DATUM ELEV
~Curve Information -----------------------------------------
DEPT   .F     : 
DPHZ_LS.DEC   : HGRD STANDARD RESOLUTION DENSITY POROSITY
DTCO   .US/F  : DELTA-T COMPRESSIONAL
DTSM   .US/F  : DELTA-T SHEAR
HCALD  .IN    : HRCC CALIPER CALIBRATED FROM DENSITY LOG
HDRA   .G/C3  : HRDD SPINE AND RIBS DENSITY CORRECTION
HSGRD  .GAPI  : HNGS STANDARD GAMMA RAY FROM DENSITY LOG
PEFZ   .B/E   : HRDD STANDARD RESOLUTION FORMATION PHOTOELECTRIC FACTOR
RHOZ   .G/C3  : HRDD STANDARD RESOLUTION FORMATION DENSITY
RLA3   .OHMM  : APPARENT RESISTIVITY FROM COMPUTED FOCUSING MODE 3
RLA4   .OHMM  : APPARENT RESISTIVITY FROM COMPUTED FOCUSING MODE 4
RLA5   .OHMM  : APPARENT RESISTIVITY FROM COMPUTED FOCUSING MODE 5
TNPH_LS.DEC   : THERMAL NEUTRON POROSITY [LIMESTONE]
~Params ----------------------------------------------------
~Other -----------------------------------------------------
~ASCII -----------------------------------------------------
# ...
 10391.00000    0.00470   48.39180   92.17050    7.73400   -0.00240   54.32690    5.52300    2.71730  426.80570  445.40030  503.72760   -0.00620
 10391.50000    0.01500   48.24620   92.38800    7.74120   -0.00310   52.83720    5.55960    2.67610  262.08310  278.11950  355.89890   -0.00370
 10392.00000    0.02070   48.18850   92.77900    7.74850   -0.00060   49.78300    5.51270    2.66590  222.41800  268.54740  268.86810   -0.00110
 10392.50000    0.01150   48.74540   93.17430    7.75590    0.00180   46.72870    5.46550    2.68320  348.24290  420.46830  466.16240   -0.00020
 10393.00000    0.00230   49.31770   93.80910    7.76320    0.00260   43.15600    5.41180    2.70410  423.73780  511.62080  717.90620   -0.00030
 10393.50000    0.00090   45.62460   96.70180    7.77060    0.00400   40.90730    5.34160    2.70470  228.30910  287.15470  354.70290    0.00000
 10394.00000    0.01040   49.86270   99.54840    7.77810    0.00550   42.06410    5.31920    2.68570  206.66040  265.45130  262.26630    0.00060
 10394.50000    0.01050   54.57360  102.38900    7.78530    0.00940   48.45780    5.23430    2.68490  265.24550  327.22540  520.26870    0.00160
 10395.00000   -0.00230   55.56120  105.23170    7.79280    0.03580   58.11130    5.11430    2.73890   92.92710  187.11510  493.76040    0.00350
 10395.50000   -0.01330   56.99570  108.07830    7.79710    0.06540   68.54130    4.90980    2.72260   47.86170   49.43620   56.83970    0.02510
 10396.00000    0.03700   58.16990  110.91850    7.81100    0.07880   75.16620    4.56090    2.65970   33.47780   38.49790   36.35270    0.06680
 10396.50000    0.06980   59.13970  113.76510    7.84740    0.09160   80.65940    4.50420    2.59670   21.11200   25.49040   28.15790    0.10870
 10397.00000    0.06900   60.84670  117.10380    7.88390    0.08970   83.49800    4.50990    2.56840   30.38600   33.13710   39.83010    0.09700
 10397.50000    0.05110   62.55580  121.72830    7.88430    0.08010   80.72770    4.62260    2.59920   36.19940   37.42850   40.38100    0.07150
 10398.00000    0.03810   63.97130  122.58520    7.86420    0.06110   75.67100    4.75480    2.64060   52.66560   67.20280   95.21670    0.05550
 10398.50000    0.03870   64.63940  122.88670    7.86410    0.06110   72.69990    4.78400    2.64700   55.99900   64.09720   85.92870    0.05940
 10399.00000    0.02940   64.30710  124.52200    7.89310    0.11280   73.73400    4.66900    2.65520   32.30540   33.18710   42.43950    0.07540
 10399.50000    0.05830   65.89070  125.80280    7.92230    0.13980   74.01170    4.48170    2.65380   31.95940   32.83130   36.78590    0.10310
 10400.00000    0.10630   64.62130  125.90890    7.95130    0.17490   74.64580    4.29410    2.65030   30.05160   32.02620   33.07840    0.12560
 10400.50000    0.11600   65.28140  124.59020    8.17280    0.20380   76.56740    4.10690    2.50650   27.78400   29.75840   32.21050    0.12570
 10401.00000    0.10870   66.83500  125.26160    8.14250    0.26710   81.99910    3.94350    2.52050   27.56060   28.54230   33.26130    0.11640
 10401.50000    0.10430   67.54820  126.29460    8.55840    0.26680   90.78490    3.80570    2.52610   24.94740   29.95950   31.88550    0.11360
 10402.00000    0.11230   67.63900  126.04300    8.81800    0.25890   98.88280    3.74710    2.52360   28.77600   36.16080   41.02980    0.13400
 10402.50000    0.12500   67.55930  124.93530    8.80780    0.23260  100.03120    3.75220    2.45550   33.00900   36.33860   48.96250    0.15510
 10403.00000    0.16870   67.47940  123.84430    8.78750    0.20630  100.02990    3.83060    2.38750   20.17280   26.12980   33.51420    0.15570
 10403.50000    0.21160   67.09770  123.52590    8.98670    0.21050  100.03030    3.90910    2.37280   15.11950   17.96280   21.15550    0.15070
 10404.00000    0.11290   66.79620  123.32480    8.42460    0.23350   90.18490    3.98760    2.37340   26.07930   26.11610   46.01150    0.14480
 10404.50000    0.03000   66.31240  122.76970    9.92680    0.23090   82.42190    4.05190    2.54770   31.25020   33.97400   40.12840    0.14740
 10405.00000   -0.05850   66.15170  121.81540    8.03140    0.20770   77.30410    4.26440    2.76050   25.10220   26.00880   32.28420    0.14010
 10405.50000   -0.02260   66.61170  121.00900    8.18500    0.06380   75.86790    4.28820    2.80350   22.40020   24.60160   32.55520    0.12650
 10406.00000   -0.00230   66.42920  120.22200    8.31370    0.04380   77.17900    4.31190    2.70700   22.40020   26.18620   33.09720    0.12790
 10406.50000    0.00020   64.09930  119.14170    8.31350    0.03680   77.53550    4.24890    2.70640   22.28000   25.62830   32.89390    0.13220
 10407.00000   -0.00140   63.65330  118.13720    8.25390    0.03390   80.17440    4.16670    2.70680   21.30360   24.41580   32.55520    0.13750
 10407.50000   -0.00280   63.24950  117.29700    8.19400    0.03170   83.64440    4.04850    2.70890   20.55110   23.51280   32.28420    0.14410
 10408.00000    0.03610   63.28780  117.07570    8.13420    0.03580   87.39810    3.92110    2.70580   21.18160   23.16150   32.08450    0.15060
 10408.50000    0.11300   67.73050  119.60260    8.09840    0.05130   87.49670    3.69980    2.46370   21.45580   22.88810   32.08450    0.15270
 10409.00000    0.19010   72.09320  122.00360    8.23270    0.09790   88.93950    3.60980    2.34950   20.52350   22.88810   32.28420    0.15350
 10409.50000    0.26710   67.87370  124.97690    8.60230    0.15180   91.65150    3.47670    2.23530   19.27210   21.98230   30.28910    0.15410
 10410.00000    0.29920   62.80130  128.90050   10.71050    0.20580   97.63590    3.34340    2.16990   18.02070   20.12830   27.79520    0.16080
 10410.50000    0.29980   62.01990  132.85560   11.03470    0.26000   99.84530    3.21040    2.11670   17.11310   18.45300   27.29640    0.18120
 10411.00000    0.29980   68.74680  135.31100   11.03020    0.30330   99.13970    3.07720    2.10930   12.81980   15.23680   21.45230    0.20170
 10411.50000    0.29740   69.41230  132.44950   10.96740    0.34660   90.46930    2.94420    2.14440   11.06380   14.56020   17.44770    0.22830
 10412.00000    0.25010   70.53100  132.55000   10.79940    0.38990   82.69770    2.85070    2.27430   19.07860   22.27320   29.96730    0.26330
 10412.50000    0.10750   71.12990  136.14770    8.85700    0.41930   76.79440    2.83700    2.41240   25.49050   26.90090   33.72000    0.29110
 10413.00000    0.04150   70.39940  137.16840    8.08070    0.42090   81.30010    2.98720    2.56260   24.59860   26.90090   34.56910    0.23960
 10413.50000   -0.00120   70.40310  137.26880    8.08080    0.41890   88.77990    3.19180    2.66980   23.48370   26.04560   33.30360    0.21850
 10414.00000   -0.03070   70.49800  137.31910    8.12100    0.34710   96.95220    3.37510    2.71280   21.18090   24.17280   28.60740    0.21080
 10414.50000   -0.02030   70.57100  134.24000    7.90920    0.24180  100.02010    3.47210    2.76200   19.36930   21.63560   25.73260    0.23830
 10415.00000    0.00130   69.69120  130.87180    8.03030    0.12740  100.01630    3.56900    2.73260   17.20530   20.67390   21.82330    0.25140
 10415.50000    0.01730   68.47890  126.87730    8.07560    0.06130   99.98880    3.66610    2.68500   19.67450   22.93420   23.72590    0.26090
 10416.00000    0.02940   68.26620  126.72670    7.84880    0.00440   99.96230    3.72420    2.66580   20.66210   23.51270   26.09100    0.26590
 10416.50000    0.03900   69.42780  126.97770    7.83850   -0.00650   99.41290    3.77870    2.64660   20.44080   23.51270   26.38830    0.25190
 10417.00000    0.04220   67.28710  127.02790    7.84670   -0.00650   97.25320    3.75310    2.63280   20.22190   23.51270   26.62600    0.22520
 10417.50000    0.03960   71.59630  126.22470    7.84860   -0.00320   96.86110    3.62030    2.63690   19.20870   23.51270   25.08330    0.21710
 10418.00000    0.04810   69.51730  125.27080    7.84850    0.00440   98.07030    3.48760    2.63850   17.39160   20.11320   22.51220    0.21510
 10418.50000    0.06930   67.48160  123.85100    7.83840    0.03580   99.03840    3.35490    2.60480   21.77980   26.55500   33.58680    0.22960
