~Version ---------------------------------------------------
VERS.   2.0 : CWLS log ASCII Standard -VERSION 2.0
WRAP.    NO : One line per depth step
DLM . SPACE : Column Data Section Delimiter
~Well ------------------------------------------------------
STRT .F                 116.0 : START DEPTH
STOP .F               11854.0 : STOP DEPTH
STEP .F                   0.5 : STEP
NULL .               -9999.25 : NULL VALUE
COMP .                        : COMPANY
WELL .                        : WELL
FLD  .                        : FIELD
LOC  .                        : LOCATION
PROV .                        : PROVINCE
CNTY .                        : COUNTY
STAT .                        : STATE
CTRY .                        : COUNTRY
SRVC .                        : SERVICE COMPANY
DATE .                        : DATE
UWI  .                        : UNIQUE WELL ID
API  .                        : API NUMBER
SLAT .WGS84 3.185062600000002 : SURFACE LATITUDE
SLON .WGS84 8.012964400000001 : SURFACE LONGITUDE
DATUM.F                   nan : DEPTH DATUM ELEV
~Curve Information -----------------------------------------
DEPT   .F     : 
DPHZ_LS.DEC   : HGRD STANDARD RESOLUTION DENSITY POROSITY
DTCO   .US/F  : DELTA-T COMPRESSIONAL
DTSM   .US/F  : DELTA-T SHEAR
HCALD  .IN    : HRCC CALIPER CALIBRATED FROM DENSITY LOG
HDRA   .G/C3  : HRDD SPINE AND RIBS DENSITY CORRECTION
HSGRD  .GAPI  : HNGS STANDARD GAMMA RAY FROM DENSITY LOG
PEFZ   .B/E   : HRDD STANDARD RESOLUTION FORMATION PHOTOELECTRIC FACTOR
RHOZ   .G/C3  : HRDD STANDARD RESOLUTION FORMATION DENSITY
RLA3   .OHMM  : APPARENT RESISTIVITY FROM COMPUTED FOCUSING MODE 3
RLA4   .OHMM  : APPARENT RESISTIVITY FROM COMPUTED FOCUSING MODE 4
RLA5   .OHMM  : APPARENT RESISTIVITY FROM COMPUTED FOCUSING MODE 5
TNPH_LS.DEC   : THERMAL NEUTRON POROSITY [LIMESTONE]
~Params ----------------------------------------------------
~Other -----------------------------------------------------
~ASCII -----------------------------------------------------
# ...
 10866.50000    0.01120   53.48350   87.87160    7.63860    0.00140   30.17560    3.48350    2.65800 1801.95700 2461.76320 2065.57400    0.02280
 10867.00000    0.01770   53.66230   87.76330    7.63460    0.00070   33.11940    3.07320    2.64040 1413.19290 2095.67190 1909.25630    0.03680
 10867.50000    0.01790   53.56270   87.45860    7.63370   -0.00140   32.27300    2.99530    2.62290 1743.68300 2012.35730 1950.83690    0.04920
 10868.00000    0.01690   53.56420   86.90280    7.63280   -0.00410   29.55900    3.33040    2.62380 1941.97770 2846.18140 4294.26660    0.05030
 10868.50000    0.01300   53.56830   86.96350    7.63370   -0.00500   26.72030    3.58730    2.63420 2277.23290 3486.22920 3892.72680    0.03610
 10869.00000    0.01060   53.42060   87.46010    7.63470   -0.00520   24.92140    3.77500    2.64060 2100.98510 3733.58130 4252.19730    0.03510
 10869.50000    0.01080   53.41080   87.86640    7.63380   -0.00500   27.39750    3.82800    2.64270 2456.26170 4209.65380 5041.57810    0.03630
 10870.00000    0.01500   53.69480   88.01730    7.63100   -0.00350   31.15080    3.81850    2.64670 2067.30080 2023.22640 4099.08200    0.03820
 10870.50000    0.01970   53.91360   88.67770    7.63190   -0.00190   33.51910    3.80610    2.65460  833.50420  898.80230 2021.53520    0.03400
 10871.00000    0.02440   54.25930   89.47570    7.63200   -0.00030   31.34930    3.80460    2.66730  856.26050 1218.29720 1363.47200    0.02870
 10871.50000    0.01220   54.62260   90.26930    7.62740    0.00070   28.00290    3.87150    2.68140 1370.33240 1742.69860 1950.83030    0.02350
 10872.00000    0.00650   55.38820   91.14470    7.62960    0.00020   28.64540    3.93850    2.69140 1781.58910 1952.46020 10973.68950    0.01850
 10872.50000    0.00940   55.60920   92.14870    7.63170   -0.00030   34.78950    3.81590    2.69290 1294.24410 2078.46800 2043.43650    0.02070
 10873.00000    0.02640   55.67380   93.26220    7.63380   -0.00070   40.98140    3.69120    2.66970  355.82130  950.39530 1237.14780    0.03110
 10873.50000    0.03900   56.45750   94.84440    7.63580   -0.00110   43.85950    3.67660    2.64060  270.33730  335.34810  488.35940    0.04030
 10874.00000    0.04070   57.55090   96.88770    7.63810   -0.00160   44.26250    3.82660    2.63010  237.77020  275.47090  363.49650    0.04760
 10874.50000    0.03880   58.58860   98.36360    7.64010   -0.00200   44.59810    3.99470    2.63990  195.46660  215.59390  238.63330    0.05310
 10875.00000    0.03390   59.63430  101.02960    7.64230   -0.00190   42.60790    4.15250    2.64890  207.25620  247.56900  304.80880    0.05350
 10875.50000    0.03000   60.96820  104.03590    7.64440   -0.00060   40.61300    4.24280    2.65630  205.43760  264.57350  387.52830    0.04860
 10876.00000    0.03040   61.99470  105.64240    7.64650    0.00070   40.92050    4.23070    2.65140  131.52370  194.17220  306.63310    0.05150
 10876.50000    0.04040   62.41620  106.62130    7.64850    0.00190   53.11580    3.98260    2.63210   57.61010  123.77130  205.51410    0.07050
 10877.00000    0.05430   62.45460  107.66870    7.65080    0.00190   68.94990    3.65760    2.61070   37.59260   53.37040  104.39520    0.09350
 10877.50000    0.06520   62.86580  108.78670    7.65280    0.00190   72.36040    3.43940    2.58790   37.18170   44.84600   43.48900    0.11940
 10878.00000    0.07190   63.34660  109.75880    7.65500   -0.00160   72.35930    3.45980    2.58140   49.53290   58.20430   66.70550    0.12170
 10878.50000    0.06640   63.52080  110.36120    7.65700   -0.00410   58.97710    3.73200    2.59580   61.11280   71.56240   85.27870    0.10850
 10879.00000    0.05620   62.88470  109.53320    7.65920   -0.00480   50.67810    4.00420    2.61370   71.27140   80.43910  195.09270    0.09480
 10879.50000    0.04250   62.02460  108.15300    7.66120   -0.00520   55.97090    4.15140    2.63170   86.46050  105.11560  420.14460    0.07550
 10880.00000    0.04260   61.21030  106.77280    7.66330   -0.00470   64.44860    4.15770    2.63490   93.93740  121.75990  318.00270    0.07750
 10880.50000    0.04550   60.70620  105.79330    7.66750   -0.00420   64.51910    4.18040    2.63030   83.04720  100.86530  147.54140    0.08440
 10881.00000    0.04030   61.13490  105.77220    7.66960   -0.00360   56.74450    4.24400    2.63080   97.40580  132.99900  199.87130    0.08280
 10881.50000    0.02250   62.05620  106.14910    7.67170   -0.00460   47.15240    4.30750    2.67330  169.13630  183.87400  406.69720    0.07700
 10882.00000    0.00420   63.01760  108.60670    7.67390   -0.00890   40.58950    4.37110    2.71040  139.79520  190.17350  404.66060    0.07620
 10882.50000   -0.00490   64.82140  112.59020    7.67600   -0.00790   49.50830    4.21840    2.71710   95.47760  136.52260  235.98080    0.10000
 10883.00000   -0.00050   67.66560  115.08810    7.68520   -0.00470   58.18330    3.98380    2.70690   51.14820   82.85630   67.25110    0.12850
 10883.50000    0.01650   70.42270  119.54660    7.68820   -0.00140   71.94030    3.81190    2.67620   32.51870   39.90570   45.40450    0.15700
 10884.00000    0.03520   73.04740  124.32660    7.69130    0.00190   79.87650    3.71230    2.64620   34.40610   37.85320   39.65820    0.17810
 10884.50000    0.04610   74.49500  128.59650    7.69430    0.00170   83.25890    3.65090    2.63240   32.67070   35.05340   39.22510    0.17390
 10885.00000    0.04990   76.27510  131.12600    7.69860    0.00150   86.42940    3.58660    2.61830   26.69870   29.26860   30.73920    0.18800
 10885.50000    0.05350   77.18260  132.99370    7.70490    0.00220   90.77100    3.51810    2.60770   26.55010   27.65540   29.00600    0.19480
 10886.00000    0.06270   76.92540  133.67050    7.71110    0.00090   94.80970    3.44960    2.59840   25.15330   27.50250   28.68880    0.20730
 10886.50000    0.06870   76.42760  131.78760    7.71740   -0.00180   98.84850    3.45220    2.58900   28.31260   29.22750   30.32530    0.20950
 10887.00000    0.07170   75.35880  129.86380    7.72360   -0.00460  100.06010    3.46290    2.58250   31.19440   33.33350   34.58540    0.19390
 10887.50000    0.07130   73.26270  126.24230    7.72990   -0.00650   99.75720    3.48050    2.58570   32.04540   36.09260   37.88930    0.17790
 10888.00000    0.06610   70.38180  121.90350    7.72310   -0.00850   90.77100    3.52330    2.60200   35.69020   40.36430   47.37270    0.15360
 10888.50000    0.05690   66.82730  117.57150    7.72310   -0.00900   77.94790    3.66040    2.61630   44.86090   54.12660   85.66470    0.11850
 10889.00000    0.04180   64.03080  110.34250    7.72310   -0.00660   62.80260    3.89800    2.64770  133.63800  158.78540  223.66930    0.08480
 10889.50000    0.02430   61.69350  105.77610    7.72310   -0.00210   53.47310    4.29020    2.67920  340.39970  601.75900 1165.05690    0.06570
 10890.00000    0.00530   60.89390  104.49540    7.71990    0.00250   46.44760    4.42230    2.71060  547.09630 1169.56270 1882.02750    0.05250
 10890.50000   -0.00460   60.61490  103.47050    7.71160    0.00200   40.87480    4.45460    2.71160 1028.86760 1924.62080 2801.60890    0.05050
 10891.00000    0.00200   60.82580  102.40320    7.70340    0.00210   35.23370    4.35930    2.69880 1294.99190 2178.08200 2822.67600    0.05050
 10891.50000    0.01780   62.22720  102.49110    7.69520    0.00470   40.96730    4.14410    2.66600  892.42450 1315.00980 1822.81200    0.05260
 10892.00000    0.03820   64.07840  103.99780    7.68700    0.00230   50.68320    3.94170    2.62640  489.70620  796.24510 1076.24430    0.06390
 10892.50000    0.05990   65.07280  105.50460    7.67880   -0.00200   61.25560    3.79100    2.60330  162.95240  277.21560  329.30460    0.08310
 10893.00000    0.06920   65.89820  105.95670    7.67060   -0.00540   68.33400    3.67930    2.58830  147.28970  161.88680  182.12790    0.10390
 10893.50000    0.06580   66.78500  108.48170    7.66240   -0.00570   68.63400    3.70990    2.58890  135.71960  148.66490  184.90440    0.11690
 10894.00000    0.05890   67.61630  110.77570    7.65570   -0.00590   67.65270    3.76230    2.60280  131.43790  137.42060  162.23410    0.11850
