~Version ---------------------------------------------------
VERS.   2.0 : CWLS log ASCII Standard -VERSION 2.0
WRAP.    NO : One line per depth step
DLM . SPACE : Column Data Section Delimiter
~Well ------------------------------------------------------
STRT .F                 116.0 : START DEPTH
STOP .F               11854.0 : STOP DEPTH
STEP .F                   0.5 : STEP
NULL .               -9999.25 : NULL VALUE
COMP .                        : COMPANY
WELL .                        : WELL
FLD  .                        : FIELD
LOC  .                        : LOCATION
PROV .                        : PROVINCE
CNTY .                        : COUNTY
STAT .                        : STATE
CTRY .                        : COUNTRY
SRVC .                        : SERVICE COMPANY
DATE .                        : DATE
UWI  .                        : UNIQUE WELL ID
API  .                        : API NUMBER
SLAT .WGS84 3.185062600000002 : SURFACE LATITUDE
SLON .WGS84 8.012964400000001 : SURFACE LONGITUDE
DATUM.F                   nan : DEPTH DATUM ELEV
~Curve Information -----------------------------------------
DEPT   .F     : 
DPHZ_LS.DEC   : HGRD STANDARD RESOLUTION DENSITY POROSITY
DTCO   .US/F  : DELTA-T COMPRESSIONAL
DTSM   .US/F  : DELTA-T SHEAR
HCALD  .IN    : HRCC CALIPER CALIBRATED FROM DENSITY LOG
HDRA   .G/C3  : HRDD SPINE AND RIBS DENSITY CORRECTION
HSGRD  .GAPI  : HNGS STANDARD GAMMA RAY FROM DENSITY LOG
PEFZ   .B/E   : HRDD STANDARD RESOLUTION FORMATION PHOTOELECTRIC FACTOR
RHOZ   .G/C3  : HRDD STANDARD RESOLUTION FORMATION DENSITY
RLA3   .OHMM  : APPARENT RESISTIVITY FROM COMPUTED FOCUSING MODE 3
RLA4   .OHMM  : APPARENT RESISTIVITY FROM COMPUTED FOCUSING MODE 4
RLA5   .OHMM  : APPARENT RESISTIVITY FROM COMPUTED FOCUSING MODE 5
TNPH_LS.DEC   : THERMAL NEUTRON POROSITY [LIMESTONE]
~Params ----------------------------------------------------
~Other -----------------------------------------------------
~ASCII -----------------------------------------------------
# ...
 7564.00000   -9999.25   -9999.25   -9999.25    8.51480   -0.00760   89.91220    3.14710    2.69080    9.75410   11.01550   11.53320    0.11830
 7564.50000   -9999.25   -9999.25   -9999.25    8.50450   -0.00880   92.94720    3.19110    2.68320   10.39250   11.01560   11.44790    0.12050
 7565.00000   -9999.25   -9999.25   -9999.25    8.47860   -0.00770   93.24920    3.12720    2.67850   11.24360   11.64540   12.42060    0.10810
 7565.50000   -9999.25   -9999.25   -9999.25    8.45940   -0.00590   88.76160    3.06760    2.67760   10.77000   11.43390   11.79480    0.09650
 7566.00000   -9999.25   -9999.25   -9999.25    8.44450   -0.00420   83.58860    2.95430    2.67580   11.32040   13.74580   12.06030    0.07540
 7566.50000   -9999.25   -9999.25   -9999.25    8.43280   -0.00360   75.16420    2.90570    2.67170   13.74150   15.57620   15.63710    0.06360
 7567.00000   -9999.25   -9999.25   -9999.25    8.41570   -0.00450   68.52390    2.87430    2.66750   14.05360   15.67520   15.99220    0.05420
 7567.50000   -9999.25   -9999.25   -9999.25    8.41860   -0.00540   62.18370    2.85810    2.66590   15.46650   15.77320   16.96990    0.04790
 7568.00000   -9999.25   -9999.25   -9999.25    8.40670   -0.00500   58.50840    2.83570    2.66790   22.09470   24.35510   26.62470    0.04160
 7568.50000   -9999.25   -9999.25   -9999.25    8.41590   -0.00250   59.10090    2.81330    2.67080   26.40160   29.63260   30.49300    0.04140
 7569.00000   -9999.25   -9999.25   -9999.25    8.45990    0.00000   68.49010    2.82350    2.67380   17.26190   23.25720   28.74350    0.04420
 7569.50000   -9999.25   -9999.25   -9999.25    8.49880    0.00160   80.70250    2.84090    2.67600    9.76370   12.62150   14.36350    0.05470
 7570.00000   -9999.25   -9999.25   -9999.25    8.56090   -0.00130   88.35020    2.94130    2.67490    9.76750   10.46620   10.64470    0.07540
 7570.50000   -9999.25   -9999.25   -9999.25    8.61470   -0.00410   92.63530    2.97550    2.66920   10.39600   10.69320   10.88210    0.09090
 7571.00000   -9999.25   -9999.25   -9999.25    8.64840   -0.00590   91.42340    3.02100    2.66450   10.78070   10.91600   11.63320    0.10690
 7571.50000   -9999.25   -9999.25   -9999.25    8.66390   -0.00710   89.90880    3.02640    2.66340   10.77850   11.02700   11.80460    0.11280
 7572.00000   -9999.25   -9999.25   -9999.25    8.68330   -0.00820   88.09060    3.03160    2.65960   10.64690   11.09490   11.63090    0.11080
 7572.50000   -9999.25   -9999.25   -9999.25    8.69900   -0.00920   87.93410    3.03210    2.65210    9.67300   10.04210   10.51750    0.10310
 7573.00000   -9999.25   -9999.25   -9999.25    8.69900   -0.00800   86.87450    3.03170    2.64460    8.37870    8.62870    9.51520    0.09500
 7573.50000   -9999.25   -9999.25   -9999.25    8.72930   -0.00620   85.80120    3.03470    2.63900    7.82940    8.24380    8.51480    0.09240
 7574.00000   -9999.25   -9999.25   -9999.25    8.74900   -0.00450   86.93140    2.99890    2.63450    7.95420    8.24240    9.04930    0.09650
 7574.50000   -9999.25   -9999.25   -9999.25    8.76320   -0.00340   86.54210    3.02660    2.63020    8.42380    9.09880    9.65680    0.10070
 7575.00000   -9999.25   -9999.25   -9999.25    8.77360   -0.00460   86.07740    3.06180    2.63510    8.57050    9.09880    9.44440    0.10440
 7575.50000   -9999.25   -9999.25   -9999.25    8.77550   -0.00600   83.37900    3.03580    2.65850    8.72920   10.38960   11.61020    0.10620
 7576.00000   -9999.25   -9999.25   -9999.25    8.76490   -0.00600   82.10870    3.00950    2.68160   11.00200   12.54420   12.89250    0.10440
 7576.50000   -9999.25   -9999.25   -9999.25    8.77570   -0.00500   82.00610    2.98930    2.70320   12.18390   12.46460   12.60630    0.10360
 7577.00000   -9999.25   -9999.25   -9999.25    8.76730   -0.00390   81.62110    3.01840    2.70770   12.03420   12.23540   12.60610    0.11280
 7577.50000   -9999.25   -9999.25   -9999.25    8.74700   -0.00350   80.79160    3.09680    2.69690   12.40940   12.69500   14.31160    0.11710
 7578.00000   -9999.25   -9999.25   -9999.25    8.73730   -0.00520   81.63960    3.10900    2.68530   13.01000   14.27310   16.19960    0.11250
 7578.50000   -9999.25   -9999.25   -9999.25    8.72440   -0.00440   82.43750    3.07810    2.67560   12.79640   14.36140   15.76140    0.10370
 7579.00000   -9999.25   -9999.25   -9999.25    8.74200   -0.00360   81.98180    3.04750    2.67400   11.01700   12.80160   13.46760    0.09620
 7579.50000   -9999.25   -9999.25   -9999.25    8.76880   -0.00510   80.08680    3.01700    2.67240   10.94930   11.59280   13.07410    0.09420
 7580.00000   -9999.25   -9999.25   -9999.25    8.79830   -0.00700   80.21440    3.06690    2.66950   10.89150   11.28190   13.07140    0.09790
 7580.50000   -9999.25   -9999.25   -9999.25    8.81940   -0.00890   83.41260    3.13830    2.65950   10.82450   11.07360   12.13590    0.10220
 7581.00000   -9999.25   -9999.25   -9999.25    8.86300   -0.00890   88.63300    3.13030    2.65290   10.21820   10.34330   11.22010    0.10650
 7581.50000   -9999.25   -9999.25   -9999.25    8.90680   -0.00750   92.14090    3.07150    2.65440    8.96800    9.28720   10.22860    0.10300
 7582.00000   -9999.25   -9999.25   -9999.25    8.95040   -0.00620   90.39950    2.99550    2.65830    7.53820    8.02330    9.15460    0.10390
 7582.50000   -9999.25   -9999.25   -9999.25    8.96320   -0.00510   86.03060    2.90760    2.65620    6.11400    6.62510    7.50020    0.10720
 7583.00000   -9999.25   -9999.25   -9999.25    9.00140   -0.00610   84.30510    2.87410    2.60460    4.68880    5.22580    5.99240    0.11050
 7583.50000   -9999.25   -9999.25   -9999.25    9.03110   -0.00730   83.36570    2.86550    2.57660    3.71400    3.82260    4.70160    0.11700
 7584.00000   -9999.25   -9999.25   -9999.25    9.05080   -0.00860   86.46980    2.84740    2.55920    3.71500    3.77660    3.87190    0.12260
 7584.50000   -9999.25   -9999.25   -9999.25    9.09690   -0.01000   85.08620    2.82930    2.55570    3.75920    3.79790    3.92760    0.12720
 7585.00000   -9999.25   -9999.25   -9999.25    9.10160   -0.00880   86.18180    2.81490    2.56270    3.78340    3.90220    4.19970    0.13170
 7585.50000   -9999.25   -9999.25   -9999.25    9.04010   -0.00780   86.10860    2.86380    2.57850    4.35600    4.76970    6.25900    0.13610
 7586.00000   -9999.25   -9999.25   -9999.25    8.89220   -0.00640   85.91540    2.89940    2.60500    6.77110    8.02440   10.08690    0.13040
 7586.50000   -9999.25   -9999.25   -9999.25    8.79700   -0.00440   85.33730    2.89720    2.63150   10.19120   11.83300   12.55150    0.11730
 7587.00000   -9999.25   -9999.25   -9999.25    8.76030   -0.00240   84.36300    2.91160    2.65800   10.02840   11.97450   12.75580    0.10410
 7587.50000   -9999.25   -9999.25   -9999.25    8.75570   -0.00230   81.69760    2.95380    2.65950    9.43200   10.07430   10.73210    0.09340
 7588.00000   -9999.25   -9999.25   -9999.25    8.74490   -0.00300   78.96400    2.98520    2.65090    9.79730   10.26520   11.41880    0.08500
 7588.50000   -9999.25   -9999.25   -9999.25    8.72990   -0.00480   73.25930    2.93710    2.65190   11.10470   12.24830   13.52710    0.07770
 7589.00000   -9999.25   -9999.25   -9999.25    8.71480   -0.00620   67.55430    2.87670    2.66420   13.08710   14.24010   14.90980    0.06630
 7589.50000   -9999.25   -9999.25   -9999.25    8.69990   -0.00650   68.85290    2.90280    2.66450   12.12700   13.02720   13.94200    0.05820
 7590.00000   -9999.25   -9999.25   -9999.25    8.70900   -0.00700   73.35940    2.96950    2.65770   10.53020   11.71720   12.35320    0.06530
 7590.50000   -9999.25   -9999.25   -9999.25    8.72010   -0.00760   78.27080    3.02240    2.64020   10.27840   10.64380   11.24090    0.07950
 7591.00000   -9999.25   -9999.25   -9999.25    8.72710   -0.00830   80.90030    3.10560    2.63150   10.26220   10.44820   11.15790    0.09120
 7591.50000   -9999.25   -9999.25   -9999.25    8.68430   -0.00500   75.69190    3.11380    2.64820   10.64370   11.23000   11.57940    0.09330
