~Version ---------------------------------------------------
VERS.   2.0 : CWLS log ASCII Standard -VERSION 2.0
WRAP.    NO : One line per depth step
DLM . SPACE : Column Data Section Delimiter
~Well ------------------------------------------------------
STRT .F                 116.0 : START DEPTH
STOP .F               11854.0 : STOP DEPTH
STEP .F                   0.5 : STEP
NULL .               -9999.25 : NULL VALUE
COMP .                        : COMPANY
WELL .                        : WELL
FLD  .                        : FIELD
LOC  .                        : LOCATION
PROV .                        : PROVINCE
CNTY .                        : COUNTY
STAT .                        : STATE
CTRY .                        : COUNTRY
SRVC .                        : SERVICE COMPANY
DATE .                        : DATE
UWI  .                        : UNIQUE WELL ID
API  .                        : API NUMBER
SLAT .WGS84 3.185062600000002 : SURFACE LATITUDE
SLON .WGS84 8.012964400000001 : SURFACE LONGITUDE
DATUM.F                   nan : DEPTH DATUM ELEV
~Curve Information -----------------------------------------
DEPT   .F     : 
DPHZ_LS.DEC   : HGRD STANDARD RESOLUTION DENSITY POROSITY
DTCO   .US/F  : DELTA-T COMPRESSIONAL
DTSM   .US/F  : DELTA-T SHEAR
HCALD  .IN    : HRCC CALIPER CALIBRATED FROM DENSITY LOG
HDRA   .G/C3  : HRDD SPINE AND RIBS DENSITY CORRECTION
HSGRD  .GAPI  : HNGS STANDARD GAMMA RAY FROM DENSITY LOG
PEFZ   .B/E   : HRDD STANDARD RESOLUTION FORMATION PHOTOELECTRIC FACTOR
RHOZ   .G/C3  : HRDD STANDARD RESOLUTION FORMATION DENSITY
RLA3   .OHMM  : APPARENT RESISTIVITY FROM COMPUTED FOCUSING MODE 3
RLA4   .OHMM  : APPARENT RESISTIVITY FROM COMPUTED FOCUSING MODE 4
RLA5   .OHMM  : APPARENT RESISTIVITY FROM COMPUTED FOCUSING MODE 5
TNPH_LS.DEC   : THERMAL NEUTRON POROSITY [LIMESTONE]
~Params ----------------------------------------------------
~Other -----------------------------------------------------
~ASCII -----------------------------------------------------
# ...
 8992.00000    0.03730   -9999.25   -9999.25    7.85960   -0.00500   40.92640    3.64590    2.63840   14.18400   29.13250   19.55720    0.11490
 8992.50000    0.01840   -9999.25   -9999.25    7.87310   -0.00530   50.57420    3.84690    2.67460   35.39360   58.26150   83.61730    0.08300
 8993.00000   -0.00450   -9999.25   -9999.25    7.88640   -0.00560   54.11300    4.21480    2.71890   56.60310   81.56470  147.67760    0.05980
 8993.50000   -0.03150   -9999.25   -9999.25    7.89520   -0.00500   42.34690    4.49690    2.75630   73.96790   83.19770  101.21020    0.03660
 8994.00000   -0.05950   -9999.25   -9999.25    7.94620   -0.00200   30.26020    4.88410    2.81030   75.98670   90.83870   99.92250    0.01630
 8994.50000   -0.08930   -9999.25   -9999.25    7.98780   -0.00200   16.90150    5.28800    2.86950 1015.50220 1120.88020 1438.91390   -0.00130
 8995.00000   -0.10080   -9999.25   -9999.25    8.04230   -0.00340    8.72140    5.43780    2.91160 1953.78280 1944.91470 18329.90430   -0.01990
 8995.50000   -0.10070   -9999.25   -9999.25    8.09470   -0.00130    5.70690    5.46630    2.94960 3046.03490 20338.22070 25816.71880   -0.02070
 8996.00000   -0.10060   -9999.25   -9999.25    8.13570   -0.00040    5.69320    5.41190    2.97120 3492.01440 26369.60940 48042.63280   -0.02110
 8996.50000   -0.10060   -9999.25   -9999.25    8.15650   -0.00150    6.37990    5.31620    2.98930 3355.87600 36686.23830 43497.66800   -0.02010
 8997.00000   -0.10060   -9999.25   -9999.25    8.15530   -0.00250    7.29910    5.24200    2.98000 3296.07860 27135.93550 37429.65630   -0.01770
 8997.50000   -0.10060   -9999.25   -9999.25    8.14920   -0.00360    8.61600    5.14720    2.95950 3046.03490 16500.03130 26788.05080   -0.01210
 8998.00000   -0.10060   -9999.25   -9999.25    8.10610   -0.00340   17.51410    4.82500    2.90280 2067.09230 5140.56540 14696.10060    0.00280
 8998.50000   -0.08610   -9999.25   -9999.25    8.05440   -0.00320   26.49340    4.69840    2.86550  273.72280  235.61130 2006.37820    0.01710
 8999.00000   -0.06120   -9999.25   -9999.25    7.99310   -0.00480   34.00450    4.50960    2.81560  301.30880  315.37880  414.56810    0.02850
 8999.50000   -0.04880   -9999.25   -9999.25    7.94100   -0.00420   39.68040    4.32070    2.80160  405.53070  511.61730  727.23310    0.03480
 9000.00000   -0.04810   -9999.25   -9999.25    7.88720   -0.00400   43.09190    4.07990    2.76400  273.67920  380.71670  713.39750    0.04310
 9000.50000   -0.02730   -9999.25   -9999.25    7.87610   -0.00390   41.83090    3.92580    2.71980  124.97710  223.94020   90.55740    0.06280
 9001.00000   -0.00300   -9999.25   -9999.25    7.90970   -0.00230   37.03480    3.85020    2.69170    5.46810   67.16380   47.28650    0.09040
 9001.50000    0.00840   -9999.25   -9999.25    7.94660    0.00020   31.77320    3.90350    2.69540    2.89220    3.40220    4.01570    0.12240
 9002.00000   -0.02170   -9999.25   -9999.25    8.00720    0.00280   28.48470    4.17550    2.74100    6.59610   14.60760   20.87840    0.07970
 9002.50000   -0.07640   -9999.25   -9999.25    8.00720    0.00530   31.89700    4.43360    2.84540   15.65830   42.24690   62.77470    0.02730
 9003.00000   -0.09880   -9999.25   -9999.25    8.08930    0.00610   34.43010    4.61030    2.89090   44.10970   64.35850   88.47720    0.01660
 9003.50000   -0.10070   -9999.25   -9999.25    8.19880    0.00400   33.46480    4.51090    2.90190   57.42920   59.68500  151.52790    0.02000
 9004.00000   -0.09850   -9999.25   -9999.25    8.08280    0.00190   29.66110    4.30160    2.88960  111.92670  281.16960  577.52270    0.03040
 9004.50000   -0.08730   -9999.25   -9999.25    7.90630   -0.00020   29.44060    4.08100    2.86450  275.20050  325.46650  519.07080    0.04270
 9005.00000   -0.06760   -9999.25   -9999.25    7.82560   -0.00230   31.53140    3.83900    2.82320  195.03690  240.99880  317.76240    0.05660
 9005.50000   -0.05220   -9999.25   -9999.25    7.83120   -0.00510   33.91870    3.72900    2.80330  114.87320  156.53130  168.96190    0.06300
 9006.00000   -0.03940   -9999.25   -9999.25    7.83680   -0.00590   34.85290    3.73600    2.77540   55.69690   72.06380  108.29100    0.06940
 9006.50000   -0.03360   -9999.25   -9999.25    7.83900   -0.00670   33.14420    3.73540    2.76630   31.55950   45.28450   69.68790    0.07520
 9007.00000   -0.03520   -9999.25   -9999.25    7.85510   -0.00670   29.64390    3.80000    2.76780   21.78680   25.49030   36.60190    0.08250
 9007.50000   -0.04510   -9999.25   -9999.25    7.85920   -0.00570   25.44980    3.86480    2.77770   29.77230   34.76730   38.86130    0.08770
 9008.00000   -0.05380   -9999.25   -9999.25    7.87240   -0.00470   21.15930    4.04290    2.79240   38.55510   43.20710   46.20250    0.07750
 9008.50000   -0.05900   -9999.25   -9999.25    7.87170   -0.00370   18.54880    4.25100    2.80720   35.27280   37.15990   39.48830    0.06780
 9009.00000   -0.05760   -9999.25   -9999.25    7.87090   -0.00450   21.24650    4.42090    2.81070   43.22660   52.19870   43.74810    0.06760
 9009.50000   -0.04830   -9999.25   -9999.25    7.87020   -0.00600   30.39620    4.55380    2.79090   54.71250   63.32740  124.22470    0.08190
 9010.00000   -0.02780   -9999.25   -9999.25    7.86850   -0.00750   40.70310    4.54750    2.74530    7.44490   30.01830   57.24450    0.10180
 9010.50000   -0.00530   -9999.25   -9999.25    7.86820   -0.00840   46.28820    4.38500    2.69970    4.82390    5.76680    7.00940    0.12160
 9011.00000    0.00560   -9999.25   -9999.25    7.86780   -0.00690   47.63650    4.20540    2.69720    5.98410    6.68550    9.53140    0.13410
 9011.50000   -0.00300   -9999.25   -9999.25    7.86720   -0.00540   43.87830    4.26910    2.71490   13.98070   42.69010  580.07790    0.10350
 9012.00000   -0.01680   -9999.25   -9999.25    7.86670   -0.00390   38.20640    4.52100    2.74100   45.55930  126.75250 1150.62590    0.07280
 9012.50000   -0.03130   -9999.25   -9999.25    7.84790   -0.00470   29.50350    4.92210    2.76710  625.49700  877.09100 1721.17210    0.04220
 9013.00000   -0.03640   -9999.25   -9999.25    7.84700   -0.01200   22.17200    5.41700    2.77340 1205.43490 1793.99790 2984.10860    0.01160
 9013.50000   -0.03390   -9999.25   -9999.25    7.84440   -0.01380   27.02360    5.54790    2.76380 1045.84080 1465.92110 2205.75660    0.00670
 9014.00000   -0.02920   -9999.25   -9999.25    7.84170   -0.01550   32.99510    5.24240    2.75400  418.88230  717.57820  827.07890    0.02860
 9014.50000   -0.01940   -9999.25   -9999.25    7.84090   -0.01320   35.18470    4.69750    2.74300   36.88780  105.97880  387.54010    0.05030
 9015.00000   -0.01120   -9999.25   -9999.25    7.83810   -0.00980   29.10840    4.52500    2.73240   23.48020   47.71930  131.33600    0.06320
 9015.50000   -0.00550   -9999.25   -9999.25    7.83730   -0.00910   23.59630    4.54320    2.72130   15.39420   24.15400   28.67030    0.05960
 9016.00000   -0.00670   -9999.25   -9999.25    7.83640   -0.00820   23.98680    4.67700    2.71900   33.47790   62.17980  138.50910    0.04540
 9016.50000   -0.00910   -9999.25   -9999.25    7.83380   -0.00740   29.91040    4.66570    2.72220   51.01320   99.54630  123.09970    0.03660
 9017.00000   -0.00790   -9999.25   -9999.25    7.83120   -0.00650   41.74880    4.50510    2.71720   38.74010   73.37940   95.54280    0.04160
 9017.50000   -0.00280   -9999.25   -9999.25    7.83820   -0.00350   52.78530    4.09860    2.70900   30.09590   44.62580   87.35120    0.07540
 9018.00000    0.00890   -9999.25   -9999.25    7.83890   -0.00050   50.22880    3.92910    2.68900   20.21370   30.52370   30.74540    0.11670
 9018.50000    0.02770   -9999.25   -9999.25    7.83780    0.00070   41.87910    3.77120    2.64730    9.44710   13.49410   15.60240    0.15780
 9019.00000    0.05520   -9999.25   -9999.25    7.83680   -0.00120   33.02490    3.71950    2.60860    2.98840    3.25870    3.48810    0.19910
 9019.50000    0.07700   -9999.25   -9999.25    7.83750   -0.00440   32.89790    3.71230    2.57380    3.15250    3.27630    3.42170    0.20940
