~Version ---------------------------------------------------
VERS.   2.0 : CWLS log ASCII Standard -VERSION 2.0
WRAP.    NO : One line per depth step
DLM . SPACE : Column Data Section Delimiter
~Well ------------------------------------------------------
STRT .F                 116.0 : START DEPTH
STOP .F               11854.0 : STOP DEPTH
STEP .F                   0.5 : STEP
NULL .               -9999.25 : NULL VALUE
COMP .                        : COMPANY
WELL .                        : WELL
FLD  .                        : FIELD
LOC  .                        : LOCATION
PROV .                        : PROVINCE
CNTY .                        : COUNTY
STAT .                        : STATE
CTRY .                        : COUNTRY
SRVC .                        : SERVICE COMPANY
DATE .                        : DATE
UWI  .                        : UNIQUE WELL ID
API  .                        : API NUMBER
SLAT .WGS84 3.185062600000002 : SURFACE LATITUDE
SLON .WGS84 8.012964400000001 : SURFACE LONGITUDE
DATUM.F                   nan : DEPTH DATUM ELEV
~Curve Information -----------------------------------------
DEPT   .F     : 
DPHZ_LS.DEC   : HGRD STANDARD RESOLUTION DENSITY POROSITY
DTCO   .US/F  : DELTA-T COMPRESSIONAL
DTSM   .US/F  : DELTA-T SHEAR
HCALD  .IN    : HRCC CALIPER CALIBRATED FROM DENSITY LOG
HDRA   .G/C3  : HRDD SPINE AND RIBS DENSITY CORRECTION
HSGRD  .GAPI  : HNGS STANDARD GAMMA RAY FROM DENSITY LOG
PEFZ   .B/E   : HRDD STANDARD RESOLUTION FORMATION PHOTOELECTRIC FACTOR
RHOZ   .G/C3  : HRDD STANDARD RESOLUTION FORMATION DENSITY
RLA3   .OHMM  : APPARENT RESISTIVITY FROM COMPUTED FOCUSING MODE 3
RLA4   .OHMM  : APPARENT RESISTIVITY FROM COMPUTED FOCUSING MODE 4
RLA5   .OHMM  : APPARENT RESISTIVITY FROM COMPUTED FOCUSING MODE 5
TNPH_LS.DEC   : THERMAL NEUTRON POROSITY [LIMESTONE]
~Params ----------------------------------------------------
~Other -----------------------------------------------------
~ASCII -----------------------------------------------------
# ...
 6164.00000   -9999.25   -9999.25   -9999.25    8.68910   -0.00270   24.70150    3.52770    2.78760  589.67870  826.62540  888.69020    0.05570
 6164.50000   -9999.25   -9999.25   -9999.25    8.68740   -0.00590   30.68380    3.57500    2.78620  647.91800  857.85410 1061.41830    0.05730
 6165.00000   -9999.25   -9999.25   -9999.25    8.68050   -0.00840   36.39820    3.58230    2.78510  745.56350 1181.48540 1390.03710    0.05840
 6165.50000   -9999.25   -9999.25   -9999.25    8.72780   -0.00600   39.10260    3.48430    2.81240  847.36800 1501.12980 1718.65590    0.05500
 6166.00000   -9999.25   -9999.25   -9999.25    8.77200   -0.00310   38.88970    3.38620    2.83850 1026.98580 1820.77450 1981.55110    0.04730
 6166.50000   -9999.25   -9999.25   -9999.25    8.79820   -0.00010   36.10310    3.36120    2.82870 1222.21070 1994.32480 3158.78540    0.04090
 6167.00000   -9999.25   -9999.25   -9999.25    8.80910   -0.00180   37.47990    3.41060    2.79830 1108.89260 1793.54460 2508.36380    0.04050
 6167.50000   -9999.25   -9999.25   -9999.25    8.76190   -0.00440   38.92840    3.47020    2.76640  798.41150  918.97870 2100.72240    0.04410
 6168.00000   -9999.25   -9999.25   -9999.25    8.70280   -0.00690   37.85620    3.51040    2.74330  487.92850  561.75870  664.67850    0.05070
 6168.50000   -9999.25   -9999.25   -9999.25    8.72580   -0.00590   32.21410    3.48720    2.74280  177.44480  204.53700  293.25640    0.05730
 6169.00000   -9999.25   -9999.25   -9999.25    8.76140   -0.00440   25.90320    3.42500    2.74280  112.53120  130.04380  134.21670    0.06420
 6169.50000   -9999.25   -9999.25   -9999.25    8.79160   -0.00400   20.55110    3.45240    2.74580  133.41250  167.48230  199.46580    0.07370
 6170.00000   -9999.25   -9999.25   -9999.25    8.77830   -0.00330   20.08380    3.47710    2.76600  172.37610  142.67610  222.61470    0.07350
 6170.50000   -9999.25   -9999.25   -9999.25    8.77290   -0.00220   22.02680    3.50040    2.78360  124.99760  147.38150  153.38510    0.06640
 6171.00000   -9999.25   -9999.25   -9999.25    8.83050   -0.00110   24.93450    3.52340    2.79810  264.29010  377.94280  611.07360    0.05940
 6171.50000   -9999.25   -9999.25   -9999.25    8.97440   -0.00180   27.33500    3.53690    2.80770  600.71680  767.54060 1042.23330    0.05230
 6172.00000   -9999.25   -9999.25   -9999.25    8.96960   -0.00160   29.91280    3.46010    2.80390  765.28730 1392.00480 1812.80140    0.04830
 6172.50000   -9999.25   -9999.25   -9999.25    8.99360   -0.00130   32.17660    3.38420    2.79670 1435.91850 2012.89030 3414.48000    0.04520
 6173.00000   -9999.25   -9999.25   -9999.25    8.89170   -0.00180   32.17660    3.34490    2.79130 1276.82040 2600.78960 3314.48610    0.04320
 6173.50000   -9999.25   -9999.25   -9999.25    8.83050   -0.00210   30.50070    3.34600    2.79720  939.50600 1784.35940 2024.24910    0.04270
 6174.00000   -9999.25   -9999.25   -9999.25    8.89450   -0.00290   29.91180    3.34710    2.80470  828.79570 1530.47220 1591.36580    0.04220
 6174.50000   -9999.25   -9999.25   -9999.25    8.85930   -0.00420   30.71270    3.35660    2.80840  820.29140 1344.88040 1483.84810    0.04360
 6175.00000   -9999.25   -9999.25   -9999.25    8.78250   -0.00630   28.23420    3.38640    2.79950  802.43420 1301.37610 1621.96000    0.04690
 6175.50000   -9999.25   -9999.25   -9999.25    8.78250   -0.00670   26.84480    3.44220    2.78010  651.67930  941.18630 1086.59940    0.05110
 6176.00000   -9999.25   -9999.25   -9999.25    8.84640   -0.00720   27.49210    3.44840    2.78290  559.42410  695.99220  810.16090    0.05630
 6176.50000   -9999.25   -9999.25   -9999.25    8.87850   -0.00440   29.28590    3.42170    2.79190  424.96610  498.74950  536.66530    0.06160
 6177.00000   -9999.25   -9999.25   -9999.25    8.84270   -0.00150   29.26990    3.39510    2.79720  387.34020  448.10160  491.43790    0.06280
 6177.50000   -9999.25   -9999.25   -9999.25    8.76010   -0.00250   26.71670    3.45460    2.79670  380.22470  442.12210  506.23560    0.05820
 6178.00000   -9999.25   -9999.25   -9999.25    8.73350   -0.00710   24.30890    3.59380    2.78580  508.21200  825.57080  792.78710    0.05120
 6178.50000   -9999.25   -9999.25   -9999.25    8.74350   -0.00830   24.05180    3.71510    2.80220  705.66000 1209.01820 1056.30180    0.04420
 6179.00000   -9999.25   -9999.25   -9999.25    8.74350   -0.00960   24.17480    3.75430    2.81240  952.60050 1592.46660 1696.14030    0.03720
 6179.50000   -9999.25   -9999.25   -9999.25    8.74350   -0.00990   23.80310    3.69330    2.82320 1115.27440 1975.91490 2454.75560    0.03340
 6180.00000   -9999.25   -9999.25   -9999.25    8.73350   -0.00860   23.72220    3.57710    2.83870 1307.19820 4490.50200 4492.84520    0.03160
 6180.50000   -9999.25   -9999.25   -9999.25    8.69970   -0.00780   25.34940    3.47900    2.83560 1256.15230 3367.21880 3523.67330    0.03030
 6181.00000   -9999.25   -9999.25   -9999.25    8.66040   -0.00660   28.43300    3.40790    2.82850 1126.37840 2734.25630 2889.22190    0.02960
 6181.50000   -9999.25   -9999.25   -9999.25    8.61940   -0.00310   33.34230    3.36160    2.82560 1114.60930 2632.76030 2887.36350    0.02980
 6182.00000   -9999.25   -9999.25   -9999.25    8.60020   -0.00240   36.82550    3.35250    2.83320 1011.70760 2162.38330 1991.64670    0.03120
 6182.50000   -9999.25   -9999.25   -9999.25    8.63690   -0.00140   37.91660    3.34830    2.83740  878.32240 1556.64480 1634.79580    0.03260
 6183.00000   -9999.25   -9999.25   -9999.25    8.67610   -0.00100   35.57180    3.41000    2.82470  724.63110 1017.40610 1251.07710    0.03410
 6183.50000   -9999.25   -9999.25   -9999.25    8.71530   -0.00240   31.73380    3.48460    2.80560  424.98810  483.13420  690.96820    0.03560
 6184.00000   -9999.25   -9999.25   -9999.25    8.75990   -0.00370   28.57230    3.51550    2.78710  199.21110  226.60130  360.74050    0.03910
 6184.50000   -9999.25   -9999.25   -9999.25    8.80340   -0.00380   27.36860    3.54130    2.77300  198.61180  219.41650  228.77980    0.04590
 6185.00000   -9999.25   -9999.25   -9999.25    8.84960   -0.00310   25.05170    3.56360    2.77300  227.54720  259.33350  317.15560    0.05230
 6185.50000   -9999.25   -9999.25   -9999.25    8.87070   -0.00230   21.61310    3.61070    2.78160  125.65750  138.63780  145.49620    0.05580
 6186.00000   -9999.25   -9999.25   -9999.25    8.87370   -0.00150   18.66040    3.65780    2.77300  161.01040  194.20840  322.00370    0.05840
 6186.50000   -9999.25   -9999.25   -9999.25    8.87670   -0.00080   18.12240    3.61050    2.78050  337.51810  455.49020  561.28440    0.05980
 6187.00000   -9999.25   -9999.25   -9999.25    8.87850   -0.00060   19.46730    3.56350    2.79280  460.07670  559.52480  736.64130    0.06000
 6187.50000   -9999.25   -9999.25   -9999.25    8.84840   -0.00060   25.82200    3.51140    2.80520  731.65930  763.56200 1144.12790    0.05800
 6188.00000   -9999.25   -9999.25   -9999.25    8.81090   -0.00060   32.27750    3.47320    2.81520  727.32080  767.29390 1062.56450    0.05610
 6188.50000   -9999.25   -9999.25   -9999.25    8.77340   -0.00060   39.59030    3.46270    2.80830  722.63960  763.53180 1144.09860    0.05410
 6189.00000   -9999.25   -9999.25   -9999.25    8.73580   -0.00270   42.94410    3.44090    2.80320  536.12600  589.66480  823.15760    0.05230
 6189.50000   -9999.25   -9999.25   -9999.25    8.69610   -0.00260   41.55720    3.41650    2.80820  233.07760  357.97060  535.98960    0.05360
 6190.00000   -9999.25   -9999.25   -9999.25    8.68080   -0.00110   36.31860    3.41910    2.81410  222.65120  260.47090  296.61050    0.05610
 6190.50000   -9999.25   -9999.25   -9999.25    8.70580   -0.00110   29.45330    3.42150    2.81910  245.00430  289.89220  397.07820    0.05860
 6191.00000   -9999.25   -9999.25   -9999.25    8.71490   -0.00130   23.61070    3.44500    2.81680  361.14820  460.77630  648.58350    0.06060
 6191.50000   -9999.25   -9999.25   -9999.25    8.71470   -0.00160   20.97020    3.42780    2.80940  520.56330  676.58990  899.82720    0.06120
