~Version ---------------------------------------------------
VERS.   2.0 : CWLS log ASCII Standard -VERSION 2.0
WRAP.    NO : One line per depth step
DLM . SPACE : Column Data Section Delimiter
~Well ------------------------------------------------------
STRT .F                 4770.0 : START DEPTH
STOP .F                11010.0 : STOP DEPTH
STEP .F                    0.5 : STEP
NULL .                -9999.25 : NULL VALUE
COMP .                         : COMPANY
WELL .                         : WELL
FLD  .                         : FIELD
LOC  .                         : LOCATION
PROV .                         : PROVINCE
CNTY .                         : COUNTY
STAT .                         : STATE
CTRY .                         : COUNTRY
SRVC .                         : SERVICE COMPANY
DATE .                         : DATE
UWI  .                         : UNIQUE WELL ID
API  .                         : API NUMBER
SLAT .WGS84 1.8285756807397995 : SURFACE LATITUDE
SLON .WGS84  8.148190691168992 : SURFACE LONGITUDE
DATUM.F                    nan : DEPTH DATUM ELEV
~Curve Information -----------------------------------------
DEPT   .F     : 1 MEASURED DEPTH
GR_EDTC.GAPI  : GAMMA RAY
SPHI_LS.DEC   : SONIC POROSITY [LIMESTONE]
DTCO   .US/F  : DELTA-T COMPRESSIONAL
DTSM   .US/F  : DELTA-T SHEAR
TENS   .LB    : TENSION FROM SONIC LOG
~Params ----------------------------------------------------
~Other -----------------------------------------------------
~ASCII -----------------------------------------------------
# ...
 6810.00000  102.87670    0.13320   66.36090  106.72900 4114.62790
 6810.50000  107.65010    0.13160   66.27250  106.67950 4122.81010
 6811.00000  106.30350    0.12740   65.62750  106.63250 4130.99220
 6811.50000  102.35160    0.12320   64.97350  106.19440 4139.17380
 6812.00000   97.66050    0.11900   64.45130  105.31290 4147.35600
 6812.50000   94.80340    0.11740   64.05890  104.40750 4153.35600
 6813.00000   95.11800    0.11680   64.07720  103.78510 4154.39990
 6813.50000   93.70970    0.11770   64.17280  103.85040 4155.44340
 6814.00000   89.91670    0.11800   64.24830  103.43230 4156.48680
 6814.50000   83.26720    0.11770   64.11210  102.55430 4157.53080
 6815.00000   78.94410    0.11700   63.97200  101.05800 4155.61520
 6815.50000   74.01310    0.11570   63.92230  100.17030 4145.72020
 6816.00000   68.65270    0.11430   63.78930  100.14680 4135.82570
 6816.50000   63.03560    0.11190   63.54860  100.15340 4131.96680
 6817.00000   62.64500    0.10640   62.77970  100.15990 4129.59130
 6817.50000   65.42400    0.10100   61.94690  100.74310 4127.21580
 6818.00000   69.90580    0.09940   61.75260  101.50480 4124.84030
 6818.50000   73.69000    0.09970   61.88490  101.88730 4122.46480
 6819.00000   75.45590    0.10320   62.16070  102.73680 4113.74120
 6819.50000   77.69320    0.10910   63.04690  103.87100 4087.37670
 6820.00000   80.27400    0.11500   63.82430  104.30860 4061.01270
 6820.50000   84.27090    0.11810   64.26720  104.49740 4036.83720
 6821.00000   89.71780    0.11860   64.37980  104.14550 4038.94120
 6821.50000   94.13290    0.11740   63.73720  102.42340 4055.43530
 6822.00000   90.74450    0.10360   62.41990  100.89650 4071.92970
 6822.50000   81.16940    0.08840   59.73710  100.10800 4088.42380
 6823.00000   67.39240    0.07450   57.79330  100.03550 4096.51220
 6823.50000   49.90240    0.05980   56.32460  100.51800 4099.10010
 6824.00000   41.47800    0.05880   56.05880  101.70230 4101.68850
 6824.50000   38.01610    0.06570   56.96740  103.03510 4103.57280
 6825.00000   43.19760    0.07850   58.83790  104.96640 4105.37940
 6825.50000   53.01720    0.09490   61.06790  107.01750 4107.18650
 6826.00000   62.85830    0.11570   63.86290  109.06860 4108.99320
 6826.50000   65.81350    0.13480   66.79500  110.92000 4110.80030
 6827.00000   66.79120    0.14590   68.12190  112.01820 4112.60690
 6827.50000   68.50670    0.14870   68.52230  112.41480 4114.41890
 6828.00000   70.41950    0.14830   68.57660  113.10670 4121.64110
 6828.50000   72.49370    0.14810   68.58710  113.47710 4106.49710
 6829.00000   72.58750    0.14630   68.34630  113.47230 4091.40410
 6829.50000   71.88460    0.14570   68.10350  113.39460 4115.94480
 6830.00000   72.53370    0.14590   68.17930  113.22940 4136.05320
 6830.50000   74.81480    0.14540   68.19500  113.20630 4146.17870
 6831.00000   77.93600    0.14360   67.80530  112.95640 4147.54740
 6831.50000   74.97610    0.14130   67.51910  112.41080 4148.91600
 6832.00000   69.32150    0.13910   67.36260  112.35620 4159.75490
 6832.50000   64.41660    0.13990   67.36000  112.49070 4172.13090
 6833.00000   63.52590    0.14160   67.64840  112.65230 4141.38480
 6833.50000   64.26320    0.14390   67.98390  112.80960 4120.70800
 6834.00000   65.77510    0.14370   67.90990  113.05570 4117.36380
 6834.50000   65.32780    0.14340   67.87470  113.31750 4147.45260
 6835.00000   64.30320    0.14320   67.85950  113.57920 4146.14210
 6835.50000   64.00900    0.14320   67.85020  113.60690 4109.20260
 6836.00000   65.15520    0.14380   67.85020  113.15720 4107.82620
 6836.50000   66.53990    0.14460   68.00070  113.22420 4112.72270
 6837.00000   68.02950    0.14770   68.34270  113.24520 4125.91110
 6837.50000   68.49800    0.15130   68.89870  113.25090 4144.43700
 6838.00000   68.15150    0.15440   69.51770  113.14660 4132.72710
 6838.50000   68.25850    0.15520   69.51770  112.92520 4118.99320
 6839.00000   70.75790    0.15290   69.27230  112.42880 4103.64110
 6839.50000   72.56720    0.13760   67.65970  111.67370 4087.49540
 6840.00000   70.19100    0.12250   64.90340  110.67640 4098.55960
 6840.50000   65.79330    0.10820   63.13510  109.93770 4113.23630
 6841.00000   63.20690    0.09910   61.72360  109.21130 4123.42580
 6841.50000   62.28730    0.09300   60.46280  108.52540 4108.64990
 6842.00000   60.22420    0.09320   60.95280  108.43930 4093.87400
 6842.50000   55.99680    0.10750   62.99700  108.78830 4088.88870
 6843.00000   53.79840    0.11890   64.31650  109.44120 4117.70170
 6843.50000   56.20270    0.12980   65.41290  110.41070 4125.78470
 6844.00000   59.73890    0.13480   66.44730  111.25580 4113.20650
 6844.50000   63.05150    0.13620   66.98210  112.00990 4095.29640
 6845.00000   66.34530    0.13550   66.46420  112.49120 4078.10640
 6845.50000   70.92280    0.13460   66.48220  112.97250 4074.80660
 6846.00000   74.15170    0.13750   67.04210  113.03200 4078.48710
 6846.50000   72.74360    0.14290   67.80760  112.81030 4054.55760
 6847.00000   70.69660    0.14650   68.22030  112.49450 4072.73020
 6847.50000   69.71540    0.14410   68.08500  112.38040 4090.90280
 6848.00000   69.54590    0.14010   67.49560  111.96470 4118.71190
 6848.50000   68.90860    0.13620   66.88230  111.53440 4112.86130
 6849.00000   67.34200    0.13230   66.35000  110.97180 4117.19580
 6849.50000   65.65500    0.13000   66.05330  110.60530 4121.53030
 6850.00000   63.98440    0.12750   65.72740  110.11430 4125.86470
 6850.50000   62.70920    0.12480   65.34970  108.69980 4130.19920
 6851.00000   63.60840    0.12090   64.66160  107.36800 4124.53420
 6851.50000   64.46980    0.11870   64.33000  106.84480 4106.84860
 6852.00000   63.24500    0.11840   64.22450  106.61060 4089.16330
 6852.50000   61.18630    0.11830   64.27860  106.38110 4071.47780
 6853.00000   59.24720    0.12120   64.52310  106.28440 4060.87600
 6853.50000   61.44830    0.12590   65.16710  106.75720 4054.38260
 6854.00000   64.69230    0.12780   65.71940  106.80520 4047.88920
 6854.50000   65.98840    0.12850   65.76440  106.75800 4041.39550
 6855.00000   63.17870    0.12850   65.77830  106.62050 4034.90210
 6855.50000   60.39350    0.12740   65.64820  106.36220 4061.95480
 6856.00000   58.72790    0.12180   65.12410  105.68700 4094.80980
 6856.50000   58.94300    0.11480   63.94010  105.06970 4101.87500
 6857.00000   59.65000    0.10040   61.49120  104.07300 4081.69240
 6857.50000   59.94430    0.08520   59.97250  102.23340 4050.79690
 6858.00000   58.85480    0.08020   58.77350  100.39370 4040.92500
 6858.50000   57.39330    0.07670   58.49280   99.21860 4093.49070
 6859.00000   55.88270    0.07040   57.51780   98.65350 4134.01170
 6859.50000   54.68730    0.06340   56.62300   98.11130 4131.39360
 6860.00000   53.68660    0.06100   55.90210   97.70340 4102.61180
 6860.50000   50.28210    0.06030   56.32760   97.60220 4144.37260
 6861.00000   44.79620    0.07010   57.84380   97.79510 4206.75830
 6861.50000   40.86580    0.09040   60.37110  100.09220 4218.87350
 6862.00000   40.22050    0.10850   62.91550  102.23480 4177.45070
 6862.50000   42.51470    0.12190   65.07070  103.84820 4148.65090
 6863.00000   46.04480    0.13120   65.94450  105.53730 4194.90820
 6863.50000   53.13760    0.13860   66.99530  106.65830 4187.18460
 6864.00000   62.49680    0.14360   68.04490  107.28220 4144.66020
 6864.50000   76.04670    0.14370   68.14200  107.54290 4071.07640
 6865.00000   83.62680    0.14000   67.45990  107.67170 4088.94870
 6865.50000   85.38940    0.13370   66.72190  107.83450 4115.01860
 6866.00000   77.12150    0.12750   65.54290  108.08190 4112.59180
 6866.50000   65.34380    0.12130   64.52040  108.30480 4075.85500
 6867.00000   60.37430    0.11890   64.52280  108.69460 4092.68850
 6867.50000   66.35540    0.12420   65.22540  109.09640 4123.31840
 6868.00000   75.68990    0.12980   65.60180  109.24720 4150.03710
 6868.50000   81.95690    0.13130   65.93510  109.27040 4135.02590
 6869.00000   79.81070    0.13150   66.16030  109.28870 4113.18410
 6869.50000   77.22430    0.13190   66.22940  109.23660 4108.99850
