~Version ---------------------------------------------------
VERS.   2.0 : CWLS log ASCII Standard -VERSION 2.0
WRAP.    NO : One line per depth step
DLM . SPACE : Column Data Section Delimiter
~Well ------------------------------------------------------
STRT .F                 4770.0 : START DEPTH
STOP .F                11010.0 : STOP DEPTH
STEP .F                    0.5 : STEP
NULL .                -9999.25 : NULL VALUE
COMP .                         : COMPANY
WELL .                         : WELL
FLD  .                         : FIELD
LOC  .                         : LOCATION
PROV .                         : PROVINCE
CNTY .                         : COUNTY
STAT .                         : STATE
CTRY .                         : COUNTRY
SRVC .                         : SERVICE COMPANY
DATE .                         : DATE
UWI  .                         : UNIQUE WELL ID
API  .                         : API NUMBER
SLAT .WGS84 1.8285756807397995 : SURFACE LATITUDE
SLON .WGS84  8.148190691168992 : SURFACE LONGITUDE
DATUM.F                    nan : DEPTH DATUM ELEV
~Curve Information -----------------------------------------
DEPT   .F     : 1 MEASURED DEPTH
GR_EDTC.GAPI  : GAMMA RAY
SPHI_LS.DEC   : SONIC POROSITY [LIMESTONE]
DTCO   .US/F  : DELTA-T COMPRESSIONAL
DTSM   .US/F  : DELTA-T SHEAR
TENS   .LB    : TENSION FROM SONIC LOG
~Params ----------------------------------------------------
~Other -----------------------------------------------------
~ASCII -----------------------------------------------------
 4770.00000   51.95770   -9999.25   -9999.25   -9999.25   -9999.25
 4770.50000   49.11400   -9999.25   -9999.25   -9999.25   -9999.25
 4771.00000   45.72600   -9999.25   -9999.25   -9999.25   -9999.25
 4771.50000   47.59490   -9999.25   -9999.25   -9999.25   -9999.25
 4772.00000   49.06850   -9999.25   -9999.25   -9999.25   -9999.25
 4772.50000   47.56400   -9999.25   -9999.25   -9999.25   -9999.25
 4773.00000   45.66890   -9999.25   -9999.25   -9999.25   -9999.25
 4773.50000   45.00940   -9999.25   -9999.25   -9999.25   -9999.25
 4774.00000   42.86870   -9999.25   -9999.25   -9999.25   -9999.25
 4774.50000   40.21020   -9999.25   -9999.25   -9999.25   -9999.25
 4775.00000   41.86730   -9999.25   -9999.25   -9999.25   -9999.25
 4775.50000   50.51540   -9999.25   -9999.25   -9999.25   -9999.25
 4776.00000   59.31750   -9999.25   -9999.25   -9999.25   -9999.25
 4776.50000   56.82470   -9999.25   -9999.25   -9999.25   -9999.25
 4777.00000   46.49900   -9999.25   -9999.25   -9999.25   -9999.25
 4777.50000   38.33780   -9999.25   -9999.25   -9999.25   -9999.25
 4778.00000   38.09830   -9999.25   -9999.25   -9999.25   -9999.25
 4778.50000   42.21140   -9999.25   -9999.25   -9999.25   -9999.25
 4779.00000   45.59250   -9999.25   -9999.25   -9999.25   -9999.25
 4779.50000   43.06440   -9999.25   -9999.25   -9999.25   -9999.25
 4780.00000   38.72790   -9999.25   -9999.25   -9999.25   -9999.25
 4780.50000   39.62760   -9999.25   -9999.25   -9999.25   -9999.25
 4781.00000   44.57350   -9999.25   -9999.25   -9999.25   -9999.25
 4781.50000   50.28880   -9999.25   -9999.25   -9999.25   -9999.25
 4782.00000   53.81010   -9999.25   -9999.25   -9999.25   -9999.25
 4782.50000   55.74820   -9999.25   -9999.25   -9999.25   -9999.25
 4783.00000   53.49270   -9999.25   -9999.25   -9999.25   -9999.25
 4783.50000   51.98170   -9999.25   -9999.25   -9999.25   -9999.25
 4784.00000   51.89840   -9999.25   -9999.25   -9999.25   -9999.25
 4784.50000   50.05120   -9999.25   -9999.25   -9999.25   -9999.25
 4785.00000   45.17170   -9999.25   -9999.25   -9999.25   -9999.25
 4785.50000   39.51290   -9999.25   -9999.25   -9999.25   -9999.25
 4786.00000   36.73910   -9999.25   -9999.25   -9999.25   -9999.25
 4786.50000   34.28320   -9999.25   -9999.25   -9999.25   -9999.25
 4787.00000   33.87990   -9999.25   -9999.25   -9999.25   -9999.25
 4787.50000   36.91890   -9999.25   -9999.25   -9999.25   -9999.25
 4788.00000   40.63070   -9999.25   -9999.25   -9999.25   -9999.25
 4788.50000   37.95200   -9999.25   -9999.25   -9999.25   -9999.25
 4789.00000   33.33060   -9999.25   -9999.25   -9999.25   -9999.25
 4789.50000   30.01530   -9999.25   -9999.25   -9999.25   -9999.25
 4790.00000   29.91320   -9999.25   -9999.25   -9999.25   -9999.25
 4790.50000   34.25770   -9999.25   -9999.25   -9999.25   -9999.25
 4791.00000   39.83620    0.21940   78.87930  146.60490 3446.38180
 4791.50000   47.66470    0.20820   77.03590  143.33000 3465.01340
 4792.00000   52.60640    0.19680   75.63930  140.66880 3470.39990
 4792.50000   52.08600    0.19120   74.54550  139.09360 3466.97780
 4793.00000   49.23840    0.19250   74.79340  138.64720 3463.55590
 4793.50000   47.26740    0.19650   75.58580  138.78430 3460.11400
 4794.00000   47.56640    0.20010   76.01370  138.77540 3456.57470
 4794.50000   47.95200    0.20280   76.24440  138.57220 3453.03540
 4795.00000   46.46340    0.20520   76.60680  137.64020 3449.49610
 4795.50000   45.16660    0.20960   77.08330  136.83310 3445.68600
 4796.00000   46.66730    0.20900   77.33420  136.80540 3442.84570
 4796.50000   49.90490    0.20580   76.86310  137.07800 3445.22850
 4797.00000   52.89510    0.20640   76.70200  137.49240 3448.53150
 4797.50000   55.75970    0.20910   77.32410  137.50390 3468.97310
 4798.00000   56.84890    0.20990   77.39460  137.28620 3484.14040
 4798.50000   54.70940    0.20910   77.01470  136.49270 3485.15330
 4799.00000   52.31460    0.20400   76.10630  134.10460 3486.16650
 4799.50000   50.09320    0.19340   74.75730  131.71920 3486.93310
 4800.00000   47.67510    0.18040   72.72100  127.47830 3486.20560
 4800.50000   45.45570    0.16730   71.16240  123.43900 3480.69580
 4801.00000   45.47540    0.15530   69.73900  122.83490 3464.61690
 4801.50000   46.92810    0.15790   70.17870  124.45800 3448.53830
 4802.00000   48.64910    0.17500   72.35560  126.65960 3443.94530
 4802.50000   50.35870    0.18610   73.83800  128.61690 3443.93410
 4803.00000   54.21130    0.18830   74.30700  129.23590 3443.92290
 4803.50000   57.47180    0.19010   74.38180  128.83270 3443.91160
 4804.00000   59.28690    0.19500   74.90240  127.22210 3450.06670
 4804.50000   61.57840    0.20240   76.27540  125.69440 3466.54220
 4805.00000   65.42640    0.21140   77.55850  125.00940 3483.01780
 4805.50000   65.80960    0.22100   78.75240  124.64020 3485.77320
 4806.00000   60.54420    0.22080   78.75860  124.92570 3465.06100
 4806.50000   51.55340    0.21100   76.94170  125.40770 3441.04130
 4807.00000   43.67230    0.19200   74.43990  125.36120 3426.01560
 4807.50000   43.33910    0.17780   72.69340  124.34340 3410.99020
 4808.00000   51.14440    0.17960   72.81030  122.83500 3401.97360
 4808.50000   60.61310    0.18120   73.20800  122.72330 3399.24540
 4809.00000   83.39510    0.17940   73.04690  122.55530 3399.88040
 4809.50000  107.53510    0.17590   72.52990  122.22650 3407.83030
 4810.00000  118.76020    0.17270   72.01280  121.13460 3415.78030
 4810.50000  114.40550    0.17100   71.66540  120.24880 3423.73020
 4811.00000   96.06950    0.16890   71.44580  119.58410 3449.92600
 4811.50000   81.23000    0.16580   70.95990  118.89190 3473.13280
 4812.00000   73.73990    0.16340   70.66790  118.63000 3482.37350
 4812.50000   72.83730    0.16260   70.55880  118.46160 3491.61400
 4813.00000   74.01610    0.16300   70.60120  118.61550 3476.04150
 4813.50000   79.25840    0.16330   70.66350  118.76940 3457.42190
 4814.00000   87.60030    0.16480   70.89680  119.03110 3438.80200
 4814.50000   93.11030    0.16670   71.22900  119.35710 3420.18210
 4815.00000   92.24860    0.16860   71.24510  120.18190 3401.56250
 4815.50000   91.87340    0.16460   70.78410  120.79340 3401.10790
 4816.00000  105.14890    0.16040   70.30980  120.46730 3423.69920
 4816.50000  120.57690    0.15670   69.83540  119.36960 3453.11520
 4817.00000  120.84500    0.15560   69.59410  119.85700 3482.51200
 4817.50000  109.90100    0.15530   69.49730  120.55190 3485.44630
 4818.00000   89.56440    0.15620   69.63590  121.54850 3492.74340
 4818.50000   74.97150    0.15830   70.03780  123.68630 3506.50000
 4819.00000   67.13600    0.16560   70.82030  126.94990 3498.99020
 4819.50000   65.12390    0.17620   72.16300  130.48230 3491.48070
 4820.00000   66.31650    0.18700   73.79430  133.99360 3482.59110
 4820.50000   67.51570    0.19660   75.38890  138.05110 3469.96390
 4821.00000   68.60000    0.20950   77.05390  142.03980 3448.23950
 4821.50000   68.82680    0.22100   78.65200  143.75570 3444.82790
 4822.00000   66.44250    0.22570   79.47940  144.39850 3444.95340
 4822.50000   64.79640    0.22570   79.54470  144.21860 3445.07910
 4823.00000   66.33250    0.21940   78.65290  143.38240 3446.13280
 4823.50000   72.34270    0.21330   77.82020  142.98350 3487.92290
 4824.00000   76.07200    0.20720   76.99760  142.70880 3507.99680
 4824.50000   71.10710    0.20320   76.27570  142.53730 3527.63770
 4825.00000   57.20350    0.20270   76.16330  142.49260 3513.60280
 4825.50000   45.83000    0.20450   76.49270  141.93420 3499.56760
 4826.00000   45.18440    0.20610   76.59910  141.14940 3482.63280
 4826.50000   47.55190    0.20530   76.61450  140.48110 3452.43090
 4827.00000   49.70150    0.20370   76.26130  141.10320 3445.02080
 4827.50000   53.89730    0.20530   76.37450  141.93600 3423.02980
 4828.00000   67.39860    0.21040   77.11270  142.23420 3407.59690
 4828.50000   80.10970    0.20750   77.16100  142.16320 3431.26640
 4829.00000   88.70330    0.20330   76.20860  142.02560 3454.93580
 4829.50000   85.29660    0.20300   76.40010  141.69950 3461.63790
