~Version ---------------------------------------------------
VERS.   2.0 : CWLS log ASCII Standard -VERSION 2.0
WRAP.    NO : One line per depth step
DLM . SPACE : Column Data Section Delimiter
~Well ------------------------------------------------------
STRT .F                 4770.0 : START DEPTH
STOP .F                11010.0 : STOP DEPTH
STEP .F                    0.5 : STEP
NULL .                -9999.25 : NULL VALUE
COMP .                         : COMPANY
WELL .                         : WELL
FLD  .                         : FIELD
LOC  .                         : LOCATION
PROV .                         : PROVINCE
CNTY .                         : COUNTY
STAT .                         : STATE
CTRY .                         : COUNTRY
SRVC .                         : SERVICE COMPANY
DATE .                         : DATE
UWI  .                         : UNIQUE WELL ID
API  .                         : API NUMBER
SLAT .WGS84 1.8285756807397995 : SURFACE LATITUDE
SLON .WGS84  8.148190691168992 : SURFACE LONGITUDE
DATUM.F                    nan : DEPTH DATUM ELEV
~Curve Information -----------------------------------------
DEPT   .F     : 1 MEASURED DEPTH
GR_EDTC.GAPI  : GAMMA RAY
SPHI_LS.DEC   : SONIC POROSITY [LIMESTONE]
DTCO   .US/F  : DELTA-T COMPRESSIONAL
DTSM   .US/F  : DELTA-T SHEAR
TENS   .LB    : TENSION FROM SONIC LOG
~Params ----------------------------------------------------
~Other -----------------------------------------------------
~ASCII -----------------------------------------------------
# ...
 8490.00000  112.27220    0.24140   81.62520  130.08600 4594.56690
 8490.50000  117.48090    0.23910   81.42770  129.48320 4609.54050
 8491.00000  112.76580    0.23340   80.62470  128.88040 4624.51420
 8491.50000  100.23060    0.23240   80.20460  128.51030 4623.39890
 8492.00000   91.81510    0.24110   81.41140  128.65940 4556.80270
 8492.50000   85.71900    0.24860   82.59560  129.40220 4569.69290
 8493.00000   86.19060    0.25310   83.45530  130.91930 4591.39110
 8493.50000   94.03080    0.25930   84.28920  133.50560 4608.57180
 8494.00000  104.22990    0.26810   85.47300  134.15150 4615.81200
 8494.50000  112.43510    0.26950   85.68390  134.09660 4621.22410
 8495.00000  112.74680    0.26860   84.91050  134.13480 4626.42530
 8495.50000  104.29810    0.26720   85.05400  134.60640 4624.91410
 8496.00000   95.75440    0.26630   85.42410  135.96070 4616.68990
 8496.50000   93.14830    0.26650   85.14560  136.06690 4609.43310
 8497.00000   93.46900    0.26290   84.33540  134.66300 4565.14890
 8497.50000   97.37100    0.25470   83.30940  132.51520 4502.15770
 8498.00000  111.45380    0.23920   81.66630  130.36750 4528.94240
 8498.50000  118.30400    0.22340   79.65430  128.21970 4558.65380
 8499.00000  110.34490    0.21480   77.76500  126.14880 4569.14790
 8499.50000   90.28110    0.22200   78.63680  126.10630 4579.64210
 8500.00000   75.65850    0.23340   80.48470  128.45690 4590.13620
 8500.50000   82.66900    0.24380   82.31470  131.15520 4600.63040
 8501.00000  105.67670    0.25320   83.79850  131.62140 4611.12450
 8501.50000  118.38970    0.25970   84.16860  130.69660 4621.61870
 8502.00000  129.21590    0.22660   80.35870  127.76850 4632.11280
 8502.50000  134.57840    0.20730   77.26290  124.39980 4625.20560
 8503.00000  127.51290    0.18650   74.16100  120.31740 4625.28760
 8503.50000  110.31340    0.16600   71.71460  117.11060 4636.16460
 8504.00000   85.88740    0.14550   68.48350  114.48870 4654.09770
 8504.50000   69.77910    0.14580   68.17320  113.54420 4645.15090
 8505.00000   63.04070    0.15130   69.18870  113.10450 4635.69240
 8505.50000   64.64140    0.15980   70.06640  114.08750 4644.53610
 8506.00000   70.64790    0.16830   71.30950  115.07800 4653.37940
 8506.50000   77.35600    0.17680   72.70080  116.07680 4662.22310
 8507.00000   82.72880    0.18280   73.56680  116.16960 4658.46730
 8507.50000   87.10980    0.18490   73.69570  116.17960 4569.61230
 8508.00000   89.01790    0.18530   73.81930  116.30010 4544.22950
 8508.50000   90.27360    0.18560   73.81960  116.57390 4640.38570
 8509.00000   90.27360    0.18600   73.81660  116.66550 4631.87060
 8509.50000   84.14120    0.18630   73.84120  116.80590 4553.08010
 8510.00000   78.01870    0.18610   73.91140  117.71960 4496.04790
 8510.50000   76.03480    0.18660   73.79420  118.44000 4514.62350
 8511.00000   76.88110    0.18780   73.79910  118.71010 4547.09670
 8511.50000   79.30160    0.18890   74.07190  118.65390 4613.96390
 8512.00000   81.75040    0.19090   74.37110  118.52200 4605.99900
 8512.50000   84.19920    0.19110   74.58380  118.10170 4560.12210
 8513.00000   87.57870    0.19110   74.51680  117.13820 4553.60990
 8513.50000   87.76130    0.18700   74.40270  115.99500 4570.32570
 8514.00000   83.66610    0.17370   72.13260  113.28760 4637.34720
 8514.50000   81.06780    0.15600   69.52100  110.23630 4614.94090
 8515.00000   78.66430    0.13850   66.66220  106.91250 4622.40970
 8515.50000   75.15170    0.12050   64.30010  103.84540 4629.87790
 8516.00000   66.29260    0.10990   62.21960  100.77840 4637.34670
 8516.50000   55.73480    0.08940   60.14270   97.71140 4648.98490
 8517.00000   46.43320    0.07080   57.67720   95.49130 4671.17530
 8517.50000   37.17740    0.05050   55.19400   94.17990 4651.27390
 8518.00000   29.59860    0.04600   54.12930   93.04780 4617.91990
 8518.50000   23.38970    0.04180   53.47330   92.09160 4598.11570
 8519.00000   20.04460    0.03800   52.77720   91.38800 4664.01170
 8519.50000   17.44870    0.03300   52.29890   90.68440 4737.92770
 8520.00000   17.94230    0.03290   52.26670   90.59800 4693.86040
 8520.50000   17.29790    0.03320   52.25470   92.21610 4651.41550
 8521.00000   18.95960    0.03530   52.53330   94.46180 4630.61960
 8521.50000   21.80350    0.04670   53.70920   96.47790 4621.14600
 8522.00000   25.16080    0.08020   57.03060  100.22610 4660.73490
 8522.50000   29.12710    0.12510   65.95290  105.10180 4689.85840
 8523.00000   38.24320    0.16640   70.64560  109.90370 4595.49220
 8523.50000   54.34550    0.18190   73.08600  112.33560 4528.15870
 8524.00000   69.93220    0.17710   72.84060  113.09560 4561.94730
 8524.50000   79.88250    0.15130   69.45990  113.66180 4553.90820
 8525.00000   78.84670    0.11980   64.61360  113.31220 4516.98630
 8525.50000   68.12700    0.09130   61.25990  112.87310 4571.07130
 8526.00000   55.66460    0.08890   60.10050  112.20470 4567.89940
 8526.50000   43.60160    0.10040   61.46900  111.77660 4570.41750
 8527.00000   39.51960    0.13160   65.69820  111.65360 4622.68510
 8527.50000   49.96310    0.16540   71.40450  112.51140 4610.50340
 8528.00000   63.96280    0.19000   74.35890  114.23300 4579.99710
 8528.50000   73.82530    0.19060   74.48790  114.90060 4564.61960
 8529.00000   71.90970    0.18700   74.06390  114.57390 4556.55370
 8529.50000   65.70800    0.17510   72.26110  113.40370 4601.55470
 8530.00000   59.31430    0.15690   70.14040  111.11730 4637.45750
 8530.50000   54.94170    0.14790   68.60710  109.75380 4631.25200
 8531.00000   51.49830    0.14760   68.47720  109.66040 4614.63570
 8531.50000   49.00620    0.15060   68.85250  110.07710 4631.63380
 8532.00000   49.21510    0.15960   69.85650  110.49390 4667.48830
 8532.50000   51.52480    0.17120   71.50020  110.73500 4690.68070
 8533.00000   53.29200    0.17730   72.51320  112.08390 4608.53420
 8533.50000   53.10120    0.17940   72.87790  113.28980 4546.87010
 8534.00000   52.39430    0.18150   73.13140  114.50150 4608.35160
 8534.50000   52.27160    0.18250   73.37220  115.82570 4657.72360
 8535.00000   52.56580    0.18340   73.55710  116.27230 4664.02780
 8535.50000   53.44010    0.18510   73.72140  115.66530 4608.20210
 8536.00000   56.50020    0.18630   74.00090  115.35590 4547.34030
 8536.50000   59.16190    0.18720   74.14490  115.34840 4568.65720
 8537.00000   59.50830    0.18740   74.06940  115.52270 4639.84570
 8537.50000   57.63540    0.18800   74.11780  115.88030 4629.76900
 8538.00000   56.00460    0.18720   74.30450  115.07180 4607.98340
 8538.50000   53.57500    0.18590   74.36030  113.97380 4595.69040
 8539.00000   52.73860    0.18370   73.69950  112.40650 4605.88040
 8539.50000   50.81510    0.16190   70.66060  110.39890 4607.99510
 8540.00000   48.28380    0.13720   66.94320  108.34400 4585.62790
 8540.50000   45.74240    0.11260   63.77210  106.53160 4572.08890
 8541.00000   40.35080    0.10740   62.56240  106.53720 4569.24410
 8541.50000   36.13370    0.11150   63.50870  107.47240 4563.75830
 8542.00000   36.07220    0.13620   66.48910  109.02420 4577.59180
 8542.50000   40.39010    0.16870   70.59560  110.18820 4607.05810
 8543.00000   49.48870    0.19360   74.75050  111.10060 4633.75980
 8543.50000   58.14930    0.19870   75.82760  112.01310 4596.43700
 8544.00000   67.06710    0.19820   75.18580  112.04710 4559.59380
 8544.50000   70.04540    0.17870   72.64730  111.77230 4587.62500
 8545.00000   70.22000    0.16350   70.35860  111.48730 4641.42480
 8545.50000   66.63850    0.16500   70.53290  111.59050 4674.60400
 8546.00000   62.67680    0.17240   71.70960  111.60420 4627.35400
 8546.50000   55.39250    0.18200   72.76960  111.51770 4610.05960
 8547.00000   58.11950    0.18700   73.98400  111.54080 4639.49510
 8547.50000   66.44230    0.17410   72.27330  111.74840 4681.78220
 8548.00000   74.52810    0.13400   68.57700  111.45030 4683.99370
 8548.50000   70.16430    0.13200   66.17400  111.19980 4581.70800
 8549.00000   59.34740    0.13210   66.35260  111.26830 4547.47610
 8549.50000   50.25890    0.14310   68.05540  111.33680 4585.25930
