~Version ---------------------------------------------------
VERS.   2.0 : CWLS log ASCII Standard -VERSION 2.0
WRAP.    NO : One line per depth step
DLM . SPACE : Column Data Section Delimiter
~Well ------------------------------------------------------
STRT .F                 4770.0 : START DEPTH
STOP .F                11010.0 : STOP DEPTH
STEP .F                    0.5 : STEP
NULL .                -9999.25 : NULL VALUE
COMP .                         : COMPANY
WELL .                         : WELL
FLD  .                         : FIELD
LOC  .                         : LOCATION
PROV .                         : PROVINCE
CNTY .                         : COUNTY
STAT .                         : STATE
CTRY .                         : COUNTRY
SRVC .                         : SERVICE COMPANY
DATE .                         : DATE
UWI  .                         : UNIQUE WELL ID
API  .                         : API NUMBER
SLAT .WGS84 1.8285756807397995 : SURFACE LATITUDE
SLON .WGS84  8.148190691168992 : SURFACE LONGITUDE
DATUM.F                    nan : DEPTH DATUM ELEV
~Curve Information -----------------------------------------
DEPT   .F     : 1 MEASURED DEPTH
GR_EDTC.GAPI  : GAMMA RAY
SPHI_LS.DEC   : SONIC POROSITY [LIMESTONE]
DTCO   .US/F  : DELTA-T COMPRESSIONAL
DTSM   .US/F  : DELTA-T SHEAR
TENS   .LB    : TENSION FROM SONIC LOG
~Params ----------------------------------------------------
~Other -----------------------------------------------------
~ASCII -----------------------------------------------------
# ...
 9690.00000   38.90260    0.14700   68.54020  111.36150 5132.93070
 9690.50000   42.80030    0.15110   68.84030  112.22890 5084.23780
 9691.00000   44.47640    0.15480   69.13880  113.15550 5064.68900
 9691.50000   44.18800    0.15430   69.27160  114.05530 5089.96530
 9692.00000   42.88150    0.15110   68.93120  114.26620 5116.64650
 9692.50000   43.01410    0.14790   68.48780  114.54110 5145.26900
 9693.00000   44.45240    0.14670   68.35000  114.63950 5159.95900
 9693.50000   46.30410    0.14640   68.24180  114.66430 5095.45510
 9694.00000   47.45150    0.14720   68.25380  114.63830 5113.88180
 9694.50000   47.33460    0.14810   68.34660  114.59050 5132.30910
 9695.00000   46.17180    0.14920   68.63690  114.37740 5147.33060
 9695.50000   45.39410    0.15130   68.91630  114.16420 5207.15430
 9696.00000   46.31790    0.15190   69.04380  113.95110 5196.39060
 9696.50000   46.16510    0.15310   69.17130  113.61330 5185.62650
 9697.00000   45.47680    0.15340   69.25690  113.49810 5065.72310
 9697.50000   46.15450    0.15310   69.25690  113.96570 5077.34860
 9698.00000   47.38850    0.15290   69.18620  113.89970 5137.86230
 9698.50000   48.54830    0.15310   69.22940  113.46960 5198.37600
 9699.00000   48.18900    0.15380   69.38090  113.01570 5187.75930
 9699.50000   47.47810    0.15500   69.45780  113.12270 5125.43510
 9700.00000   47.04590    0.15490   69.48720  113.84730 5064.75390
 9700.50000   46.69390    0.15490   69.49890  114.57190 5088.90580
 9701.00000   46.34190    0.15480   69.50340  115.29640 5129.77830
 9701.50000   47.83260    0.15490   69.54970  115.48460 5199.23490
 9702.00000   53.08510    0.15500   69.45070  115.26020 5220.91460
 9702.50000   57.56440    0.15480   69.41970  115.25170 5167.87550
 9703.00000   59.61740    0.15610   69.42280  115.94240 5051.19870
 9703.50000   58.12170    0.15740   69.63960  116.71320 5051.43460
 9704.00000   56.96550    0.15870   69.99240  117.03990 5065.80710
 9704.50000   56.90060    0.16050   70.45400  117.47300 5109.91020
 9705.00000   57.62530    0.16790   71.33610  118.23640 5154.01270
 9705.50000   59.08200    0.17030   71.70010  119.36470 5117.46970
 9706.00000   61.69590    0.17360   72.09910  120.62360 5070.78320
 9706.50000   64.74540    0.17900   72.73790  121.26870 5073.19190
 9707.00000   69.48270    0.18500   73.76480  121.99040 5082.13480
 9707.50000   74.10710    0.19110   74.49290  122.45220 5114.41750
 9708.00000   77.67610    0.19350   74.93370  122.45180 5146.69970
 9708.50000   81.94440    0.18850   74.42210  122.38310 5135.93510
 9709.00000   88.89100    0.16790   72.05830  122.76140 5107.33300
 9709.50000   95.27870    0.14060   68.66180  123.40790 5083.97310
 9710.00000   97.70100    0.10670   64.18310  123.97020 5153.02490
 9710.50000   91.22550    0.09270   60.65540  124.34150 5225.72070
 9711.00000   84.22260    0.09490   61.12440  124.54390 5217.44240
 9711.50000   80.01980    0.15660   67.83400  124.34120 5166.39650
 9712.00000   80.04800    0.21800   76.44480  124.53890 5100.03610
 9712.50000   81.00190    0.22370   79.89490  124.48400 5114.37700
 9713.00000   85.95510    0.21290   77.44620  123.52110 5159.86080
 9713.50000   87.00480    0.20120   75.96330  122.41240 5202.29590
 9714.00000   82.39700    0.18830   74.08440  120.47610 5176.71880
 9714.50000   76.87990    0.17700   72.48600  118.47440 5167.40720
 9715.00000   68.34690    0.16720   71.33070  114.86960 5171.64450
 9715.50000   60.17760    0.15870   70.20910  112.36080 5173.92290
 9716.00000   53.87340    0.15070   68.40760  109.98040 5173.47360
 9716.50000   51.65790    0.13640   66.53550  107.63850 5173.02390
 9717.00000   53.00130    0.11840   64.06480  106.67880 5141.88090
 9717.50000   53.84240    0.09640   61.42810  105.67870 5092.32130
 9718.00000   53.89080    0.07970   58.88610  105.60120 5063.40090
 9718.50000   53.93930    0.06530   56.83540  105.75460 5068.78320
 9719.00000   54.17750    0.05990   56.06280  106.15670 5119.47660
 9719.50000   56.18770    0.06350   56.61750  107.26200 5131.14500
 9720.00000   58.72220    0.08820   61.40540  109.50840 5128.46730
 9720.50000   61.39960    0.15080   68.72370  114.14070 5104.50000
 9721.00000   65.84100    0.19500   75.66300  117.82520 5093.79740
 9721.50000   78.12900    0.21420   77.93370  121.48500 5097.68650
 9722.00000   93.37280    0.21570   77.87940  122.41020 5134.46680
 9722.50000  106.14720    0.20740   76.98130  122.16490 5180.11570
 9723.00000  109.37890    0.18930   74.54110  121.35720 5161.41210
 9723.50000  108.82610    0.17380   71.87410  119.39120 5094.97560
 9724.00000  102.44490    0.15870   69.89030  117.04170 5028.45170
 9724.50000   92.23750    0.15190   68.86590  115.67390 5024.42140
 9725.00000   81.44600    0.15040   68.72100  115.11590 5110.04100
 9725.50000   75.52710    0.15100   68.92530  114.72900 5226.53220
 9726.00000   74.86160    0.15190   69.11840  113.61270 5209.11620
 9726.50000   75.65200    0.15130   68.96930  111.60260 5165.96630
 9727.00000   76.33620    0.14480   68.21620  109.94660 5115.30320
 9727.50000   76.46420    0.13980   67.31770  108.19420 5075.25680
 9728.00000   73.00900    0.13420   66.45720  106.19070 5076.27830
 9728.50000   68.52580    0.12790   65.13430  103.28080 5144.21290
 9729.00000   63.41410    0.10570   62.23310   99.58840 5199.80860
 9729.50000   59.55680    0.07370   57.92650   96.73300 5174.84330
 9730.00000   58.55560    0.04920   53.91880   96.10680 5133.28080
 9730.50000   57.54720    0.03810   53.04340   95.90780 5113.26900
 9731.00000   52.48170    0.03370   52.52820   96.69340 5123.71140
 9731.50000   45.71260    0.02810   51.64230   97.78320 5148.06790
 9732.00000   39.17900    0.02330   51.16040   99.76860 5191.25730
 9732.50000   38.05030    0.03490   52.89070  102.09290 5207.74320
 9733.00000   40.66800    0.06050   57.36210  104.36160 5171.93510
 9733.50000   48.01170    0.08090   59.47930  106.50140 5131.90720
 9734.00000   60.32470    0.09100   61.75060  108.64110 5131.72610
 9734.50000   74.05770    0.12400   65.17470  111.12940 5142.26370
 9735.00000   82.04640    0.16200   70.04720  113.46860 5150.76030
 9735.50000   88.11690    0.18110   73.06770  115.56530 5159.25730
 9736.00000   91.29890    0.18830   73.86270  116.38600 5178.02290
 9736.50000   94.32430    0.18630   73.53840  116.51510 5190.89700
 9737.00000   98.66570    0.17620   72.60020  116.63350 5188.51610
 9737.50000  101.01860    0.16490   71.39350  116.75190 5163.82710
 9738.00000   94.45170    0.15140   69.62910  117.20070 5119.45360
 9738.50000   84.03180    0.15090   68.85040  117.27390 5129.26760
 9739.00000   77.21140    0.15800   70.25310  117.43810 5146.00490
 9739.50000   78.24860    0.16830   71.12130  117.68160 5162.74170
 9740.00000   87.90440    0.18050   72.76980  118.84030 5140.44870
 9740.50000  100.80450    0.19490   74.47220  120.38950 5098.07420
 9741.00000  113.03230    0.19880   75.37530  121.59680 5104.68850
 9741.50000  121.83060    0.19860   74.68740  121.51860 5111.30270
 9742.00000  124.51640    0.18560   73.52730  120.81820 5118.56740
 9742.50000  122.81550    0.17480   72.38130  119.73110 5131.84470
 9743.00000  115.49240    0.16990   71.37960  118.64210 5159.90330
 9743.50000  106.91260    0.17110   71.29670  119.28170 5098.81250
 9744.00000  101.60170    0.18250   73.19210  120.22930 5059.87350
 9744.50000  102.41720    0.19420   74.79650  121.17330 5069.66650
 9745.00000  112.75370    0.19730   75.41280  121.32020 5079.46000
 9745.50000  119.97900    0.19830   75.54220  121.71180 5088.81100
 9746.00000  120.70700    0.19930   75.62220  122.74810 5083.85640
 9746.50000  109.59440    0.20030   75.78000  123.85460 5077.85840
 9747.00000  103.09440    0.20280   76.07150  124.87190 5071.86040
 9747.50000  102.87350    0.20740   76.74650  124.79940 5057.65230
 9748.00000  107.78680    0.20530   76.33120  124.36590 5083.08300
 9748.50000  113.92310    0.19960   75.70890  123.82650 5109.80760
 9749.00000  113.45250    0.19430   75.13700  123.24570 5136.53220
 9749.50000  102.60150    0.18590   73.92810  121.18280 5148.32860
