~Version ---------------------------------------------------
VERS.   2.0 : CWLS log ASCII Standard -VERSION 2.0
WRAP.    NO : One line per depth step
DLM . SPACE : Column Data Section Delimiter
~Well ------------------------------------------------------
STRT .F                 4770.0 : START DEPTH
STOP .F                11010.0 : STOP DEPTH
STEP .F                    0.5 : STEP
NULL .                -9999.25 : NULL VALUE
COMP .                         : COMPANY
WELL .                         : WELL
FLD  .                         : FIELD
LOC  .                         : LOCATION
PROV .                         : PROVINCE
CNTY .                         : COUNTY
STAT .                         : STATE
CTRY .                         : COUNTRY
SRVC .                         : SERVICE COMPANY
DATE .                         : DATE
UWI  .                         : UNIQUE WELL ID
API  .                         : API NUMBER
SLAT .WGS84 1.8285756807397995 : SURFACE LATITUDE
SLON .WGS84  8.148190691168992 : SURFACE LONGITUDE
DATUM.F                    nan : DEPTH DATUM ELEV
~Curve Information -----------------------------------------
DEPT   .F     : 1 MEASURED DEPTH
GR_EDTC.GAPI  : GAMMA RAY
SPHI_LS.DEC   : SONIC POROSITY [LIMESTONE]
DTCO   .US/F  : DELTA-T COMPRESSIONAL
DTSM   .US/F  : DELTA-T SHEAR
TENS   .LB    : TENSION FROM SONIC LOG
~Params ----------------------------------------------------
~Other -----------------------------------------------------
~ASCII -----------------------------------------------------
# ...
 7650.00000  125.30940    0.11430   63.65510  103.64200 4284.25730
 7650.50000  139.17070    0.11630   64.13230  104.87280 4293.46140
 7651.00000  145.72640    0.11780   64.29680  105.55420 4331.29100
 7651.50000  149.63800    0.12030   64.64600  106.04050 4341.57370
 7652.00000  153.54970    0.12260   65.00630  105.81120 4291.40140
 7652.50000  161.09830    0.12320   65.03360  105.54230 4269.64110
 7653.00000  168.51280    0.11900   64.58950  103.95970 4287.10400
 7653.50000  170.76770    0.11090   63.37670  102.45110 4310.11230
 7654.00000  165.07980    0.10290   61.95080  100.94250 4259.26810
 7654.50000  137.09320    0.09270   60.57210   99.43380 4224.91460
 7655.00000  107.35080    0.08770   59.90820   98.31040 4249.94040
 7655.50000   78.16700    0.08720   59.87600   97.91570 4277.42920
 7656.00000   66.43780    0.09180   60.48570   97.53280 4268.50200
 7656.50000   60.60940    0.09780   61.32240   97.50880 4228.14360
 7657.00000   59.51280    0.10320   62.07850   97.79670 4193.62740
 7657.50000   62.09610    0.10630   62.70920   98.50610 4211.31350
 7658.00000   65.88730    0.10650   62.73750   99.23860 4228.99950
 7658.50000   66.91400    0.10620   62.61650   99.87120 4246.68550
 7659.00000   67.25930    0.10600   62.57030  100.03760 4261.32180
 7659.50000   67.60460    0.10630   62.67610  100.32240 4249.89890
 7660.00000   67.94990    0.10670   62.84670  100.47240 4295.73680
 7660.50000   72.09190    0.10590   62.63090  100.59830 4316.47170
 7661.00000   81.67710    0.10310   62.14010  100.72430 4299.23880
 7661.50000   93.37790    0.09930   61.71840  100.85030 4257.76950
 7662.00000  108.30420    0.09580   61.24980  100.69630 4256.02440
 7662.50000  120.11050    0.09280   60.69080  100.10690 4292.28960
 7663.00000  129.59840    0.09150   60.47920   99.69620 4325.06490
 7663.50000  132.04720    0.08930   60.31410   98.91380 4290.13670
 7664.00000  126.57630    0.08710   59.99860   97.92780 4269.59520
 7664.50000  116.11680    0.08490   59.65160   97.09380 4289.82130
 7665.00000  102.07310    0.08290   59.34660   96.24020 4314.02440
 7665.50000   92.29740    0.08090   59.07430   95.98700 4338.22750
 7666.00000   88.25850    0.07930   58.81240   95.70460 4277.78220
 7666.50000   87.17080    0.07770   58.53480   95.19570 4224.82080
 7667.00000   85.22430    0.07580   58.28220   95.15500 4274.13130
 7667.50000   78.56970    0.07660   58.34510   95.85920 4330.79690
 7668.00000   72.13870    0.08050   58.90430   96.23640 4337.86670
 7668.50000   68.23940    0.08470   59.57250   96.57950 4283.02100
 7669.00000   69.76160    0.09040   60.38590   97.14390 4233.83010
 7669.50000   72.98770    0.09610   61.14410   97.84420 4273.11040
 7670.00000   77.10250    0.10080   61.86270   98.68800 4286.65820
 7670.50000   82.99820    0.10600   62.45240   99.53680 4299.75830
 7671.00000  100.77040    0.10710   62.83550  100.10100 4303.33250
 7671.50000  114.80460    0.10640   62.70880  100.39210 4306.90670
 7672.00000  122.70160    0.10370   62.17430  100.68330 4313.04350
 7672.50000  118.46250    0.09900   61.52320  100.17740 4313.46000
 7673.00000  107.63100    0.09680   61.07310   99.70530 4324.31880
 7673.50000   98.63470    0.10020   61.69710  100.38640 4323.38090
 7674.00000   93.20150    0.10630   62.59980  101.16460 4355.63570
 7674.50000   97.12830    0.11020   63.08920  100.27730 4387.89060
 7675.00000  106.19630    0.11190   63.40600  101.05700 4377.79050
 7675.50000  116.49960    0.11260   63.52250  102.28370 4353.80810
 7676.00000  117.87620    0.11330   63.58450  102.20860 4355.13720
 7676.50000  113.13710    0.11330   63.63020  101.93930 4377.03080
 7677.00000  108.20440    0.11150   63.38010  100.99080 4417.86230
 7677.50000  105.13720    0.10780   62.51230   98.93390 4406.73000
 7678.00000  103.28100    0.09860   61.59070   98.67270 4371.58980
 7678.50000   95.71910    0.09080   60.47990   98.72860 4359.79150
 7679.00000   88.31110    0.08770   59.94950   98.97190 4356.48190
 7679.50000   88.32680    0.08760   59.92880   99.20530 4348.37790
 7680.00000   96.18930    0.09140   60.33520   99.45260 4333.24320
 7680.50000  104.33270    0.09540   60.97550   99.77300 4318.28910
 7681.00000  106.18710    0.09940   61.73630  100.20460 4320.19430
 7681.50000  105.08760    0.10070   61.88810  100.63620 4349.86330
 7682.00000  104.53220    0.10050   61.77140  101.06780 4310.52340
 7682.50000  103.25830    0.10030   61.66940  101.30940 4306.87740
 7683.00000   93.50340    0.10010   61.62940  101.04450 4303.23140
 7683.50000   82.65110    0.10120   61.89060  101.21980 4299.58500
 7684.00000   73.10360    0.10460   62.32190  101.44200 4319.77250
 7684.50000   72.12900    0.10770   62.75860  101.31090 4342.14450
 7685.00000   73.58690    0.11130   63.27090  100.81590 4340.50000
 7685.50000   74.98940    0.11530   63.88820  100.44840 4343.65920
 7686.00000   73.79390    0.11740   64.19360  100.65240 4346.81840
 7686.50000   72.59300    0.11750   64.15020  100.96260 4349.97710
 7687.00000   72.36320    0.11690   64.04630  101.66190 4353.13620
 7687.50000   72.13410    0.11570   64.00060  102.13860 4354.45410
 7688.00000   69.45950    0.11620   63.98320  101.83730 4354.23830
 7688.50000   63.91300    0.11660   64.02710  101.49760 4355.85740
 7689.00000   59.14990    0.11660   64.10000  101.13590 4356.45510
 7689.50000   57.65090    0.11610   64.14630  101.18460 4356.45700
 7690.00000   62.33710    0.11470   63.87580  101.29490 4356.03270
 7690.50000   69.98700    0.11280   63.47070  101.37470 4355.05320
 7691.00000   78.10880    0.11030   63.15030  100.23840 4353.45070
 7691.50000   83.60350    0.10660   62.68130   99.10210 4351.84810
 7692.00000   87.19260    0.10190   61.93010   98.05550 4350.24560
 7692.50000   87.90120    0.09700   61.23640   97.68720 4348.64310
 7693.00000   85.60710    0.09230   60.72960   97.01920 4347.04050
 7693.50000   83.24740    0.09160   60.61600   96.62910 4345.43800
 7694.00000   85.78240    0.09580   61.13670   96.61150 4342.93410
 7694.50000   97.37120    0.10070   61.81140   97.15430 4340.32810
 7695.00000  112.42940    0.10440   62.28070   97.64500 4337.72170
 7695.50000  127.34360    0.10260   62.16190   97.95120 4347.41500
 7696.00000  130.72170    0.10000   61.74220   97.89260 4383.86280
 7696.50000  127.26010    0.09740   61.39920   97.91670 4390.08400
 7697.00000  118.11980    0.10090   61.67940   98.33470 4387.90190
 7697.50000  108.00070    0.10690   62.54770   98.99600 4385.71920
 7698.00000  101.22540    0.11210   63.44940   99.64870 4383.53710
 7698.50000   96.53090    0.11160   63.52080  100.30150 4381.35500
 7699.00000   96.50360    0.10680   62.81570  100.89200 4381.35640
 7699.50000   99.14100    0.10210   61.94070  101.41840 4346.28610
 7700.00000  102.81160    0.09920   61.59260  101.73450 4345.93700
 7700.50000  105.26800    0.09930   61.63800  101.95680 4345.58740
 7701.00000  105.45760    0.10160   61.84590  101.89500 4345.23780
 7701.50000  102.94110    0.10370   62.34720  102.16860 4344.88820
 7702.00000  100.89370    0.10590   62.64150  101.96290 4344.53910
 7702.50000   99.90630    0.10400   62.27180  101.22660 4339.63570
 7703.00000   98.61420    0.10050   61.69590  100.66240 4336.54690
 7703.50000   95.25940    0.09700   61.12130  100.13600 4333.45850
 7704.00000   89.35300    0.09400   60.89360   99.60960 4330.36960
 7704.50000   82.47100    0.09350   60.81590   99.55260 4327.28120
 7705.00000   77.84790    0.09830   61.44260   99.67190 4324.19240
 7705.50000   77.10020    0.10420   62.27770  100.58770 4321.10350
 7706.00000   79.66260    0.10930   63.03470  101.50920 4318.01510
 7706.50000   82.85080    0.11310   63.66960  102.01120 4327.39360
 7707.00000   84.44750    0.11550   63.85000  102.81730 4338.92820
 7707.50000   84.94700    0.11630   64.00070  103.78960 4350.46290
 7708.00000   85.61720    0.11620   63.95800  103.69670 4361.99760
 7708.50000   85.32500    0.11490   63.85910  103.28420 4366.41310
 7709.00000   81.82610    0.11470   63.78850  102.88960 4353.37890
 7709.50000   75.65760    0.11470   63.79980  102.54530 4334.85110
