~Version ---------------------------------------------------
VERS.   2.0 : CWLS log ASCII Standard -VERSION 2.0
WRAP.    NO : One line per depth step
DLM . SPACE : Column Data Section Delimiter
~Well ------------------------------------------------------
STRT .F                 4770.0 : START DEPTH
STOP .F                11010.0 : STOP DEPTH
STEP .F                    0.5 : STEP
NULL .                -9999.25 : NULL VALUE
COMP .                         : COMPANY
WELL .                         : WELL
FLD  .                         : FIELD
LOC  .                         : LOCATION
PROV .                         : PROVINCE
CNTY .                         : COUNTY
STAT .                         : STATE
CTRY .                         : COUNTRY
SRVC .                         : SERVICE COMPANY
DATE .                         : DATE
UWI  .                         : UNIQUE WELL ID
API  .                         : API NUMBER
SLAT .WGS84 1.8285756807397995 : SURFACE LATITUDE
SLON .WGS84  8.148190691168992 : SURFACE LONGITUDE
DATUM.F                    nan : DEPTH DATUM ELEV
~Curve Information -----------------------------------------
DEPT   .F     : 1 MEASURED DEPTH
GR_EDTC.GAPI  : GAMMA RAY
SPHI_LS.DEC   : SONIC POROSITY [LIMESTONE]
DTCO   .US/F  : DELTA-T COMPRESSIONAL
DTSM   .US/F  : DELTA-T SHEAR
TENS   .LB    : TENSION FROM SONIC LOG
~Params ----------------------------------------------------
~Other -----------------------------------------------------
~ASCII -----------------------------------------------------
# ...
 5610.00000   66.39620    0.09060   60.48930  104.27210 3799.13620
 5610.50000   67.96060    0.09830   61.48820  103.12100 3804.12010
 5611.00000   74.67340    0.09870   61.57730  102.19520 3773.61960
 5611.50000   81.28960    0.09350   60.66470  101.26930 3810.76680
 5612.00000   83.11580    0.08570   59.78480  100.46970 3811.81960
 5612.50000   76.29350    0.08090   58.98070   99.78180 3812.44310
 5613.00000   69.76360    0.07720   58.56000   99.74200 3829.69360
 5613.50000   63.47090    0.07940   59.04530  100.06030 3846.94410
 5614.00000   63.06300    0.08410   59.58230  100.88290 3833.55570
 5614.50000   66.82530    0.08750   60.03660  101.89120 3794.57960
 5615.00000   72.19140    0.09510   61.12360  103.33980 3770.84380
 5615.50000   78.41810    0.10390   62.24260  104.39990 3774.10840
 5616.00000   82.15130    0.10460   62.57060  104.87640 3783.31860
 5616.50000   82.82150    0.10200   61.81500  104.89800 3792.74020
 5617.00000   81.58240    0.09100   60.55490  105.16680 3803.27780
 5617.50000   77.69340    0.08760   59.90280  106.72900 3813.80200
 5618.00000   71.88440    0.08700   59.98920  108.72300 3798.71410
 5618.50000   67.55000    0.09010   60.08420  110.73270 3759.85820
 5619.00000   69.33430    0.10310   62.26620  112.73690 3731.92500
 5619.50000   75.33180    0.11910   64.02710  116.11250 3779.85030
 5620.00000   79.70450    0.12860   65.78790  120.01450 3795.80200
 5620.50000   75.92430    0.13630   67.61300  123.24630 3762.45460
 5621.00000   68.69090    0.15400   69.78790  126.33860 3732.65600
 5621.50000   62.05920    0.16780   71.76470  130.49410 3750.32080
 5622.00000   57.71350    0.17970   73.06110  135.55270 3805.07470
 5622.50000   57.37340    0.19180   74.68280  140.73520 3788.03540
 5623.00000   57.90720    0.20580   76.83220  145.43830 3762.23880
 5623.50000   58.01520    0.22240   78.99250  146.65150 3819.70020
 5624.00000   55.11260    0.22760   79.76530  147.80020 3822.11400
 5624.50000   50.86450    0.22940   79.98160  149.91890 3767.94310
 5625.00000   49.81910    0.23040   80.16080  150.11210 3774.24150
 5625.50000   50.19490    0.23200   80.33510  150.43120 3795.92650
 5626.00000   50.49550    0.23330   80.56860  152.34730 3816.20780
 5626.50000   47.79300    0.23560   80.79330  154.40160 3833.21070
 5627.00000   44.40190    0.23820   81.16410  155.19720 3841.76050
 5627.50000   43.54720    0.24020   81.67270  153.35940 3836.22240
 5628.00000   45.67570    0.23950   81.58590  153.29670 3830.68430
 5628.50000   48.76850    0.23940   81.44210  153.11880 3825.14620
 5629.00000   50.49290    0.24050   81.77520  151.68930 3819.60820
 5629.50000   50.35640    0.24130   81.67440  150.29740 3811.91970
 5630.00000   50.32760    0.24040   81.43760  151.08460 3790.75200
 5630.50000   50.37310    0.23830   81.20160  151.80730 3801.83690
 5631.00000   50.41850    0.23620   80.92350  150.81070 3823.17460
 5631.50000   50.29100    0.23440   80.61980  148.64900 3800.81760
 5632.00000   49.52240    0.23270   80.47330  146.62140 3773.79790
 5632.50000   48.75390    0.23020   80.24750  144.62720 3776.25240
 5633.00000   48.45630    0.22250   79.06600  140.05920 3821.41580
 5633.50000   49.88080    0.21060   77.68230  135.21620 3845.54610
 5634.00000   53.59810    0.20290   75.48770  130.64930 3820.97630
 5634.50000   56.80270    0.17950   72.74230  126.73030 3782.76900
 5635.00000   56.71590    0.15280   68.93180  121.43140 3805.42920
 5635.50000   55.61120    0.13230   66.53230  115.98140 3789.64530
 5636.00000   57.76900    0.12540   64.77680  112.01630 3775.22390
 5636.50000   73.41680    0.10680   62.60390  108.68930 3782.14060
 5637.00000   89.48970    0.08630   60.00900  107.49400 3818.60790
 5637.50000   88.98090    0.08040   58.93530  106.45970 3819.21480
 5638.00000   79.60570    0.08120   58.97020  104.99560 3737.76200
 5638.50000   70.49080    0.08400   59.49730  103.84330 3754.13890
 5639.00000   67.04560    0.08750   59.98780  103.92610 3764.16650
 5639.50000   66.76960    0.09080   60.31270  104.25770 3771.48220
 5640.00000   67.74310    0.09410   60.92660  104.63220 3742.40600
 5640.50000   70.90290    0.09820   61.53690  104.96300 3713.13010
 5641.00000   74.43020    0.10060   61.91270  106.79620 3767.15890
 5641.50000   77.09770    0.09780   61.43200  107.97910 3769.58450
 5642.00000   79.21040    0.09530   61.10890  106.60640 3724.62790
 5642.50000   80.35790    0.09400   60.92970  106.30630 3709.43330
 5643.00000   81.00390    0.09270   60.71090  107.77010 3788.50900
 5643.50000   79.57860    0.09110   60.44420  111.42900 3841.00420
 5644.00000   76.63390    0.09260   60.83790  115.37950 3794.91940
 5644.50000   72.32660    0.10630   63.00160  121.75200 3770.97000
 5645.00000   65.68880    0.14340   67.08080  128.24110 3834.24730
 5645.50000   60.61200    0.17020   71.14560  132.67460 3887.53590
 5646.00000   56.22220    0.18980   73.83540  134.98370 3824.48390
 5646.50000   53.83720    0.19620   75.24670  137.33970 3837.38920
 5647.00000   52.67590    0.19950   76.05870  139.56120 3906.21390
 5647.50000   52.16720    0.20230   76.21830  141.10850 3867.92990
 5648.00000   49.97970    0.20460   76.50120  141.52050 3838.03050
 5648.50000   47.82390    0.20790   76.88910  141.44630 3833.40970
 5649.00000   49.36730    0.21060   77.46600  140.56280 3853.10960
 5649.50000   53.75790    0.21280   77.60440  140.21980 3873.95340
 5650.00000   57.33370    0.21310   77.76610  141.50410 3825.84300
 5650.50000   55.39610    0.21700   78.07080  142.30030 3828.04220
 5651.00000   51.78920    0.22340   79.07280  142.45990 3855.58570
 5651.50000   50.35200    0.22640   79.56980  143.54190 3868.52780
 5652.00000   52.45740    0.22750   79.68150  145.28420 3847.46700
 5652.50000   55.46880    0.22850   79.70290  146.07860 3874.06570
 5653.00000   54.40900    0.22860   79.78130  144.93700 3860.87010
 5653.50000   52.80150    0.22840   79.90340  145.34600 3817.02730
 5654.00000   51.61850    0.22940   80.03610  146.09770 3827.11300
 5654.50000   51.53030    0.23050   80.16880  146.41470 3854.90990
 5655.00000   52.84390    0.23200   80.31190  145.93480 3894.91890
 5655.50000   54.74380    0.23260   80.49410  146.42220 3812.94600
 5656.00000   55.64780    0.23290   80.50770  147.54970 3801.27220
 5656.50000   55.75120    0.23200   80.34830  147.07910 3842.05080
 5657.00000   53.71770    0.23000   80.06410  145.47280 3863.83030
 5657.50000   51.89510    0.22820   79.85820  144.44170 3807.33470
 5658.00000   50.57190    0.22650   79.42940  143.19400 3792.48170
 5658.50000   48.93120    0.21920   78.73540  141.93700 3851.86040
 5659.00000   46.45450    0.21120   77.30660  139.38700 3891.01440
 5659.50000   45.46060    0.20340   76.25590  137.25340 3866.49760
 5660.00000   46.41920    0.20000   75.93120  137.94200 3831.57060
 5660.50000   47.76320    0.20060   76.05620  139.84330 3836.76170
 5661.00000   50.29250    0.20720   76.59790  142.28330 3871.17110
 5661.50000   52.79390    0.21370   77.77650  143.48660 3851.99760
 5662.00000   53.99570    0.22020   78.46530  143.82100 3828.77390
 5662.50000   53.20620    0.22610   79.26720  144.13010 3825.34250
 5663.00000   52.45340    0.22660   79.51930  143.89300 3855.25780
 5663.50000   53.65010    0.22310   79.41440  141.98790 3847.02200
 5664.00000   55.55070    0.21580   78.55220  138.75410 3839.71140
 5664.50000   57.36430    0.20830   76.91430  134.50240 3832.90750
 5665.00000   59.02300    0.19780   75.58560  130.99650 3828.04390
 5665.50000   60.41110    0.18860   74.57960  128.36130 3771.42210
 5666.00000   62.59140    0.18450   73.53420  125.89160 3809.05570
 5666.50000   64.67310    0.17260   71.95280  121.59620 3832.57150
 5667.00000   67.30360    0.16030   70.42660  119.87790 3827.66410
 5667.50000   68.15230    0.15690   69.86150  118.62930 3772.20900
 5668.00000   66.74190    0.15350   69.35700  116.20780 3780.21560
 5668.50000   64.73930    0.14760   68.54340  113.66230 3854.64480
 5669.00000   63.67810    0.13830   67.11730  112.98340 3834.77440
 5669.50000   66.67670    0.12860   65.62490  112.08560 3795.10570
