~Version ---------------------------------------------------
VERS.   2.0 : CWLS log ASCII Standard -VERSION 2.0
WRAP.    NO : One line per depth step
DLM . SPACE : Column Data Section Delimiter
~Well ------------------------------------------------------
STRT .F                 4770.0 : START DEPTH
STOP .F                11010.0 : STOP DEPTH
STEP .F                    0.5 : STEP
NULL .                -9999.25 : NULL VALUE
COMP .                         : COMPANY
WELL .                         : WELL
FLD  .                         : FIELD
LOC  .                         : LOCATION
PROV .                         : PROVINCE
CNTY .                         : COUNTY
STAT .                         : STATE
CTRY .                         : COUNTRY
SRVC .                         : SERVICE COMPANY
DATE .                         : DATE
UWI  .                         : UNIQUE WELL ID
API  .                         : API NUMBER
SLAT .WGS84 1.8285756807397995 : SURFACE LATITUDE
SLON .WGS84  8.148190691168992 : SURFACE LONGITUDE
DATUM.F                    nan : DEPTH DATUM ELEV
~Curve Information -----------------------------------------
DEPT   .F     : 1 MEASURED DEPTH
GR_EDTC.GAPI  : GAMMA RAY
SPHI_LS.DEC   : SONIC POROSITY [LIMESTONE]
DTCO   .US/F  : DELTA-T COMPRESSIONAL
DTSM   .US/F  : DELTA-T SHEAR
TENS   .LB    : TENSION FROM SONIC LOG
~Params ----------------------------------------------------
~Other -----------------------------------------------------
~ASCII -----------------------------------------------------
# ...
 8910.00000  103.55830    0.14130   67.08210  103.11080 4767.18650
 8910.50000   94.04310    0.12380   65.26250  101.82080 4770.68020
 8911.00000   72.37620    0.10610   62.49550  101.16230 4774.17380
 8911.50000   60.39870    0.09710   61.16920  101.42880 4766.09720
 8912.00000   53.35530    0.11180   63.82510  102.72310 4754.81690
 8912.50000   59.34080    0.13910   67.62450  104.86170 4740.83300
 8913.00000   71.87890    0.16640   70.66370  107.77650 4726.83790
 8913.50000  102.48110    0.18340   72.99450  110.76830 4712.84280
 8914.00000  137.93930    0.18490   73.57610  112.44860 4713.03420
 8914.50000  159.85510    0.18130   73.25540  113.20240 4732.31010
 8915.00000  175.48530    0.17450   72.41240  113.26510 4747.08890
 8915.50000  166.28350    0.16780   71.49440  112.84280 4744.11770
 8916.00000  143.18380    0.15800   70.10820  110.57570 4743.86570
 8916.50000  132.67460    0.15290   68.78720  109.25680 4737.59860
 8917.00000  125.66820    0.13540   67.40810  107.54330 4731.33150
 8917.50000  116.65380    0.13540   66.73480  106.47600 4725.06490
 8918.00000  107.96550    0.13770   67.05760  106.20390 4703.89790
 8918.50000  100.78930    0.14190   67.69760  106.47270 4706.94340
 8919.00000  106.27210    0.14630   68.50780  107.20940 4730.07520
 8919.50000  115.75210    0.14180   67.63360  107.22600 4770.21880
 8920.00000  126.42970    0.13190   66.01760  107.15750 4777.25490
 8920.50000  122.71250    0.12200   64.96240  107.08910 4767.46630
 8921.00000  105.40320    0.11680   64.31200  107.02060 4757.67820
 8921.50000   87.39100    0.11770   64.24520  107.13320 4754.29050
 8922.00000   78.79420    0.12760   65.85240  108.18410 4751.70510
 8922.50000   79.95930    0.14300   67.80640  109.42810 4749.11910
 8923.00000   87.11380    0.15390   69.78280  110.57470 4746.53370
 8923.50000   97.24320    0.16360   70.98370  111.27660 4743.94780
 8924.00000  109.41270    0.16430   70.99020  111.37890 4745.33790
 8924.50000  122.56640    0.16240   70.62800  111.17440 4749.91990
 8925.00000  121.56600    0.15740   69.85000  111.25590 4754.50240
 8925.50000  111.48650    0.15710   69.58360  111.72540 4772.53170
 8926.00000   98.25720    0.16680   70.88550  112.19490 4795.97310
 8926.50000  102.33020    0.17600   72.38220  112.84440 4785.43210
 8927.00000  115.86080    0.18390   73.57150  114.01040 4760.31100
 8927.50000  135.72670    0.18630   73.99720  115.09710 4741.63040
 8928.00000  151.01230    0.18640   74.00850  116.42640 4743.01370
 8928.50000  148.81060    0.18650   74.04050  117.57560 4744.39700
 8929.00000  138.13680    0.18890   74.23230  118.17260 4745.78030
 8929.50000  132.70700    0.19150   74.57180  118.58230 4744.95120
 8930.00000  134.85200    0.19470   74.99900  118.45870 4741.20800
 8930.50000  141.36940    0.19550   75.13410  117.36260 4742.63130
 8931.00000  149.61810    0.18460   73.79960  115.89990 4748.97710
 8931.50000  149.81710    0.16590   70.87120  114.21850 4755.32320
 8932.00000  150.01600    0.14800   68.94240  112.54980 4761.66940
 8932.50000  140.67150    0.14350   67.66120  111.46750 4768.01510
 8933.00000  123.39970    0.13840   67.07420  110.49340 4772.85500
 8933.50000  106.80570    0.13470   66.63510  109.51940 4777.47610
 8934.00000   99.54590    0.13340   66.38750  107.27010 4782.09720
 8934.50000   94.20550    0.13220   66.30170  105.71890 4786.71830
 8935.00000   87.06660    0.13100   66.18060  104.83640 4791.33940
 8935.50000   77.14100    0.12760   65.86130  104.51020 4795.96040
 8936.00000   69.02630    0.12450   65.13890  104.57300 4798.97220
 8936.50000   60.55200    0.12960   65.21410  104.99870 4790.51370
 8937.00000   57.67270    0.13530   66.41540  106.73790 4782.05570
 8937.50000   60.62950    0.14130   67.65910  108.68300 4774.63570
 8938.00000   72.54970    0.14500   67.97070  109.85430 4768.27100
 8938.50000   89.07930    0.14570   68.15620  110.18040 4761.90620
 8939.00000   98.46060    0.14380   67.97380  109.60590 4755.54100
 8939.50000  101.95250    0.14120   67.56160  109.03150 4749.17630
 8940.00000  101.75250    0.13750   67.10340  108.45700 4745.81300
 8940.50000   95.19840    0.13450   66.49980  108.09760 4745.18160
 8941.00000   93.70510    0.13310   66.26600  108.12960 4744.55080
 8941.50000   94.76240    0.13250   66.34260  108.73500 4743.91940
 8942.00000   95.04080    0.13490   66.71000  109.45670 4743.27880
 8942.50000   93.71180    0.14230   67.51940  110.17840 4742.51420
 8943.00000   93.99670    0.14770   68.38970  110.80090 4741.74950
 8943.50000   94.09240    0.14990   68.61860  111.11940 4740.98540
 8944.00000   94.04520    0.14830   68.53380  111.05930 4799.70650
 8944.50000   93.81870    0.14660   68.42800  110.08500 4967.87210
 8945.00000   86.82800    0.14200   67.19560  108.61140 4954.66210
 8945.50000   72.13670    0.12300   64.96370  106.25680 4913.47510
 8946.00000   57.31180    0.11010   62.76910  104.19600 4871.15090
 8946.50000   45.67550    0.09990   61.11480  102.20510 4828.82710
 8947.00000   42.94720    0.09130   60.58120  101.73650 4794.02050
 8947.50000   42.95850    0.09100   60.46460  101.81870 4772.79740
 8948.00000   46.06860    0.09530   60.95260  102.71850 4770.22170
 8948.50000   50.78120    0.10610   62.78780  104.10400 4764.59910
 8949.00000   55.17560    0.12100   64.89050  105.96910 4758.97660
 8949.50000   58.29550    0.13150   66.08060  106.77320 4753.35450
 8950.00000   62.76430    0.13240   66.29060  107.43590 4747.73190
 8950.50000   67.11810    0.13310   66.47120  107.85350 4743.23240
 8951.00000   76.78910    0.13350   66.46780  108.11400 4739.16460
 8951.50000   84.39460    0.13370   66.46440  108.40690 4735.09670
 8952.00000   89.01220    0.13340   66.41060  108.22210 4731.02830
 8952.50000   89.86390    0.13240   66.29030  107.89860 4765.31980
 8953.00000   90.19030    0.13170   66.19770  108.43900 4829.04150
 8953.50000   90.44150    0.13120   66.19760  109.09020 4807.93070
 8954.00000   92.25410    0.14100   67.41450  110.55420 4808.71630
 8954.50000   96.53990    0.15540   70.36610  112.47800 4800.25540
 8955.00000  102.55640    0.17220   71.81160  114.34850 4791.79440
 8955.50000  110.34520    0.17850   72.27060  115.78780 4749.96630
 8956.00000  122.83540    0.18430   73.40950  116.63240 4783.14790
 8956.50000  142.47100    0.18840   74.13020  117.10710 4822.94340
 8957.00000  154.40370    0.18660   74.19340  117.80460 4845.52390
 8957.50000  169.45330    0.17550   72.12700  117.06450 4822.75340
 8958.00000  183.64420    0.15270   69.32250  114.64120 4770.60400
 8958.50000  177.36340    0.13140   66.39780  112.46660 4784.03960
 8959.00000  142.64980    0.10650   63.50170  108.13820 4816.79740
 8959.50000   98.01130    0.07500   59.51670  103.51310 4849.55470
 8960.00000   70.39830    0.04460   54.78790   98.88790 4820.30420
 8960.50000   45.43200    0.02680   51.08690   94.26280 4791.32860
 8961.00000   32.51680    0.02440   51.01490   91.07370 4785.95020
 8961.50000   28.10280    0.02520   51.21560   91.28100 4787.49660
 8962.00000   24.25860    0.03100   51.73550   93.19180 4784.85060
 8962.50000   20.78700    0.04600   52.86250   95.35190 4781.62790
 8963.00000   18.37110    0.06110   56.52770   99.78290 4778.40480
 8963.50000   20.92710    0.09010   59.54720  104.29670 4775.02000
 8964.00000   30.87030    0.11180   62.45190  107.27330 4763.09180
 8964.50000   48.79600    0.13220   66.06090  108.88240 4754.06790
 8965.00000   70.67970    0.14260   67.83870  109.25700 4774.18700
 8965.50000   92.69810    0.14140   67.84540  109.50450 4825.57370
 8966.00000  105.69680    0.12210   64.19940  108.97930 4766.80080
 8966.50000  105.44530    0.08480   60.86660  108.10130 4703.94730
 8967.00000   94.83830    0.08450   59.49080  107.74410 4726.44480
 8967.50000   80.91250    0.08800   60.15070  108.01190 4777.16650
 8968.00000   79.13400    0.09900   61.71430  109.10000 4819.50290
 8968.50000   93.41540    0.10930   63.29550  110.01730 4830.09910
 8969.00000  109.46070    0.11840   64.34650  110.53800 4783.02490
 8969.50000  121.77360    0.12350   65.15710  110.59630 4710.20610
