~Version ---------------------------------------------------
VERS.   2.0 : CWLS log ASCII Standard -VERSION 2.0
WRAP.    NO : One line per depth step
DLM . SPACE : Column Data Section Delimiter
~Well ------------------------------------------------------
STRT .F                 4770.0 : START DEPTH
STOP .F                11010.0 : STOP DEPTH
STEP .F                    0.5 : STEP
NULL .                -9999.25 : NULL VALUE
COMP .                         : COMPANY
WELL .                         : WELL
FLD  .                         : FIELD
LOC  .                         : LOCATION
PROV .                         : PROVINCE
CNTY .                         : COUNTY
STAT .                         : STATE
CTRY .                         : COUNTRY
SRVC .                         : SERVICE COMPANY
DATE .                         : DATE
UWI  .                         : UNIQUE WELL ID
API  .                         : API NUMBER
SLAT .WGS84 1.8285756807397995 : SURFACE LATITUDE
SLON .WGS84  8.148190691168992 : SURFACE LONGITUDE
DATUM.F                    nan : DEPTH DATUM ELEV
~Curve Information -----------------------------------------
DEPT   .F     : 1 MEASURED DEPTH
GR_EDTC.GAPI  : GAMMA RAY
SPHI_LS.DEC   : SONIC POROSITY [LIMESTONE]
DTCO   .US/F  : DELTA-T COMPRESSIONAL
DTSM   .US/F  : DELTA-T SHEAR
TENS   .LB    : TENSION FROM SONIC LOG
~Params ----------------------------------------------------
~Other -----------------------------------------------------
~ASCII -----------------------------------------------------
# ...
 8070.00000   64.21270    0.08100   58.88930  100.82170 4407.15330
 8070.50000   63.25100    0.08140   58.88010  101.54690 4382.49020
 8071.00000   64.69240    0.08360   59.14860  103.19370 4357.82760
 8071.50000   62.17150    0.08630   59.54210  104.76750 4366.69920
 8072.00000   58.70350    0.09010   60.56330  106.34130 4396.63040
 8072.50000   56.97650    0.10090   61.75360  107.91520 4412.20170
 8073.00000   60.94960    0.11350   63.57650  108.97900 4397.70800
 8073.50000   72.35880    0.13440   65.91320  109.29280 4396.17380
 8074.00000   90.59840    0.13520   67.00680  109.42660 4395.74710
 8074.50000  109.60730    0.13080   65.73480  109.69290 4395.32030
 8075.00000  118.11490    0.11530   64.01380  109.45470 4394.89310
 8075.50000  116.13700    0.10600   62.12560  107.97730 4394.46630
 8076.00000  106.01830    0.09410   60.23730  106.30330 4394.03960
 8076.50000   87.64230    0.08450   59.40530  104.67690 4394.64550
 8077.00000   76.76180    0.07430   58.52010  103.05050 4396.33010
 8077.50000   72.53380    0.06900   57.16900  101.42400 4398.01460
 8078.00000   75.50180    0.06200   56.15580   99.87720 4412.23140
 8078.50000   73.37690    0.05160   55.19940   98.39890 4426.90480
 8079.00000   62.32690    0.03970   53.40480   97.17960 4441.31590
 8079.50000   44.19410    0.03030   51.67990   96.60070 4455.04980
 8080.00000   34.28410    0.03070   51.59240   96.64240 4468.78370
 8080.50000   26.71000    0.03540   52.43140   97.29200 4470.25630
 8081.00000   28.84230    0.05700   55.21560   98.64540 4451.21830
 8081.50000   44.48440    0.07990   58.45450   99.59020 4451.40670
 8082.00000   66.23660    0.07980   59.03390  100.53510 4451.59470
 8082.50000   80.86390    0.07450   58.16130  100.88740 4451.78320
 8083.00000   82.63150    0.05930   56.33200  100.96110 4451.97170
 8083.50000   73.49990    0.04050   53.94920   99.07960 4449.15580
 8084.00000   62.70460    0.03040   51.61350   96.15930 4446.94480
 8084.50000   51.36990    0.02190   50.42700   92.83300 4471.57370
 8085.00000   47.25260    0.01670   49.92450   91.61500 4479.32280
 8085.50000   47.22280    0.01510   49.70530   91.97020 4454.07810
 8086.00000   45.35790    0.01880   50.73500   93.30680 4416.18410
 8086.50000   39.50350    0.03280   52.42180   94.80320 4413.15280
 8087.00000   32.42480    0.04630   54.15760   96.94910 4448.56350
 8087.50000   32.78560    0.05100   54.76700   97.73720 4467.72220
 8088.00000   39.70300    0.05150   55.16080   98.07390 4442.83400
 8088.50000   51.50850    0.05190   55.04620   98.41060 4417.94580
 8089.00000   58.91200    0.04990   54.56250   98.40250 4443.65090
 8089.50000   58.69500    0.04520   53.92090   98.37910 4471.04100
 8090.00000   54.06430    0.04700   54.15120   98.80740 4468.35740
 8090.50000   45.81790    0.05360   55.20450   98.80310 4451.75340
 8091.00000   43.20090    0.06120   56.30210   98.12380 4437.88870
 8091.50000   47.26050    0.06700   57.13100   98.07280 4456.60500
 8092.00000   52.82060    0.06960   57.70080   99.64720 4494.81100
 8092.50000   56.93970    0.07100   57.61000   99.73040 4515.23830
 8093.00000   60.85730    0.06780   57.23810   99.50870 4497.77150
 8093.50000   63.79610    0.06480   56.71950   99.23420 4445.52640
 8094.00000   63.59870    0.06390   56.57860   98.26220 4437.68410
 8094.50000   61.69190    0.06280   56.41390   97.47090 4443.42770
 8095.00000   59.32580    0.06120   56.26140   97.04580 4469.79050
 8095.50000   59.56080    0.05890   55.82920   96.82690 4481.68750
 8096.00000   58.94250    0.05930   55.40390   96.83910 4483.75590
 8096.50000   54.63640    0.05970   55.52550   97.45380 4481.41060
 8097.00000   52.45650    0.06570   57.13380   98.72830 4475.92380
 8097.50000   56.97870    0.07560   58.20090  100.00280 4454.20070
 8098.00000   68.78680    0.07370   58.24040  100.49830 4432.47710
 8098.50000   79.52910    0.06440   56.79730  100.42870 4446.27730
 8099.00000   77.32300    0.05270   55.04890   99.29960 4477.12010
 8099.50000   66.16110    0.04480   53.98340   97.71660 4488.03470
 8100.00000   54.07440    0.04390   53.72800   96.70370 4453.58350
 8100.50000   47.83480    0.04350   53.70880   96.49520 4432.24120
 8101.00000   51.69450    0.04170   53.44740   97.18610 4396.79390
 8101.50000   54.41610    0.04210   53.48310   97.87320 4420.44480
 8102.00000   50.03960    0.04720   54.07290   98.80870 4478.58450
 8102.50000   43.97300    0.05410   55.03310   99.60600 4446.11430
 8103.00000   38.29620    0.06410   56.81560  100.40330 4419.62840
 8103.50000   38.35810    0.07620   58.12240  101.57070 4449.32420
 8104.00000   44.33330    0.08470   59.51430  102.95370 4479.11130
 8104.50000   54.40850    0.08730   59.98630  103.89570 4513.22120
 8105.00000   64.05230    0.08660   59.78590  103.93350 4484.06840
 8105.50000   72.02010    0.07850   58.54320  102.58530 4437.66550
 8106.00000   75.61270    0.05920   56.09030  101.45920 4438.24070
 8106.50000   74.30080    0.04390   53.71440  100.33310 4439.90140
 8107.00000   62.78890    0.04350   53.68220  100.10500 4472.27930
 8107.50000   45.83260    0.05270   54.89110   99.93380 4450.02780
 8108.00000   36.10340    0.06620   57.41140  100.60920 4445.27780
 8108.50000   42.23800    0.09590   60.97470  102.31420 4455.25930
 8109.00000   63.95240    0.09850   61.87090  103.27740 4469.00240
 8109.50000   80.13030    0.09240   60.66640  104.60330 4499.07520
 8110.00000   79.75160    0.08470   59.36420  105.96530 4461.62260
 8110.50000   69.15160    0.08420   59.31800  107.32730 4438.56540
 8111.00000   54.73990    0.09490   61.26810  108.64010 4447.85840
 8111.50000   52.27300    0.12350   64.59780  109.26650 4457.66410
 8112.00000   69.36070    0.13710   66.74860  110.30230 4462.78810
 8112.50000   87.58850    0.14600   68.31210  111.52580 4452.44970
 8113.00000  104.62400    0.14910   68.82970  112.77440 4442.11080
 8113.50000  108.22900    0.14900   68.60520  113.15380 4431.77200
 8114.00000  105.05810    0.14740   68.49820  112.79720 4421.43310
 8114.50000   98.25010    0.14940   68.64670  112.41610 4431.74900
 8115.00000   94.23960    0.15160   68.97850  111.74290 4434.53710
 8115.50000   97.96400    0.15180   69.38140  111.34050 4365.77930
 8116.00000  108.26350    0.15160   68.45880  110.83510 4383.38480
 8116.50000  114.55040    0.14100   67.01810  110.16630 4434.93990
 8117.00000  110.16700    0.13060   66.00550  109.52690 4487.40580
 8117.50000   99.50180    0.12540   65.32210  109.08930 4463.66850
 8118.00000   87.75050    0.12290   64.84540  108.54410 4459.62650
 8118.50000   81.70420    0.12600   65.30120  108.75100 4455.58450
 8119.00000   80.49830    0.13260   66.21760  109.25730 4449.46730
 8119.50000   82.20260    0.13410   66.81290  108.88950 4441.57670
 8120.00000   84.16400    0.13340   66.98140  108.60120 4433.68550
 8120.50000   86.34610    0.13210   66.14560  108.03230 4425.79490
 8121.00000   83.48640    0.11890   64.09180  107.22530 4438.17920
 8121.50000   78.83490    0.10860   63.02740  107.01460 4449.81050
 8122.00000   74.44600    0.10890   63.05140  107.34440 4452.97850
 8122.50000   74.23410    0.11090   63.24900  108.11640 4456.14700
 8123.00000   80.79090    0.12950   64.97930  109.63180 4459.31540
 8123.50000   90.98810    0.15790   68.86200  111.13430 4462.48340
 8124.00000  104.26450    0.17990   72.10690  112.47500 4465.65190
 8124.50000  121.38050    0.19150   74.67340  113.30350 4468.81980
 8125.00000  145.74980    0.19680   75.38400  114.37760 4436.63670
 8125.50000  189.06440    0.19810   75.80640  114.79950 4396.60740
 8126.00000  210.79640    0.19140   74.86970  115.44420 4389.75050
 8126.50000  189.69130    0.17780   72.62430  116.10100 4393.83640
 8127.00000  162.85020    0.16650   71.13690  116.12570 4397.92240
 8127.50000  136.25000    0.16740   70.83360  115.47780 4391.64890
 8128.00000  121.68800    0.17290   72.50140  114.66760 4357.98630
 8128.50000  118.69650    0.18340   73.59130  114.27150 4355.94190
 8129.00000  122.21200    0.18480   73.57300  113.87550 4406.15920
 8129.50000  127.30230    0.17880   73.11030  115.12380 4453.36430
