~Version ---------------------------------------------------
VERS.   2.0 : CWLS log ASCII Standard -VERSION 2.0
WRAP.    NO : One line per depth step
DLM . SPACE : Column Data Section Delimiter
~Well ------------------------------------------------------
STRT .F                 4770.0 : START DEPTH
STOP .F                11010.0 : STOP DEPTH
STEP .F                    0.5 : STEP
NULL .                -9999.25 : NULL VALUE
COMP .                         : COMPANY
WELL .                         : WELL
FLD  .                         : FIELD
LOC  .                         : LOCATION
PROV .                         : PROVINCE
CNTY .                         : COUNTY
STAT .                         : STATE
CTRY .                         : COUNTRY
SRVC .                         : SERVICE COMPANY
DATE .                         : DATE
UWI  .                         : UNIQUE WELL ID
API  .                         : API NUMBER
SLAT .WGS84 1.8285756807397995 : SURFACE LATITUDE
SLON .WGS84  8.148190691168992 : SURFACE LONGITUDE
DATUM.F                    nan : DEPTH DATUM ELEV
~Curve Information -----------------------------------------
DEPT   .F     : 1 MEASURED DEPTH
GR_EDTC.GAPI  : GAMMA RAY
SPHI_LS.DEC   : SONIC POROSITY [LIMESTONE]
DTCO   .US/F  : DELTA-T COMPRESSIONAL
DTSM   .US/F  : DELTA-T SHEAR
TENS   .LB    : TENSION FROM SONIC LOG
~Params ----------------------------------------------------
~Other -----------------------------------------------------
~ASCII -----------------------------------------------------
# ...
 6030.00000   82.39020    0.17680   72.65880  124.91870 3902.90430
 6030.50000   78.28130    0.17620   72.48790  124.13530 3903.71750
 6031.00000   73.59760    0.17440   72.32280  123.20300 3892.13330
 6031.50000   70.57010    0.16970   71.53300  122.28940 3860.58110
 6032.00000   68.68140    0.16370   70.41930  121.38150 3885.46240
 6032.50000   65.32840    0.15860   69.95960  120.47370 3896.36500
 6033.00000   61.52680    0.15510   69.72190  119.29860 3895.46510
 6033.50000   60.97840    0.15030   68.99560  118.35750 3895.41700
 6034.00000   63.19690    0.14150   67.96710  116.95160 3895.36890
 6034.50000   64.36170    0.13690   66.95410  116.28600 3896.20140
 6035.00000   63.20800    0.13500   66.76040  116.35530 3885.92090
 6035.50000   61.96760    0.13540   66.57610  117.73700 3899.24710
 6036.00000   62.04140    0.13850   67.26710  119.44820 3918.84890
 6036.50000   65.73600    0.15290   68.90690  121.15750 3911.35790
 6037.00000   70.27540    0.16400   70.83910  122.48180 3883.26490
 6037.50000   74.19370    0.16950   71.57190  123.32050 3872.01590
 6038.00000   73.08550    0.17150   71.78080  123.38840 3860.10180
 6038.50000   70.82610    0.17110   71.92570  123.30610 3846.83890
 6039.00000   68.88950    0.16800   71.55340  122.06250 3833.01220
 6039.50000   68.20310    0.16210   70.69970  120.94690 3812.87350
 6040.00000   67.56550    0.15610   69.96990  119.82490 3812.48020
 6040.50000   65.11340    0.15350   69.32720  119.05640 3812.17550
 6041.00000   63.45090    0.15180   69.06200  118.77580 3803.46170
 6041.50000   63.99480    0.15560   69.32270  118.49520 3793.60520
 6042.00000   68.77730    0.16120   70.36070  119.28660 3822.25100
 6042.50000   81.17030    0.16980   71.69260  120.72320 3964.16580
 6043.00000  100.92990    0.18290   73.60720  122.41800 4022.42260
 6043.50000  123.85470    0.19600   75.45830  123.77410 3967.26730
 6044.00000  148.80000    0.19860   75.63140  122.93610 3857.45510
 6044.50000  166.01340    0.18890   74.43600  120.85500 3848.66920
 6045.00000  167.83860    0.17200   71.83320  117.72000 3839.88330
 6045.50000  143.90590    0.14370   68.51460  114.45360 3837.24020
 6046.00000  112.91910    0.12740   65.97030  112.06740 3846.66330
 6046.50000   84.53300    0.12090   64.25390  111.32230 3856.08670
 6047.00000   70.55910    0.12150   64.74210  111.75540 3865.51000
 6047.50000   66.51470    0.13010   66.44240  112.20530 3874.93310
 6048.00000   72.80910    0.14440   68.31070  113.01920 3898.49580
 6048.50000   94.06310    0.15870   70.07600  113.93880 3913.84130
 6049.00000  117.63290    0.16030   70.13000  114.74010 3901.71170
 6049.50000  134.79770    0.15330   69.40210  114.64520 3889.58180
 6050.00000  135.67490    0.14240   68.05390  113.87760 3878.28980
 6050.50000  108.48570    0.13820   67.11690  112.97390 3874.57250
 6051.00000   90.72050    0.13660   66.84550  112.30100 3870.85550
 6051.50000   84.85240    0.13760   66.88110  112.46970 3867.13820
 6052.00000   84.65950    0.13970   67.33890  112.63840 3863.43990
 6052.50000   84.19730    0.14100   67.61810  112.83490 3863.64990
 6053.00000   80.70710    0.14110   67.52950  112.91360 3863.85990
 6053.50000   76.60780    0.14070   67.45310  113.07580 3864.06980
 6054.00000   73.36920    0.14120   67.60550  112.91840 3864.27980
 6054.50000   73.17120    0.14300   67.76920  112.53810 3864.48970
 6055.00000   74.13410    0.14220   67.83020  112.47220 3864.69970
 6055.50000   73.45610    0.14070   67.56900  112.44610 3864.90970
 6056.00000   72.22570    0.13850   67.20910  112.04490 3862.00540
 6056.50000   70.76790    0.13620   66.89120  111.07490 3858.77150
 6057.00000   69.31000    0.13430   66.56300  111.08100 3855.53760
 6057.50000   67.86370    0.13350   66.46310  111.49760 3852.30370
 6058.00000   67.72020    0.13270   66.41500  111.90760 3864.19290
 6058.50000   69.91740    0.13220   66.36700  112.48370 3880.56570
 6059.00000   77.34030    0.13470   66.63530  113.05980 3907.97090
 6059.50000   90.65830    0.13800   67.25640  113.31960 3920.23490
 6060.00000  104.36510    0.13910   67.28410  113.08610 3932.57230
 6060.50000  113.38560    0.13850   67.00710  112.82310 3943.72900
 6061.00000  106.77570    0.13730   66.99060  112.32040 3931.56960
 6061.50000   98.96470    0.13860   67.32100  111.69530 3919.41020
 6062.00000   97.35750    0.14060   67.59180  111.83020 3910.17070
 6062.50000  102.91010    0.14300   67.76500  112.25890 3908.47920
 6063.00000  108.42690    0.14270   67.81120  112.68430 3916.57100
 6063.50000  110.27450    0.14230   67.67730  113.09970 3924.66280
 6064.00000  108.07330    0.14140   67.52360  113.22480 3930.41190
 6064.50000  102.24840    0.14040   67.45430  113.14030 3924.95020
 6065.00000   93.35590    0.13950   67.43450  113.05590 3919.48850
 6065.50000   86.10540    0.13940   67.46320  113.03410 3914.02690
 6066.00000   82.22730    0.14220   67.49590  113.05610 3908.56540
 6066.50000   82.19070    0.14480   67.99490  113.26480 3901.89040
 6067.00000   82.39380    0.14700   68.58400  113.48950 3895.57230
 6067.50000   82.69160    0.14730   68.60640  114.01660 3897.86960
 6068.00000   84.90160    0.14600   68.29490  114.26250 3904.61010
 6068.50000   90.75820    0.14490   68.12000  114.50830 3911.35080
 6069.00000   99.20990    0.14540   68.14940  114.75420 3918.64090
 6069.50000  106.08900    0.15020   68.67200  115.21100 3930.66970
 6070.00000  103.30620    0.15510   69.49070  115.05310 3929.89180
 6070.50000   95.35610    0.15860   69.88030  114.62280 3929.11400
 6071.00000   86.61850    0.15630   69.89710  114.45680 3928.33620
 6071.50000   77.96600    0.14610   68.70340  114.60440 3927.55830
 6072.00000   73.77800    0.13030   66.37220  114.84700 3925.12110
 6072.50000   70.06150    0.11830   64.47110  114.97620 3898.59470
 6073.00000   67.01030    0.11430   63.72580  115.82940 3897.76120
 6073.50000   64.88360    0.12470   65.01350  117.90150 3899.17820
 6074.00000   65.10200    0.14190   67.65140  119.73870 3900.00290
 6074.50000   65.39110    0.15870   69.55050  121.20440 3900.82790
 6075.00000   64.81830    0.16170   70.37240  121.76050 3902.86040
 6075.50000   63.35000    0.15950   70.12840  122.02430 3909.18120
 6076.00000   61.95790    0.15770   69.93510  122.19270 3915.50200
 6076.50000   60.56570    0.15620   69.74180  122.38750 3921.82280
 6077.00000   58.97490    0.15690   69.63180  123.06880 3928.14380
 6077.50000   57.42820    0.16180   69.99350  124.24170 3934.46460
 6078.00000   57.16250    0.17230   71.85300  125.87560 3940.78540
 6078.50000   56.49850    0.18310   73.34790  127.29010 3947.10620
 6079.00000   55.99330    0.18750   74.11250  128.59020 3953.42720
 6079.50000   57.35650    0.18880   74.28020  129.89020 3962.11740
 6080.00000   65.02740    0.18870   74.15950  130.17200 3963.62520
 6080.50000   71.77850    0.18860   74.03250  130.77190 3961.35790
 6081.00000   77.80560    0.18850   74.16010  131.62460 3959.09060
 6081.50000   77.17800    0.18890   74.25350  131.58140 3956.82320
 6082.00000   72.94220    0.18640   73.96880  130.66840 3954.55590
 6082.50000   67.97650    0.18520   73.77610  129.92310 3952.11990
 6083.00000   65.15570    0.18540   73.77280  129.03180 3947.58150
 6083.50000   65.61040    0.18460   73.69380  128.03660 3939.28080
 6084.00000   69.73380    0.18110   73.23820  127.04150 3927.36160
 6084.50000   74.31340    0.17780   72.82720  126.04630 3915.44240
 6085.00000   74.97890    0.17860   72.86380  125.99860 3903.52320
 6085.50000   75.50820    0.18060   73.08690  126.98720 3891.60400
 6086.00000   78.17360    0.18270   73.41180  127.26700 3879.68480
 6086.50000   81.84700    0.18590   73.87150  127.53590 3863.85890
 6087.00000   81.81070    0.18980   74.31520  127.80490 3848.29640
 6087.50000   79.83280    0.19360   74.78660  127.88510 3842.94650
 6088.00000   77.53690    0.19640   75.36130  128.00870 3864.58150
 6088.50000   75.10510    0.19710   75.37230  127.86870 3880.01980
 6089.00000   72.02380    0.19330   74.95280  127.69220 3855.67940
 6089.50000   69.31870    0.18980   74.42920  127.47190 3859.32080
