~Version ---------------------------------------------------
VERS.   2.0 : CWLS log ASCII Standard -VERSION 2.0
WRAP.    NO : One line per depth step
DLM . SPACE : Column Data Section Delimiter
~Well ------------------------------------------------------
STRT .F                 4770.0 : START DEPTH
STOP .F                11010.0 : STOP DEPTH
STEP .F                    0.5 : STEP
NULL .                -9999.25 : NULL VALUE
COMP .                         : COMPANY
WELL .                         : WELL
FLD  .                         : FIELD
LOC  .                         : LOCATION
PROV .                         : PROVINCE
CNTY .                         : COUNTY
STAT .                         : STATE
CTRY .                         : COUNTRY
SRVC .                         : SERVICE COMPANY
DATE .                         : DATE
UWI  .                         : UNIQUE WELL ID
API  .                         : API NUMBER
SLAT .WGS84 1.8285756807397995 : SURFACE LATITUDE
SLON .WGS84  8.148190691168992 : SURFACE LONGITUDE
DATUM.F                    nan : DEPTH DATUM ELEV
~Curve Information -----------------------------------------
DEPT   .F     : 1 MEASURED DEPTH
GR_EDTC.GAPI  : GAMMA RAY
SPHI_LS.DEC   : SONIC POROSITY [LIMESTONE]
DTCO   .US/F  : DELTA-T COMPRESSIONAL
DTSM   .US/F  : DELTA-T SHEAR
TENS   .LB    : TENSION FROM SONIC LOG
~Params ----------------------------------------------------
~Other -----------------------------------------------------
~ASCII -----------------------------------------------------
# ...
 6390.00000  135.67150    0.11770   64.22260  106.22250 3957.41020
 6390.50000   95.60530    0.10300   62.40590  104.40380 4006.59590
 6391.00000   70.07560    0.09980   61.57920  103.78710 4029.43770
 6391.50000   54.05450    0.09890   61.47260  104.54660 3962.19850
 6392.00000   48.31220    0.10720   62.44790  105.50860 3954.13650
 6392.50000   53.90550    0.11600   64.35360  106.58900 3982.64040
 6393.00000   66.48080    0.12370   65.66130  107.77550 3972.52930
 6393.50000   74.92310    0.12820   65.72660  108.83920 3952.33230
 6394.00000   81.49410    0.12850   65.72660  110.35780 3932.13530
 6394.50000   82.61260    0.12900   65.82980  111.66120 3921.24170
 6395.00000   80.98090    0.13400   66.44260  112.63520 3926.58540
 6395.50000   79.31640    0.14030   67.45010  113.22640 3931.92940
 6396.00000   81.69800    0.14470   67.95100  113.26480 3937.27320
 6396.50000   85.19040    0.14570   68.24400  113.15360 3942.61720
 6397.00000   85.99600    0.14620   68.30880  112.80220 3936.64870
 6397.50000   84.70450    0.14750   68.36940  112.44870 3917.45070
 6398.00000   82.93200    0.14660   68.35400  112.03260 3906.67020
 6398.50000   82.74440    0.14450   68.10140  111.54600 3934.82980
 6399.00000   83.11060    0.14190   67.73750  111.05950 3967.81570
 6399.50000   81.62150    0.13980   67.46830  110.31030 3986.38870
 6400.00000   77.71200    0.13670   66.88310  108.67420 3975.03930
 6400.50000   73.49440    0.13070   66.11690  107.01620 3960.20800
 6401.00000   72.82120    0.11780   64.30630  104.88220 3960.72970
 6401.50000   72.17270    0.10670   62.73530  103.72910 3965.45430
 6402.00000   67.22030    0.09530   61.22300  103.27840 3970.17920
 6402.50000   60.37100    0.09160   60.55820  102.84700 3983.90450
 6403.00000   55.52550    0.09760   61.31920  102.41560 4014.01900
 6403.50000   55.73310    0.10740   62.80780  102.82490 4044.13380
 6404.00000   60.44760    0.11630   63.69910  103.54260 4065.03170
 6404.50000   65.75720    0.12000   64.53370  104.35910 4034.68600
 6405.00000   72.65480    0.12650   65.27910  106.62500 4004.34060
 6405.50000   81.85840    0.13430   66.52420  109.33370 3999.30130
 6406.00000   94.34320    0.15110   68.66280  111.74470 3994.56010
 6406.50000  105.39960    0.16590   70.82880  113.33120 3989.55690
 6407.00000  130.93210    0.17630   72.11790  114.43950 3984.55370
 6407.50000  169.71530    0.17810   72.90440  114.24720 3979.55050
 6408.00000  221.28960    0.17000   71.53720  113.20570 3974.54760
 6408.50000  235.67050    0.14940   69.27690  111.70310 3968.12350
 6409.00000  203.05560    0.12830   65.92460  109.38170 3961.12450
 6409.50000  162.82410    0.11270   63.42770  106.60120 3960.00390
 6410.00000  122.59270    0.10080   61.87770  104.13360 3960.06980
 6410.50000   99.75930    0.09720   61.39370  104.39780 3960.13570
 6411.00000   98.76470    0.09590   60.96360  105.03930 3960.20170
 6411.50000   99.49400    0.09840   61.19330  106.01620 3960.26760
 6412.00000  100.45110    0.10370   62.11920  106.20810 3960.33350
 6412.50000  102.06570    0.10990   63.04500  106.32370 3960.39940
 6413.00000  105.99870    0.11310   63.63910  105.96270 3960.35280
 6413.50000  112.13330    0.11370   63.61810  105.60170 3958.90280
 6414.00000  119.30790    0.11150   63.33760  105.48040 3957.45310
 6414.50000  127.18440    0.11170   63.24350  106.00860 3956.00320
 6415.00000  131.37950    0.11770   64.17940  107.02680 3954.55320
 6415.50000  134.49100    0.12440   65.04890  109.00970 3953.10330
 6416.00000  141.60320    0.13250   66.23530  111.10300 3951.65360
 6416.50000  157.15720    0.14340   67.65980  113.21590 3950.20360
 6417.00000  170.19260    0.15410   69.24790  114.50080 3948.75370
 6417.50000  184.05590    0.15870   69.90040  114.53840 3949.75440
 6418.00000  198.94940    0.15770   69.78200  114.09770 3952.40010
 6418.50000  202.76720    0.15370   69.38160  112.95580 3955.04590
 6419.00000  186.81500    0.14760   68.64410  111.71280 3957.69170
 6419.50000  160.13960    0.14070   67.53430  110.81500 3960.33720
 6420.00000  133.38200    0.13430   66.76910  110.31980 3962.98290
 6420.50000  106.62430    0.13310   66.33330  110.23900 3965.62870
 6421.00000   83.21920    0.13210   66.23350  110.53310 3968.27440
 6421.50000   66.39160    0.13190   66.32550  110.96450 3970.91990
 6422.00000   62.14190    0.13480   66.59670  111.62330 3973.56570
 6422.50000   63.01170    0.13780   66.97190  112.47960 3970.45530
 6423.00000   64.75050    0.14130   67.45420  113.13020 3966.71510
 6423.50000   66.40310    0.14360   67.83540  113.70730 3962.97490
 6424.00000   68.21700    0.14550   68.09620  113.89750 3959.23460
 6424.50000   70.05090    0.14720   68.35430  114.10690 3957.64140
 6425.00000   71.55040    0.14890   68.61240  113.78890 3963.17750
 6425.50000   72.13890    0.15060   68.85170  113.07690 3968.71340
 6426.00000   72.15210    0.15060   68.82440  112.36450 3974.24930
 6426.50000   72.16530    0.14420   67.89570  111.36790 3979.78540
 6427.00000   71.88180    0.13450   66.75460  110.69220 3983.13040
 6427.50000   71.21730    0.12840   65.73600  110.21300 3984.69530
 6428.00000   68.61840    0.12400   65.10540  111.34740 3986.26030
 6428.50000   65.03410    0.12230   64.85390  112.56500 3987.82520
 6429.00000   63.50180    0.12720   65.62450  113.42180 3989.39040
 6429.50000   63.99080    0.13660   66.67880  114.69080 3990.95530
 6430.00000   65.51170    0.14040   67.34230  115.18970 3992.52030
 6430.50000   65.93900    0.14330   67.75270  115.43360 3994.08520
 6431.00000   65.93850    0.14530   68.12130  115.67760 3995.65010
 6431.50000   66.15260    0.14700   68.30990  115.34560 3983.70870
 6432.00000   66.54560    0.14610   68.35680  114.32220 3967.35820
 6432.50000   65.46610    0.14410   68.03220  113.48360 3963.05520
 6433.00000   62.27510    0.14320   67.80980  113.32950 3963.73780
 6433.50000   59.94680    0.14860   68.41300  113.80520 3963.61380
 6434.00000   59.45860    0.16010   70.15030  114.39360 3965.37040
 6434.50000   63.12350    0.17190   71.98060  115.42260 3967.21750
 6435.00000   78.85570    0.18070   73.12780  115.46700 3969.06450
 6435.50000  116.25930    0.18020   73.15020  114.82510 3970.91160
 6436.00000  161.44850    0.17840   72.86380  114.18320 3972.75850
 6436.50000  191.79260    0.16770   71.16260  113.36740 3974.60570
 6437.00000  188.56500    0.15370   69.18590  112.21880 3976.45260
 6437.50000  170.19740    0.13930   67.11970  111.03880 3978.29980
 6438.00000  154.49840    0.12740   65.70050  109.83360 3980.14670
 6438.50000  138.79930    0.11720   64.30740  108.54580 3981.99390
 6439.00000  115.88920    0.11160   63.51500  107.25800 3983.84080
 6439.50000  100.45390    0.11290   63.46070  105.88820 3985.68770
 6440.00000   89.06100    0.11400   63.61450  104.92240 3984.14670
 6440.50000   81.41320    0.11470   63.82540  104.96920 3979.63940
 6441.00000   73.07900    0.11390   63.64290  105.18680 3975.13180
 6441.50000   65.27260    0.11250   63.50290  106.04190 3970.62450
 6442.00000   65.08840    0.11200   63.52030  106.92610 3966.11720
 6442.50000   68.41820    0.11340   63.59090  107.46610 3956.17770
 6443.00000   72.35660    0.11440   63.65970  107.50310 3943.16480
 6443.50000   75.59080    0.11690   64.03840  107.24210 3931.22560
 6444.00000   78.86550    0.12010   64.63590  107.16960 3920.74610
 6444.50000   85.37000    0.12530   65.31520  107.09710 3920.01000
 6445.00000   95.19890    0.12890   65.79690  107.02460 3926.38430
 6445.50000  105.41220    0.13020   65.90210  107.17480 3932.75850
 6446.00000  109.70430    0.13060   65.90690  107.97780 3939.13280
 6446.50000  106.83960    0.13090   65.86210  108.45700 3945.50710
 6447.00000  101.84460    0.13130   66.07400  109.05200 3951.88130
 6447.50000   98.31480    0.13430   66.51280  109.49250 3958.25560
 6448.00000   94.97950    0.13750   67.03580  109.83570 3959.85300
 6448.50000   90.31260    0.14040   67.53700  110.16870 3957.97830
 6449.00000   83.04570    0.14310   67.72970  110.48780 3956.10380
 6449.50000   76.35540    0.14080   67.50430  111.06720 3954.22920
