~Version ---------------------------------------------------
VERS.   2.0 : CWLS log ASCII Standard -VERSION 2.0
WRAP.    NO : One line per depth step
DLM . SPACE : Column Data Section Delimiter
~Well ------------------------------------------------------
STRT .F                 4770.0 : START DEPTH
STOP .F                11010.0 : STOP DEPTH
STEP .F                    0.5 : STEP
NULL .                -9999.25 : NULL VALUE
COMP .                         : COMPANY
WELL .                         : WELL
FLD  .                         : FIELD
LOC  .                         : LOCATION
PROV .                         : PROVINCE
CNTY .                         : COUNTY
STAT .                         : STATE
CTRY .                         : COUNTRY
SRVC .                         : SERVICE COMPANY
DATE .                         : DATE
UWI  .                         : UNIQUE WELL ID
API  .                         : API NUMBER
SLAT .WGS84 1.8285756807397995 : SURFACE LATITUDE
SLON .WGS84  8.148190691168992 : SURFACE LONGITUDE
DATUM.F                    nan : DEPTH DATUM ELEV
~Curve Information -----------------------------------------
DEPT   .F     : 1 MEASURED DEPTH
GR_EDTC.GAPI  : GAMMA RAY
SPHI_LS.DEC   : SONIC POROSITY [LIMESTONE]
DTCO   .US/F  : DELTA-T COMPRESSIONAL
DTSM   .US/F  : DELTA-T SHEAR
TENS   .LB    : TENSION FROM SONIC LOG
~Params ----------------------------------------------------
~Other -----------------------------------------------------
~ASCII -----------------------------------------------------
# ...
 5190.00000   70.26710    0.17200   71.75610  124.58650 3697.49440
 5190.50000   77.87030    0.17130   71.72920  124.21080 3716.79710
 5191.00000   83.27040    0.17340   72.12360  123.83510 3725.45360
 5191.50000   85.91790    0.17710   72.73560  123.62360 3727.77510
 5192.00000   85.93780    0.17990   72.99910  123.76260 3730.04740
 5192.50000   80.61260    0.17520   72.61440  123.82610 3732.14970
 5193.00000   75.73260    0.16750   71.22820  124.49370 3734.25200
 5193.50000   73.23110    0.16250   70.58370  124.87020 3732.83330
 5194.00000   70.23060    0.16230   70.52120  125.19140 3731.12010
 5194.50000   66.92990    0.16200   70.54220  125.92300 3729.40700
 5195.00000   59.53280    0.16220   70.56320  127.48780 3679.88700
 5195.50000   52.70790    0.16300   70.58420  129.14730 3642.84350
 5196.00000   46.84650    0.17250   72.12240  130.78290 3646.25660
 5196.50000   45.42630    0.18850   74.38790  132.35520 3645.50590
 5197.00000   45.87140    0.20100   76.04670  134.77950 3645.85030
 5197.50000   47.60950    0.20240   76.13510  136.14710 3626.41870
 5198.00000   51.81590    0.20000   75.74830  136.40650 3611.25270
 5198.50000   57.25700    0.19940   75.57100  136.38500 3610.64920
 5199.00000   57.97270    0.19950   75.70250  135.94200 3610.91700
 5199.50000   53.13770    0.20070   75.89860  135.49890 3631.06910
 5200.00000   48.02400    0.20190   76.07520  135.05590 3653.20140
 5200.50000   46.18880    0.20200   76.16890  134.69390 3674.77050
 5201.00000   47.73140    0.20130   76.08790  134.75980 3685.36330
 5201.50000   50.21300    0.20080   75.99700  134.61940 3695.72000
 5202.00000   51.31190    0.20140   75.99910  134.61420 3699.22780
 5202.50000   52.13520    0.20230   76.06000  134.61080 3695.18850
 5203.00000   58.56370    0.20230   76.18630  134.72870 3695.45730
 5203.50000   68.98090    0.20230   76.23310  134.59120 3670.79390
 5204.00000   79.40860    0.20260   76.24010  134.54990 3654.02420
 5204.50000   80.69650    0.20290   76.23900  134.49130 3653.27120
 5205.00000   72.92260    0.20080   76.03940  134.43270 3631.87350
 5205.50000   66.15130    0.19740   75.56040  134.30800 3610.47610
 5206.00000   65.02840    0.19600   75.17700  134.01110 3589.07840
 5206.50000   69.19930    0.19630   75.19330  134.04950 3584.95700
 5207.00000   75.74450    0.19770   75.45400  135.86710 3584.37210
 5207.50000   81.40980    0.20040   75.77380  139.60620 3602.39110
 5208.00000   85.27970    0.21220   77.53790  143.49520 3628.95780
 5208.50000   83.01050    0.22410   79.37010  147.12690 3663.38040
 5209.00000   76.89230    0.23170   80.54340  148.04450 3692.39280
 5209.50000   70.80680    0.23310   80.52290  146.03380 3685.41140
 5210.00000   70.80640    0.23300   80.50240  141.98110 3683.07180
 5210.50000   76.88240    0.23210   80.47320  137.92850 3686.44680
 5211.00000   82.89320    0.22500   79.35110  136.14290 3693.95120
 5211.50000   84.58670    0.21330   77.97860  138.67500 3707.32570
 5212.00000   84.26390    0.21110   77.38330  142.68800 3697.54640
 5212.50000   77.36750    0.22040   78.41560  146.39920 3687.76730
 5213.00000   69.24790    0.23180   80.28250  149.45880 3670.77390
 5213.50000   58.66980    0.23820   81.28100  149.31930 3653.53300
 5214.00000   48.55700    0.24360   82.02200  147.45780 3627.39160
 5214.50000   43.54400    0.24890   82.76720  146.41060 3608.24680
 5215.00000   41.36610    0.25160   83.12600  145.97800 3625.15060
 5215.50000   41.41170    0.25210   83.10510  146.22500 3611.06420
 5216.00000   46.68790    0.25140   83.05670  146.72570 3610.00660
 5216.50000   53.96650    0.24960   82.83210  147.74530 3630.31050
 5217.00000   61.27440    0.24290   81.93950  148.78830 3651.40380
 5217.50000   62.89720    0.23160   80.32460  148.15490 3672.49680
 5218.00000   57.60570    0.22380   79.14100  146.86430 3687.66670
 5218.50000   51.57300    0.22540   79.40760  145.19850 3697.14040
 5219.00000   49.15020    0.22850   79.96100  144.39140 3706.61400
 5219.50000   50.97890    0.23130   80.37480  144.10730 3707.02290
 5220.00000   54.65410    0.22920   79.96880  143.28860 3699.11430
 5220.50000   52.79490    0.22730   79.49440  142.18720 3691.20530
 5221.00000   49.36870    0.22310   79.11370  141.24120 3686.30400
 5221.50000   46.90660    0.21680   78.23740  140.63330 3686.83180
 5222.00000   45.87110    0.20590   76.78830  139.65520 3677.48610
 5222.50000   46.16730    0.19980   75.65060  138.19380 3659.46240
 5223.00000   44.95700    0.19840   75.63850  137.94780 3629.63400
 5223.50000   44.41410    0.20030   75.87040  138.39430 3603.39500
 5224.00000   52.70890    0.20200   76.13810  139.59180 3603.93530
 5224.50000   65.84610    0.20690   76.91660  142.88440 3604.42920
 5225.00000   77.67560    0.21830   78.40560  145.46340 3595.49630
 5225.50000   76.63850    0.22600   79.67820  146.73380 3586.56370
 5226.00000   72.12450    0.22780   79.71100  147.79640 3579.87330
 5226.50000   66.33160    0.22820   79.74760  148.00110 3599.29100
 5227.00000   62.26950    0.22800   79.80450  146.74190 3618.01780
 5227.50000   60.56590    0.22620   79.63670  144.78960 3628.00100
 5228.00000   59.24500    0.22390   79.36440  142.73500 3642.58500
 5228.50000   57.92980    0.22200   79.00110  140.58200 3664.90210
 5229.00000   56.14940    0.21470   78.21270  138.48960 3687.21900
 5229.50000   54.10200    0.20750   76.62670  137.28930 3690.28270
 5230.00000   52.24070    0.20090   75.99910  136.77970 3691.07670
 5230.50000   50.79040    0.19770   75.40460  136.31320 3694.71560
 5231.00000   49.63460    0.19320   74.67770  136.44230 3699.38090
 5231.50000   47.47960    0.18960   74.42790  135.91870 3699.07760
 5232.00000   46.10140    0.19230   74.67880  135.16130 3693.74000
 5232.50000   46.06270    0.19490   75.13400  134.73460 3653.49950
 5233.00000   52.49880    0.19720   75.43720  134.90150 3648.69560
 5233.50000   60.78450    0.20020   75.71360  136.59890 3627.30220
 5234.00000   67.81120    0.20340   76.19500  138.77350 3607.57520
 5234.50000   66.99500    0.20730   76.69350  141.42240 3593.82100
 5235.00000   60.14530    0.21500   78.02550  144.06890 3580.06710
 5235.50000   54.40170    0.22560   79.56940  145.78420 3574.86690
 5236.00000   52.98780    0.23090   80.18960  146.40100 3573.91870
 5236.50000   51.14650    0.23120   80.31230  147.38650 3572.97050
 5237.00000   47.78820    0.23140   80.30550  149.35860 3596.15410
 5237.50000   44.20770    0.23130   80.29880  150.85910 3634.00950
 5238.00000   43.25300    0.23110   80.29210  151.65330 3660.35620
 5238.50000   43.29560    0.23110   80.28530  152.07750 3686.70290
 5239.00000   43.13090    0.23150   80.26850  152.16950 3686.60280
 5239.50000   43.32200    0.23190   80.23660  152.14660 3677.87010
 5240.00000   45.49370    0.23220   80.34850  151.65860 3669.13750
 5240.50000   47.98030    0.23300   80.46040  150.80340 3660.40450
 5241.00000   48.84840    0.23290   80.47970  148.94020 3643.17680
 5241.50000   47.91250    0.23130   80.32720  146.38730 3637.22510
 5242.00000   45.70270    0.22930   80.04780  143.74900 3643.65360
 5242.50000   43.53720    0.22710   79.74640  141.64420 3645.86960
 5243.00000   42.07760    0.22050   78.65660  140.33090 3622.34130
 5243.50000   40.69770    0.20930   77.34610  139.10370 3599.02710
 5244.00000   41.07110    0.20630   76.59970  138.10260 3576.95920
 5244.50000   41.87100    0.20810   77.03720  138.06020 3568.14500
 5245.00000   46.31450    0.21310   77.84450  139.08890 3576.14010
 5245.50000   50.08320    0.21750   78.30070  140.24540 3596.86650
 5246.00000   53.19870    0.22090   78.77740  141.06930 3617.31710
 5246.50000   52.44730    0.22440   79.32740  141.50790 3637.47880
 5247.00000   49.11350    0.22620   79.56210  142.31750 3663.76320
 5247.50000   45.60160    0.22540   79.52690  143.36970 3692.40720
 5248.00000   44.32700    0.22440   79.33100  143.87160 3698.90670
 5248.50000   46.62570    0.22370   79.21960  144.39710 3736.41190
 5249.00000   49.23050    0.22390   79.16550  144.86670 3739.02560
 5249.50000   49.96280    0.22410   79.17520  145.00070 3739.71040
