~Version ---------------------------------------------------
VERS.   2.0 : CWLS log ASCII Standard -VERSION 2.0
WRAP.    NO : One line per depth step
DLM . SPACE : Column Data Section Delimiter
~Well ------------------------------------------------------
STRT .F                 4770.0 : START DEPTH
STOP .F                11010.0 : STOP DEPTH
STEP .F                    0.5 : STEP
NULL .                -9999.25 : NULL VALUE
COMP .                         : COMPANY
WELL .                         : WELL
FLD  .                         : FIELD
LOC  .                         : LOCATION
PROV .                         : PROVINCE
CNTY .                         : COUNTY
STAT .                         : STATE
CTRY .                         : COUNTRY
SRVC .                         : SERVICE COMPANY
DATE .                         : DATE
UWI  .                         : UNIQUE WELL ID
API  .                         : API NUMBER
SLAT .WGS84 1.8285756807397995 : SURFACE LATITUDE
SLON .WGS84  8.148190691168992 : SURFACE LONGITUDE
DATUM.F                    nan : DEPTH DATUM ELEV
~Curve Information -----------------------------------------
DEPT   .F     : 1 MEASURED DEPTH
GR_EDTC.GAPI  : GAMMA RAY
SPHI_LS.DEC   : SONIC POROSITY [LIMESTONE]
DTCO   .US/F  : DELTA-T COMPRESSIONAL
DTSM   .US/F  : DELTA-T SHEAR
TENS   .LB    : TENSION FROM SONIC LOG
~Params ----------------------------------------------------
~Other -----------------------------------------------------
~ASCII -----------------------------------------------------
# ...
 10521.00000  104.44830    0.22390   78.47980  128.57960 5468.63530
 10521.50000  103.04820    0.19780   75.20020  127.02240 5421.86520
 10522.00000  100.72240    0.17770   73.05890  126.15910 5370.13720
 10522.50000   95.56350    0.17350   72.12540  125.99020 5396.48930
 10523.00000   84.97620    0.17830   72.78910  126.99720 5463.85300
 10523.50000   75.60550    0.18780   74.09350  127.05020 5511.92970
 10524.00000   75.81920    0.19580   75.86600  126.52730 5489.10210
 10524.50000   83.72930    0.19520   75.18120  125.71210 5448.05710
 10525.00000   94.55670    0.17760   72.78280  124.94810 5421.22560
 10525.50000  101.11500    0.16330   70.97170  123.52060 5410.67430
 10526.00000   99.20000    0.15990   70.11080  122.45140 5407.92090
 10526.50000   82.52510    0.15960   69.86150  122.16300 5405.16700
 10527.00000   69.76730    0.17260   71.72840  122.70040 5402.41360
 10527.50000   64.43530    0.18680   74.17610  123.50240 5373.19870
 10528.00000   69.47940    0.18430   74.16150  123.36940 5278.28030
 10528.50000   72.76600    0.17840   72.73940  122.22340 5270.62990
 10529.00000   74.83310    0.17180   71.88450  119.32330 5310.51860
 10529.50000   74.79180    0.16040   70.84290  115.58320 5352.15040
 10530.00000   66.47720    0.14270   67.63700  111.65500 5393.32710
 10530.50000   58.40540    0.12730   65.68410  109.34780 5426.92630
 10531.00000   50.55250    0.12470   64.92960  109.53740 5428.95800
 10531.50000   48.80240    0.13120   66.15860  111.35150 5381.87350
 10532.00000   49.15090    0.14030   67.32090  114.79890 5349.48050
 10532.50000   50.30100    0.15380   69.40340  119.13520 5350.62110
 10533.00000   57.99070    0.19200   73.73310  123.29140 5350.59770
 10533.50000   73.12010    0.22630   79.32540  128.09090 5352.10890
 10534.00000   87.93550    0.24100   81.32450  131.34370 5355.88130
 10534.50000   95.67240    0.23420   80.75030  132.49940 5359.65330
 10535.00000   96.94690    0.22770   79.75410  132.37330 5342.18310
 10535.50000   96.49190    0.22130   79.17900  131.23820 5363.86720
 10536.00000   92.55390    0.21310   77.39260  129.47070 5385.55130
 10536.50000   87.49510    0.19540   75.33020  127.52050 5400.05030
 10537.00000   85.41950    0.17990   73.08260  126.07330 5399.15720
 10537.50000   86.21040    0.17460   72.03530  124.49450 5382.90530
 10538.00000   86.79840    0.17200   71.77810  123.06210 5373.65870
 10538.50000   83.63140    0.17280   71.85980  122.15070 5378.13920
 10539.00000   77.10190    0.18140   72.69330  122.89060 5382.61960
 10539.50000   75.29700    0.19050   74.46320  124.84320 5387.10010
 10540.00000   77.48640    0.19900   75.55120  125.98830 5389.44140
 10540.50000   86.50610    0.19980   75.73800  126.67010 5377.57710
 10541.00000   95.96620    0.19880   75.68700  126.62570 5365.71290
 10541.50000  103.09760    0.19700   75.48950  124.81940 5353.84860
 10542.00000  103.51670    0.19370   75.06690  123.22420 5363.91360
 10542.50000   94.52750    0.18970   74.42210  122.41180 5382.47610
 10543.00000   84.84240    0.17540   72.74940  121.50620 5405.71680
 10543.50000   78.89380    0.16040   70.12310  120.40640 5421.75240
 10544.00000   78.51290    0.14530   68.56290  119.06480 5372.38280
 10544.50000   77.82970    0.14320   67.80210  117.79030 5334.86910
 10545.00000   73.20880    0.14290   67.62920  117.87760 5324.00540
 10545.50000   67.65230    0.14700   68.13570  117.58900 5386.44480
 10546.00000   64.94220    0.16960   71.24230  117.22070 5447.55080
 10546.50000   65.29450    0.17520   72.32050  117.88280 5477.48490
 10547.00000   66.27340    0.16750   71.17170  120.67880 5413.32080
 10547.50000   66.73490    0.16130   69.92880  122.37600 5344.10160
 10548.00000   67.67140    0.15880   69.78710  123.83800 5361.34470
 10548.50000   68.19730    0.15940   69.95360  125.12550 5403.53470
 10549.00000   67.43810    0.16670   70.81520  126.18030 5446.17090
 10549.50000   66.69900    0.20630   76.24430  127.91120 5446.79590
 10550.00000   73.39140    0.24490   81.04370  130.73820 5412.05960
 10550.50000   82.74050    0.24460   82.24750  132.48180 5377.32320
 10551.00000   86.43510    0.24200   81.75280  132.25030 5342.58690
 10551.50000   88.82830    0.23460   80.90320  130.14100 5329.75290
 10552.00000   89.14470    0.21720   78.26920  128.29530 5411.30910
 10552.50000   89.44480    0.20200   76.00350  126.80050 5477.96140
 10553.00000   88.77670    0.18380   73.51920  124.29230 5478.97070
 10553.50000   88.43040    0.17020   71.35500  122.25130 5334.70020
 10554.00000   89.79290    0.15430   69.82450  119.98660 5314.06540
 10554.50000   87.81210    0.15080   68.83590  117.49830 5356.92190
 10555.00000   77.71920    0.14670   68.22280  115.09480 5371.72310
 10555.50000   62.11060    0.13950   66.97120  113.29670 5433.94730
 10556.00000   50.84910    0.12040   64.73720  111.49440 5486.87840
 10556.50000   49.57710    0.12000   64.52600  111.28430 5448.09520
 10557.00000   53.42090    0.12630   65.46210  112.70490 5376.15480
 10557.50000   54.59930    0.13100   66.41230  115.64830 5382.72510
 10558.00000   55.33350    0.14300   67.80860  118.91740 5442.02390
 10558.50000   61.21180    0.15890   70.18890  122.11250 5463.84670
 10559.00000   73.97660    0.18400   74.13460  124.30900 5451.47510
 10559.50000   84.19700    0.20330   76.26760  125.56580 5456.22560
 10560.00000   85.23310    0.20890   77.32280  126.54850 5403.08300
 10560.50000   84.70830    0.21270   77.52090  127.67960 5377.24070
 10561.00000   86.53460    0.21620   77.81050  129.56360 5434.52440
 10561.50000   90.74190    0.21970   78.30120  130.98560 5491.88380
 10562.00000   96.07980    0.21980   78.68470  131.09480 5487.20020
 10562.50000   99.76650    0.21480   78.13550  130.52210 5428.15820
 10563.00000  104.90840    0.19620   75.64250  126.75980 5381.85400
 10563.50000  112.66840    0.18130   73.12860  123.55490 5353.27980
 10564.00000  112.36440    0.16760   70.77650  122.10350 5389.31150
 10564.50000   97.50160    0.15290   69.10690  119.74650 5438.45410
 10565.00000   78.73990    0.14290   67.46170  118.23230 5487.59620
 10565.50000   63.50020    0.14510   67.48780  118.37990 5479.07320
 10566.00000   63.15070    0.18010   71.96640  121.45050 5427.12740
 10566.50000   69.58920    0.20380   76.77980  126.27590 5372.48290
 10567.00000   75.42770    0.22170   78.80020  128.28370 5381.00100
 10567.50000   83.56450    0.22250   79.10390  127.84790 5406.50630
 10568.00000   91.31190    0.20350   76.02290  126.36490 5432.01120
 10568.50000   90.11470    0.17800   72.59550  124.04770 5439.78220
 10569.00000   78.85970    0.15770   69.86130  122.69380 5412.10940
 10569.50000   62.65360    0.15890   69.39160  122.67140 5354.16600
 10570.00000   49.90600    0.16020   69.77060  124.55020 5373.75880
 10570.50000   46.46630    0.16250   70.61190  125.77450 5419.98680
 10571.00000   55.23540    0.17520   72.92520  128.59560 5458.94040
 10571.50000   69.30220    0.19750   75.75180  131.43140 5470.75930
 10572.00000   84.01980    0.21780   77.54750  133.23960 5456.25830
 10572.50000   95.91420    0.22100   78.80500  133.28310 5437.28610
 10573.00000  102.55200    0.22120   78.84400  131.48170 5367.63530
 10573.50000  104.63780    0.22090   78.65570  127.07300 5393.20650
 10574.00000  101.49030    0.21670   77.55100  121.07630 5488.99950
 10574.50000   94.89360    0.19840   74.98090  116.15920 5526.56790
 10575.00000   79.52730    0.15550   68.97790  111.11220 5534.63330
 10575.50000   64.82760    0.11310   63.07480  105.77570 5542.69870
 10576.00000   54.43320    0.08040   58.63810  105.18550 5537.36520
 10576.50000   47.46600    0.06710   57.01570  104.49810 5512.28860
 10577.00000   41.79350    0.06690   56.88990  105.08260 5515.79490
 10577.50000   39.14160    0.07570   58.07650  105.97500 5532.68360
 10578.00000   41.27580    0.10770   63.32620  107.99180 5520.35690
 10578.50000   54.93990    0.14490   67.84790  113.28270 5508.03080
 10579.00000   69.20900    0.17200   72.06870  118.77870 5495.70410
 10579.50000   75.98570    0.17850   73.15280  122.62790 5483.37790
