~Version ---------------------------------------------------
VERS.   2.0 : CWLS log ASCII Standard -VERSION 2.0
WRAP.    NO : One line per depth step
DLM . SPACE : Column Data Section Delimiter
~Well ------------------------------------------------------
STRT .F                 4770.0 : START DEPTH
STOP .F                11010.0 : STOP DEPTH
STEP .F                    0.5 : STEP
NULL .                -9999.25 : NULL VALUE
COMP .                         : COMPANY
WELL .                         : WELL
FLD  .                         : FIELD
LOC  .                         : LOCATION
PROV .                         : PROVINCE
CNTY .                         : COUNTY
STAT .                         : STATE
CTRY .                         : COUNTRY
SRVC .                         : SERVICE COMPANY
DATE .                         : DATE
UWI  .                         : UNIQUE WELL ID
API  .                         : API NUMBER
SLAT .WGS84 1.8285756807397995 : SURFACE LATITUDE
SLON .WGS84  8.148190691168992 : SURFACE LONGITUDE
DATUM.F                    nan : DEPTH DATUM ELEV
~Curve Information -----------------------------------------
DEPT   .F     : 1 MEASURED DEPTH
GR_EDTC.GAPI  : GAMMA RAY
SPHI_LS.DEC   : SONIC POROSITY [LIMESTONE]
DTCO   .US/F  : DELTA-T COMPRESSIONAL
DTSM   .US/F  : DELTA-T SHEAR
TENS   .LB    : TENSION FROM SONIC LOG
~Params ----------------------------------------------------
~Other -----------------------------------------------------
~ASCII -----------------------------------------------------
# ...
 7230.00000   76.65500    0.08980   60.29820   95.93160 4132.61960
 7230.50000   66.40390    0.08310   59.30990   95.92410 4124.15820
 7231.00000   56.54220    0.08280   59.34700   95.91650 4180.69730
 7231.50000   51.47470    0.08610   59.75070   95.73790 4210.49950
 7232.00000   54.26680    0.09090   60.45190   95.74240 4220.01560
 7232.50000   67.69950    0.09570   61.24440   95.81300 4146.47120
 7233.00000   80.52100    0.09910   61.78160   96.34270 4181.80180
 7233.50000   88.08290    0.09670   61.38550   96.97100 4239.71630
 7234.00000   88.39360    0.09350   60.79380   97.21660 4268.99320
 7234.50000   81.94460    0.09100   60.49280   97.43140 4222.89110
 7235.00000   75.49570    0.09120   60.45880   97.54770 4197.77490
 7235.50000   75.60930    0.09390   60.68850   97.80940 4232.66890
 7236.00000   89.25680    0.09710   61.44520   98.11570 4273.13720
 7236.50000  100.36380    0.10030   61.94520   98.65400 4289.98540
 7237.00000  107.63310    0.10160   62.00520   99.19240 4158.74270
 7237.50000  104.76230    0.10280   62.06250   99.88940 4187.49370
 7238.00000   98.74760    0.10440   62.22870  100.63870 4244.19090
 7238.50000   96.91590    0.10590   62.48830  101.20150 4247.07810
 7239.00000   99.35190    0.10730   62.77100  101.54440 4193.48440
 7239.50000  104.66680    0.10870   62.90940  102.30930 4176.95510
 7240.00000  113.11950    0.10990   63.06310  103.17240 4198.00000
 7240.50000  121.13430    0.11130   63.20740  104.04530 4210.56150
 7241.00000  127.87070    0.11740   63.94310  104.58990 4188.25780
 7241.50000  135.67950    0.12780   65.43610  104.60790 4134.22750
 7242.00000  141.16890    0.13320   66.49280  104.57290 4137.07420
 7242.50000  135.89010    0.13310   66.31750  104.60390 4195.63720
 7243.00000  116.75340    0.13160   66.22340  104.70650 4217.36960
 7243.50000   99.56150    0.13270   66.34630  104.10680 4190.41110
 7244.00000  100.13500    0.13430   66.55950  103.53400 4177.76070
 7244.50000  118.20910    0.13260   66.41020  103.00150 4228.32030
 7245.00000  139.23440    0.12910   65.78060  102.56030 4234.56880
 7245.50000  153.66320    0.12320   64.94060  102.43940 4206.16460
 7246.00000  153.67920    0.11530   63.82210  102.20320 4189.90090
 7246.50000  147.52370    0.10470   62.13970  101.30060 4197.26420
 7247.00000  133.08810    0.09170   60.77560  100.39790 4212.56880
 7247.50000  116.73560    0.08960   60.24350   99.62990 4227.87350
 7248.00000  102.50550    0.09000   60.32560   99.06860 4196.98240
 7248.50000   91.97650    0.09460   60.91160   98.83280 4166.87500
 7249.00000   91.91900    0.10080   61.90110   99.12690 4175.45750
 7249.50000   96.62210    0.10720   62.75970   99.63570 4229.62550
 7250.00000   98.08500    0.11360   63.47440  100.15130 4232.16310
 7250.50000   96.49100    0.11510   63.95890  100.66690 4190.09620
 7251.00000   96.67230    0.11430   63.90640  101.18250 4168.87600
 7251.50000   98.54400    0.11280   63.46770  101.65800 4220.00290
 7252.00000   99.37430    0.11280   63.35720  101.97460 4250.63480
 7252.50000   99.39710    0.11290   63.44720  101.92000 4244.48930
 7253.00000  101.16130    0.11300   63.57110  101.86550 4218.89890
 7253.50000  105.01630    0.11290   63.56800  101.81100 4207.50930
 7254.00000  106.81970    0.11230   63.41120  101.73670 4208.64400
 7254.50000  106.23770    0.11050   63.11460  100.87360 4209.67720
 7255.00000  103.77830    0.10530   62.62400  100.13760 4204.73680
 7255.50000   97.95610    0.10280   62.06330   99.79220 4180.29250
 7256.00000   89.36590    0.09980   61.76480   99.42010 4197.29540
 7256.50000   78.35600    0.09780   61.53520   99.17940 4218.48780
 7257.00000   66.49070    0.09730   61.36690   99.27840 4239.68020
 7257.50000   58.81780    0.09880   61.45080   99.15950 4207.48630
 7258.00000   57.42720    0.10320   62.12190   99.21780 4174.92190
 7258.50000   59.52120    0.10760   62.78540   99.27340 4210.12740
 7259.00000   61.58950    0.11190   63.26680   99.32910 4221.64400
 7259.50000   61.33980    0.11420   63.73700   99.13820 4233.16020
 7260.00000   61.70680    0.11080   63.31660   98.71240 4244.67680
 7260.50000   63.11960    0.10240   61.95160   98.18800 4252.19820
 7261.00000   65.30270    0.09130   60.53810   97.92550 4253.99170
 7261.50000   61.31730    0.08160   59.10180   97.43260 4253.23680
 7262.00000   52.32660    0.08080   58.89110   96.91510 4248.99370
 7262.50000   44.16090    0.08510   59.66070   96.60620 4249.46630
 7263.00000   44.24680    0.09760   60.96180   96.60700 4249.93900
 7263.50000   45.43930    0.10740   62.63860   97.00050 4234.95650
 7264.00000   47.47390    0.11330   63.72860   98.69110 4218.28270
 7264.50000   50.66640    0.11800   64.32510  100.50940 4216.85600
 7265.00000   56.73340    0.11740   64.23400  102.37890 4235.08980
 7265.50000   67.98420    0.11680   64.05840  104.23660 4237.88040
 7266.00000   79.79810    0.11630   63.99310  106.04690 4240.67140
 7266.50000   90.57790    0.11720   64.07580  107.63990 4243.46190
 7267.00000   94.57820    0.11940   64.52270  108.90260 4246.25290
 7267.50000   98.98880    0.12140   64.72430  109.61400 4249.04350
 7268.00000  103.78130    0.11850   64.50990  115.91390 4247.73680
 7268.50000  107.54430    0.11210   63.61550  130.96170 4215.76810
 7269.00000  104.06240    0.10550   62.66660  146.30160 4212.39750
 7269.50000   96.16180    0.10100   61.86310  154.22480 4237.03120
 7270.00000   84.42740    0.10220   61.94610  152.64690 4244.01760
 7270.50000   71.71400    0.10290   62.19370  147.95570 4242.20900
 7271.00000   60.25920    0.10850   62.89440  134.93160 4213.17090
 7271.50000   52.86490    0.11910   64.32530  123.57730 4203.86230
 7272.00000   48.65400    0.12790   65.73580  119.21130 4235.99020
 7272.50000   46.94370    0.12800   65.67710  117.19130 4264.71390
 7273.00000   45.50190    0.12500   65.32430  112.41110 4230.26460
 7273.50000   45.84470    0.12200   64.88330  107.47160 4225.01270
 7274.00000   47.76140    0.11960   64.61090  106.63810 4223.89790
 7274.50000   51.48350    0.12090   64.54470  109.05500 4233.72220
 7275.00000   54.14880    0.12440   65.11240  110.06080 4239.90970
 7275.50000   56.10370    0.12690   65.58710  106.00620 4232.68260
 7276.00000   57.97920    0.12830   65.73860  104.58080 4212.79100
 7276.50000   59.64480    0.12940   65.84690  104.06700 4199.02690
 7277.00000   60.66850    0.12920   65.97340  104.21210 4218.34770
 7277.50000   60.40260    0.12900   65.89570  105.19810 4237.66890
 7278.00000   60.48990    0.12630   65.61590  106.33020 4237.76320
 7278.50000   61.50370    0.12220   64.88060  107.35010 4239.07230
 7279.00000   63.66780    0.11800   64.24670  107.43110 4241.67530
 7279.50000   66.38280    0.11370   63.66970  107.06330 4244.27830
 7280.00000   68.49930    0.11020   63.09270  106.27560 4246.88090
 7280.50000   68.58270    0.10850   62.74160  105.43090 4249.48390
 7281.00000   67.43060    0.11090   63.19050  104.84600 4252.08690
 7281.50000   66.57740    0.11360   63.64230  104.12830 4254.68950
 7282.00000   66.04310    0.11180   63.47770  102.99470 4257.29250
 7282.50000   62.25600    0.10950   62.95810  101.03300 4265.12990
 7283.00000   57.32810    0.10730   62.52810   99.68520 4294.66800
 7283.50000   52.76820    0.10520   62.50990   98.76750 4304.88530
 7284.00000   53.70280    0.10550   62.61860   98.72970 4279.92190
 7284.50000   56.60500    0.10590   62.71500   99.24460 4263.19680
 7285.00000   59.50710    0.10250   62.13440  101.43690 4266.18750
 7285.50000   62.02730    0.09550   61.11500  103.79150 4269.20020
 7286.00000   62.85810    0.08910   60.12570  106.14610 4254.89940
 7286.50000   62.35070    0.08910   60.07230  106.77340 4239.17090
 7287.00000   60.30890    0.09340   60.82850  105.21690 4223.44290
 7287.50000   59.71620    0.09890   61.58650  103.64420 4230.50290
 7288.00000   61.80470    0.10330   62.22420  102.86730 4238.08640
 7288.50000   64.31760    0.10350   62.30410  102.64810 4246.44290
 7289.00000   65.02210    0.10370   62.24620  102.74940 4257.42240
 7289.50000   64.09500    0.10320   62.18840  103.14720 4268.31250
