~Version ---------------------------------------------------
VERS.   2.0 : CWLS log ASCII Standard -VERSION 2.0
WRAP.    NO : One line per depth step
DLM . SPACE : Column Data Section Delimiter
~Well ------------------------------------------------------
STRT .F                 4770.0 : START DEPTH
STOP .F                11010.0 : STOP DEPTH
STEP .F                    0.5 : STEP
NULL .                -9999.25 : NULL VALUE
COMP .                         : COMPANY
WELL .                         : WELL
FLD  .                         : FIELD
LOC  .                         : LOCATION
PROV .                         : PROVINCE
CNTY .                         : COUNTY
STAT .                         : STATE
CTRY .                         : COUNTRY
SRVC .                         : SERVICE COMPANY
DATE .                         : DATE
UWI  .                         : UNIQUE WELL ID
API  .                         : API NUMBER
SLAT .WGS84 1.8285756807397995 : SURFACE LATITUDE
SLON .WGS84  8.148190691168992 : SURFACE LONGITUDE
DATUM.F                    nan : DEPTH DATUM ELEV
~Curve Information -----------------------------------------
DEPT   .F     : 1 MEASURED DEPTH
GR_EDTC.GAPI  : GAMMA RAY
SPHI_LS.DEC   : SONIC POROSITY [LIMESTONE]
DTCO   .US/F  : DELTA-T COMPRESSIONAL
DTSM   .US/F  : DELTA-T SHEAR
TENS   .LB    : TENSION FROM SONIC LOG
~Params ----------------------------------------------------
~Other -----------------------------------------------------
~ASCII -----------------------------------------------------
# ...
 10934.00000  191.33920    0.16910   72.01420  118.79430 5827.00000
 10934.50000  191.33690    0.14940   68.97910  113.57120 5810.92330
 10935.00000  191.30640    0.12410   65.34270  110.34840 5793.34330
 10935.50000  191.22840    0.10200   61.67470  108.28540 5705.67480
 10936.00000  191.09020    0.08860   60.39020  107.00890 5655.01510
 10936.50000  191.34900    0.09580   61.33060  106.20410 5637.96530
 10937.00000  191.37560    0.10930   62.98360  105.31990 5684.87790
 10937.50000  191.38500    0.11410   63.63150  104.83880 5767.06690
 10938.00000  191.30690    0.11820   64.18540  104.97100 5782.62990
 10938.50000  191.32560    0.11980   64.44700  106.44990 5742.44140
 10939.00000  191.33920    0.11980   64.20880  108.26430 5678.90190
 10939.50000  191.33920    0.12750   65.55670  110.02990 5703.72310
 10940.00000  191.33910    0.14870   67.85890  111.46650 5744.45360
 10940.50000  191.33120    0.15410   69.49750  112.62500 5788.25000
 10941.00000  191.32330    0.15610   69.74930  113.84080 5838.19090
 10941.50000  191.31550    0.15720   70.00180  114.89650 5853.09520
 10942.00000  191.30770    0.16380   71.01710  116.94370 5792.67820
 10942.50000  191.30260    0.18290   73.74990  118.11550 5735.11670
 10943.00000  191.29740    0.20660   76.99020  123.40190 5721.03470
 10943.50000  191.29660    0.22040   79.10360  127.79470 5717.78520
 10944.00000  191.29660    0.22640   79.42290  132.14310 5807.94190
 10944.50000  191.29660    0.22860   79.74210  133.40050 5817.40870
 10945.00000  191.29660    0.22860   79.91780  133.34920 5798.43260
 10945.50000  191.29660    0.22710   79.66320  133.88420 5730.43750
 10946.00000  191.29660    0.22820   79.73510  133.77910 5689.94870
 10946.50000  191.29660    0.22920   79.99370  133.43080 5738.06200
 10947.00000  191.29660    0.23050   80.17690  132.53570 5760.41850
 10947.50000  191.29580    0.22860   79.98070  131.45450 5842.66210
 10948.00000  191.28180    0.22630   79.60710  130.40840 5871.04540
 10948.50000  191.23570    0.22400   79.30770  128.38660 5843.41210
 10949.00000  191.23980    0.22430   79.32580  126.60270 5785.24270
 10949.50000  191.29370    0.23250   80.47690  126.80450 5775.82230
 10950.00000  191.29620    0.24500   82.29470  132.69840 5791.68410
 10950.50000  191.27550    0.25100   83.29110  141.26680 5811.76610
 10951.00000  191.25470    0.25460   83.76650  148.02080 5834.46390
 10951.50000  191.23340    0.26240   85.04220  151.13620 5825.55180
 10952.00000  191.21210    0.26820   85.22660  150.80500 5765.23100
 10952.50000  191.06780    0.26710   83.60320  146.02910 5744.21970
 10953.00000  191.13420    0.24120   81.36080  138.51540 5772.19430
 10953.50000  191.17120    0.23300   80.46100  132.32500 5810.76320
 10954.00000  191.17750    0.23150   80.33180  132.22020 5856.06540
 10954.50000  191.20830    0.23090   80.24730  132.90590 5856.15580
 10955.00000  190.63990    0.23100   80.16270  132.33600 5817.87110
 10955.50000  191.19910    0.22800   79.42520  129.74830 5766.02150
 10956.00000  191.19300    0.20890   77.01860  126.99790 5705.07620
 10956.50000  191.18680    0.19180   74.34320  124.03970 5743.09960
 10957.00000  191.18070    0.17570   72.16740  121.08150 5793.10300
 10957.50000  191.17930    0.16920   71.35110  118.02770 5801.29200
 10958.00000  191.17830    0.16610   70.99320  116.36700 5809.48100
 10958.50000  191.17830    0.16190   70.39350  114.89470 5783.60890
 10959.00000  191.08030    0.15620   69.58270  114.02460 5680.63430
 10959.50000  191.11790    0.15220   69.16420  114.87160 5687.23880
 10960.00000  191.18620    0.15950   70.09800  116.06840 5758.46240
 10960.50000  191.19680    0.16900   71.53330  119.21460 5805.35250
 10961.00000  191.21010    0.17500   72.37620  122.11830 5780.68900
 10961.50000  191.22340    0.17880   72.80630  123.82070 5798.22510
 10962.00000  191.23450    0.19580   75.71990  126.52680 5844.30960
 10962.50000  191.24500    0.22830   79.36020  129.75200 5800.37840
 10963.00000  191.25200    0.25850   84.63510  135.11080 5756.44780
 10963.50000  191.25820    0.27190   89.12300  141.96300 5781.00290
 10964.00000  191.26440    0.30960   93.19360  145.31020 5813.96920
 10964.50000   -9999.25   -9999.25   -9999.25   -9999.25 5801.19480
 10965.00000   -9999.25   -9999.25   -9999.25   -9999.25 5748.38090
 10965.50000   -9999.25   -9999.25   -9999.25   -9999.25 5666.95120
 10966.00000   -9999.25   -9999.25   -9999.25   -9999.25 5689.42720
 10966.50000   -9999.25   -9999.25   -9999.25   -9999.25 5715.58740
 10967.00000   -9999.25   -9999.25   -9999.25   -9999.25 5834.29930
 10967.50000   -9999.25   -9999.25   -9999.25   -9999.25 5862.04740
 10968.00000   -9999.25   -9999.25   -9999.25   -9999.25 5846.28760
 10968.50000   -9999.25   -9999.25   -9999.25   -9999.25 5764.64650
 10969.00000   -9999.25   -9999.25   -9999.25   -9999.25 5675.44580
 10969.50000   -9999.25   -9999.25   -9999.25   -9999.25 5660.78560
 10970.00000   -9999.25   -9999.25   -9999.25   -9999.25 5760.11520
 10970.50000   -9999.25   -9999.25   -9999.25   -9999.25 5848.83300
 10971.00000   -9999.25   -9999.25   -9999.25   -9999.25 5839.45120
 10971.50000   -9999.25   -9999.25   -9999.25   -9999.25 5821.55520
 10972.00000   -9999.25   -9999.25   -9999.25   -9999.25 5783.49510
 10972.50000   -9999.25   -9999.25   -9999.25   -9999.25 5745.43460
 10973.00000   -9999.25   -9999.25   -9999.25   -9999.25 5790.97710
 10973.50000   -9999.25   -9999.25   -9999.25   -9999.25 5838.87010
 10974.00000   -9999.25   -9999.25   -9999.25   -9999.25 5829.59770
 10974.50000   -9999.25   -9999.25   -9999.25   -9999.25 5789.59670
 10975.00000   -9999.25   -9999.25   -9999.25   -9999.25 5722.32130
 10975.50000   -9999.25   -9999.25   -9999.25   -9999.25 5631.18160
 10976.00000   -9999.25   -9999.25   -9999.25   -9999.25 5650.81880
 10976.50000   -9999.25   -9999.25   -9999.25   -9999.25 5739.85640
 10977.00000   -9999.25   -9999.25   -9999.25   -9999.25 5753.70800
 10977.50000   -9999.25   -9999.25   -9999.25   -9999.25 5752.71680
 10978.00000   -9999.25   -9999.25   -9999.25   -9999.25 5757.75340
 10978.50000   -9999.25   -9999.25   -9999.25   -9999.25 5689.56880
 10979.00000   -9999.25   -9999.25   -9999.25   -9999.25 5616.45170
 10979.50000   -9999.25   -9999.25   -9999.25   -9999.25 5652.71630
 10980.00000   -9999.25   -9999.25   -9999.25   -9999.25 5724.69870
 10980.50000   -9999.25   -9999.25   -9999.25   -9999.25 5790.92090
 10981.00000   -9999.25   -9999.25   -9999.25   -9999.25 5795.22360
 10981.50000   -9999.25   -9999.25   -9999.25   -9999.25 5764.27050
 10982.00000   -9999.25   -9999.25   -9999.25   -9999.25 5680.26710
 10982.50000   -9999.25   -9999.25   -9999.25   -9999.25 5649.71480
 10983.00000   -9999.25   -9999.25   -9999.25   -9999.25 5648.54640
 10983.50000   -9999.25   -9999.25   -9999.25   -9999.25 5701.43850
 10984.00000   -9999.25   -9999.25   -9999.25   -9999.25 5759.48880
 10984.50000   -9999.25   -9999.25   -9999.25   -9999.25 5776.87650
 10985.00000   -9999.25   -9999.25   -9999.25   -9999.25 5769.25100
 10985.50000   -9999.25   -9999.25   -9999.25   -9999.25 5707.97660
 10986.00000   -9999.25   -9999.25   -9999.25   -9999.25 5680.27730
 10986.50000   -9999.25   -9999.25   -9999.25   -9999.25 5678.90870
 10987.00000   -9999.25   -9999.25   -9999.25   -9999.25 5722.03610
 10987.50000   -9999.25   -9999.25   -9999.25   -9999.25 5763.25980
 10988.00000   -9999.25   -9999.25   -9999.25   -9999.25 5778.71580
 10988.50000   -9999.25   -9999.25   -9999.25   -9999.25 5764.03760
 10989.00000   -9999.25   -9999.25   -9999.25   -9999.25 5743.21090
 10989.50000   -9999.25   -9999.25   -9999.25   -9999.25 5648.62600
 10990.00000   -9999.25   -9999.25   -9999.25   -9999.25 5636.42190
 10990.50000   -9999.25   -9999.25   -9999.25   -9999.25 5683.58450
 10991.00000   -9999.25   -9999.25   -9999.25   -9999.25 5812.41160
 10991.50000   -9999.25   -9999.25   -9999.25   -9999.25 5832.47020
 10992.00000   -9999.25   -9999.25   -9999.25   -9999.25 5851.25980
 10992.50000   -9999.25   -9999.25   -9999.25   -9999.25 5820.07520
