~Version ---------------------------------------------------
VERS.   2.0 : CWLS log ASCII Standard -VERSION 2.0
WRAP.    NO : One line per depth step
DLM . SPACE : Column Data Section Delimiter
~Well ------------------------------------------------------
STRT .F                 4770.0 : START DEPTH
STOP .F                11010.0 : STOP DEPTH
STEP .F                    0.5 : STEP
NULL .                -9999.25 : NULL VALUE
COMP .                         : COMPANY
WELL .                         : WELL
FLD  .                         : FIELD
LOC  .                         : LOCATION
PROV .                         : PROVINCE
CNTY .                         : COUNTY
STAT .                         : STATE
CTRY .                         : COUNTRY
SRVC .                         : SERVICE COMPANY
DATE .                         : DATE
UWI  .                         : UNIQUE WELL ID
API  .                         : API NUMBER
SLAT .WGS84 1.8285756807397995 : SURFACE LATITUDE
SLON .WGS84  8.148190691168992 : SURFACE LONGITUDE
DATUM.F                    nan : DEPTH DATUM ELEV
~Curve Information -----------------------------------------
DEPT   .F     : 1 MEASURED DEPTH
GR_EDTC.GAPI  : GAMMA RAY
SPHI_LS.DEC   : SONIC POROSITY [LIMESTONE]
DTCO   .US/F  : DELTA-T COMPRESSIONAL
DTSM   .US/F  : DELTA-T SHEAR
TENS   .LB    : TENSION FROM SONIC LOG
~Params ----------------------------------------------------
~Other -----------------------------------------------------
~ASCII -----------------------------------------------------
# ...
 10108.00000  101.48970    0.13550   66.91950  117.48910 5294.60300
 10108.50000   78.88300    0.10860   63.15900  113.99000 5299.05080
 10109.00000   58.16900    0.08760   59.82600  110.49080 5307.73540
 10109.50000   44.79340    0.08940   59.71710  109.00240 5316.41990
 10110.00000   39.01180    0.09550   61.02240  108.25740 5325.10450
 10110.50000   42.31140    0.09500   60.92000  108.04430 5333.78960
 10111.00000   46.38110    0.08640   59.52570  107.28600 5342.47410
 10111.50000   50.01380    0.07700   57.85310  106.10040 5350.02730
 10112.00000   50.23460    0.04630   55.44030  105.08730 5359.30470
 10112.50000   49.46780    0.03720   52.85160  105.09200 5331.27930
 10113.00000   47.03690    0.04530   53.87720  105.86430 5306.09570
 10113.50000   44.30290    0.06810   57.09780  107.01720 5286.48050
 10114.00000   41.36930    0.05480   53.46790  108.10590 5266.86470
 10114.50000   39.40450    0.01410   48.08650  110.17130 5264.93990
 10115.00000   44.20220   -0.00750   46.14490  112.84440 5264.84470
 10115.50000   50.91080   -0.00270   46.92440  115.90480 5277.62110
 10116.00000   63.05690   -0.00750   46.44250  118.76900 5291.34230
 10116.50000   77.95790   -0.00750   46.49740  119.42200 5305.06300
 10117.00000   94.37600    0.01700   50.14930  120.18330 5318.33450
 10117.50000  106.03030    0.06060   55.95080  120.48370 5293.72270
 10118.00000  111.78480    0.09230   61.64170  120.53200 5269.11040
 10118.50000  111.31340    0.10370   62.29020  120.58040 5244.49850
 10119.00000  104.82110    0.10520   62.34990  120.61650 5228.32670
 10119.50000  101.27730    0.11420   63.58250  120.42570 5254.26610
 10120.00000  101.22730    0.11610   64.59130  120.01150 5277.65040
 10120.50000  102.76460    0.11600   64.44960  119.54760 5286.03520
 10121.00000  102.24730    0.10660   62.73570  118.82930 5300.14400
 10121.50000   97.47450    0.09620   60.64270  117.61240 5351.29640
 10122.00000   89.25390    0.08930   60.09600  115.88770 5353.15530
 10122.50000   80.03920    0.09080   60.45130  113.64720 5357.60740
 10123.00000   67.80660    0.09820   61.30640  111.54960 5367.56200
 10123.50000   56.62990    0.10680   62.63550  109.66060 5368.94290
 10124.00000   51.40480    0.11220   63.53020  107.87450 5335.33840
 10124.50000   48.24830    0.11540   63.87900  107.59130 5342.87840
 10125.00000   47.69430    0.11970   64.48500  108.25320 5344.92530
 10125.50000   52.65190    0.13080   65.86840  111.27740 5326.18070
 10126.00000   60.04350    0.14940   68.95790  114.83810 5307.43550
 10126.50000   67.19920    0.16950   71.77230  117.76610 5323.81250
 10127.00000   74.80710    0.18600   73.92110  118.80160 5343.82280
 10127.50000   85.93560    0.19920   75.51920  118.62090 5357.51510
 10128.00000   92.15690    0.19930   75.96450  118.44030 5351.85160
 10128.50000   94.01420    0.19330   74.78200  118.10700 5346.18850
 10129.00000   89.88510    0.17970   73.09840  117.19830 5350.30030
 10129.50000   78.18220    0.16570   71.35570  114.98060 5325.22900
 10130.00000   69.62090    0.14550   68.86740  112.44730 5299.23190
 10130.50000   64.76750    0.13700   67.21390  109.95770 5284.20260
 10131.00000   62.89200    0.12870   65.60790  108.13830 5281.36870
 10131.50000   61.52340    0.10310   62.10670  106.30240 5274.91650
 10132.00000   58.36450    0.08140   59.04700  105.54120 5268.46440
 10132.50000   53.49160    0.07490   58.20790  106.31450 5262.01220
 10133.00000   47.96660    0.07720   60.08640  107.85210 5241.99270
 10133.50000   44.96220    0.11800   63.60740  109.45790 5241.71680
 10134.00000   50.55650    0.13740   66.65590  110.22490 5245.25930
 10134.50000   64.60030    0.15030   68.95880  111.13820 5235.97900
 10135.00000   80.34840    0.16520   71.05140  112.05000 5226.69920
 10135.50000   90.38050    0.17130   71.76810  113.33930 5217.41940
 10136.00000   89.50500    0.17020   71.70710  114.62640 5273.73240
 10136.50000   86.79830    0.17280   71.87800  117.02810 5271.96040
 10137.00000   85.96740    0.18440   73.37670  120.14580 5261.70120
 10137.50000   89.19110    0.19030   74.82020  122.71700 5264.14550
 10138.00000   98.78860    0.19150   74.85500  123.96100 5272.88090
 10138.50000  108.57230    0.18920   74.08910  124.38330 5285.03030
 10139.00000  114.18720    0.18070   73.08560  124.56410 5298.17970
 10139.50000  108.88740    0.17450   72.16780  122.76230 5310.69920
 10140.00000   94.65990    0.16390   70.07900  117.26300 5311.82760
 10140.50000   83.83210    0.15040   68.30240  114.24440 5305.33590
 10141.00000   76.65680    0.13790   66.52710  111.84560 5296.07710
 10141.50000   72.90140    0.12540   65.35840  110.41560 5278.46000
 10142.00000   62.89040    0.11290   63.75010  110.56640 5260.84280
 10142.50000   53.52160    0.11350   63.51070  112.63270 5243.22510
 10143.00000   53.88430    0.13500   66.38530  116.92880 5263.91990
 10143.50000   64.78520    0.18580   72.41100  120.97590 5266.71190
 10144.00000   92.26660    0.23200   78.70400  123.57480 5267.88820
 10144.50000  114.45210    0.23280   80.84150  124.31990 5269.06490
 10145.00000  123.68410    0.20860   77.16950  123.46260 5270.24120
 10145.50000  115.31650    0.15530   70.60690  118.84500 5271.41800
 10146.00000   92.49890    0.10740   63.19640  114.63930 5272.59420
 10146.50000   73.84820    0.09000   59.88010  111.18940 5273.77100
 10147.00000   61.94860    0.09540   61.66250  110.14510 5274.94730
 10147.50000   61.68600    0.11550   64.01010  109.88090 5276.12400
 10148.00000   64.69700    0.14110   67.69890  112.09710 5277.30030
 10148.50000   73.43780    0.15970   70.80200  114.95730 5281.05960
 10149.00000   77.47110    0.18600   73.91140  117.67690 5293.26370
 10149.50000   79.93510    0.18640   74.27710  118.39340 5308.69780
 10150.00000   86.98120    0.18080   72.80680  118.03970 5324.13130
 10150.50000   94.55480    0.16970   71.26400  117.40070 5339.56540
 10151.00000   96.63060    0.15530   69.36030  116.15260 5321.18650
 10151.50000   91.44950    0.15290   68.98950  115.18990 5282.52050
 10152.00000   82.96600    0.15780   70.38920  116.30350 5256.76900
 10152.50000   84.37080    0.17660   72.02930  117.38820 5252.01370
 10153.00000  100.62580    0.18450   73.41010  117.45160 5246.65280
 10153.50000  116.44580    0.16900   72.49710  115.82510 5236.26660
 10154.00000  118.70030    0.14620   69.01860  113.63760 5240.08150
 10154.50000  110.55180    0.12340   65.10510  110.39340 5260.72750
 10155.00000   96.34650    0.09910   61.07200  107.01810 5261.19970
 10155.50000   76.87420    0.07420   57.98800  102.79080 5261.67240
 10156.00000   55.19170    0.05150   54.65490   98.29980 5262.14500
 10156.50000   37.02180    0.04270   53.60760   96.69510 5265.53370
 10157.00000   29.67190    0.04450   53.70760   96.47880 5271.72750
 10157.50000   28.68380    0.05870   54.72550   97.79250 5277.92140
 10158.00000   31.57200    0.07080   57.08680  100.00470 5284.11520
 10158.50000   36.79160    0.08170   59.07970  102.29410 5291.06300
 10159.00000   49.27610    0.09640   61.39630  104.58350 5299.78030
 10159.50000   65.56750    0.11300   63.86810  106.41530 5308.49710
 10160.00000   83.98120    0.11720   64.46970  108.58670 5317.21440
 10160.50000   92.69050    0.12070   64.58350  109.99490 5325.93160
 10161.00000   88.18820    0.12660   65.37170  111.18880 5334.64890
 10161.50000   77.55450    0.13350   66.89450  113.32220 5343.36570
 10162.00000   71.30990    0.15010   68.21730  115.31280 5352.08300
 10162.50000   74.10550    0.16300   70.46860  116.40390 5357.82710
 10163.00000   80.69340    0.17670   72.69100  117.02600 5345.03080
 10163.50000   82.18530    0.17130   72.69950  117.16370 5332.20460
 10164.00000   81.90880    0.16240   71.23040  116.53920 5319.37840
 10164.50000   78.70160    0.15430   69.35680  115.89120 5312.36910
 10165.00000   76.76380    0.14720   68.33360  115.48660 5315.29200
 10165.50000   72.81500    0.14690   68.28230  115.93610 5316.61330
 10166.00000   70.47270    0.15430   70.10270  115.69870 5317.93460
 10166.50000   71.62930    0.17120   72.10810  115.27200 5319.27540
