~Version ---------------------------------------------------
VERS.   2.0 : CWLS log ASCII Standard -VERSION 2.0
WRAP.    NO : One line per depth step
DLM . SPACE : Column Data Section Delimiter
~Well ------------------------------------------------------
STRT .F                 4770.0 : START DEPTH
STOP .F                11010.0 : STOP DEPTH
STEP .F                    0.5 : STEP
NULL .                -9999.25 : NULL VALUE
COMP .                         : COMPANY
WELL .                         : WELL
FLD  .                         : FIELD
LOC  .                         : LOCATION
PROV .                         : PROVINCE
CNTY .                         : COUNTY
STAT .                         : STATE
CTRY .                         : COUNTRY
SRVC .                         : SERVICE COMPANY
DATE .                         : DATE
UWI  .                         : UNIQUE WELL ID
API  .                         : API NUMBER
SLAT .WGS84 1.8285756807397995 : SURFACE LATITUDE
SLON .WGS84  8.148190691168992 : SURFACE LONGITUDE
DATUM.F                    nan : DEPTH DATUM ELEV
~Curve Information -----------------------------------------
DEPT   .F     : 1 MEASURED DEPTH
GR_EDTC.GAPI  : GAMMA RAY
SPHI_LS.DEC   : SONIC POROSITY [LIMESTONE]
DTCO   .US/F  : DELTA-T COMPRESSIONAL
DTSM   .US/F  : DELTA-T SHEAR
TENS   .LB    : TENSION FROM SONIC LOG
~Params ----------------------------------------------------
~Other -----------------------------------------------------
~ASCII -----------------------------------------------------
# ...
 9330.00000  113.49630    0.15690   71.17690  116.06360 4934.36380
 9330.50000  100.11240    0.15450   69.38230  115.08390 4929.86960
 9331.00000   85.58640    0.15730   69.51780  116.17890 4925.37550
 9331.50000   85.90610    0.16670   71.01600  116.91540 4920.88090
 9332.00000   96.24080    0.18130   73.33950  117.60550 4916.38670
 9332.50000  110.09990    0.19980   75.52060  118.18710 4911.89260
 9333.00000  118.30490    0.20080   76.06370  118.56050 4907.39840
 9333.50000  117.53160    0.19300   74.98080  118.25170 4902.90430
 9334.00000  112.45860    0.18020   73.20510  117.32520 4898.41020
 9334.50000  102.86050    0.16790   71.50790  116.35330 4893.91600
 9335.00000   91.94690    0.16330   70.74790  115.75070 4889.42190
 9335.50000   83.11700    0.16470   70.63050  115.47830 4884.92770
 9336.00000   80.54190    0.17310   71.59510  115.26440 4883.15530
 9336.50000   79.58600    0.18210   73.10100  114.78080 4882.42770
 9337.00000   83.50910    0.18040   73.11500  114.27820 4883.15280
 9337.50000   91.24360    0.16510   71.73640  113.34180 4890.78080
 9338.00000   97.52190    0.14470   68.92630  112.06080 4897.38720
 9338.50000   96.73000    0.11910   65.76740  110.08470 4900.34470
 9339.00000   87.44460    0.10300   62.11530  109.39550 4903.30220
 9339.50000   69.92370    0.11920   62.99330  110.06760 4906.25980
 9340.00000   59.48980    0.14160   67.02990  110.93180 4909.21730
 9340.50000   64.84130    0.16350   70.09830  113.33850 4912.17480
 9341.00000   80.22960    0.18690   73.14440  116.31100 4915.13230
 9341.50000   98.45850    0.21450   77.31060  119.42970 4918.08980
 9342.00000  115.40750    0.22470   79.38050  121.75350 4921.04740
 9342.50000  128.37170    0.22720   79.71230  121.99610 4924.00490
 9343.00000  143.99770    0.22530   79.45000  122.23610 4926.96240
 9343.50000  151.87520    0.21450   78.16080  121.27320 4929.91990
 9344.00000  158.25700    0.19790   75.20220  119.59680 4932.87740
 9344.50000  147.71560    0.18010   72.88460  117.94640 4937.49510
 9345.00000  131.79390    0.16510   70.85710  117.37270 4943.01320
 9345.50000  111.84390    0.16420   70.67170  117.80790 4948.53170
 9346.00000   94.36410    0.17450   72.01990  117.98060 4954.04980
 9346.50000   92.67910    0.19270   74.60390  118.55100 4959.56790
 9347.00000  100.07660    0.20480   76.57490  119.74360 4965.08590
 9347.50000  110.58330    0.21000   77.08670  120.93620 4962.49270
 9348.00000  112.37510    0.21260   77.56420  122.70730 4958.41890
 9348.50000  110.71390    0.21450   77.77360  123.38630 4954.34520
 9349.00000  104.27940    0.21200   77.67570  123.20610 4950.27150
 9349.50000   95.26990    0.20850   77.00400  122.40670 4946.19820
 9350.00000   92.19930    0.19000   74.97320  119.37030 4942.12450
 9350.50000   97.49650    0.17070   71.84760  116.25580 4958.16550
 9351.00000   96.85010    0.14840   68.32010  113.21630 4978.38090
 9351.50000   84.42490    0.12800   65.26990  111.47480 4998.59670
 9352.00000   67.60620    0.11500   63.23390  110.47540 5009.25780
 9352.50000   51.07430    0.11310   63.26310  110.06730 5012.42820
 9353.00000   46.28560    0.13900   66.09590  111.08970 5015.59860
 9353.50000   53.73730    0.17120   71.35640  114.19470 5017.33790
 9354.00000   76.03130    0.19400   75.12200  116.89230 5008.49560
 9354.50000  100.43080    0.21630   77.38100  120.12600 4999.65330
 9355.00000  114.53050    0.22220   78.98910  122.70310 4990.81100
 9355.50000  117.51510    0.22390   79.76280  122.85040 4962.46340
 9356.00000  116.59450    0.21920   78.77570  122.17480 4930.55660
 9356.50000  115.18000    0.20280   76.32290  120.45480 4899.38720
 9357.00000  114.34040    0.18580   73.88980  118.48620 4887.34130
 9357.50000  110.51380    0.17240   71.74800  116.49640 4875.29540
 9358.00000   99.81990    0.15890   69.68720  114.50660 4863.24950
 9358.50000   90.51790    0.14330   67.85950  112.66650 4857.71630
 9359.00000   78.92690    0.13000   65.75950  111.03510 4862.01510
 9359.50000   69.81040    0.11460   64.07630  109.61710 4866.31400
 9360.00000   61.27150    0.10230   62.66550  108.36760 4870.61280
 9360.50000   49.49320    0.10130   62.01040  107.46300 4874.80270
 9361.00000   37.76350    0.10450   62.32290  107.85310 4878.87740
 9361.50000   32.95450    0.11990   64.43230  109.00540 4882.95260
 9362.00000   41.91800    0.15040   69.74190  111.52310 4887.02780
 9362.50000   53.89480    0.17490   72.24600  112.57430 4891.10250
 9363.00000   74.46920    0.18300   73.55260  113.83080 4895.17770
 9363.50000   91.80380    0.18260   73.57000  115.10400 4899.25290
 9364.00000  106.77660    0.17500   72.39550  116.37710 4906.09960
 9364.50000  111.47930    0.16660   71.00340  117.07830 4950.72220
 9365.00000  108.68960    0.16280   70.48780  117.16110 4941.78810
 9365.50000  101.62950    0.17340   71.79780  117.80670 4932.53860
 9366.00000   95.60610    0.18270   72.94860  118.56970 4923.28960
 9366.50000  100.19910    0.19090   74.64640  119.43950 4950.58840
 9367.00000  110.23610    0.20490   76.58590  120.68550 4972.88670
 9367.50000  119.77960    0.21460   78.06730  122.15250 4924.35500
 9368.00000  123.62030    0.21350   78.10470  122.46810 4871.82760
 9368.50000  122.09840    0.21170   77.42890  122.29040 4848.12060
 9369.00000  119.70070    0.20570   76.53620  122.02770 4853.68160
 9369.50000  118.72380    0.19740   75.61590  121.38240 4859.24220
 9370.00000  117.73250    0.19070   74.52590  120.86160 4864.30320
 9370.50000  112.13020    0.18930   74.12850  120.23260 4869.34420
 9371.00000  103.30830    0.19030   74.51170  119.60360 4874.38530
 9371.50000   99.63790    0.19360   74.87790  118.71540 4864.46630
 9372.00000  101.04870    0.19740   75.56990  119.06470 4869.82280
 9372.50000  120.30130    0.20110   76.01450  120.01860 4875.17920
 9373.00000  132.94110    0.20380   76.42030  122.03770 4874.98580
 9373.50000  136.20240    0.20840   77.05570  122.95150 4872.38870
 9374.00000  132.86710    0.21470   77.96980  123.74240 4869.43160
 9374.50000  122.99090    0.21780   78.43390  124.18660 4866.47510
 9375.00000  112.00060    0.22270   78.57740  124.61470 4863.51810
 9375.50000  108.78970    0.22430   79.40340  124.94920 4920.50980
 9376.00000  109.99430    0.22510   79.14290  124.91590 4908.75100
 9376.50000  110.75560    0.22110   78.54250  125.13120 4914.42140
 9377.00000  107.96760    0.21910   78.47340  125.51030 4920.09180
 9377.50000  102.73980    0.21910   78.55490  125.65500 4925.76220
 9378.00000   99.38210    0.22030   78.67790  125.90130 4931.43260
 9378.50000   96.01440    0.22210   79.03760  126.15100 4937.10300
 9379.00000   95.68940    0.23090   80.14350  126.12810 4930.94380
 9379.50000   99.29430    0.23350   80.55730  125.63380 4910.72950
 9380.00000  103.50900    0.22550   79.73790  123.71240 4892.23000
 9380.50000  106.56150    0.20740   77.45590  122.01490 4885.72850
 9381.00000  103.12500    0.18170   73.53880  119.09550 4879.22710
 9381.50000   91.63790    0.15330   69.52650  115.76070 4872.72610
 9382.00000   78.67570    0.13970   67.57440  112.19120 4866.22460
 9382.50000   69.12930    0.14000   67.21070  110.36840 4839.30080
 9383.00000   67.03080    0.14230   67.59760  109.66820 4856.59420
 9383.50000   67.81630    0.14530   68.18630  109.86370 4893.14500
 9384.00000   68.30750    0.14550   67.93630  110.05920 4927.16990
 9384.50000   65.19650    0.14010   66.99840  110.25470 4933.65280
 9385.00000   60.66290    0.13200   66.12930  110.54110 4939.55470
 9385.50000   58.32690    0.13360   66.31970  111.33510 4877.26270
 9386.00000   61.86070    0.13930   67.28760  111.45180 4820.42720
 9386.50000   66.88270    0.14500   68.04560  111.57020 4854.87500
 9387.00000   74.99470    0.14890   68.62760  111.68860 4856.77200
 9387.50000   82.20230    0.15220   69.12160  111.45180 4843.05220
 9388.00000   83.51320    0.15030   69.09360  110.68350 4851.17920
 9388.50000   79.74230    0.14540   68.01430  109.83640 4870.53170
 9389.00000   76.06360    0.13780   66.78390  108.98940 4889.88380
 9389.50000   74.78690    0.12820   65.15960  108.15170 4909.23630
