~Version ---------------------------------------------------
VERS.   2.0 : CWLS log ASCII Standard -VERSION 2.0
WRAP.    NO : One line per depth step
DLM . SPACE : Column Data Section Delimiter
~Well ------------------------------------------------------
STRT .F                5740.0 : START DEPTH
STOP .F                9313.0 : STOP DEPTH
STEP .F                   0.5 : STEP
NULL .               -9999.25 : NULL VALUE
COMP .                        : COMPANY
WELL .                        : WELL
FLD  .                        : FIELD
LOC  .                        : LOCATION
PROV .                        : PROVINCE
CNTY .                        : COUNTY
STAT .                        : STATE
CTRY .                        : COUNTRY
SRVC .                        : SERVICE COMPANY
DATE .                        : DATE
UWI  .                        : UNIQUE WELL ID
API  .                        : API NUMBER
SLAT .WGS84 4.714298334146797 : SURFACE LATITUDE
SLON .WGS84 2.241382740048607 : SURFACE LONGITUDE
DATUM.F                970.48 : DEPTH DATUM ELEV
~Curve Information -----------------------------------------
DEPT.F     : 
CILD.MMHO  : CONDUCTIVITY INDUCTION LOG DEEP
SPR .MV    : SPONTANEOUS POTENTIAL FROM RES.
GRR .GAPI  : GAMMA RAY FROM RESISTIVITY
ILM .OHMM  : INDUCTION LOG MEDIUM
DTCO.US/F  : COMPRESSIONAL-WAVE INTERVAL TRANSIT TIME ACOUSTIC SLOWNESS
DTSM.US/F  : SHEAR-WAVE INTERVAL TRANSIT TIME DELTA-T
ILD .OHMM  : INDUCTION LOG DEEP
SFL .OHMM  : SPHERICALLY FOCUSED LOG RESISTIVITY
~Params ----------------------------------------------------
~Other -----------------------------------------------------
~ASCII -----------------------------------------------------
# ...
 7180.00000  348.42580   -1.92770  110.47810   -9999.25   -9999.25   -9999.25    2.93850    2.29390
 7180.50000  335.78520   -1.91730  103.06550   -9999.25   -9999.25   -9999.25    2.98560    2.29640
 7181.00000  319.69410   -1.79620   98.44970   -9999.25   -9999.25   -9999.25    3.04510    2.37030
 7181.50000  309.45690   -1.59940  100.41630   -9999.25   -9999.25   -9999.25    3.15480    2.39130
 7182.00000  304.31220   -1.59040  104.64900   -9999.25   -9999.25   -9999.25    3.27140    2.44680
 7182.50000  298.66140   -1.58130  107.28990   -9999.25   -9999.25   -9999.25    3.34720    2.48630
 7183.00000  291.47750   -1.57150  108.25680   -9999.25   -9999.25   -9999.25    3.32460    2.52320
 7183.50000  288.99400   -1.56330  109.42780   -9999.25   -9999.25   -9999.25    3.19870    2.59910
 7184.00000  286.23710   -1.55420  108.14970   -9999.25   -9999.25   -9999.25    3.24040    2.62860
 7184.50000  280.76620   -1.54370  106.01150   -9999.25   -9999.25   -9999.25    3.36240    2.67540
 7185.00000  274.37330   -1.83730  106.72340   -9999.25   -9999.25   -9999.25    3.50090    2.72360
 7185.50000  267.50800   -1.82820  108.55450   -9999.25   -9999.25   -9999.25    3.57650    2.77110
 7186.00000  257.46770   -1.81930  110.52300   -9999.25   -9999.25   -9999.25    3.65220    2.82760
 7186.50000  253.24610   -1.81020  112.51400   -9999.25   -9999.25   -9999.25    3.70080    2.79060
 7187.00000  250.82690   -1.80030  111.65330   -9999.25   -9999.25   -9999.25    3.74790    2.75410
 7187.50000  248.40590   -1.79220  106.81250   -9999.25   -9999.25   -9999.25    3.80440    2.68000
 7188.00000  246.53700   -1.78310  103.29760   -9999.25   -9999.25   -9999.25    3.88010    2.68070
 7188.50000  248.37550   -2.07360  101.52510   -9999.25   -9999.25   -9999.25    3.88080    2.75640
 7189.00000  252.98890   -2.06630  102.28570   -9999.25   -9999.25   -9999.25    3.80670    2.80360
 7189.50000  260.79150   -2.05690  106.48420   -9999.25   -9999.25   -9999.25    3.73240    2.83280
 7190.00000  265.54220   -2.21880  104.60930   -9999.25   -9999.25   -9999.25    3.65820    2.83360
 7190.50000  269.79400   -2.34140  102.48990   -9999.25   -9999.25   -9999.25    3.61500    2.83430
 7191.00000  272.14720   -2.02910  104.68940   -9999.25   -9999.25   -9999.25    3.56950    2.83510
 7191.50000  273.82380   -2.02110  107.49880   -9999.25   -9999.25   -9999.25    3.51050    2.83600
 7192.00000  276.55220   -2.01200  108.52240   -9999.25   -9999.25   -9999.25    3.43630    2.65970
 7192.50000  279.42860   -2.00300  106.94860   -9999.25   -9999.25   -9999.25    3.43280    2.53750
 7193.00000  282.58110   -2.29680  106.95040   -9999.25   -9999.25   -9999.25    3.36280    2.41780
 7193.50000  284.77330   -2.28570  106.95280   -9999.25   -9999.25   -9999.25    3.34150    2.37180
 7194.00000  287.86200   -2.27710  105.72100   -9999.25   -9999.25   -9999.25    3.28940    2.31480
 7194.50000  293.06250   -2.26810  103.17790   -9999.25   -9999.25   -9999.25    3.29010    2.31560
 7195.00000  297.56140   -2.25780  102.47380   -9999.25   -9999.25   -9999.25    3.21580    2.32380
 7195.50000  303.07730   -2.25000  103.77930   -9999.25   -9999.25   -9999.25    3.21670    2.39220
 7196.00000  307.31700   -2.23290  104.71170   -9999.25   -9999.25   -9999.25    3.21740    2.49370
 7196.50000  309.83190   -1.93070  104.26030   -9999.25   -9999.25   -9999.25    3.14320    2.54350
 7197.00000  311.82170   -1.92170  104.52760   -9999.25   -9999.25   -9999.25    3.09720    2.54420
 7197.50000  313.76210   -1.91210  106.52040   -9999.25   -9999.25   -9999.25    3.05160    2.54500
 7198.00000  318.25950   -1.90360  107.89740   -9999.25   -9999.25   -9999.25    2.99550    2.54580
 7198.50000  338.07010   -1.89460  109.67770   -9999.25   -9999.25   -9999.25    2.88550    2.54650
 7199.00000  346.01740   -2.18540  105.40120   -9999.25   -9999.25   -9999.25    2.76490    2.54720
 7199.50000  351.79750   -2.17770  103.39600   -9999.25   -9999.25   -9999.25    2.62310    2.54810
 7200.00000  358.24930   -2.16870  101.57660   -9999.25   -9999.25   -9999.25    2.55790    2.54020
 7200.50000  363.53630   -2.16110  101.16400   -9999.25   -9999.25   -9999.25    2.60300    2.49970
 7201.00000  368.59180   -2.15360  103.83810   -9999.25   -9999.25   -9999.25    2.64820    2.43150
 7201.50000  372.58690   -2.14610  107.35940   -9999.25   -9999.25   -9999.25    2.69750    2.39770
 7202.00000  374.84260   -2.13760  110.16700   -9999.25   -9999.25   -9999.25    2.69720    2.39720
 7202.50000  373.25170   -2.00560  109.93310   -9999.25   -9999.25   -9999.25    2.77180    2.50060
 7203.00000  370.36130   -1.82230  105.65050   -9999.25   -9999.25   -9999.25    2.84630    2.54650
 7203.50000  368.64810   -1.81480  102.28380   -9999.25   -9999.25   -9999.25    2.84600    2.54610
 7204.00000  368.87600   -1.80720   99.85700   -9999.25   -9999.25   -9999.25    2.84560    2.54570
 7204.50000  369.99210   -1.79920   96.59490   -9999.25   -9999.25   -9999.25    2.84520    2.54530
 7205.00000  367.94230   -1.79220   95.31580   -9999.25   -9999.25   -9999.25    2.83240    2.54500
 7205.50000  365.90070   -1.78460   96.48010   -9999.25   -9999.25   -9999.25    2.76940    2.54140
 7206.00000  363.86870   -1.47470   99.42320   -9999.25   -9999.25   -9999.25    2.76910    2.46930
 7206.50000  359.91770   -1.46840   99.15850   -9999.25   -9999.25   -9999.25    2.76760    2.44920
 7207.00000  360.18710   -1.46070   97.76560   -9999.25   -9999.25   -9999.25    2.69340    2.39350
 7207.50000  364.88080   -1.45330   96.46420   -9999.25   -9999.25   -9999.25    2.67430    2.39320
 7208.00000  369.68600   -1.44580   95.55230   -9999.25   -9999.25   -9999.25    2.61770    2.39280
 7208.50000  369.05420   -1.43740   96.77720   -9999.25   -9999.25   -9999.25    2.58110    2.46730
 7209.00000  366.70140   -1.43070  102.10870   -9999.25   -9999.25   -9999.25    2.54200    2.46700
 7209.50000  366.21920   -1.42320  103.72340   -9999.25   -9999.25   -9999.25    2.54150    2.46660
 7210.00000  365.76720   -1.41570  105.49550   -9999.25   -9999.25   -9999.25    2.54120    2.46630
 7210.50000  364.47580   -1.49330  105.98420   -9999.25   -9999.25   -9999.25    2.54080    2.45520
 7211.00000  364.48280   -1.70180  104.32610   -9999.25   -9999.25   -9999.25    2.58300    2.39050
 7211.50000  366.54400   -1.69430  105.05900   -9999.25   -9999.25   -9999.25    2.61510    2.31520
 7212.00000  373.49460   -1.68670  106.05360   -9999.25   -9999.25   -9999.25    2.61460    2.31480
 7212.50000  375.50050   -1.67810  107.15110   -9999.25   -9999.25   -9999.25    2.61430    2.31450
 7213.00000  376.50700   -1.67170  108.67650   -9999.25   -9999.25   -9999.25    2.61390    2.32860
 7213.50000  376.93450   -1.66410  109.35500   -9999.25   -9999.25   -9999.25    2.56490    2.38870
 7214.00000  377.40120   -1.65660  108.00920   -9999.25   -9999.25   -9999.25    2.53820    2.41930
 7214.50000  379.52870   -1.64910  108.83540   -9999.25   -9999.25   -9999.25    2.53780    2.46290
 7215.00000  381.63420   -1.64080  109.70760   -9999.25   -9999.25   -9999.25    2.50010    2.46250
 7215.50000  384.06890   -1.63400  110.72580   -9999.25   -9999.25   -9999.25    2.46210    2.44390
 7216.00000  388.64610   -1.62650  107.08200   -9999.25   -9999.25   -9999.25    2.46170    2.38680
 7216.50000  396.56410   -1.91870  103.26660   -9999.25   -9999.25   -9999.25    2.38640    2.38640
 7217.00000  405.05320   -2.00290   99.85250   -9999.25   -9999.25   -9999.25    2.38600    2.38060
 7217.50000  412.40390   -2.20630   98.35520   -9999.25   -9999.25   -9999.25    2.31070    2.31060
 7218.00000  421.55920   -2.19880  101.06340   -9999.25   -9999.25   -9999.25    2.23540    2.28840
 7218.50000  420.06890   -2.19130  103.29850   -9999.25   -9999.25   -9999.25    2.23500    2.23500
 7219.00000  419.09520   -2.48390  104.99170   -9999.25   -9999.25   -9999.25    2.23460    2.23460
 7219.50000  417.83400   -2.47740  106.25750   -9999.25   -9999.25   -9999.25    2.30920    2.23430
