~Version ---------------------------------------------------
VERS.   2.0 : CWLS log ASCII Standard -VERSION 2.0
WRAP.    NO : One line per depth step
DLM . SPACE : Column Data Section Delimiter
~Well ------------------------------------------------------
STRT .F                5740.0 : START DEPTH
STOP .F                9313.0 : STOP DEPTH
STEP .F                   0.5 : STEP
NULL .               -9999.25 : NULL VALUE
COMP .                        : COMPANY
WELL .                        : WELL
FLD  .                        : FIELD
LOC  .                        : LOCATION
PROV .                        : PROVINCE
CNTY .                        : COUNTY
STAT .                        : STATE
CTRY .                        : COUNTRY
SRVC .                        : SERVICE COMPANY
DATE .                        : DATE
UWI  .                        : UNIQUE WELL ID
API  .                        : API NUMBER
SLAT .WGS84 4.714298334146797 : SURFACE LATITUDE
SLON .WGS84 2.241382740048607 : SURFACE LONGITUDE
DATUM.F                970.48 : DEPTH DATUM ELEV
~Curve Information -----------------------------------------
DEPT.F     : 
CILD.MMHO  : CONDUCTIVITY INDUCTION LOG DEEP
SPR .MV    : SPONTANEOUS POTENTIAL FROM RES.
GRR .GAPI  : GAMMA RAY FROM RESISTIVITY
ILM .OHMM  : INDUCTION LOG MEDIUM
DTCO.US/F  : COMPRESSIONAL-WAVE INTERVAL TRANSIT TIME ACOUSTIC SLOWNESS
DTSM.US/F  : SHEAR-WAVE INTERVAL TRANSIT TIME DELTA-T
ILD .OHMM  : INDUCTION LOG DEEP
SFL .OHMM  : SPHERICALLY FOCUSED LOG RESISTIVITY
~Params ----------------------------------------------------
~Other -----------------------------------------------------
~ASCII -----------------------------------------------------
# ...
 6500.00000  416.26650   -4.57830   93.53730   -9999.25   -9999.25   -9999.25    2.28950    2.22530
 6500.50000  423.88470   -4.57520   94.80310   -9999.25   -9999.25   -9999.25    2.23260    2.16660
 6501.00000  431.45710   -4.57230   96.06880   -9999.25   -9999.25   -9999.25    2.17240    2.10800
 6501.50000  441.57530   -4.56930   97.29730   -9999.25   -9999.25   -9999.25    2.05760    2.04930
 6502.00000  462.27530   -4.56600   94.81980   -9999.25   -9999.25   -9999.25    1.93550    1.94440
 6502.50000  480.68470   -4.56330   93.71620   -9999.25   -9999.25   -9999.25    1.79520    1.86840
 6503.00000  511.33650   -4.56020   93.24320   -9999.25   -9999.25   -9999.25    1.71960    1.78830
 6503.50000  524.56960   -4.55680   96.17120   -9999.25   -9999.25   -9999.25    1.71890    1.71630
 6504.00000  543.04130   -4.55420   99.82010   -9999.25   -9999.25   -9999.25    1.64320    1.69310
 6504.50000  562.60050   -4.55120  102.70270   -9999.25   -9999.25   -9999.25    1.64240    1.63900
 6505.00000  574.05770   -4.54820  100.69500   -9999.25   -9999.25   -9999.25    1.64160    1.56300
 6505.50000  578.87650   -4.54520   96.77220   -9999.25   -9999.25   -9999.25    1.64090    1.55030
 6506.00000  580.02990   -4.54200   94.36940   -9999.25   -9999.25   -9999.25    1.64020    1.48560
 6506.50000  582.01370   -4.38140   93.48100   -9999.25   -9999.25   -9999.25    1.63930    1.48460
 6507.00000  584.17000   -4.23520   96.06800   -9999.25   -9999.25   -9999.25    1.63870    1.48350
 6507.50000  587.63310   -4.53310  100.22520   -9999.25   -9999.25   -9999.25    1.63790    1.48240
 6508.00000  593.28880   -4.53010  101.92160   -9999.25   -9999.25   -9999.25    1.63720    1.48130
 6508.50000  598.91580   -4.52710  104.05410   -9999.25   -9999.25   -9999.25    1.56150    1.48000
 6509.00000  602.84810   -4.52410  101.93640   -9999.25   -9999.25   -9999.25    1.56060    1.47900
 6509.50000  606.73250   -4.12840  102.25230   -9999.25   -9999.25   -9999.25    1.48500    1.47790
 6510.00000  607.89610   -3.61430   90.31530   -9999.25   -9999.25   -9999.25    1.48430    1.47660
 6510.50000  609.25120   -3.78120   87.82930   -9999.25   -9999.25   -9999.25    1.48350    1.47560
 6511.00000  612.02590   -3.96770   90.20770   -9999.25   -9999.25   -9999.25    1.50290    1.47450
 6511.50000  614.15690   -4.20780   95.13230   -9999.25   -9999.25   -9999.25    1.63190    1.47340
 6512.00000  616.64110   -4.20480   99.18870   -9999.25   -9999.25   -9999.25    1.63120    1.47230
 6512.50000  619.81510   -4.50320  105.40540   -9999.25   -9999.25   -9999.25    1.63040    1.47100
 6513.00000  623.01900   -4.49950  109.99930   -9999.25   -9999.25   -9999.25    1.62960    1.47000
 6513.50000  627.09220   -4.60040  109.09650   -9999.25   -9999.25   -9999.25    1.62890    1.46340
 6514.00000  631.67430   -4.49390  103.82880   -9999.25   -9999.25   -9999.25    1.62820    1.39260
 6514.50000  629.73080   -4.49100  102.47750   -9999.25   -9999.25   -9999.25    1.62740    1.39170
 6515.00000  627.13820   -4.48800  102.47750   -9999.25   -9999.25   -9999.25    1.62670    1.39050
 6515.50000  626.08170   -4.48470  102.47750   -9999.25   -9999.25   -9999.25    1.62590    1.38940
 6516.00000  624.91710   -4.48190  101.39620   -9999.25   -9999.25   -9999.25    1.62520    1.46340
 6516.50000  624.93550   -4.44200   98.64870   -9999.25   -9999.25   -9999.25    1.62440    1.46200
 6517.00000  625.17720   -4.17420   98.87390   -9999.25   -9999.25   -9999.25    1.62350    1.46100
 6517.50000  626.46230   -4.17170   98.70460   -9999.25   -9999.25   -9999.25    1.64600    1.45990
 6518.00000  628.48490   -4.16870   96.84680   -9999.25   -9999.25   -9999.25    1.69720    1.50780
 6518.50000  632.90700   -4.16570   95.58900   -9999.25   -9999.25   -9999.25    1.69640    1.45760
 6519.00000  637.00320   -3.86140   93.69370   -9999.25   -9999.25   -9999.25    1.69570    1.45640
 6519.50000  641.66560   -3.85830   96.47850   -9999.25   -9999.25   -9999.25    1.69480    1.49390
 6520.00000  647.72610   -3.85540   99.54960   -9999.25   -9999.25   -9999.25    1.69420    1.45430
 6520.50000  652.04190   -3.85240   97.07210   -9999.25   -9999.25   -9999.25    1.61840    1.45300
 6521.00000  652.80070   -3.84900   93.31030   -9999.25   -9999.25   -9999.25    1.61770    1.45200
 6521.50000  651.31980   -3.84640   91.89190   -9999.25   -9999.25   -9999.25    1.54200    1.45090
 6522.00000  650.58470   -3.84340   94.36940   -9999.25   -9999.25   -9999.25    1.46620    1.37480
 6522.50000  652.24910   -3.83980   96.29150   -9999.25   -9999.25   -9999.25    1.42870    1.37370
 6523.00000  652.86510   -3.93170   97.30020   -9999.25   -9999.25   -9999.25    1.38980    1.37250
 6523.50000  652.87850   -4.13550   97.74770   -9999.25   -9999.25   -9999.25    1.38890    1.33600
 6524.00000  651.21560   -4.13250   97.46220   -9999.25   -9999.25   -9999.25    1.38830    1.29540
 6524.50000  647.66390   -4.12950   95.04500   -9999.25   -9999.25   -9999.25    1.46250    1.29400
 6525.00000  646.42680   -4.12620   94.14410   -9999.25   -9999.25   -9999.25    1.46180    1.29310
 6525.50000  643.19370   -4.12350   93.46850   -9999.25   -9999.25   -9999.25    1.46100    1.29190
 6526.00000  640.38840   -4.12050   94.59460   -9999.25   -9999.25   -9999.25    1.46020    1.36580
 6526.50000  637.65520   -4.11700   95.21160   -9999.25   -9999.25   -9999.25    1.49240    1.36470
 6527.00000  634.99400   -3.81330   95.49550   -9999.25   -9999.25   -9999.25    1.53380    1.36340
 6527.50000  632.80860   -3.81020   93.22470   -9999.25   -9999.25   -9999.25    1.53300    1.39490
 6528.00000  630.31410   -3.80720   92.00920   -9999.25   -9999.25   -9999.25    1.53220    1.43630
 6528.50000  625.29500   -3.80420   92.34230   -9999.25   -9999.25   -9999.25    1.53140    1.43520
 6529.00000  622.01620   -3.80100   94.80770   -9999.25   -9999.25   -9999.25    1.53070    1.43400
 6529.50000  615.57750   -3.79820   96.32080   -9999.25   -9999.25   -9999.25    1.53000    1.43280
 6530.00000  603.90330   -3.79520   97.97300   -9999.25   -9999.25   -9999.25    1.52910    1.50670
 6530.50000  598.77700   -3.79170   95.47980   -9999.25   -9999.25   -9999.25    1.52850    1.51710
 6531.00000  597.63120   -3.78920   95.26600   -9999.25   -9999.25   -9999.25    1.52770    1.57950
 6531.50000  599.86530   -3.78610   96.26410   -9999.25   -9999.25   -9999.25    1.52700    1.60790
 6532.00000  601.40930   -3.78310   97.60350   -9999.25   -9999.25   -9999.25    1.60130    1.65220
 6532.50000  601.42680   -3.78010  100.00000   -9999.25   -9999.25   -9999.25    1.60040    1.65100
 6533.00000  601.70860   -3.77690  101.65970   -9999.25   -9999.25   -9999.25    1.59970    1.57500
 6533.50000  603.70330   -3.77410  103.60360   -9999.25   -9999.25   -9999.25    1.59900    1.49880
 6534.00000  607.68800   -3.77110   99.54960   -9999.25   -9999.25   -9999.25    1.59810    1.49780
 6534.50000  612.51890   -3.76770   96.28520   -9999.25   -9999.25   -9999.25    1.59750    1.49660
 6535.00000  616.49300   -3.76510   91.21620   -9999.25   -9999.25   -9999.25    1.59670    1.49530
 6535.50000  619.11800   -3.76200   89.05630   -9999.25   -9999.25   -9999.25    1.59600    1.49440
 6536.00000  623.26730   -3.75850   92.17840   -9999.25   -9999.25   -9999.25    1.59520    1.56820
 6536.50000  619.53760   -3.75600  100.45040   -9999.25   -9999.25   -9999.25    1.59440    1.56710
 6537.00000  617.49180   -3.75290  105.83190   -9999.25   -9999.25   -9999.25    1.59370    1.64110
 6537.50000  618.06600   -3.75000  106.98200   -9999.25   -9999.25   -9999.25    1.51800    1.63970
 6538.00000  620.99020   -3.74700  100.67570   -9999.25   -9999.25   -9999.25    1.46780    1.71360
 6538.50000  624.66410   -4.04490   98.20250   -9999.25   -9999.25   -9999.25    1.44150    1.71250
 6539.00000  628.60680   -3.74100   99.32430   -9999.25   -9999.25   -9999.25    1.44070    1.63620
 6539.50000  635.01630   -3.73800   99.49740   -9999.25   -9999.25   -9999.25    1.36510    1.61180
