~Version ---------------------------------------------------
VERS.   2.0 : CWLS log ASCII Standard -VERSION 2.0
WRAP.    NO : One line per depth step
DLM . SPACE : Column Data Section Delimiter
~Well ------------------------------------------------------
STRT .F                5740.0 : START DEPTH
STOP .F                9313.0 : STOP DEPTH
STEP .F                   0.5 : STEP
NULL .               -9999.25 : NULL VALUE
COMP .                        : COMPANY
WELL .                        : WELL
FLD  .                        : FIELD
LOC  .                        : LOCATION
PROV .                        : PROVINCE
CNTY .                        : COUNTY
STAT .                        : STATE
CTRY .                        : COUNTRY
SRVC .                        : SERVICE COMPANY
DATE .                        : DATE
UWI  .                        : UNIQUE WELL ID
API  .                        : API NUMBER
SLAT .WGS84 4.714298334146797 : SURFACE LATITUDE
SLON .WGS84 2.241382740048607 : SURFACE LONGITUDE
DATUM.F                970.48 : DEPTH DATUM ELEV
~Curve Information -----------------------------------------
DEPT.F     : 
CILD.MMHO  : CONDUCTIVITY INDUCTION LOG DEEP
SPR .MV    : SPONTANEOUS POTENTIAL FROM RES.
GRR .GAPI  : GAMMA RAY FROM RESISTIVITY
ILM .OHMM  : INDUCTION LOG MEDIUM
DTCO.US/F  : COMPRESSIONAL-WAVE INTERVAL TRANSIT TIME ACOUSTIC SLOWNESS
DTSM.US/F  : SHEAR-WAVE INTERVAL TRANSIT TIME DELTA-T
ILD .OHMM  : INDUCTION LOG DEEP
SFL .OHMM  : SPHERICALLY FOCUSED LOG RESISTIVITY
~Params ----------------------------------------------------
~Other -----------------------------------------------------
~ASCII -----------------------------------------------------
# ...
 8580.00000   19.34400  -38.80220   48.81390   65.75570   56.86100  113.83700   56.04190  141.80200
 8580.50000   19.09630  -39.71070   49.23690   64.37120   57.31380  118.47580   55.26780  112.07170
 8581.00000   18.63570  -40.31930   48.78810   63.52610   55.94250  115.18630   55.26330  100.29830
 8581.50000   18.65820  -40.92790   48.34050   62.63810   54.56520  108.00750   56.03060  100.96730
 8582.00000   18.68070  -41.53650   47.89170   61.76520   55.23560  100.82880   57.20100  110.44110
 8582.50000   18.70520  -41.54540   47.89450   60.90450   57.03370  100.50280   58.39690  122.48720
 8583.00000   18.72560  -41.85410   48.12190   60.47240   57.78550  100.98840   60.44860  130.32270
 8583.50000   18.74810  -42.16290   48.34930   61.30200   53.90360   98.13590   61.71240  137.70310
 8584.00000   19.52410  -42.17180   48.57680   62.57410   56.29960   99.96560   63.00260  142.51210
 8584.50000   19.54270  -42.18070   50.15560   64.76210   57.64930  101.28490   64.31980  143.47250
 8585.00000   18.81610  -42.18960   51.73440   66.56470   57.80320  101.13680   64.76310  139.50800
 8585.50000   18.83810  -42.19850   51.73660   68.41750   56.91080  100.98870   65.20830  130.14530
 8586.00000   18.86060  -42.20740   51.51350   68.40350   55.27100  101.73850   66.11250  120.57360
 8586.50000   18.13570  -42.51610   51.96620   68.38950   54.67750  103.53510   67.02810  111.70590
 8587.00000   18.15590  -42.22490   54.68710   68.85050   54.38300  105.48120   67.02360  107.87750
 8587.50000   18.11650  -42.23410   56.04430   69.31380   53.49060  107.87610   67.01900  107.84760
 8588.00000   17.45130  -42.24300   55.54290   69.78030   52.74760  110.12140   67.01440  106.33590
 8588.50000   17.47380  -42.25190   51.07480   70.26540   52.55770  111.46920   66.54770  107.04610
 8589.00000   17.49690  -42.26090   49.72560   70.23530   54.55020  112.81700   66.54320  110.01310
 8589.50000   17.51870  -42.26990   49.27680   69.18810   56.49780  112.36970   66.07970  114.64560
 8590.00000   17.69110  -41.97870   49.73010   68.76200   58.29600  111.92200   66.07520  117.83120
 8590.50000   18.31580  -41.68780   51.53410   69.22850   59.20560  113.27020   66.07060  118.62510
 8591.00000   18.33580  -41.39680   54.68950   68.26030   59.65020  113.86960   65.99370  114.55200
 8591.50000   18.35830  -41.10590   58.97090   67.30900   59.63230  111.92680   65.15260  106.86390
 8592.00000   18.38510  -40.51510   61.90110   66.83150   59.66010  110.28280   64.69890   96.97050
 8592.50000   18.40330  -39.32680   63.70510   65.90020   60.86030  109.08760   63.80530   91.72330
 8593.00000   19.17620  -38.43610   67.76140   64.98180   63.10690  111.48250   62.92400   89.19490
 8593.50000   19.19790  -36.94580   72.71860   63.63470   65.80190  114.32620   62.05490   86.73620
 8594.00000   19.97000  -35.75530   77.67570   61.88610   66.70320  115.67400   61.62270   84.93100
 8594.50000   19.99510  -35.16230   80.60590   61.44710   66.70760  113.73080   61.19360   83.16340
 8595.00000   20.01500  -34.57370   82.66170   61.86390   69.10370  113.13390   60.34840   81.97990
 8595.50000   20.78710  -33.98290   84.97540   62.70940   70.75240  114.63130   59.10450   81.40990
 8596.00000   20.81400  -33.09220   88.63850   63.56960   72.84950  116.73290   57.88620   79.71510
 8596.50000   21.58170  -31.90170   91.87660   62.68370   76.74030  119.31270   55.91380   80.79940
 8597.00000   21.60520  -31.01110   95.70760   62.23900   79.58370  122.82660   54.76130   81.90870
 8597.50000   22.03840  -29.82060  102.91700   61.37150   69.12620  122.04600   53.63250   82.45500
 8598.00000   22.39880  -28.63010  113.50480   61.35880   61.80630  111.35600   52.89170   78.52940
 8598.50000   22.42410  -27.73940  125.44400   60.92280   58.52220  105.66520   52.16120   73.25910
 8599.00000   22.44380  -26.24910  129.27500   60.07380   57.77930  103.57250   52.15760   70.26050
 8599.50000   21.71600  -25.35840  124.99800   60.89790   58.38160  101.77890   52.88090   67.38470
 8600.00000   21.90360  -24.46780  118.60100   61.30790   56.89080  100.13460   53.61410   62.42990
 8600.50000   22.32720  -24.21310  107.81340   61.74410   56.29430  102.54520   54.17630   61.99620
 8601.00000   22.52750  -23.95840   98.01640   63.43860   57.79100  104.66360   54.35450   68.77120
 8601.50000   22.54500  -23.55890   94.83650   64.75510   58.98830  106.90690   54.34980   74.72060
 8602.00000   22.47410  -23.55590   99.57320   58.36030   60.03610  108.56270   54.34610   74.20020
 8602.50000   21.08630  -23.85350  111.96610   55.97710   61.23340  109.44180   54.34240   69.71530
 8603.00000   19.60270  -23.84980  122.10680   56.74500   62.28120  109.27740   54.71600   63.71330
 8603.50000   19.62190  -23.84690  123.01190   62.93380   63.03010  109.25600   55.85990   62.83330
 8604.00000   19.95940  -23.84390  118.06390   68.83890   63.33020  106.74980   57.42380   64.15400
 8604.50000   19.51940  -24.14090  109.28570   73.75220   61.53830  103.00430   58.64690   68.39770
 8605.00000   18.18070  -24.73760   98.48050   75.80900   60.94190  101.51140   60.30860   79.10650
 8605.50000   16.38810  -25.33430   88.57610   77.91510   60.79350  100.46730   62.44410   94.49720
 8606.00000   15.21710  -27.14000   78.67180   79.53190   60.79540   98.82480   65.73390  110.58660
 8606.50000   15.23610  -29.24780   68.31700   88.20590   60.49750   96.73350   73.64190  143.09680
 8607.00000   14.50230  -30.76070   61.56580   96.48230   59.90150   95.53980   83.40460  164.32560
 8607.50000   14.52560  -32.51890   56.16590  107.74740   59.00610   94.94360   89.37430  170.09910
 8608.00000   14.18330  -33.71460   50.54090  116.23880   58.11070   94.79700   92.51440  174.86120
 8608.50000   13.81080  -34.91100   45.81670  120.30370   57.81290   95.24950   95.76480  196.67660
 8609.00000   13.83400  -36.40730   42.21860  118.62660   58.71160   98.09470   98.44580  230.59200
 8609.50000   13.84930  -37.90360   40.64760  110.66630   59.46050   98.54570   99.81260  277.94340
 8610.00000   13.86880  -39.10010   41.77930  107.54300   60.50830   96.60470  101.19670  301.99330
 8610.50000   13.88680  -40.29650   45.40620  101.73970   61.85510   95.11180  102.59820  274.08560
 8611.00000   13.90560  -42.09260   50.61690   98.90680   63.94920   98.25620  103.30530  202.12740
 8611.50000   13.92690  -42.98920   54.63220   93.02730   66.34240  100.80210  101.17420  168.83350
 8612.00000   13.94300  -43.88580   60.41330   91.09870   66.80860  102.00180   97.05280  146.84500
 8612.50000   13.96180  -44.48260   62.07880   91.08010   65.14950  101.55600   95.71240  134.27330
 8613.00000   13.98050  -45.08010   61.18350   91.06150   64.10470  101.11020   95.04580  131.57760
 8613.50000   13.99920  -45.37630   58.71160   90.41550   65.00300  101.41240   94.38390  131.56850
 8614.00000   14.01990  -45.37330   56.69010   89.77410   65.75190  102.46250   94.37750  130.65040
 8614.50000   14.78630  -45.07040   56.01860   89.13720   64.70470  103.81180   93.07390  124.46410
 8615.00000   14.80510  -45.05790   58.05260   91.61830   63.65750  105.01140   93.04720  118.57070
 8615.50000   14.82760  -44.46480   58.73240   95.47970   63.05760  105.76240   94.36840  113.74070
 8616.00000   14.84260  -44.16190   56.03670  103.00430   63.09080  105.46620   96.36760  112.95060
 8616.50000   14.86240  -43.85850   52.66380  108.84050   63.84670  103.67410   97.66660  119.36960
 8617.00000   14.88010  -43.55570   49.74150  110.33460   64.58390  102.62920   98.33800  126.15540
 8617.50000   14.89880  -43.25290   47.94520  106.56230   65.18780  103.82960   99.14370  131.49680
 8618.00000   14.92050  -42.95010   47.49900  104.35320   66.26400  105.02930  101.08240  130.57890
 8618.50000   14.93630  -43.24700   47.73120  102.18990   67.40990  105.63060  103.91230  127.00540
 8619.00000   14.95530  -43.24400   49.08810  100.76560   67.71030  105.63360  102.47710  123.52970
 8619.50000   14.97380  -43.24100   51.34590   97.83680   67.71180  105.48690   99.67260  119.32060
