~Version ---------------------------------------------------
VERS.   2.0 : CWLS log ASCII Standard -VERSION 2.0
WRAP.    NO : One line per depth step
DLM . SPACE : Column Data Section Delimiter
~Well ------------------------------------------------------
STRT .F                5740.0 : START DEPTH
STOP .F                9313.0 : STOP DEPTH
STEP .F                   0.5 : STEP
NULL .               -9999.25 : NULL VALUE
COMP .                        : COMPANY
WELL .                        : WELL
FLD  .                        : FIELD
LOC  .                        : LOCATION
PROV .                        : PROVINCE
CNTY .                        : COUNTY
STAT .                        : STATE
CTRY .                        : COUNTRY
SRVC .                        : SERVICE COMPANY
DATE .                        : DATE
UWI  .                        : UNIQUE WELL ID
API  .                        : API NUMBER
SLAT .WGS84 4.714298334146797 : SURFACE LATITUDE
SLON .WGS84 2.241382740048607 : SURFACE LONGITUDE
DATUM.F                970.48 : DEPTH DATUM ELEV
~Curve Information -----------------------------------------
DEPT.F     : 
CILD.MMHO  : CONDUCTIVITY INDUCTION LOG DEEP
SPR .MV    : SPONTANEOUS POTENTIAL FROM RES.
GRR .GAPI  : GAMMA RAY FROM RESISTIVITY
ILM .OHMM  : INDUCTION LOG MEDIUM
DTCO.US/F  : COMPRESSIONAL-WAVE INTERVAL TRANSIT TIME ACOUSTIC SLOWNESS
DTSM.US/F  : SHEAR-WAVE INTERVAL TRANSIT TIME DELTA-T
ILD .OHMM  : INDUCTION LOG DEEP
SFL .OHMM  : SPHERICALLY FOCUSED LOG RESISTIVITY
~Params ----------------------------------------------------
~Other -----------------------------------------------------
~ASCII -----------------------------------------------------
# ...
 8340.00000   50.57310  -13.55500  102.20690   17.63340   77.45920  148.94190   20.26140   20.07920
 8340.50000   51.04490  -14.16800  113.45930   19.82420   81.49800  152.07150   20.53110   19.90200
 8341.00000   52.33930  -14.78100  124.93680   20.23300   84.93890  158.03280   20.22810   18.94150
 8341.50000   51.95850  -15.39400  133.93690   18.87080   86.43660  166.52760   19.93780   17.92620
 8342.00000   50.75290  -16.00700  142.72770   18.73450   82.10480  171.14750   20.61850   16.83230
 8342.50000   48.61430  -16.91980  144.51880   21.20590   78.96870  161.60950   22.38530   16.47800
 8343.00000   46.77380  -17.83270  144.72100   23.51300   79.27060  149.68700   24.47220   19.30430
 8343.50000   43.38090  -17.84590  144.16470   24.33210   80.46940  145.81220   26.02340   23.90680
 8344.00000   42.93900  -17.85920  137.74040   23.98460   81.37280  146.72990   26.55290   28.59960
 8344.50000   42.32360  -17.57270  134.55680   23.15930   80.76240  149.72250   26.71530   30.42180
 8345.00000   40.40560  -17.58620  139.95330   22.83110   79.69060  150.43220   26.68790   29.97800
 8345.50000   40.07540  -17.59970  149.17860   23.62370   78.98640  146.41660   26.66590   27.57040
 8346.00000   39.62050  -17.66790  157.77940   25.12950   80.48490  144.91800   26.82900   24.66390
 8346.50000   38.17990  -17.92900  170.18260   27.48080   81.83310  151.02830   26.80700   21.76060
 8347.00000   37.21090  -17.94230  176.53410   30.89500   83.18140  161.75860   27.53670   22.35600
 8347.50000   35.19530  -17.95560  180.28550   35.27590   83.33300  162.20570   30.52340   27.68600
 8348.00000   32.50040  -17.96890  182.54650   41.78440   81.84200  150.87930   34.06910   39.37590
 8348.50000   27.37310  -17.98220  182.91040   48.85890   81.24630  140.29810   39.36540   60.01430
 8349.00000   24.72370  -17.99550  181.77310   52.51720   82.44580  139.55290   46.43900   69.35350
 8349.50000   23.69440  -18.00880  181.31370   53.60020   81.85080  140.44710   49.04200   70.76040
 8350.00000   22.48880  -18.02210  182.20570   53.20140   79.85730  140.91860   50.02960   71.69690
 8350.50000   22.49620  -18.33520  183.77340   52.08610   78.26160  141.97560   48.96700   72.17740
 8351.00000   22.50370  -18.64840  183.08880   52.06300   78.44210  142.98230   48.63680   73.16830
 8351.50000   21.76230  -18.66170  182.62940   52.40680   79.63230  143.12520   48.62340   76.78400
 8352.00000   21.76910  -19.27470  183.07090   54.22030   80.23660  143.44270   49.62700   79.47090
 8352.50000   21.71490  -19.58780  188.46740   59.29370   80.84190  145.36940   51.36010   81.12130
 8353.00000   21.03450  -19.90110  199.26930   65.29170   80.96590  145.65430   52.78710   85.72120
 8353.50000   20.29090  -20.24060  204.44060   68.02740   80.51900  145.50380   54.63060   91.21080
 8354.00000   19.55050  -20.82760  209.16140   70.87760   79.17520  145.65130   55.38060   95.05800
 8354.50000   19.55770  -21.14360  215.00830   71.83410   80.07350  146.14140   56.52300   97.70590
 8355.00000   18.81480  -21.45670  223.10750   72.80160   81.27080  149.69680   58.09350   98.36500
 8355.50000   18.82410  -21.76990  227.82830   74.29380   81.42170  149.01860   60.53970  101.10420
 8356.00000   18.83060  -22.08300  229.66270   75.29510   80.67550  149.37080   62.65390  108.32590
 8356.50000   18.08840  -22.09630  224.88250   74.22740   80.37800  150.26350   63.51410  122.66990
 8357.00000   18.09600  -21.80640  218.11690   73.11110   80.08090  150.56040   63.49240  135.18060
 8357.50000   18.85310  -21.82300  206.62150   71.14690   79.33460  150.40960   63.47510  138.88480
 8358.00000   19.61080  -21.23330  198.95490   68.69250   78.14070  149.06680   63.02020  135.87590
 8358.50000   20.36730  -20.94670  190.60190   65.41780   74.55470  133.86410   60.86040  129.94180
 8359.00000   21.20010  -20.36360  179.49480   63.16670   71.86560  127.45430   60.00090  114.34530
 8359.50000   21.88290  -20.07380  164.35320   60.99310   70.22280  125.51580   58.28940  104.48660
 8360.00000   22.88930  -20.09040  152.50660   58.89430   69.32750  127.74940   55.86060   96.14090
 8360.50000   23.39600  -20.10370  138.41850   55.70020   70.37530  134.90140   51.48790   86.64440
 8361.00000   22.65370  -19.51730  131.65730   53.41290   72.17050  141.30830   49.38040   79.17410
 8361.50000   22.80030  -19.53070  130.97830   51.93280   73.66670  143.84030   48.01920   69.40550
 8362.00000   24.16880  -19.24400  136.15290   51.90980   75.16300  145.92530   47.34630   62.98420
 8362.50000   24.92500  -19.20790  142.22960   50.82160   77.55610  149.64960   45.40840   58.35590
 8363.00000   25.68220  -18.97080  149.65750   48.39880   80.84610  152.92680   44.15670   59.56770
 8363.50000   25.68970  -18.68420  153.48120   47.38410   83.68760  154.71370   42.93950   61.65220
 8364.00000   24.94630  -18.39760  159.55780   46.71270   84.58950  155.75540   43.52600   61.21450
 8364.50000   24.95560  -18.41430  160.00500   46.69190   84.88640  155.90330   44.12050   58.71290
 8365.00000   23.83810  -18.42750  156.17060   51.80620   85.03730  155.90150   44.41480   54.02330
 8365.50000   23.38330  -18.44080  153.46340   54.38090   85.01880  156.04900   44.71400   50.05350
 8366.00000   21.98020  -18.45420  153.23490   57.10160   84.41660  156.49460   46.27240   50.74060
 8366.50000   21.72400  -18.46750  160.21130   61.02970   83.54740  156.79150   50.96560   55.89090
 8367.00000   20.49490  -18.78060  178.22490   71.02560   83.10040  156.49170   55.74770   66.04840
 8367.50000   19.31380  -18.79390  186.32860   79.29950   83.55030  155.29790   61.82830   79.15650
 8368.00000   18.86150  -18.80720  190.82860   80.93470   83.70090  153.06100   67.64810   93.64870
 8368.50000   18.26840  -18.82050  191.30140   79.22930   82.05850  150.67500   69.50880  116.19040
 8369.00000   18.27590  -18.83380  189.01800   77.56820   80.71470  149.03410   70.45820  157.63830
 8369.50000   19.10870  -18.84710  185.17750   76.46900   79.22140  146.94620   66.64100  178.51210
 8370.00000   22.53560  -18.56050  180.35030   72.32170   77.87760  142.47380   56.42820  182.22860
 8370.50000   24.29540  -18.57420  173.54620   67.92810   77.28080  140.08780   48.78290  161.96320
 8371.00000   25.05290  -18.29060  161.07120   61.20860   77.28270  140.98050   46.46350  115.36370
 8371.50000   25.06000  -18.30380  150.03140   52.18560   77.58310  143.51260   45.49650   82.74230
 8372.00000   25.06750  -18.31710  143.04500   49.01520   78.33200  145.44850   45.80310   61.86110
 8372.50000   25.07610  -18.02730  142.59010   50.02040   79.37980  146.93730   46.42870   55.36620
 8373.00000   25.08250  -18.04390  147.89340   51.75710   80.27810  148.57520   46.73830   59.32090
 8373.50000   25.83970  -18.05720  154.29220   49.28970   81.32600  149.02120   46.72240   74.00950
 8374.00000   26.29640  -17.76730  156.99050   43.70480   80.72950  147.67800   45.12110   84.97740
 8374.50000   27.35380  -17.48070  156.76080   38.89860   79.98360  145.73910   42.09290   87.95550
 8375.00000   28.11170  -16.89770  155.85550   36.47930   80.88200  144.99250   38.72820   84.94260
 8375.50000   30.29140  -16.60780  153.37360   32.71610   81.20240  145.28910   36.12900   76.55220
 8376.00000   31.92370  -16.02140  150.08750   29.47980   79.83860  145.73470   33.70430   56.05720
 8376.50000   33.38230  -15.13840  145.70670   28.07440   79.39170  143.94480   31.43880   45.53920
 8377.00000   35.11220  -14.55200  145.47810   28.84890   79.54260  140.06850   30.15520   32.18520
 8377.50000   36.39470  -13.96550  148.62570   30.26620   80.29620  138.27870   29.70810   30.68350
 8378.00000   36.75180  -13.67910  149.07280   31.31710   80.89090  137.38300   29.96530   31.18750
 8378.50000   35.54620  -13.69270  148.16640   32.40440   79.81990  139.16990   30.55050   34.15570
 8379.00000   34.91750  -13.70620  147.26110   33.06890   78.78220  146.76900   29.91260   37.52590
 8379.50000   35.79050  -13.72230  148.15750   30.63340   79.22430  154.07000   26.95610   42.44080
