~Version ---------------------------------------------------
VERS.   2.0 : CWLS log ASCII Standard -VERSION 2.0
WRAP.    NO : One line per depth step
DLM . SPACE : Column Data Section Delimiter
~Well ------------------------------------------------------
STRT .F                5740.0 : START DEPTH
STOP .F                9313.0 : STOP DEPTH
STEP .F                   0.5 : STEP
NULL .               -9999.25 : NULL VALUE
COMP .                        : COMPANY
WELL .                        : WELL
FLD  .                        : FIELD
LOC  .                        : LOCATION
PROV .                        : PROVINCE
CNTY .                        : COUNTY
STAT .                        : STATE
CTRY .                        : COUNTRY
SRVC .                        : SERVICE COMPANY
DATE .                        : DATE
UWI  .                        : UNIQUE WELL ID
API  .                        : API NUMBER
SLAT .WGS84 4.714298334146797 : SURFACE LATITUDE
SLON .WGS84 2.241382740048607 : SURFACE LONGITUDE
DATUM.F                970.48 : DEPTH DATUM ELEV
~Curve Information -----------------------------------------
DEPT.F     : 
CILD.MMHO  : CONDUCTIVITY INDUCTION LOG DEEP
SPR .MV    : SPONTANEOUS POTENTIAL FROM RES.
GRR .GAPI  : GAMMA RAY FROM RESISTIVITY
ILM .OHMM  : INDUCTION LOG MEDIUM
DTCO.US/F  : COMPRESSIONAL-WAVE INTERVAL TRANSIT TIME ACOUSTIC SLOWNESS
DTSM.US/F  : SHEAR-WAVE INTERVAL TRANSIT TIME DELTA-T
ILD .OHMM  : INDUCTION LOG DEEP
SFL .OHMM  : SPHERICALLY FOCUSED LOG RESISTIVITY
~Params ----------------------------------------------------
~Other -----------------------------------------------------
~ASCII -----------------------------------------------------
# ...
 7420.00000  374.41670   -2.83130  100.00000   -9999.25   -9999.25   -9999.25    2.56370    2.32380
 7420.50000  367.08850   -2.82460   97.27470   -9999.25   -9999.25   -9999.25    2.61030    2.39880
 7421.00000  362.66090   -2.81930   96.22740   -9999.25   -9999.25   -9999.25    2.63940    2.47380
 7421.50000  354.45870   -2.81330   99.74730   -9999.25   -9999.25   -9999.25    2.63980    2.54870
 7422.00000  348.18480   -3.00410  102.92330   -9999.25   -9999.25   -9999.25    2.71510    2.51620
 7422.50000  340.91010   -3.10340  106.04740   -9999.25   -9999.25   -9999.25    2.71550    2.39560
 7423.00000  343.03920   -3.09590  103.24400   -9999.25   -9999.25   -9999.25    2.71600    2.32380
 7423.50000  351.39790   -3.09040  100.55640   -9999.25   -9999.25   -9999.25    2.79120    2.24890
 7424.00000  357.14020   -3.08430  100.55860   -9999.25   -9999.25   -9999.25    2.79160    2.17390
 7424.50000  361.45390   -3.07730   99.70180   -9999.25   -9999.25   -9999.25    2.79200    2.17390
 7425.00000  364.87950   -3.07230   96.73460   -9999.25   -9999.25   -9999.25    2.79240    2.09900
 7425.50000  363.58770   -3.06610   95.57200   -9999.25   -9999.25   -9999.25    2.79280    2.09900
 7426.00000  361.12440   -2.89160   98.09010   -9999.25   -9999.25   -9999.25    2.76310    2.09900
 7426.50000  359.50960   -2.75300   99.75420   -9999.25   -9999.25   -9999.25    2.71850    2.09900
 7427.00000  358.86810   -2.74620  101.43670   -9999.25   -9999.25   -9999.25    2.71890    2.09900
 7427.50000  358.86380   -2.74100  102.82680   -9999.25   -9999.25   -9999.25    2.71930    2.09900
 7428.00000  354.66170   -2.73500  104.29740   -9999.25   -9999.25   -9999.25    2.64470    2.09900
 7428.50000  349.10460   -3.03010  106.70960   -9999.25   -9999.25   -9999.25    2.64510    2.17390
 7429.00000  347.89580   -3.02410  108.31680   -9999.25   -9999.25   -9999.25    2.64540    2.17390
 7429.50000  349.60910   -3.01750  107.01860   -9999.25   -9999.25   -9999.25    2.64590    2.17390
 7430.00000  354.34740   -2.71080  105.31550   -9999.25   -9999.25   -9999.25    2.64620    2.17390
 7430.50000  354.01290   -2.70480  104.29340   -9999.25   -9999.25   -9999.25    2.57160    2.24890
 7431.00000  352.76570   -2.69770  102.95100   -9999.25   -9999.25   -9999.25    2.64690    2.24890
 7431.50000  349.85650   -2.69280  102.16890   -9999.25   -9999.25   -9999.25    2.64730    2.24890
 7432.00000  349.08610   -2.38520  102.86460   -9999.25   -9999.25   -9999.25    2.64770    2.24890
 7432.50000  349.83130   -2.37950  103.75000   -9999.25   -9999.25   -9999.25    2.64810    2.32380
 7433.00000  348.38020   -2.37350  102.98420   -9999.25   -9999.25   -9999.25    2.65100    2.32380
 7433.50000  344.37140   -2.06540  104.25680   -9999.25   -9999.25   -9999.25    2.72380    2.32380
 7434.00000  341.57350   -2.06020  107.13540   -9999.25   -9999.25   -9999.25    2.72410    2.32120
 7434.50000  341.33860   -1.75300  109.20420   -9999.25   -9999.25   -9999.25    2.72450    2.24890
 7435.00000  339.31760   -1.74700  107.04880   -9999.25   -9999.25   -9999.25    2.76230    2.24890
 7435.50000  332.85110   -1.74100  104.29150   -9999.25   -9999.25   -9999.25    2.80900    2.24890
 7436.00000  326.91620   -1.73430  102.28870   -9999.25   -9999.25   -9999.25    2.95060    2.32380
 7436.50000  323.56390   -1.72890  101.96620   -9999.25   -9999.25   -9999.25    2.97710    2.32380
 7437.00000  324.08560   -1.72290  101.73900   -9999.25   -9999.25   -9999.25    3.02620    2.32380
 7437.50000  325.80570   -1.71690  100.78780   -9999.25   -9999.25   -9999.25    3.10160    2.32380
 7438.00000  328.15230   -1.71080  100.39640   -9999.25   -9999.25   -9999.25    3.10190    2.32380
 7438.50000  328.79720   -1.70440  101.08890   -9999.25   -9999.25   -9999.25    3.10240    2.32380
 7439.00000  325.79410   -2.00000  102.65320   -9999.25   -9999.25   -9999.25    2.99520    2.32380
 7439.50000  320.73790   -1.99000  105.19290   -9999.25   -9999.25   -9999.25    2.95310    2.32380
 7440.00000  313.79310   -1.93000  111.93690   -9999.25   -9999.25   -9999.25    2.95350    2.32380
 7440.50000  311.83400   -1.86990  117.29980   -9999.25   -9999.25   -9999.25    2.97520    2.39880
 7441.00000  311.53720   -1.80990  118.26800   -9999.25   -9999.25   -9999.25    3.02930    2.39880
 7441.50000  313.78150   -1.74990  119.55620   -9999.25   -9999.25   -9999.25    3.10460    2.39880
 7442.00000  313.02850   -1.68990  113.29700   -9999.25   -9999.25   -9999.25    3.17990    2.39880
 7442.50000  311.46420   -1.65590  107.36850   -9999.25   -9999.25   -9999.25    3.18030    2.39880
 7443.00000  308.07370   -1.95180  102.44610   -9999.25   -9999.25   -9999.25    3.25560    2.47380
 7443.50000  304.18880   -2.24710   99.28760   -9999.25   -9999.25   -9999.25    3.25600    2.47380
 7444.00000  301.01920   -2.24100   99.07190   -9999.25   -9999.25   -9999.25    3.25640    2.47380
 7444.50000  297.69880   -2.53710  103.12870   -9999.25   -9999.25   -9999.25    3.24050    2.54870
 7445.00000  294.89030   -2.52960  105.48360   -9999.25   -9999.25   -9999.25    3.18220    2.54870
 7445.50000  294.54920   -2.82530  107.63740   -9999.25   -9999.25   -9999.25    3.10760    2.54870
 7446.00000  302.57790   -2.81930  109.64360   -9999.25   -9999.25   -9999.25    3.02800    2.50130
 7446.50000  310.74570   -3.11340  111.77910   -9999.25   -9999.25   -9999.25    2.88350    2.47380
 7447.00000  317.17880   -3.01210  113.27500   -9999.25   -9999.25   -9999.25    2.80880    2.47380
 7447.50000  321.51510   -2.80100  111.15960   -9999.25   -9999.25   -9999.25    2.73430    2.39880
 7448.00000  325.72650   -2.49400  109.22520   -9999.25   -9999.25   -9999.25    2.73460    2.39880
 7448.50000  329.74500   -2.48800  110.41570   -9999.25   -9999.25   -9999.25    2.73500    2.39880
 7449.00000  334.71500   -2.48110  112.80880   -9999.25   -9999.25   -9999.25    2.73540    2.39880
 7449.50000  336.62910   -2.47590  116.43940   -9999.25   -9999.25   -9999.25    2.81070    2.39880
 7450.00000  336.20690   -2.46990  119.03150   -9999.25   -9999.25   -9999.25    2.81110    2.39880
 7450.50000  336.20260   -2.46390  121.00010   -9999.25   -9999.25   -9999.25    2.88640    2.40690
 7451.00000  337.92660   -2.45780  121.85170   -9999.25   -9999.25   -9999.25    2.96180    2.47380
 7451.50000  347.44000   -2.45120  118.61870   -9999.25   -9999.25   -9999.25    2.96220    2.49800
 7452.00000  352.23290   -2.44580  109.46850   -9999.25   -9999.25   -9999.25    2.88760    2.54870
 7452.50000  355.08530   -2.43980  104.59780   -9999.25   -9999.25   -9999.25    2.88790    2.54870
 7453.00000  356.42390   -2.43250   99.41580   -9999.25   -9999.25   -9999.25    2.88840    2.53750
 7453.50000  356.73950   -2.42770   95.06110   -9999.25   -9999.25   -9999.25    2.88870    2.39880
 7454.00000  356.36510   -2.42130   94.80160   -9999.25   -9999.25   -9999.25    2.88910    2.39880
 7454.50000  353.47110   -2.41570   96.00530   -9999.25   -9999.25   -9999.25    2.88940    2.39880
 7455.00000  350.78770   -2.40960   97.82640   -9999.25   -9999.25   -9999.25    2.96480    2.39880
 7455.50000  347.40970   -2.10150   99.70720   -9999.25   -9999.25   -9999.25    2.96520    2.39880
 7456.00000  344.05770   -2.09640  102.27940   -9999.25   -9999.25   -9999.25    2.96550    2.39880
 7456.50000  343.65460   -2.09030  104.63680   -9999.25   -9999.25   -9999.25    2.96590    2.39880
 7457.00000  343.88760   -1.78310  103.99170   -9999.25   -9999.25   -9999.25    2.96630    2.39880
 7457.50000  343.21080   -1.77710  100.93510   -9999.25   -9999.25   -9999.25    2.96660    2.39880
 7458.00000  340.64440   -1.77040  104.85930   -9999.25   -9999.25   -9999.25    2.96700    2.39880
 7458.50000  339.14170   -1.76510  109.04740   -9999.25   -9999.25   -9999.25    2.96740    2.39880
 7459.00000  339.22510   -1.75920  111.78030   -9999.25   -9999.25   -9999.25    2.97530    2.39880
 7459.50000  339.34010   -2.05420  111.32000   -9999.25   -9999.25   -9999.25    3.04320    2.39880
