~Version ---------------------------------------------------
VERS.   2.0 : CWLS log ASCII Standard -VERSION 2.0
WRAP.    NO : One line per depth step
DLM . SPACE : Column Data Section Delimiter
~Well ------------------------------------------------------
STRT .F                5740.0 : START DEPTH
STOP .F                9313.0 : STOP DEPTH
STEP .F                   0.5 : STEP
NULL .               -9999.25 : NULL VALUE
COMP .                        : COMPANY
WELL .                        : WELL
FLD  .                        : FIELD
LOC  .                        : LOCATION
PROV .                        : PROVINCE
CNTY .                        : COUNTY
STAT .                        : STATE
CTRY .                        : COUNTRY
SRVC .                        : SERVICE COMPANY
DATE .                        : DATE
UWI  .                        : UNIQUE WELL ID
API  .                        : API NUMBER
SLAT .WGS84 4.714298334146797 : SURFACE LATITUDE
SLON .WGS84 2.241382740048607 : SURFACE LONGITUDE
DATUM.F                970.48 : DEPTH DATUM ELEV
~Curve Information -----------------------------------------
DEPT.F     : 
CILD.MMHO  : CONDUCTIVITY INDUCTION LOG DEEP
SPR .MV    : SPONTANEOUS POTENTIAL FROM RES.
GRR .GAPI  : GAMMA RAY FROM RESISTIVITY
ILM .OHMM  : INDUCTION LOG MEDIUM
DTCO.US/F  : COMPRESSIONAL-WAVE INTERVAL TRANSIT TIME ACOUSTIC SLOWNESS
DTSM.US/F  : SHEAR-WAVE INTERVAL TRANSIT TIME DELTA-T
ILD .OHMM  : INDUCTION LOG DEEP
SFL .OHMM  : SPHERICALLY FOCUSED LOG RESISTIVITY
~Params ----------------------------------------------------
~Other -----------------------------------------------------
~ASCII -----------------------------------------------------
# ...
 5820.00000  331.62850  -10.14970   70.49530   -9999.25   -9999.25   -9999.25    3.37340    3.95800
 5820.50000  243.22620  -14.41870   68.15110   -9999.25   -9999.25   -9999.25    4.10060    4.85090
 5821.00000  204.84400  -18.70950   58.03090   -9999.25   -9999.25   -9999.25    4.95920    5.72540
 5821.50000  170.63460  -22.50490   51.55970   -9999.25   -9999.25   -9999.25    5.75410    6.42480
 5822.00000  148.26780  -27.29790   43.70740   -9999.25   -9999.25   -9999.25    6.45570    7.84060
 5822.50000  141.94500  -28.65380   41.80190   -9999.25   -9999.25   -9999.25    6.76410   10.21690
 5823.00000  146.18630  -28.84660   45.93130   -9999.25   -9999.25   -9999.25    6.91650   12.19000
 5823.50000  144.98530  -29.12290   53.11340   -9999.25   -9999.25   -9999.25    7.05080   12.41350
 5824.00000  140.21180  -29.02510   57.88220   -9999.25   -9999.25   -9999.25    6.94250   11.81100
 5824.50000  141.34340  -29.13680   60.76060   -9999.25   -9999.25   -9999.25    6.74120   11.11180
 5825.00000  151.05180  -29.91980   56.69960   -9999.25   -9999.25   -9999.25    6.44680   10.90730
 5825.50000  153.65840  -30.47430   54.17330   -9999.25   -9999.25   -9999.25    6.29540   11.72910
 5826.00000  154.84260  -32.16300   51.95940   -9999.25   -9999.25   -9999.25    6.36870   12.32710
 5826.50000  155.61910  -33.46540   48.90400   -9999.25   -9999.25   -9999.25    6.36730   13.08070
 5827.00000  155.63720  -34.91310   45.75060   -9999.25   -9999.25   -9999.25    6.35490   13.82640
 5827.50000  155.66080  -35.69090   42.25730   -9999.25   -9999.25   -9999.25    6.28910   14.49430
 5828.00000  156.43180  -35.31970   43.69380   -9999.25   -9999.25   -9999.25    6.28790   13.36710
 5828.50000  157.31640  -34.00190   50.26630   -9999.25   -9999.25   -9999.25    6.21140   12.66160
 5829.00000  159.47850  -31.71180   55.31470   -9999.25   -9999.25   -9999.25    6.20990   11.62410
 5829.50000  160.82290  -29.93420   62.08680   -9999.25   -9999.25   -9999.25    6.09640   10.43660
 5830.00000  164.01800  -25.61670   74.66180   -9999.25   -9999.25   -9999.25    5.90690    8.96050
 5830.50000  167.67490  -21.39380   82.02960   -9999.25   -9999.25   -9999.25    5.60770    7.20910
 5831.00000  173.18380  -18.42060   84.90250   -9999.25   -9999.25   -9999.25    5.37140    6.69450
 5831.50000  179.82970  -16.78310   86.58130   -9999.25   -9999.25   -9999.25    5.22760    6.23040
 5832.00000  181.39900  -14.84670   87.23450   -9999.25   -9999.25   -9999.25    5.12540    6.30280
 5832.50000  178.99740  -12.74090   85.44470   -9999.25   -9999.25   -9999.25    5.07490    6.37560
 5833.00000  176.90070  -11.70380   85.34680   -9999.25   -9999.25   -9999.25    5.14840    6.45080
 5833.50000  174.70920  -11.22520   86.51920   -9999.25   -9999.25   -9999.25    5.23740    6.56970
 5834.00000  171.69510  -10.96100   88.35520   -9999.25   -9999.25   -9999.25    5.37020    6.76360
 5834.50000  169.80530  -11.36840   80.85670   -9999.25   -9999.25   -9999.25    5.47720    6.89110
 5835.00000  168.73830  -12.17740   77.49970   -9999.25   -9999.25   -9999.25    5.59230    7.00150
 5835.50000  168.76610  -12.31440   76.25330   -9999.25   -9999.25   -9999.25    5.66540    7.03690
 5836.00000  168.03600  -11.77990   75.72170   -9999.25   -9999.25   -9999.25    5.73940    6.95910
 5836.50000  167.30860  -10.99940   76.84090   -9999.25   -9999.25   -9999.25    5.81250    6.93100
 5837.00000  167.33130  -10.87890   79.67860   -9999.25   -9999.25   -9999.25    5.81110    6.80510
 5837.50000  167.35380  -10.71300   83.30650   -9999.25   -9999.25   -9999.25    5.80960    6.75900
 5838.00000  168.12780  -10.52240   88.08470   -9999.25   -9999.25   -9999.25    5.73290    6.71070
 5838.50000  170.37240  -10.42660   87.84730   -9999.25   -9999.25   -9999.25    5.70120    6.64820
 5839.00000  172.07010  -10.73620   80.86700   -9999.25   -9999.25   -9999.25    5.57820    6.67860
 5839.50000  175.69360  -11.18920   76.70900   -9999.25   -9999.25   -9999.25    5.45530    6.79390
 5840.00000  177.96100  -11.01080   74.90990   -9999.25   -9999.25   -9999.25    5.31230    6.74160
 5840.50000  181.73230  -10.75830   76.34510   -9999.25   -9999.25   -9999.25    5.12580    6.50090
 5841.00000  185.60290  -10.35430   79.91430   -9999.25   -9999.25   -9999.25    5.01150    6.03730
 5841.50000  188.18570   -9.87240   83.24550   -9999.25   -9999.25   -9999.25    4.89810    5.73290
 5842.00000  192.29660   -9.21520   87.80040   -9999.25   -9999.25   -9999.25    4.82140    5.41320
 5842.50000  197.62170   -8.68510   89.53350   -9999.25   -9999.25   -9999.25    4.82010    5.20580
 5843.00000  204.33240   -8.99470   91.85770   -9999.25   -9999.25   -9999.25    4.81860    5.40890
 5843.50000  202.36890   -9.44030   88.79330   -9999.25   -9999.25   -9999.25    4.89210    5.65140
 5844.00000  200.97900   -9.93410   84.64850   -9999.25   -9999.25   -9999.25    4.89060    5.84400
 5844.50000  198.40490  -10.51940   81.70520   -9999.25   -9999.25   -9999.25    4.96390    5.94710
 5845.00000  197.67730  -10.52550   80.79950   -9999.25   -9999.25   -9999.25    4.99750    5.86930
 5845.50000  205.22330  -10.53330   81.69470   -9999.25   -9999.25   -9999.25    5.03610    5.72490
 5846.00000  214.96620  -10.54050   84.51210   -9999.25   -9999.25   -9999.25    5.10920    5.56020
 5846.50000  219.03350  -10.54800   86.72660   -9999.25   -9999.25   -9999.25    5.08350    5.41260
 5847.00000  224.00350  -10.55650   87.53310   -9999.25   -9999.25   -9999.25    4.88150    5.09590
 5847.50000  226.71180  -10.56310   88.20380   -9999.25   -9999.25   -9999.25    4.76260    4.58380
 5848.00000  227.04370  -10.57060   87.73000   -9999.25   -9999.25   -9999.25    4.56470    4.31680
 5848.50000  224.82270  -10.57810   86.84900   -9999.25   -9999.25   -9999.25    4.35210    4.20490
 5849.00000  221.62030  -10.58560   85.46610   -9999.25   -9999.25   -9999.25    4.24390    4.65180
 5849.50000  218.00830  -10.59360   83.67640   -9999.25   -9999.25   -9999.25    4.19940    4.98940
 5850.00000  212.89360  -10.60060   79.27930   -9999.25   -9999.25   -9999.25    4.37290    5.39730
 5850.50000  203.82830  -10.60810   75.62710   -9999.25   -9999.25   -9999.25    4.59270    5.71230
 5851.00000  192.70000  -10.91710   73.07340   -9999.25   -9999.25   -9999.25    4.79450    5.86010
 5851.50000  188.17140  -10.92340   73.23250   -9999.25   -9999.25   -9999.25    4.90760    5.99000
 5852.00000  185.14790  -11.23140   75.76560   -9999.25   -9999.25   -9999.25    5.02750    6.06300
 5852.50000  186.02300  -11.23870   78.33990   -9999.25   -9999.25   -9999.25    5.09000    5.98580
 5853.00000  189.38980  -11.30930   81.19090   -9999.25   -9999.25   -9999.25    5.13450    5.98310
 5853.50000  195.06020  -11.55480   83.40590   -9999.25   -9999.25   -9999.25    5.08580    5.85870
 5854.00000  199.43100  -11.56160   84.99950   -9999.25   -9999.25   -9999.25    4.88860    5.60410
 5854.50000  203.25390  -11.56910   86.10580   -9999.25   -9999.25   -9999.25    4.76560    5.33590
 5855.00000  208.62300  -11.57800   86.46390   -9999.25   -9999.25   -9999.25    4.63260    5.12510
 5855.50000  213.32660  -11.58410   87.16670   -9999.25   -9999.25   -9999.25    4.51980    4.84750
 5856.00000  225.50560  -11.29170   88.33290   -9999.25   -9999.25   -9999.25    4.39670    4.74070
 5856.50000  234.17980  -11.29880   86.19550   -9999.25   -9999.25   -9999.25    4.32810    4.61610
 5857.00000  237.12180  -11.60660   84.19440   -9999.25   -9999.25   -9999.25    4.25190    4.46630
 5857.50000  240.21850  -11.61520   82.91010   -9999.25   -9999.25   -9999.25    4.25030    4.38910
 5858.00000  240.19020  -11.62160   84.78800   -9999.25   -9999.25   -9999.25    4.24890    4.31170
 5858.50000  237.67650  -11.92940   85.82760   -9999.25   -9999.25   -9999.25    4.26290    4.38460
 5859.00000  232.79190  -11.93690   86.75420   -9999.25   -9999.25   -9999.25    4.32080    4.45740
 5859.50000  230.73720  -11.94440   87.20960   -9999.25   -9999.25   -9999.25    4.35290    4.45460
