~Version ---------------------------------------------------
VERS.   2.0 : CWLS log ASCII Standard -VERSION 2.0
WRAP.    NO : One line per depth step
DLM . SPACE : Column Data Section Delimiter
~Well ------------------------------------------------------
STRT .F                5740.0 : START DEPTH
STOP .F                9313.0 : STOP DEPTH
STEP .F                   0.5 : STEP
NULL .               -9999.25 : NULL VALUE
COMP .                        : COMPANY
WELL .                        : WELL
FLD  .                        : FIELD
LOC  .                        : LOCATION
PROV .                        : PROVINCE
CNTY .                        : COUNTY
STAT .                        : STATE
CTRY .                        : COUNTRY
SRVC .                        : SERVICE COMPANY
DATE .                        : DATE
UWI  .                        : UNIQUE WELL ID
API  .                        : API NUMBER
SLAT .WGS84 4.714298334146797 : SURFACE LATITUDE
SLON .WGS84 2.241382740048607 : SURFACE LONGITUDE
DATUM.F                970.48 : DEPTH DATUM ELEV
~Curve Information -----------------------------------------
DEPT.F     : 
CILD.MMHO  : CONDUCTIVITY INDUCTION LOG DEEP
SPR .MV    : SPONTANEOUS POTENTIAL FROM RES.
GRR .GAPI  : GAMMA RAY FROM RESISTIVITY
ILM .OHMM  : INDUCTION LOG MEDIUM
DTCO.US/F  : COMPRESSIONAL-WAVE INTERVAL TRANSIT TIME ACOUSTIC SLOWNESS
DTSM.US/F  : SHEAR-WAVE INTERVAL TRANSIT TIME DELTA-T
ILD .OHMM  : INDUCTION LOG DEEP
SFL .OHMM  : SPHERICALLY FOCUSED LOG RESISTIVITY
~Params ----------------------------------------------------
~Other -----------------------------------------------------
~ASCII -----------------------------------------------------
# ...
 9260.00000    0.89960 -102.66810   -9999.25  889.34260   70.97180  119.01370 2013.79590 1732.42710
 9260.50000    0.90700 -102.68290   -9999.25 1042.22300   72.16910  120.66430 2013.10950 1743.97310
 9261.00000    0.91560 -102.99460   -9999.25 1101.04940   72.61860  120.81780 2012.42210 1695.99010
 9261.50000    1.67170 -103.00650   -9999.25 1093.01550   71.72360  120.07630 2011.79820 1637.99380
 9262.00000    1.67920 -103.01830   -9999.25  970.30330   71.27630  119.78100 2011.10330 1592.94120
 9262.50000    1.68670 -102.73040   -9999.25  855.96130   71.72650  120.53540 2010.40840 1626.72350
 9263.00000    1.69420 -102.74220   -9999.25  864.65170   72.02700  121.28860 2009.71350 1670.91000
 9263.50000    1.70230 -103.05400   -9999.25  886.79960   72.47690  121.44200 2009.01870 1717.11560
 9264.00000    1.70910 -103.06580   -9999.25  649.33450   72.47840  120.55090 2008.32370 1740.63510
 9264.50000    1.71660 -103.37750   -9999.25  443.73680   -9999.25  119.06020 2007.62890 1669.43240
 9265.00000    1.72540 -103.38940   -9999.25  572.87390   -9999.25  117.56950 2006.93410 1557.63440
 9265.50000    1.73160 -103.70110   -9999.25  699.79080   -9999.25  116.37800 2006.23910 1600.81450
 9266.00000    1.73930 -103.71300   -9999.25  734.27060   -9999.25  115.63520 2005.45470 1645.19260
 9266.50000    1.74660 -104.02470   -9999.25  699.29040   -9999.25   -9999.25 1936.59250 1667.72880
 9267.00000    1.75410 -104.03660   -9999.25  825.10160   -9999.25   -9999.25 1896.15760 1655.68980
 9267.50000    1.76250 -104.64810   -9999.25  927.64320   -9999.25   -9999.25 1908.67350 1492.39310
 9268.00000    1.01950 -104.95980   -9999.25 1072.17630   -9999.25   -9999.25 1988.90880 1272.91540
 9268.50000    1.02700 -105.27160   -9999.25 1514.39370   -9999.25   -9999.25 2002.20750 1067.38230
 9269.00000    1.53110 -105.58330   -9999.25 1590.88880   -9999.25   -9999.25 2001.35330 1081.36550
 9269.50000    1.79160 -105.89500   -9999.25 1373.54030   -9999.25   -9999.25 1959.56630 1381.67850
 9270.00000    1.79960 -106.50670   -9999.25 1123.50870   -9999.25   -9999.25 1931.97330 1630.24430
 9270.50000    1.80660 -107.11840   -9999.25 1077.40970   -9999.25   -9999.25 1931.21040 1770.70390
 9271.00000    1.81410 -107.73010   -9999.25 1115.21510   -9999.25   -9999.25 1998.62500 1794.71330
 9271.50000    1.82270 -108.34420   -9999.25 1179.46070   -9999.25   -9999.25 1997.92490 1806.77890
 9272.00000    2.10900 -108.95580   -9999.25 1274.72140   -9999.25   -9999.25 1997.23340 1756.96420
 9272.50000    2.58620 -109.26750   -9999.25 1488.56200   -9999.25   -9999.25 1996.40940 1673.61470
 9273.00000    2.59370 -109.57920   -9999.25 1477.70060   -9999.25   -9999.25 1995.72900 1627.69290
 9273.50000    2.60120 -110.19080   -9999.25 1277.45470   -9999.25   -9999.25 1995.16090 1719.54200
 9274.00000    1.85980 -110.50250   -9999.25 1200.01140   -9999.25   -9999.25 1994.47340 1626.69580
 9274.50000    1.86660 -110.81420   -9999.25 1349.00680   -9999.25   -9999.25 1993.78450 1571.07090
 9275.00000    1.87410 -111.12590   -9999.25 1729.59620   -9999.25   -9999.25 1993.09580 1625.81010
 9275.50000    1.13330 -111.43760   -9999.25 1917.83960   -9999.25   -9999.25 1992.40700 1827.79060
 9276.00000    1.13940 -112.04920   -9999.25 1943.94870   -9999.25   -9999.25 1991.71810 1852.70610
 9276.50000    1.14720 -112.36090   -9999.25 1825.72720   -9999.25   -9999.25 1991.02930 1904.06120
 9277.00000    1.15440 -112.67260   -9999.25 1645.17820   -9999.25   -9999.25 1990.34060 1877.43100
 9277.50000    1.16190 -112.68450   -9999.25 1273.28140   -9999.25   -9999.25 1989.65170 1863.99690
 9278.00000    1.17040 -112.69640   -9999.25 1063.33080   -9999.25   -9999.25 1988.96290 1915.68530
 9278.50000    0.86850 -113.00810   -9999.25 1272.23990   -9999.25   -9999.25 1988.27400 1850.05240
 9279.00000    0.43460 -113.31980   -9999.25 1688.55130   -9999.25   -9999.25 1987.58520 1862.49000
 9279.50000    0.44230 -113.63150   -9999.25 1796.23750   -9999.25   -9999.25 1986.89650 1927.25180
 9280.00000    0.00000 -113.94320   -9999.25 1795.49050   -9999.25   -9999.25 1986.20760 1967.18590
 9280.50000    0.00000 -114.25490   -9999.25 1780.91710   -9999.25   -9999.25 1999.30850 1873.73430
 9281.00000    0.00000 -114.56670   -9999.25 1721.09460   -9999.25   -9999.25 1998.61850 1939.01990
 9281.50000    0.00000 -114.59770   -9999.25 1805.55880   -9999.25   -9999.25 1997.92860 2006.58130
 9282.00000    0.48100 -114.89050   -9999.25 1881.27430   -9999.25   -9999.25 1997.23860 1992.23140
 9282.50000    0.75530 -114.60230   -9999.25 1841.89670   -9999.25   -9999.25 1996.54860 1924.10610
 9283.00000    1.99410 -114.61710   -9999.25 1694.53960   -9999.25   -9999.25 1995.85860 1897.20370
 9283.50000    2.44750 -114.62890   -9999.25 1591.64720   -9999.25   -9999.25 1995.16870 1896.68650
 9284.00000    2.75860 -114.33800   -9999.25 1474.47120   -9999.25   -9999.25 1994.47880 1883.12180
 9284.50000    2.01730 -114.35280   -9999.25 1494.39280   -9999.25   -9999.25 1993.78870 1882.61050
 9285.00000    2.02400 -114.36470   -9999.25 1634.27810   -9999.25   -9999.25 1993.09880 1895.13680
 9285.50000    1.28150 -114.37660   -9999.25 1714.62620   -9999.25   -9999.25 1992.40880 1921.59790
 9286.00000    1.29080 -114.38840   -9999.25 1655.68080   -9999.25   -9999.25 1991.71890 2001.66820
 9286.50000    0.54580 -114.09750   -9999.25 1565.93980   -9999.25   -9999.25 1991.02890 1942.99430
 9287.00000    0.55510 -114.41220   -9999.25 1501.68620   -9999.25   -9999.25 1990.33890 1854.14120
 9287.50000    0.56220 -114.42400   -9999.25 1575.51550   -9999.25   -9999.25 1989.64890 1879.40980
 9288.00000    0.56970 -114.43590   -9999.25 1722.99580   -9999.25   -9999.25 1988.89830 1958.36670
 9288.50000    0.57820 -114.14490   -9999.25 1845.99550   -9999.25   -9999.25 2002.19560 1904.50310
 9289.00000    0.58470 -114.45960   -9999.25 1842.61240   -9999.25   -9999.25 2001.51320 1903.98390
 9289.50000    0.59220 -114.16870   -9999.25 1669.00310   -9999.25   -9999.25 2001.56090 1943.30410
 9290.00000    0.59970 -114.18350   -9999.25 1550.54380   -9999.25   -9999.25 2001.60130 2011.15040
 9290.50000    0.60720 -113.59520   -9999.25 1593.37570   -9999.25   -9999.25 2001.64160 2010.46660
 9291.00000    0.61530 -113.60750   -9999.25 1683.31230   -9999.25   -9999.25 2001.68190 1968.71610
 9291.50000    1.37180 -113.61940   -9999.25 1729.98990   -9999.25   -9999.25 2001.72220 1888.31180
 9292.00000    1.37930 -113.63130   -9999.25 1624.77910   -9999.25   -9999.25 2001.76250 1761.85600
 9292.50000    1.38810 -113.64320   -9999.25 1338.23610   -9999.25   -9999.25 2001.80290 1747.08110
 9293.00000    1.39430 -113.65520   -9999.25 1310.35880   -9999.25   -9999.25 2001.84310 1760.89770
 9293.50000    1.40200 -113.66720   -9999.25 1483.27730   -9999.25   -9999.25 2001.88340 1886.25660
 9294.00000    1.40930 -113.67920   -9999.25 1644.71090   -9999.25   -9999.25 2001.92370 2006.63880
 9294.50000    1.41680 -113.69120   -9999.25 1798.66830   -9999.25   -9999.25 2001.96410 2006.08640
 9295.00000    1.42510 -113.40560   -9999.25 1724.86540   -9999.25   -9999.25 2002.00440 1990.42770
 9295.50000    1.43180 -113.11460   -9999.25 1700.48070   -9999.25   -9999.25 2002.04470 1908.39900
 9296.00000    1.47960 -112.82660   -9999.25 1711.58010   -9999.25   -9999.25 2002.08500 1807.12710
 9296.50000    2.19640 -112.84150   -9999.25 1479.64060   -9999.25   -9999.25 2002.12520 1844.44700
 9297.00000    2.20390 -113.15320   -9999.25  850.62570   -9999.25   -9999.25 2002.16560 1895.57690
 9297.50000    2.21180 -113.16500   -9999.25  821.38290   -9999.25   -9999.25 2002.20590 1830.75740
 9298.00000    2.21890 -113.17690   -9999.25  865.81150   -9999.25   -9999.25 2002.24620 1780.40380
 9298.50000    2.22640 -113.18880   -9999.25  979.91210   -9999.25   -9999.25 2002.07730 1792.37320
 9299.00000    2.23500 -112.59800   -9999.25 1127.47400   -9999.25   -9999.25 2001.25150 1695.48010
 9299.50000    2.99100 -112.01010   -9999.25 1183.02640   -9999.25   -9999.25 2000.56810 1517.74380
