~Version ---------------------------------------------------
VERS.   2.0 : CWLS log ASCII Standard -VERSION 2.0
WRAP.    NO : One line per depth step
DLM . SPACE : Column Data Section Delimiter
~Well ------------------------------------------------------
STRT .F                5740.0 : START DEPTH
STOP .F                9313.0 : STOP DEPTH
STEP .F                   0.5 : STEP
NULL .               -9999.25 : NULL VALUE
COMP .                        : COMPANY
WELL .                        : WELL
FLD  .                        : FIELD
LOC  .                        : LOCATION
PROV .                        : PROVINCE
CNTY .                        : COUNTY
STAT .                        : STATE
CTRY .                        : COUNTRY
SRVC .                        : SERVICE COMPANY
DATE .                        : DATE
UWI  .                        : UNIQUE WELL ID
API  .                        : API NUMBER
SLAT .WGS84 4.714298334146797 : SURFACE LATITUDE
SLON .WGS84 2.241382740048607 : SURFACE LONGITUDE
DATUM.F                970.48 : DEPTH DATUM ELEV
~Curve Information -----------------------------------------
DEPT.F     : 
CILD.MMHO  : CONDUCTIVITY INDUCTION LOG DEEP
SPR .MV    : SPONTANEOUS POTENTIAL FROM RES.
GRR .GAPI  : GAMMA RAY FROM RESISTIVITY
ILM .OHMM  : INDUCTION LOG MEDIUM
DTCO.US/F  : COMPRESSIONAL-WAVE INTERVAL TRANSIT TIME ACOUSTIC SLOWNESS
DTSM.US/F  : SHEAR-WAVE INTERVAL TRANSIT TIME DELTA-T
ILD .OHMM  : INDUCTION LOG DEEP
SFL .OHMM  : SPHERICALLY FOCUSED LOG RESISTIVITY
~Params ----------------------------------------------------
~Other -----------------------------------------------------
~ASCII -----------------------------------------------------
# ...
 8100.00000  307.90790   -1.69100  109.00900    3.31320   -9999.25   -9999.25    3.35040    3.27460
 8100.50000  309.28610   -1.76260  110.84510    3.31380   -9999.25   -9999.25    3.25300    3.16370
 8101.00000  310.54760   -1.83430  111.75730    3.26870   -9999.25   -9999.25    3.16410    2.93220
 8101.50000  310.37950   -1.90590  110.48410    3.22450   -9999.25   -9999.25    3.21180    2.87230
 8102.00000  307.06270   -1.92670  109.50390    3.22510   -9999.25   -9999.25    3.25390    2.95340
 8102.50000  305.15300   -1.91000  111.31960    3.22560   -9999.25   -9999.25    3.23180    2.95560
 8103.00000  308.16530   -1.29690  114.93440    3.18190   -9999.25   -9999.25    3.18780    2.93380
 8103.50000  313.19790   -1.28360  118.77430    3.13840   -9999.25   -9999.25    3.10130    3.07980
 8104.00000  319.43060   -0.97040  119.01070    3.07340   -9999.25   -9999.25    3.03790    3.14600
 8104.50000  327.61510   -0.95700  117.67040    3.00980   -9999.25   -9999.25    2.99650    3.16720
 8105.00000  332.34590   -0.94360  111.60050    2.94750   -9999.25   -9999.25    2.99710    3.00850
 8105.50000  332.95850   -1.23350  106.43140    2.85120   -9999.25   -9999.25    2.97670    2.68330
 8106.00000  333.29820   -1.21680  103.06420    2.81240   -9999.25   -9999.25    2.95670    2.57450
 8106.50000  335.31880   -1.20340  102.62210    2.81300   -9999.25   -9999.25    2.93670    2.61080
 8107.00000  337.49100   -1.48990  107.36570    2.83300   -9999.25   -9999.25    2.91680    2.75980
 8107.50000  338.24960   -1.47650  112.10650    2.85300   -9999.25   -9999.25    2.89700    2.93750
 8108.00000  338.26140   -1.76310  114.59510    2.81430   -9999.25   -9999.25    2.93790    2.99960
 8108.50000  337.86760   -2.04950  115.09010    2.79550   -9999.25   -9999.25    2.95870    3.08420
 8109.00000  337.53260   -2.03600  111.01380    2.79600   -9999.25   -9999.25    2.93870    3.08460
 8109.50000  337.54650   -1.72260  105.61950    2.79650   -9999.25   -9999.25    2.91880    3.06360
 8110.00000  337.85630   -1.70920  102.47750    2.77770   -9999.25   -9999.25    2.87910    2.95990
 8110.50000  339.92430   -1.69560  103.64700    2.79740   -9999.25   -9999.25    2.87950    2.84000
 8111.00000  346.99340   -1.67950  106.14830    2.79790   -9999.25   -9999.25    2.86000    2.76270
 8111.50000  349.77850   -1.36630  106.79010    2.79840   -9999.25   -9999.25    2.85820    2.90030
 8112.00000  350.34560   -1.05310  105.67790    2.81830   -9999.25   -9999.25    2.84110    3.00280
 8112.50000  348.10720   -1.34290  102.53590    2.81870   -9999.25   -9999.25    2.84160    2.88110
 8113.00000  344.75940   -1.62940   99.39380    2.83880   -9999.25   -9999.25    2.84200    2.65190
 8113.50000  339.13600   -1.61270   98.05360    2.85900   -9999.25   -9999.25    2.86210    2.70790
 8114.00000  334.04730   -2.19910   97.61150    2.89930   -9999.25   -9999.25    2.90240    2.90270
 8114.50000  329.41170   -2.18570  100.10290    2.91990   -9999.25   -9999.25    2.94320    2.88130
 8115.00000  325.82530   -2.17240  101.46540    2.94410   -9999.25   -9999.25    2.98460    2.82380
 8115.50000  320.78370   -2.15900  102.37740    3.00400   -9999.25   -9999.25    3.00580    3.01270
 8116.00000  317.96130   -2.44550  104.41550    3.06640   -9999.25   -9999.25    3.02710    3.26650
 8116.50000  324.55430   -2.43210  106.45370    2.94220   -9999.25   -9999.25    3.04850    3.31240
 8117.00000  325.03040   -2.71860  106.01440    2.84270   -9999.25   -9999.25    3.00700    3.09140
 8117.50000  327.98180   -2.70530  104.67410    2.80420   -9999.25   -9999.25    2.94550    2.90520
 8118.00000  333.68670   -2.39200  103.78430    2.78520   -9999.25   -9999.25    2.90540    2.74910
 8118.50000  339.99670   -2.37870  105.37200    2.74760   -9999.25   -9999.25    2.86590    2.61950
 8119.00000  342.67620   -2.66570  106.73450    2.74800   -9999.25   -9999.25    2.82700    2.60170
 8119.50000  344.65170   -2.95170  103.59250    2.76760   -9999.25   -9999.25    2.82740    2.80790
 8120.00000  346.77800   -3.23840   98.19820    2.78720   -9999.25   -9999.25    2.82780    3.00250
 8120.50000  345.53060   -3.52470   96.84740    2.82750   -9999.25   -9999.25    2.82820    3.18130
 8121.00000  340.77240   -3.51120   98.04020    2.84660   -9999.25   -9999.25    2.82850    3.15970
 8121.50000  339.56910   -3.49790  100.36050    2.86690   -9999.25   -9999.25    2.84860    3.16020
 8122.00000  339.32340   -3.78440  102.97520    2.86750   -9999.25   -9999.25    2.86880    3.22690
 8122.50000  339.33730   -3.47080  104.78810    2.86800   -9999.25   -9999.25    2.90910    3.24980
 8123.00000  340.87790   -2.55770  106.60100    2.86850   -9999.25   -9999.25    2.88960    3.11800
 8123.50000  344.27440   -1.94190  109.99050    2.86900   -9999.25   -9999.25    2.89000    2.95050
 8124.00000  348.36750   -1.62870  114.28100    2.86940   -9999.25   -9999.25    2.85050    2.81140
 8124.50000  348.84200   -1.31550  114.74250    2.85000   -9999.25   -9999.25    2.83130    2.66030
 8125.00000  346.13940   -1.00230  110.92480    2.85060   -9999.25   -9999.25    2.83170    2.70090
 8125.50000  347.36530   -0.68910  108.68370    2.87090   -9999.25   -9999.25    2.83210    2.83460
 8126.00000  347.65950   -0.67570  103.96510    2.91140   -9999.25   -9999.25    3.03550    2.85570
 8126.50000  340.92680   -0.66230   98.57080    2.97290   -9999.25   -9999.25    3.16460    2.89240
 8127.00000  330.56560   -0.64900   91.37470    3.05680   -9999.25   -9999.25    3.18700    3.05740
 8127.50000  315.83700   -0.63560   88.45790    3.14310   -9999.25   -9999.25    3.20960    3.32260
 8128.00000  308.72760   -0.62230   91.17170    3.20950   -9999.25   -9999.25    3.21000    3.76380
 8128.50000  309.00730   -0.60890   99.74140    3.25480   -9999.25   -9999.25    3.21040    4.23430
 8129.00000  313.99580   -0.89870  113.94170    3.21060   -9999.25   -9999.25    3.18870    4.11920
 8129.50000  314.00670   -1.48510  117.10600    3.12360   -9999.25   -9999.25    3.14530    3.68800
 8130.00000  317.01170   -1.77160  118.24320    3.03890   -9999.25   -9999.25    3.08110    3.10260
 8130.50000  327.52370   -2.05810  118.70500    2.99760   -9999.25   -9999.25    3.01820    2.75860
 8131.00000  331.85120   -2.04140  118.94120    2.95490   -9999.25   -9999.25    2.95660    2.70220
 8131.50000  337.74080   -2.02800  118.10790    2.91690   -9999.25   -9999.25    2.87630    2.75940
 8132.00000  347.79830   -2.01460  115.36260    2.95810   -9999.25   -9999.25    2.85500    2.85690
 8132.50000  346.83240   -1.70140  112.44580    2.97910   -9999.25   -9999.25    2.81800    3.06200
 8133.00000  347.06950   -1.08840  112.22890    2.95900   -9999.25   -9999.25    2.79890    3.25920
 8133.50000  350.54250   -1.07140  114.26980    2.93920   -9999.25   -9999.25    2.76080    3.35110
 8134.00000  356.92550   -0.46180  119.01070    2.82030   -9999.25   -9999.25    2.72330    3.28270
 8134.50000  365.84480   -0.14840  121.94970    2.68750   -9999.25   -9999.25    2.68630    3.02160
 8135.00000  370.80300   -0.13490  119.48340    2.63270   -9999.25   -9999.25    2.64960    2.64690
 8135.50000  377.21820   -0.12140  113.86390    2.59690   -9999.25   -9999.25    2.61370    2.47120
 8136.00000  383.80770    0.19450  103.06420    2.57950   -9999.25   -9999.25    2.63220    2.49290
 8136.50000  383.49030    0.20790   99.24650    2.58000   -9999.25   -9999.25    2.66920    2.78240
 8137.00000  379.39360    0.22120  100.15850    2.58050   -9999.25   -9999.25    2.68810    2.94120
 8137.50000  372.28260   -0.06860  101.97140    2.58090   -9999.25   -9999.25    2.68850    2.90120
 8138.00000  371.16860   -0.35510  104.00960    2.61730   -9999.25   -9999.25    2.68890    2.84200
 8138.50000  370.43280   -0.64160  106.04770    2.61770   -9999.25   -9999.25    2.67060    2.78380
 8139.00000  364.86450   -0.62490  114.39220    2.63630   -9999.25   -9999.25    2.67110    2.67110
 8139.50000  360.70860   -0.91470  124.08800    2.67350   -9999.25   -9999.25    2.69000    2.58060
