~Version ---------------------------------------------------
VERS.   2.0 : CWLS log ASCII Standard -VERSION 2.0
WRAP.    NO : One line per depth step
DLM . SPACE : Column Data Section Delimiter
~Well ------------------------------------------------------
STRT .F                5740.0 : START DEPTH
STOP .F                9313.0 : STOP DEPTH
STEP .F                   0.5 : STEP
NULL .               -9999.25 : NULL VALUE
COMP .                        : COMPANY
WELL .                        : WELL
FLD  .                        : FIELD
LOC  .                        : LOCATION
PROV .                        : PROVINCE
CNTY .                        : COUNTY
STAT .                        : STATE
CTRY .                        : COUNTRY
SRVC .                        : SERVICE COMPANY
DATE .                        : DATE
UWI  .                        : UNIQUE WELL ID
API  .                        : API NUMBER
SLAT .WGS84 4.714298334146797 : SURFACE LATITUDE
SLON .WGS84 2.241382740048607 : SURFACE LONGITUDE
DATUM.F                970.48 : DEPTH DATUM ELEV
~Curve Information -----------------------------------------
DEPT.F     : 
CILD.MMHO  : CONDUCTIVITY INDUCTION LOG DEEP
SPR .MV    : SPONTANEOUS POTENTIAL FROM RES.
GRR .GAPI  : GAMMA RAY FROM RESISTIVITY
ILM .OHMM  : INDUCTION LOG MEDIUM
DTCO.US/F  : COMPRESSIONAL-WAVE INTERVAL TRANSIT TIME ACOUSTIC SLOWNESS
DTSM.US/F  : SHEAR-WAVE INTERVAL TRANSIT TIME DELTA-T
ILD .OHMM  : INDUCTION LOG DEEP
SFL .OHMM  : SPHERICALLY FOCUSED LOG RESISTIVITY
~Params ----------------------------------------------------
~Other -----------------------------------------------------
~ASCII -----------------------------------------------------
# ...
 6260.00000  339.28070   -6.84680   83.46810   -9999.25   -9999.25   -9999.25    3.05850    2.98340
 6260.50000  341.48800   -6.84680   90.20140   -9999.25   -9999.25   -9999.25    2.93650    2.88130
 6261.00000  347.53350   -6.84680   93.73040   -9999.25   -9999.25   -9999.25    2.80280    2.83210
 6261.50000  344.53960   -6.84680   95.84160   -9999.25   -9999.25   -9999.25    2.76750    2.95080
 6262.00000  345.30890   -6.84680   92.97430   -9999.25   -9999.25   -9999.25    2.72720    2.98060
 6262.50000  347.54510   -6.54650   88.17570   -9999.25   -9999.25   -9999.25    2.87660    3.05460
 6263.00000  339.36330   -6.54650   83.97350   -9999.25   -9999.25   -9999.25    2.90100    3.05400
 6263.50000  328.22830   -6.47880   81.63160   -9999.25   -9999.25   -9999.25    3.02590    3.05870
 6264.00000  327.64680   -6.24620   81.35170   -9999.25   -9999.25   -9999.25    3.06850    3.12740
 6264.50000  322.25890   -5.80970   81.96520   -9999.25   -9999.25   -9999.25    3.17510    3.20180
 6265.00000  311.20340   -5.64560   82.29770   -9999.25   -9999.25   -9999.25    3.24960    3.27580
 6265.50000  299.58430   -5.64560   80.71560   -9999.25   -9999.25   -9999.25    3.24930    3.27510
 6266.00000  293.16950   -5.64560   80.88620   -9999.25   -9999.25   -9999.25    3.24450    3.27440
 6266.50000  290.60370   -5.64560   81.61960   -9999.25   -9999.25   -9999.25    3.17350    3.19860
 6267.00000  301.56450   -5.64560   83.08080   -9999.25   -9999.25   -9999.25    3.09820    3.09200
 6267.50000  325.73320   -5.60540   85.50300   -9999.25   -9999.25   -9999.25    3.02280    3.04470
 6268.00000  330.34540   -5.64560   86.77450   -9999.25   -9999.25   -9999.25    2.98150    2.97150
 6268.50000  326.21790   -5.64560   86.77030   -9999.25   -9999.25   -9999.25    2.93450    2.97080
 6269.00000  320.60720   -5.94590   86.76580   -9999.25   -9999.25   -9999.25    2.87180    2.97000
 6269.50000  323.32050   -5.94590   87.21110   -9999.25   -9999.25   -9999.25    2.90230    3.04420
 6270.00000  322.68830   -5.94590   89.68470   -9999.25   -9999.25   -9999.25    2.94850    3.11850
 6270.50000  320.61880   -5.94590   88.74280   -9999.25   -9999.25   -9999.25    3.02060    3.19250
 6271.00000  319.16670   -5.81780   87.42340   -9999.25   -9999.25   -9999.25    3.04100    3.19190
 6271.50000  318.37680   -5.64560   87.41890   -9999.25   -9999.25   -9999.25    3.09480    3.26610
 6272.00000  319.88070   -5.64560   87.41420   -9999.25   -9999.25   -9999.25    3.16940    3.31130
 6272.50000  319.39750   -5.56560   86.70340   -9999.25   -9999.25   -9999.25    3.17970    3.33970
 6273.00000  316.88920   -5.04500   84.00810   -9999.25   -9999.25   -9999.25    3.24360    3.26380
 6273.50000  315.72160   -5.04500   81.31920   -9999.25   -9999.25   -9999.25    3.13950    3.15270
 6274.00000  315.39690   -5.01290   82.54960   -9999.25   -9999.25   -9999.25    3.01750    3.10540
 6274.50000  317.65040   -4.74470   86.36420   -9999.25   -9999.25   -9999.25    2.89560    3.03660
 6275.00000  322.64960   -5.24560   89.49070   -9999.25   -9999.25   -9999.25    2.77360    2.96100
 6275.50000  332.93650   -6.24620   90.76210   -9999.25   -9999.25   -9999.25    2.64200    2.88530
 6276.00000  344.81850   -6.71470   88.95470   -9999.25   -9999.25   -9999.25    2.64170    2.80960
 6276.50000  355.27640   -6.84680   88.37680   -9999.25   -9999.25   -9999.25    2.71630    2.73390
 6277.00000  362.64640   -6.54650   88.27080   -9999.25   -9999.25   -9999.25    2.71580    2.73300
 6277.50000  359.62540   -6.54650   88.49100   -9999.25   -9999.25   -9999.25    2.79050    2.73240
 6278.00000  353.08970   -6.84680   87.49360   -9999.25   -9999.25   -9999.25    2.86510    2.73550
 6278.50000  344.66700   -6.84680   83.66720   -9999.25   -9999.25   -9999.25    2.93970    2.85630
 6279.00000  340.58220   -6.84680   81.71980   -9999.25   -9999.25   -9999.25    3.01430    2.95520
 6279.50000  334.92880   -6.54650   82.73690   -9999.25   -9999.25   -9999.25    3.01380    3.02920
 6280.00000  326.98510   -6.10600   85.08990   -9999.25   -9999.25   -9999.25    3.08850    3.06850
 6280.50000  319.87040   -5.64560   86.36460   -9999.25   -9999.25   -9999.25    3.16310    3.10280
 6281.00000  314.70050   -5.34530   86.12280   -9999.25   -9999.25   -9999.25    3.01270    3.17680
 6281.50000  312.18150   -5.25350   85.30130   -9999.25   -9999.25   -9999.25    2.91260    3.17620
 6282.00000  311.70900   -5.04500   85.07210   -9999.25   -9999.25   -9999.25    2.78710    3.17540
 6282.50000  322.20830   -4.74470   85.29300   -9999.25   -9999.25   -9999.25    2.71180    3.12720
 6283.00000  328.38870   -5.04500   85.51270   -9999.25   -9999.25   -9999.25    2.63640    3.08000
 6283.50000  332.71010   -5.34530   85.95090   -9999.25   -9999.25   -9999.25    2.63600    3.02320
 6284.00000  337.01130   -5.45740   87.08090   -9999.25   -9999.25   -9999.25    2.63570    2.91050
 6284.50000  343.95110   -5.64560   88.01040   -9999.25   -9999.25   -9999.25    2.71030    2.79690
 6285.00000  349.21340   -5.82560   88.73890   -9999.25   -9999.25   -9999.25    2.78480    2.72100
 6285.50000  347.26380   -6.01030   89.31930   -9999.25   -9999.25   -9999.25    2.80730    2.72040
 6286.00000  340.07090   -6.24620   87.22830   -9999.25   -9999.25   -9999.25    2.85910    2.79460
 6286.50000  327.94050   -6.24620   85.13140   -9999.25   -9999.25   -9999.25    2.93370    2.83830
 6287.00000  314.89530   -6.24620   83.67490   -9999.25   -9999.25   -9999.25    3.00830    2.95900
 6287.50000  305.75370   -6.24620   84.27200   -9999.25   -9999.25   -9999.25    3.08280    3.01720
 6288.00000  296.04400   -6.24620   84.35130   -9999.25   -9999.25   -9999.25    3.11350    3.12540
 6288.50000  289.26880   -5.94590   82.62930   -9999.25   -9999.25   -9999.25    3.15710    3.24070
 6289.00000  295.27050   -5.79370   83.50980   -9999.25   -9999.25   -9999.25    3.20590    3.23970
 6289.50000  301.08000   -5.64560   89.73380   -9999.25   -9999.25   -9999.25    3.23130    3.23910
 6290.00000  305.02260   -5.34530   92.37370   -9999.25   -9999.25   -9999.25    3.15590    3.16340
 6290.50000  306.65220   -5.34530   94.45520   -9999.25   -9999.25   -9999.25    3.11650    3.16270
 6291.00000  308.92990   -5.34530   89.71990   -9999.25   -9999.25   -9999.25    3.00520    3.16190
 6291.50000  311.03110   -5.64560   88.05260   -9999.25   -9999.25   -9999.25    2.92990    3.08610
 6292.00000  315.35190   -5.64560   87.67860   -9999.25   -9999.25   -9999.25    2.92950    3.08550
 6292.50000  321.04630   -5.94590   87.81530   -9999.25   -9999.25   -9999.25    2.92920    3.08470
 6293.00000  327.53450   -5.82180   87.59580   -9999.25   -9999.25   -9999.25    2.97590    3.03500
 6293.50000  327.53750   -5.64560   83.61670   -9999.25   -9999.25   -9999.25    3.00340    3.00820
 6294.00000  327.54140   -5.64560   80.94570   -9999.25   -9999.25   -9999.25    3.00300    3.00740
 6294.50000  327.94350   -5.34530   78.87870   -9999.25   -9999.25   -9999.25    3.00260    3.00670
 6295.00000  330.47260   -5.34530   82.70200   -9999.25   -9999.25   -9999.25    3.00220    2.93100
 6295.50000  337.29810   -5.34530   87.38890   -9999.25   -9999.25   -9999.25    3.00180    2.85520
 6296.00000  338.51050   -5.34530   90.80180   -9999.25   -9999.25   -9999.25    3.00150    2.77960
 6296.50000  337.29800   -5.34530   90.45430   -9999.25   -9999.25   -9999.25    3.07610    2.70390
 6297.00000  335.34300   -5.34530   88.99170   -9999.25   -9999.25   -9999.25    3.12090    2.70310
 6297.50000  333.38330   -5.64560   89.43660   -9999.25   -9999.25   -9999.25    3.15040    2.77750
 6298.00000  332.06930   -5.80970   89.43240   -9999.25   -9999.25   -9999.25    3.07490    2.77650
 6298.50000  330.96430   -5.99420   88.78730   -9999.25   -9999.25   -9999.25    2.99960    2.77590
 6299.00000  328.93330   -6.24620   85.59390   -9999.25   -9999.25   -9999.25    2.99930    2.70010
 6299.50000  325.33430   -6.66260   85.13610   -9999.25   -9999.25   -9999.25    2.99880    2.69930
