~Version ---------------------------------------------------
VERS.   2.0 : CWLS log ASCII Standard -VERSION 2.0
WRAP.    NO : One line per depth step
DLM . SPACE : Column Data Section Delimiter
~Well ------------------------------------------------------
STRT .F                5740.0 : START DEPTH
STOP .F                9313.0 : STOP DEPTH
STEP .F                   0.5 : STEP
NULL .               -9999.25 : NULL VALUE
COMP .                        : COMPANY
WELL .                        : WELL
FLD  .                        : FIELD
LOC  .                        : LOCATION
PROV .                        : PROVINCE
CNTY .                        : COUNTY
STAT .                        : STATE
CTRY .                        : COUNTRY
SRVC .                        : SERVICE COMPANY
DATE .                        : DATE
UWI  .                        : UNIQUE WELL ID
API  .                        : API NUMBER
SLAT .WGS84 4.714298334146797 : SURFACE LATITUDE
SLON .WGS84 2.241382740048607 : SURFACE LONGITUDE
DATUM.F                970.48 : DEPTH DATUM ELEV
~Curve Information -----------------------------------------
DEPT.F     : 
CILD.MMHO  : CONDUCTIVITY INDUCTION LOG DEEP
SPR .MV    : SPONTANEOUS POTENTIAL FROM RES.
GRR .GAPI  : GAMMA RAY FROM RESISTIVITY
ILM .OHMM  : INDUCTION LOG MEDIUM
DTCO.US/F  : COMPRESSIONAL-WAVE INTERVAL TRANSIT TIME ACOUSTIC SLOWNESS
DTSM.US/F  : SHEAR-WAVE INTERVAL TRANSIT TIME DELTA-T
ILD .OHMM  : INDUCTION LOG DEEP
SFL .OHMM  : SPHERICALLY FOCUSED LOG RESISTIVITY
~Params ----------------------------------------------------
~Other -----------------------------------------------------
~ASCII -----------------------------------------------------
# ...
 7900.00000   28.39180   -6.77660  122.52250   44.46900   -9999.25   -9999.25   37.57190   67.36790
 7900.50000   27.94730   -6.66920  128.94730   43.63060   -9999.25   -9999.25   38.53620   77.38220
 7901.00000   27.00960   -6.56170  138.96400   42.78860   -9999.25   -9999.25   39.29870   80.62520
 7901.50000   26.62170   -6.48560  140.56900   42.19950   -9999.25   -9999.25   39.86260   78.26400
 7902.00000   26.16660   -6.78920  136.93690   42.78570   -9999.25   -9999.25   40.37050   74.92160
 7902.50000   26.29470   -6.49160  130.15500   44.59660   -9999.25   -9999.25   40.65080   71.15130
 7903.00000   26.60130   -6.49530  124.92100   48.78940   -9999.25   -9999.25   41.50350   71.14160
 7903.50000   27.06520   -6.19760  120.37080   52.64340   -9999.25   -9999.25   42.37410   74.14740
 7904.00000   27.55640   -5.90070  109.00900   53.37510   -9999.25   -9999.25   42.96460   75.17300
 7904.50000   28.03330   -5.90440  104.95500   49.12290   -9999.25   -9999.25   43.26300   71.11240
 7905.00000   28.59900   -5.90740  104.50450   45.44050   -9999.25   -9999.25   41.79170   64.53760
 7905.50000   29.35910   -5.30990  108.33330   41.23170   -9999.25   -9999.25   40.37050   56.97160
 7906.00000   30.11990   -4.71320  112.83780   39.01680   -9999.25   -9999.25   38.46160   51.70420
 7906.50000   31.63220   -4.11720  117.79280   36.59460   -9999.25   -9999.25   35.64260   46.92370
 7907.00000   33.69600   -3.81960  123.64870   33.11600   -9999.25   -9999.25   33.03020   43.78050
 7907.50000   36.90040   -3.52270  127.92790   32.21150   -9999.25   -9999.25   29.77370   41.41700
 7908.00000   40.53970   -2.92650  131.30630   31.33170   -9999.25   -9999.25   27.02460   38.64270
 7908.50000   42.91820   -2.62970  134.00900   28.24380   -9999.25   -9999.25   25.56920   36.30450
 7909.00000   42.18140   -2.33280  136.93690   26.17430   -9999.25   -9999.25   24.86770   33.17660
 7909.50000   41.44300   -1.73610  140.76580   25.99330   -9999.25   -9999.25   24.52930   30.74080
 7910.00000   42.27870   -1.73910  145.37700   26.72110   -9999.25   -9999.25   24.50710   28.48380
 7910.50000   43.71630   -1.74210  151.57660   27.66020   -9999.25   -9999.25   24.36010   27.51140
 7911.00000   44.47530   -1.74510  154.27930   27.46870   -9999.25   -9999.25   24.19220   27.31790
 7911.50000   44.48670   -1.74810  156.30630   27.27840   -9999.25   -9999.25   24.36010   27.72370
 7912.00000   44.93780   -1.45110  157.89630   27.28500   -9999.25   -9999.25   24.36010   28.71330
 7912.50000   45.25860   -1.75460  163.36370   27.08860   -9999.25   -9999.25   24.19220   29.91130
 7913.00000   45.27100   -1.75760  166.21620   26.71560   -9999.25   -9999.25   24.02530   30.49960
 7913.50000   45.28110   -1.76060  162.61260   26.51620   -9999.25   -9999.25   23.69510   29.66190
 7914.00000   44.54220   -2.06260  151.57660   26.14340   -9999.25   -9999.25   23.36940   30.07110
 7914.50000   44.55610   -1.76570  145.72070   25.80510   -9999.25   -9999.25   23.36940   31.34170
 7915.00000   44.56520   -1.46890  146.41950   25.62620   -9999.25   -9999.25   23.36940   32.24760
 7915.50000   44.57690   -1.47260  155.18020   26.16250   -9999.25   -9999.25   23.36940   33.11730
 7916.00000   45.00710   -1.47550  162.83780   26.89530   -9999.25   -9999.25   22.88930   32.65750
 7916.50000   46.98420   -2.07820  172.07210   26.70900   -9999.25   -9999.25   22.26440   32.42690
 7917.00000   48.35970   -2.38100  175.00000   25.80050   -9999.25   -9999.25   21.06540   32.19890
 7917.50000   49.43830   -2.38400  168.72940   24.24300   -9999.25   -9999.25   20.06930   29.22190
 7918.00000   51.41490   -2.08700  155.21060   22.15810   -9999.25   -9999.25   19.24790   25.97520
 7918.50000   53.64180   -1.79010  146.62160   20.67700   -9999.25   -9999.25   18.71520   23.08930
 7919.00000   56.33370   -1.79310  144.36940   20.25180   -9999.25   -9999.25   18.07140   21.84280
 7919.50000   58.16030   -1.49620  143.91890   19.83530   -9999.25   -9999.25   17.47540   21.39110
 7920.00000   58.57060   -1.17930  144.81980   19.56230   -9999.25   -9999.25   17.11640   21.24070
 7920.50000   59.68140   -0.60260  145.94600   19.16000   -9999.25   -9999.25   16.88110   20.94590
 7921.00000   61.19340   -0.60570  145.72070   18.89620   -9999.25   -9999.25   16.53430   21.38230
 7921.50000   62.25100   -0.60930  143.24320   18.38010   -9999.25   -9999.25   16.42030   21.82790
 7922.00000   62.71350   -0.61220  137.38740   17.87810   -9999.25   -9999.25   16.19460   21.82490
 7922.50000   60.74450   -0.91500  120.49550   17.38980   -9999.25   -9999.25   16.30700   21.52200
 7923.00000   59.54040   -0.91800  108.33330   17.26930   -9999.25   -9999.25   16.53430   20.93160
 7923.50000   58.25040   -0.92100   97.74770   18.00030   -9999.25   -9999.25   16.99830   21.51610
 7924.00000   57.51120   -0.92390   85.96720   19.15540   -9999.25   -9999.25   17.59680   23.05460
 7924.50000   56.77200   -0.62630   77.09650   19.55620   -9999.25   -9999.25   17.47540   25.75030
 7925.00000   59.03470   -0.92980   70.98350   19.55560   -9999.25   -9999.25   16.88110   30.18860
 7925.50000   62.40510   -1.23270   73.19820   17.60460   -9999.25   -9999.25   15.86180   31.03160
 7926.00000   68.05100   -1.23560   84.68470   14.81320   -9999.25   -9999.25   14.19940   25.42180
 7926.50000   76.53620   -1.23860   94.81980   13.59140   -9999.25   -9999.25   12.62350   18.45820
 7927.00000   83.82310   -1.54140  105.18020   12.13770   -9999.25   -9999.25   11.28100   13.05500
 7927.50000   91.32410   -1.54430  112.16220   10.93810   -9999.25   -9999.25   10.53630    9.69770
 7928.00000   96.09900   -1.54730  115.99100   10.42090   -9999.25   -9999.25   10.02220    8.68010
 7928.50000  103.56770   -1.55030  118.69370   10.06640   -9999.25   -9999.25    9.63770    8.15490
 7929.00000  107.10090   -1.55320  120.49550    9.65700   -9999.25   -9999.25    9.31000    7.93120
 7929.50000  109.87700   -1.55620  119.36940    9.52400   -9999.25   -9999.25    9.05580    8.09640
 7930.00000  111.61940   -1.38740  117.79280    9.32820   -9999.25   -9999.25    8.99340    8.26540
 7930.50000  112.82200   -1.05910  115.54050    9.01090   -9999.25   -9999.25    8.80860    8.37950
 7931.00000  114.95380   -0.66630  113.73870    8.46690   -9999.25   -9999.25    8.50900    8.37800
 7931.50000  118.40070   -0.06880  115.36870    8.06660   -9999.25   -9999.25    8.10670    8.14820
 7932.00000  121.67900    0.52720  118.82600    7.79220   -9999.25   -9999.25    7.88540    7.87000
 7932.50000  126.19750    0.52430  121.39640    7.52710   -9999.25   -9999.25    7.51250    7.54890
 7933.00000  133.42790    0.52130  120.49550    7.02400   -9999.25   -9999.25    7.05890    6.94640
 7933.50000  140.08390    0.21850  119.36940    6.20180   -9999.25   -9999.25    6.54150    5.84210
 7934.00000  155.18780   -0.08430  117.79280    5.43810   -9999.25   -9999.25    6.06210    5.22910
 7934.50000  164.74300   -0.38710  116.89190    4.90210   -9999.25   -9999.25    5.69610    4.30750
 7935.00000  188.42110   -0.68990  114.63960    4.60620   -9999.25   -9999.25    5.35210    3.96370
 7935.50000  205.44740   -0.99270  111.71170    4.35820   -9999.25   -9999.25    4.78890    3.69820
 7936.00000  213.69600   -0.69510  106.08110    4.18090   -9999.25   -9999.25    4.49700    3.59600
 7936.50000  221.43160   -0.99870  102.92790    4.01090   -9999.25   -9999.25    4.43580    3.49620
 7937.00000  228.23020   -1.00160  102.02700    3.84770   -9999.25   -9999.25    4.34880    3.42570
 7937.50000  233.35050   -1.00460  104.27930    3.71680   -9999.25   -9999.25    4.28900    3.37430
 7938.00000  237.73670   -1.30740  106.75680    3.58940   -9999.25   -9999.25    4.14320    3.30820
 7938.50000  243.15130   -1.61020  107.43240    3.49040   -9999.25   -9999.25    3.94730    3.19530
 7939.00000  253.06000   -1.91300  105.79870    3.42050   -9999.25   -9999.25    3.78670    3.02280
 7939.50000  264.00830   -1.94090  103.82880    3.36970   -9999.25   -9999.25    3.65800    2.85960
