~Version ---------------------------------------------------
VERS.   2.0 : CWLS log ASCII Standard -VERSION 2.0
WRAP.    NO : One line per depth step
DLM . SPACE : Column Data Section Delimiter
~Well ------------------------------------------------------
STRT .F                5740.0 : START DEPTH
STOP .F                9313.0 : STOP DEPTH
STEP .F                   0.5 : STEP
NULL .               -9999.25 : NULL VALUE
COMP .                        : COMPANY
WELL .                        : WELL
FLD  .                        : FIELD
LOC  .                        : LOCATION
PROV .                        : PROVINCE
CNTY .                        : COUNTY
STAT .                        : STATE
CTRY .                        : COUNTRY
SRVC .                        : SERVICE COMPANY
DATE .                        : DATE
UWI  .                        : UNIQUE WELL ID
API  .                        : API NUMBER
SLAT .WGS84 4.714298334146797 : SURFACE LATITUDE
SLON .WGS84 2.241382740048607 : SURFACE LONGITUDE
DATUM.F                970.48 : DEPTH DATUM ELEV
~Curve Information -----------------------------------------
DEPT.F     : 
CILD.MMHO  : CONDUCTIVITY INDUCTION LOG DEEP
SPR .MV    : SPONTANEOUS POTENTIAL FROM RES.
GRR .GAPI  : GAMMA RAY FROM RESISTIVITY
ILM .OHMM  : INDUCTION LOG MEDIUM
DTCO.US/F  : COMPRESSIONAL-WAVE INTERVAL TRANSIT TIME ACOUSTIC SLOWNESS
DTSM.US/F  : SHEAR-WAVE INTERVAL TRANSIT TIME DELTA-T
ILD .OHMM  : INDUCTION LOG DEEP
SFL .OHMM  : SPHERICALLY FOCUSED LOG RESISTIVITY
~Params ----------------------------------------------------
~Other -----------------------------------------------------
~ASCII -----------------------------------------------------
# ...
 6740.00000  377.16060   -3.07230   94.29420   -9999.25   -9999.25   -9999.25    2.71860    2.63880
 6740.50000  387.65650   -3.06400   94.51620   -9999.25   -9999.25   -9999.25    2.48160    2.48790
 6741.00000  400.16530   -2.91770   92.67530   -9999.25   -9999.25   -9999.25    2.33720    2.37880
 6741.50000  413.75490   -2.74850   91.08450   -9999.25   -9999.25   -9999.25    2.23750    2.33130
 6742.00000  432.78860   -2.73970   92.08180   -9999.25   -9999.25   -9999.25    2.11090    2.18580
 6742.50000  444.41630   -2.73340   94.66140   -9999.25   -9999.25   -9999.25    1.91840    2.08640
 6743.00000  450.29500   -3.02710   97.39430   -9999.25   -9999.25   -9999.25    1.88460    1.88450
 6743.50000  447.36690   -3.01960   99.95090   -9999.25   -9999.25   -9999.25    1.88370    1.88380
 6744.00000  444.93750   -3.01200  101.00000   -9999.25   -9999.25   -9999.25    1.98900    1.97190
 6744.50000  441.10170   -3.00400   96.28000   -9999.25   -9999.25   -9999.25    2.03460    2.03220
 6745.00000  435.45770   -2.99700   92.93090   -9999.25   -9999.25   -9999.25    2.15520    2.10640
 6745.50000  431.24740   -2.98950   91.52250   -9999.25   -9999.25   -9999.25    2.20080    2.18070
 6746.00000  425.60360   -2.98090   95.30250   -9999.25   -9999.25   -9999.25    2.25490    2.25470
 6746.50000  418.98900   -2.97440   97.08440   -9999.25   -9999.25   -9999.25    2.25410    2.23140
 6747.00000  417.18450   -2.96710   97.85380   -9999.25   -9999.25   -9999.25    2.16920    2.17840
 6747.50000  415.25470   -3.26050   97.09090   -9999.25   -9999.25   -9999.25    2.02760    2.10270
 6748.00000  432.50380   -3.34520   97.18340   -9999.25   -9999.25   -9999.25    1.95200    2.01390
 6748.50000  445.63330   -3.54670   97.83590   -9999.25   -9999.25   -9999.25    1.87630    1.95120
 6749.00000  464.75300   -3.53920   97.33770   -9999.25   -9999.25   -9999.25    1.87560    1.95050
 6749.50000  479.59440   -3.83380   95.15660   -9999.25   -9999.25   -9999.25    1.87480    1.94660
 6750.00000  486.38180   -3.52330   96.39480   -9999.25   -9999.25   -9999.25    1.87400    1.87410
 6750.50000  490.26330   -3.51660   98.89960   -9999.25   -9999.25   -9999.25    1.94830    1.87330
 6751.00000  487.70810   -3.17850  101.24120   -9999.25   -9999.25   -9999.25    1.94750    1.87250
 6751.50000  489.58960   -2.89780  101.34310   -9999.25   -9999.25   -9999.25    1.94660    1.94680
 6752.00000  491.03450   -2.59040   98.99100   -9999.25   -9999.25   -9999.25    1.94600    1.94600
 6752.50000  489.10560   -2.58280   97.31770   -9999.25   -9999.25   -9999.25    1.87030    1.87020
 6753.00000  487.30170   -2.57530   96.96610   -9999.25   -9999.25   -9999.25    1.86960    1.86960
 6753.50000  484.93620   -2.56780   97.86830   -9999.25   -9999.25   -9999.25    1.86880    1.86880
 6754.00000  478.94560   -2.55970   97.65630   -9999.25   -9999.25   -9999.25    1.86800    1.91710
 6754.50000  467.83450   -2.85390   96.51910   -9999.25   -9999.25   -9999.25    1.94230    1.94240
 6755.00000  456.58960   -2.89150   97.19610   -9999.25   -9999.25   -9999.25    1.94150    1.94150
 6755.50000  451.35660   -3.14010   97.94900   -9999.25   -9999.25   -9999.25    1.98840    1.94080
 6756.00000  455.61220   -3.13250   97.42340   -9999.25   -9999.25   -9999.25    2.01510    1.94000
 6756.50000  460.27450   -3.12500   96.39250   -9999.25   -9999.25   -9999.25    2.01420    1.93920
 6757.00000  463.37370   -3.11600   96.07420   -9999.25   -9999.25   -9999.25    1.97680    2.01350
 6757.50000  467.31460   -2.80870  100.12960   -9999.25   -9999.25   -9999.25    1.92960    1.93780
 6758.00000  479.38030   -2.80090  100.45280   -9999.25   -9999.25   -9999.25    1.86190    1.93700
 6758.50000  503.12690   -2.79370   96.88650   -9999.25   -9999.25   -9999.25    1.78640    1.86130
 6759.00000  514.80850   -2.78610   95.17810   -9999.25   -9999.25   -9999.25    1.71060    1.78560
 6759.50000  527.31450   -2.77790   96.20630   -9999.25   -9999.25   -9999.25    1.66630    1.74660
 6760.00000  533.63320   -2.77110   98.55860   -9999.25   -9999.25   -9999.25    1.63420    1.70910
 6760.50000  538.82620   -2.76360   97.85910   -9999.25   -9999.25   -9999.25    1.55840    1.70830
 6761.00000  539.89540   -2.75480   97.43460   -9999.25   -9999.25   -9999.25    1.59050    1.70760
 6761.50000  536.83980   -2.74850   97.43600   -9999.25   -9999.25   -9999.25    1.63610    1.78190
 6762.00000  532.66370   -2.74090   98.17120   -9999.25   -9999.25   -9999.25    1.70610    1.78110
 6762.50000  527.92450   -2.73340   99.29550   -9999.25   -9999.25   -9999.25    1.78050    1.79910
 6763.00000  526.12000   -2.72590  101.78880   -9999.25   -9999.25   -9999.25    1.77960    1.85460
 6763.50000  523.31710   -2.71790  104.13210   -9999.25   -9999.25   -9999.25    1.81850    1.85380
 6764.00000  518.45070   -2.71080  106.00010   -9999.25   -9999.25   -9999.25    1.85310    1.86210
 6764.50000  514.77200   -2.70330  106.91490   -9999.25   -9999.25   -9999.25    1.85220    1.92730
 6765.00000  513.71820   -2.69480  106.02620   -9999.25   -9999.25   -9999.25    1.88040    1.92650
 6765.50000  512.97600   -2.68830  102.85040   -9999.25   -9999.25   -9999.25    1.92580    1.92580
 6766.00000  513.10850   -2.68070  100.87250   -9999.25   -9999.25   -9999.25    1.92500    1.92500
 6766.50000  510.74310   -2.67170  100.37500   -9999.25   -9999.25   -9999.25    1.92430    1.92430
 6767.00000  508.31160   -2.75920  100.51960   -9999.25   -9999.25   -9999.25    1.92350    1.92350
 6767.50000  505.47760   -2.95930  101.22750   -9999.25   -9999.25   -9999.25    1.99780    1.92280
 6768.00000  504.26830   -2.95180  102.18030   -9999.25   -9999.25   -9999.25    1.99700    1.92200
 6768.50000  502.84040   -2.94430  103.19540   -9999.25   -9999.25   -9999.25    1.99610    1.92120
 6769.00000  501.78410   -2.93600  104.20940   -9999.25   -9999.25   -9999.25    1.99550    1.94700
 6769.50000  499.88660   -3.07050  100.15670   -9999.25   -9999.25   -9999.25    1.99470    1.99480
 6770.00000  499.42530   -3.22340   97.16940   -9999.25   -9999.25   -9999.25    1.99400    1.99400
 6770.50000  498.80810   -2.91290   97.23340   -9999.25   -9999.25   -9999.25    1.99330    1.99330
 6771.00000  498.50310   -2.90660   95.88060   -9999.25   -9999.25   -9999.25    1.99240    1.99240
 6771.50000  498.07330   -2.89910   96.66220   -9999.25   -9999.25   -9999.25    1.91680    1.91680
 6772.00000  498.08100   -2.89160   97.91000   -9999.25   -9999.25   -9999.25    1.91310    1.91600
 6772.50000  498.08840   -2.58280   99.90380   -9999.25   -9999.25   -9999.25    1.84030    1.84020
 6773.00000  498.84600   -2.27360  103.32360   -9999.25   -9999.25   -9999.25    1.81890    1.83960
 6773.50000  500.75860   -2.26660  109.85040   -9999.25   -9999.25   -9999.25    1.76380    1.83880
 6774.00000  501.23420   -2.21290  110.65710   -9999.25   -9999.25   -9999.25    1.76310    1.76310
 6774.50000  501.86760   -2.25050  106.92460   -9999.25   -9999.25   -9999.25    1.76240    1.83740
 6775.00000  501.12450   -2.24400  102.64640   -9999.25   -9999.25   -9999.25    1.76150    1.83650
 6775.50000  500.32040   -2.23670  104.42220   -9999.25   -9999.25   -9999.25    1.76090    1.91080
 6776.00000  497.89110   -2.53010  109.40550   -9999.25   -9999.25   -9999.25    1.76010    1.91610
 6776.50000  494.27410   -2.61660  111.93780   -9999.25   -9999.25   -9999.25    1.80470    1.98430
 6777.00000  488.41120   -3.11720  113.01120   -9999.25   -9999.25   -9999.25    1.83370    2.05850
 6777.50000  482.23240   -3.10990  110.76040   -9999.25   -9999.25   -9999.25    1.83280    2.05770
 6778.00000  477.43130   -3.10240  106.53480   -9999.25   -9999.25   -9999.25    1.90700    2.05700
 6778.50000  471.19290   -3.09410  103.10480   -9999.25   -9999.25   -9999.25    1.90630    2.05620
 6779.00000  466.20150   -3.08730  102.80940   -9999.25   -9999.25   -9999.25    1.98040    2.05540
 6779.50000  462.11860   -3.07980  105.70530   -9999.25   -9999.25   -9999.25    2.00340    2.05470
