~Version ---------------------------------------------------
VERS.   2.0 : CWLS log ASCII Standard -VERSION 2.0
WRAP.    NO : One line per depth step
DLM . SPACE : Column Data Section Delimiter
~Well ------------------------------------------------------
STRT .F                5740.0 : START DEPTH
STOP .F                9313.0 : STOP DEPTH
STEP .F                   0.5 : STEP
NULL .               -9999.25 : NULL VALUE
COMP .                        : COMPANY
WELL .                        : WELL
FLD  .                        : FIELD
LOC  .                        : LOCATION
PROV .                        : PROVINCE
CNTY .                        : COUNTY
STAT .                        : STATE
CTRY .                        : COUNTRY
SRVC .                        : SERVICE COMPANY
DATE .                        : DATE
UWI  .                        : UNIQUE WELL ID
API  .                        : API NUMBER
SLAT .WGS84 4.714298334146797 : SURFACE LATITUDE
SLON .WGS84 2.241382740048607 : SURFACE LONGITUDE
DATUM.F                970.48 : DEPTH DATUM ELEV
~Curve Information -----------------------------------------
DEPT.F     : 
CILD.MMHO  : CONDUCTIVITY INDUCTION LOG DEEP
SPR .MV    : SPONTANEOUS POTENTIAL FROM RES.
GRR .GAPI  : GAMMA RAY FROM RESISTIVITY
ILM .OHMM  : INDUCTION LOG MEDIUM
DTCO.US/F  : COMPRESSIONAL-WAVE INTERVAL TRANSIT TIME ACOUSTIC SLOWNESS
DTSM.US/F  : SHEAR-WAVE INTERVAL TRANSIT TIME DELTA-T
ILD .OHMM  : INDUCTION LOG DEEP
SFL .OHMM  : SPHERICALLY FOCUSED LOG RESISTIVITY
~Params ----------------------------------------------------
~Other -----------------------------------------------------
~ASCII -----------------------------------------------------
# ...
 7660.00000  366.11690   -4.31820  101.17000    2.63480   -9999.25   -9999.25    2.63140    2.25660
 7660.50000  368.54450   -4.33010  105.44040    2.60010   -9999.25   -9999.25    2.63040    2.17880
 7661.00000  369.73090   -4.04200  105.88420    2.63520   -9999.25   -9999.25    2.66600    2.23900
 7661.50000  370.15790   -3.44830  105.42270    2.68960   -9999.25   -9999.25    2.72090    2.38180
 7662.00000  368.91530   -3.16620  106.99050    2.72630   -9999.25   -9999.25    2.75780    2.51630
 7662.50000  365.50630   -3.17840  109.00860    2.78230   -9999.25   -9999.25    2.81540    2.56820
 7663.00000  357.91370   -3.19040  108.77460    2.83990   -9999.25   -9999.25    2.85450    2.49670
 7663.50000  345.78010   -3.20470  107.18910    2.91830   -9999.25   -9999.25    2.89420    2.46130
 7664.00000  337.12920   -3.51640  106.49200    2.97840   -9999.25   -9999.25    2.95470    2.44320
 7664.50000  330.53290   -3.52820  106.49580    3.06090   -9999.25   -9999.25    3.03260    2.51070
 7665.00000  325.56340   -3.54010  105.35860    3.10270   -9999.25   -9999.25    3.09510    2.63410
 7665.50000  323.29140   -3.25200  104.67410    3.14490   -9999.25   -9999.25    3.15850    2.70690
 7666.00000  319.58040   -3.26390  107.81840    3.16560   -9999.25   -9999.25    3.15730    2.70480
 7666.50000  317.22900   -3.27570  112.31400    3.14240   -9999.25   -9999.25    3.17840    2.62720
 7667.00000  315.09660   -3.28760  114.78270    3.11970   -9999.25   -9999.25    3.15500    2.52000
 7667.50000  317.35480   -3.59930  115.67690    3.07580   -9999.25   -9999.25    3.06770    2.41880
 7668.00000  319.78850   -3.91100  115.89110    3.01160   -9999.25   -9999.25    2.94180    2.38430
 7668.50000  325.79530   -3.92280  117.90930    2.92850   -9999.25   -9999.25    2.88030    2.38320
 7669.00000  335.24910   -3.93460  120.15270    2.84760   -9999.25   -9999.25    2.85940    2.36570
 7669.50000  341.76260   -3.34680  118.34200    2.84660   -9999.25   -9999.25    2.83880    2.30010
 7670.00000  348.12650   -3.05850  114.27910    2.88530   -9999.25   -9999.25    2.87730    2.33110
 7670.50000  348.58490   -2.77060  105.92260    2.90730   -9999.25   -9999.25    2.93630    2.37930
 7671.00000  340.76750   -2.78260  100.48680    2.98450   -9999.25   -9999.25    3.01760    2.37790
 7671.50000  330.15880   -3.09450  100.06340    3.04600   -9999.25   -9999.25    3.10110    2.37690
 7672.00000  327.16490   -3.40630  104.78210    3.08740   -9999.25   -9999.25    3.14310    2.37580
 7672.50000  327.92390   -3.41830  109.95340    3.10800   -9999.25   -9999.25    3.14190    2.35860
 7673.00000  328.68070   -3.12980  113.32290    3.12850   -9999.25   -9999.25    3.11790    2.45730
 7673.50000  328.44770   -3.44450  110.16090    3.04190   -9999.25   -9999.25    3.09640    2.47350
 7674.00000  324.94860   -3.45630  105.19710    2.99910   -9999.25   -9999.25    3.11680    2.40460
 7674.50000  321.08750   -3.76800  103.61170    2.97740   -9999.25   -9999.25    3.13720    2.39920
 7675.00000  318.96550   -4.07970  104.50380    2.99730   -9999.25   -9999.25    3.13570    2.55690
 7675.50000  317.30350   -4.09150  104.94760    3.03770   -9999.25   -9999.25    3.17830    2.73890
 7676.00000  314.14280   -4.10340  104.03560    3.10030   -9999.25   -9999.25    3.22160    2.79510
 7676.50000  310.74290   -4.11520  103.35110    3.18620   -9999.25   -9999.25    3.31050    2.69760
 7677.00000  307.14080   -3.82420  101.76570    3.27440   -9999.25   -9999.25    3.35570    2.58590
 7677.50000  299.81620   -3.83900   99.69750    3.34190   -9999.25   -9999.25    3.40120    2.62860
 7678.00000  289.77660   -3.54810   98.36960    3.45830   -9999.25   -9999.25    3.49500    2.78980
 7678.50000  286.96380   -3.26010  100.92010    3.52960   -9999.25   -9999.25    3.54270    2.96780
 7679.00000  280.79500   -3.27490  104.20560    3.57750   -9999.25   -9999.25    3.59070    3.05000
 7679.50000  279.30280   -2.98650  104.64940    3.60110   -9999.25   -9999.25    3.61430    2.90420
 7680.00000  279.41050   -2.69880  105.53920    3.57340   -9999.25   -9999.25    3.61260    2.76570
 7680.50000  281.56790   -2.41080  105.98300    3.54920   -9999.25   -9999.25    3.56160    2.70760
 7681.00000  283.61260   -2.12280  104.84580    3.52350   -9999.25   -9999.25    3.53570    2.68780
 7681.50000  286.07960   -2.13490  104.38650    3.49780   -9999.25   -9999.25    3.48580    2.63140
 7682.00000  288.46590   -2.14690  106.17950    3.47250   -9999.25   -9999.25    3.48450    2.61210
 7682.50000  291.64220   -2.16130  111.57610    3.49570   -9999.25   -9999.25    3.45920    2.70280
 7683.00000  292.84940   -2.47300  111.34200    3.49420   -9999.25   -9999.25    3.45780    2.81610
 7683.50000  290.71840   -2.48480  107.72950    3.54200   -9999.25   -9999.25    3.48060    2.77620
 7684.00000  288.30670   -2.49670  103.66660    3.54040   -9999.25   -9999.25    3.47920    2.69920
 7684.50000  286.87410   -2.50850   99.35150    3.51480   -9999.25   -9999.25    3.47790    2.64260
 7685.00000  290.07990   -2.52040   96.86150    3.48940   -9999.25   -9999.25    3.47630    2.58710
 7685.50000  291.38740   -2.53220  100.71000    3.44030   -9999.25   -9999.25    3.45100    2.49800
 7686.00000  291.77390   -2.54410  107.23260    3.41550   -9999.25   -9999.25    3.44970    2.46260
 7686.50000  289.90200   -2.25310  113.07970    3.39080   -9999.25   -9999.25    3.42470    2.46150
 7687.00000  289.91130   -2.26790  112.16990    3.36630   -9999.25   -9999.25    3.42340    2.54970
 7687.50000  291.16610   -2.57960  106.53040    3.34190   -9999.25   -9999.25    3.39850    2.63550
 7688.00000  292.92380   -2.59140  103.14320    3.36400   -9999.25   -9999.25    3.42080    2.65270
 7688.50000  291.01150   -2.60330  102.45870    3.40960   -9999.25   -9999.25    3.44360    2.63290
 7689.00000  289.67990   -2.61510  103.35070    3.45590   -9999.25   -9999.25    3.51420    2.68690
 7689.50000  287.69960   -2.62690  105.36890    3.47870   -9999.25   -9999.25    3.56180    2.76110
 7690.00000  286.05700   -2.63880  107.16220    3.55040   -9999.25   -9999.25    3.61010    2.79870
 7690.50000  281.65990   -2.35080  107.15300    3.59860   -9999.25   -9999.25    3.63410    2.81690
 7691.00000  272.99780   -2.36280  104.65590    3.62560   -9999.25   -9999.25    3.68340    2.85450
 7691.50000  266.20000   -2.03820  101.71010    3.69700   -9999.25   -9999.25    3.73300    2.89330
 7692.00000  262.99920   -1.78660  101.04500    3.74720   -9999.25   -9999.25    3.75750    2.83230
 7692.50000  262.25640   -1.80140  102.61090    3.79780   -9999.25   -9999.25    3.78210    2.79220
 7693.00000  262.20470   -1.81320  105.07960    3.82320   -9999.25   -9999.25    3.78070    2.81060
 7693.50000  260.02390   -2.12490  106.64730    3.82150   -9999.25   -9999.25    3.80550    2.82890
 7694.00000  259.27890   -2.13680  105.73750    3.82020   -9999.25   -9999.25    3.80410    2.82730
 7694.50000  260.78750   -2.14860  104.82780    3.79260   -9999.25   -9999.25    3.80260    2.74890
 7695.00000  262.69410   -2.46030  106.17030    3.76520   -9999.25   -9999.25    3.77500    2.72880
 7695.50000  263.05030   -2.47210  108.63890    3.71220   -9999.25   -9999.25    3.74720    2.68980
 7696.00000  261.55920   -2.18410  110.20890    3.71090   -9999.25   -9999.25    3.72000    2.68860
 7696.50000  261.65640   -1.59330  109.74740    3.65870   -9999.25   -9999.25    3.69300    2.66890
 7697.00000  266.07210   -1.00840  107.71150    3.65750   -9999.25   -9999.25    3.66610    2.64930
 7697.50000  269.97750   -1.02030  105.22520    3.65620   -9999.25   -9999.25    3.66470    2.62990
 7698.00000  267.85420   -1.33190  105.21620    3.68070   -9999.25   -9999.25    3.68910    2.59260
 7698.50000  263.84640   -1.64360  105.90880    3.67910   -9999.25   -9999.25    3.76480    2.59140
 7699.00000  260.61610   -1.95530  106.09950    3.75490   -9999.25   -9999.25    3.84230    2.66300
 7699.50000  257.70300   -2.26700  106.98940    3.91260   -9999.25   -9999.25    3.92140    2.77460
