~Version ---------------------------------------------------
VERS.   2.0 : CWLS log ASCII Standard -VERSION 2.0
WRAP.    NO : One line per depth step
DLM . SPACE : Column Data Section Delimiter
~Well ------------------------------------------------------
STRT .F                5740.0 : START DEPTH
STOP .F                9313.0 : STOP DEPTH
STEP .F                   0.5 : STEP
NULL .               -9999.25 : NULL VALUE
COMP .                        : COMPANY
WELL .                        : WELL
FLD  .                        : FIELD
LOC  .                        : LOCATION
PROV .                        : PROVINCE
CNTY .                        : COUNTY
STAT .                        : STATE
CTRY .                        : COUNTRY
SRVC .                        : SERVICE COMPANY
DATE .                        : DATE
UWI  .                        : UNIQUE WELL ID
API  .                        : API NUMBER
SLAT .WGS84 4.714298334146797 : SURFACE LATITUDE
SLON .WGS84 2.241382740048607 : SURFACE LONGITUDE
DATUM.F                970.48 : DEPTH DATUM ELEV
~Curve Information -----------------------------------------
DEPT.F     : 
CILD.MMHO  : CONDUCTIVITY INDUCTION LOG DEEP
SPR .MV    : SPONTANEOUS POTENTIAL FROM RES.
GRR .GAPI  : GAMMA RAY FROM RESISTIVITY
ILM .OHMM  : INDUCTION LOG MEDIUM
DTCO.US/F  : COMPRESSIONAL-WAVE INTERVAL TRANSIT TIME ACOUSTIC SLOWNESS
DTSM.US/F  : SHEAR-WAVE INTERVAL TRANSIT TIME DELTA-T
ILD .OHMM  : INDUCTION LOG DEEP
SFL .OHMM  : SPHERICALLY FOCUSED LOG RESISTIVITY
~Params ----------------------------------------------------
~Other -----------------------------------------------------
~ASCII -----------------------------------------------------
# ...
 8820.00000   27.78500   -8.69570  115.04550   40.98980   65.68020  111.62300   48.39500   58.72140
 8820.50000   29.77920   -8.99110  118.42830   40.70140   66.75550  111.31040   45.78130   51.85890
 8821.00000   31.99940   -8.98650  119.10840   38.77150   65.83560  110.43220   40.97800   50.09920
 8821.50000   34.01190   -8.98110  117.08580   35.88390   65.83860  110.43590   35.92570   50.79580
 8822.00000   35.80310   -8.67690  113.71180   32.97680   67.05870  110.58840   33.51860   44.85950
 8822.50000   37.75600   -8.67240  110.78830   30.94090   68.25150  111.18980   32.59760   40.72640
 8823.00000   39.75020   -8.36810  111.71160   28.57790   68.98650  111.79110   31.05100   37.74780
 8823.50000   41.89260   -8.06380  116.11050   26.66360   68.84070  111.94290   29.17160   35.17760
 8824.00000   44.05880   -7.75950  121.61350   25.57570   67.49830  111.79630   27.40590   33.03440
 8824.50000   45.73270   -7.45520  125.44680   24.53220   65.25910  112.54790   26.46920   31.76360
 8825.00000   46.47680   -6.85110  128.15390   23.20790   64.06630  114.04670   25.21340   30.68580
 8825.50000   46.29090   -6.24700  130.41060   21.95500   64.66710  116.89190   23.66910   30.05670
 8826.00000   45.03920   -5.94270  131.76630   20.91410   66.01540  120.03620   22.71980   29.44060
 8826.50000   43.13650   -5.63840  132.67170   21.49810   66.91520  120.93670   22.37520   27.47650
 8827.00000   40.38150   -5.63390  133.57700   21.64440   66.32020  120.34130   22.55310   25.29180
 8827.50000   37.63550   -5.62950  134.25710   21.79180   62.58630  114.65990   23.50360   23.28080
 8828.00000   34.83350   -5.65820  132.91020   24.17200   58.25440  107.18340   27.35970   20.70250
 8828.50000   29.42160   -5.92050  122.77940   30.15930   54.52040   94.92010   31.84850   20.13860
 8829.00000   23.84830   -6.51570  107.91900   37.38270   52.58020   94.32460   34.59680   21.91570
 8829.50000   20.70430   -8.03910   85.17570   45.49660   52.13470   93.28060   41.11710   28.91320
 8830.00000   17.54370   -9.83600   66.03960   54.92270   51.09130   92.23640   52.00390   72.23560
 8830.50000   16.82160  -11.73530   50.39910   63.20230   50.64580   92.53850   61.37890  143.08780
 8831.00000   16.93220  -15.49240   41.49640   67.72140   52.89100   93.59330   68.54550  275.71500
 8831.50000   19.13550  -18.48640   39.92310   70.58270   56.63080   94.95680   72.43300  403.06750
 8832.00000   19.91000  -21.18060   43.30700   71.06560   59.32440   95.83840   73.93230  373.58930
 8832.50000   19.94070  -23.87480   49.39250   64.49290   60.07470   95.37030   72.90200  260.89900
 8833.00000   19.53120  -26.56910   53.90140   65.83670   60.07780   95.09630   69.44320  176.01830
 8833.50000   18.49690  -28.96340   55.03200   69.57470   60.08080   96.14720   66.14120   97.20460
 8834.00000   17.78430  -32.55720   54.13550   71.51760   60.08380   97.79560   65.67900   76.86660
 8834.50000   17.06150  -35.55120   50.31110   72.00690   60.08670  100.04240   65.21330   79.56650
 8835.00000   17.09150  -38.24540   46.93720   71.49810   60.08970   98.99800   67.95850   91.63770
 8835.50000   17.87690  -40.63980   46.04070   69.53680   60.09270   97.95380   68.89070  104.48430
 8836.00000   18.88080  -42.13460   45.36940   68.09880   60.09570   97.50730   69.83930  100.61880
 8836.50000   20.18130  -43.03080   44.92340   65.77400   60.09870   98.40850   70.30960  101.31590
 8837.00000   21.36990  -44.22470   45.21260   63.52150   60.10170  100.80490   68.84850  113.14980
 8837.50000   23.36410  -45.11980   48.76130   58.76810   60.10470  103.35080   62.91680  115.51790
 8838.00000   24.77150  -45.71510   55.29810   53.14760   60.10770  104.84970   51.83150   98.55620
 8838.50000   25.10270  -45.71060   60.70800   45.23960   60.11060  105.00220   48.02550   75.81250
 8839.00000   24.82710  -45.70620   62.96460   42.20920   60.11360  104.25130   47.35630   55.56590
 8839.50000   24.37360  -45.70160   63.64360   41.33630   60.11660  103.49930   47.67510   53.68040
 8840.00000   23.18900  -46.03710   61.84740   42.78570   60.11960  102.76730   49.68450   51.85890
 8840.50000   21.92120  -46.64690   59.59950   46.80670   60.12260  102.14610   52.13780   50.79580
 8841.00000   20.81980  -47.18770   50.14450   59.62570   60.12560  101.12850   54.71260   52.40890
 8841.50000   19.72780  -47.18210   44.29310   66.59750   60.12860  100.53310   59.84610   67.41650
 8842.00000   19.01520  -47.47860   38.89210   68.45740   60.13160   99.93770   61.97280  107.81120
 8842.50000   19.59080  -47.47310   39.57220   68.44800   60.13450   99.79030   62.78830  157.60930
 8843.00000   22.06920  -47.46860   42.72980   65.65540   60.13750  100.84110   63.21110  167.71360
 8843.50000   22.09900  -47.46420   47.51760   59.99880   60.14050  102.04080   60.62680  131.71050
 8844.00000   21.95810  -47.15990   51.51180   51.26690   60.14350  103.39010   56.95720   88.86000
 8844.50000   21.40930  -46.85560   55.35680   47.40680   60.14650  104.58970   54.25490   65.58010
 8845.00000   21.09060  -46.85120   55.58530   48.06090   60.14950  103.39600   53.13010   52.94420
 8845.50000   20.14540  -46.54690   54.46470   54.80660   60.15100  101.60390   54.98790   49.75450
 8846.00000   19.31820  -46.84340   51.54120   59.95730   60.15020   99.96140   58.91260   50.09920
 8846.50000   18.49100  -47.13880   47.26630   64.24440   60.14940   99.06680   63.11750   53.42990
 8847.00000   17.80590  -48.63250   42.76630   66.49710   60.14860   98.76980   65.32450   65.86890
 8847.50000   18.59260  -49.82750   38.49140   67.41460   60.14770   98.92310   66.68010   93.26010
 8848.00000   19.75940  -50.42270   36.24360   67.40520   60.14690   99.37480   67.59480  127.24130
 8848.50000   20.89960  -51.01800   36.47320   67.32950   60.14610  100.12570   67.58100  148.11370
 8849.00000   21.68360  -51.63220   39.40560   59.49310   60.14530  101.32540   65.72400  139.19020
 8849.50000   22.45880  -52.20850   43.23880   50.73260   60.14450  102.52510   59.23660  117.12410
 8850.00000   21.73910  -52.20390   47.29730   44.39270   60.14370  104.02390   54.13300   81.26490
 8850.50000   20.55450  -52.19850   52.50880   41.21070   60.14290  105.37370   54.05680   56.55120
 8851.00000   17.69040  -51.89420   53.85030   45.39670   60.14210  105.97430   54.65200   45.74890
 8851.50000   15.83470  -51.88980   51.50140   53.22130   60.14130  102.83660   58.81640   44.55080
 8852.00000   15.47300  -51.88540   47.14150   60.27270   60.14050   99.84780   65.24440   50.52710
 8852.50000   16.71760  -52.18190   38.97240   68.73230   60.13970   98.80360   69.43370   77.39920
 8853.00000   18.17610  -53.07590   33.02430   73.13890   60.13880   98.50670   72.37500  115.51790
 8853.50000   18.95050  -53.37130   30.88720   74.15060   60.13800  100.00630   73.89200  219.53800
 8854.00000   19.73090  -53.66780   34.72160   74.13780   60.13720  103.89850   73.89200  283.43540
 8854.50000   19.44460  -53.66230   42.60900   68.69450   60.13640  111.23130   73.89200  225.68560
 8855.00000   19.03680  -53.95880   50.04590   58.57900   60.13560  112.43100   65.69710  135.39880
 8855.50000   18.32420  -54.25420   52.97830   53.90380   60.13480  111.83550   61.73330   77.93540
 8856.00000   18.35080  -54.24860   53.43210   52.06350   60.13400  111.24020   60.88540   59.12820
 8856.50000   17.58610  -53.94430   50.05930   59.37090   60.13320  106.60590   62.16160   56.33850
 8857.00000   16.16780  -53.64010   41.73040   67.23700   60.13240   98.23190   66.15300   65.12890
 8857.50000   15.21690  -53.03590   31.59980   77.74270   60.13160   95.09350   73.89200   88.24860
 8858.00000   13.97450  -53.03150   27.32500   94.35110   60.13070   94.19540   87.23080  154.37830
 8858.50000   13.59730  -52.41300   25.75290  101.79940   60.12990   93.59300  103.69190  358.42910
 8859.00000   14.27500  -51.79450   27.10870  105.36880   60.12910   92.99160  108.83430  593.32680
 8859.50000   17.06560  -51.17370   31.39240  102.47810   60.12830   92.38930  111.11550  609.94100
