~Version ---------------------------------------------------
VERS.   2.0 : CWLS log ASCII Standard -VERSION 2.0
WRAP.    NO : One line per depth step
DLM . SPACE : Column Data Section Delimiter
~Well ------------------------------------------------------
STRT .F                5740.0 : START DEPTH
STOP .F                9313.0 : STOP DEPTH
STEP .F                   0.5 : STEP
NULL .               -9999.25 : NULL VALUE
COMP .                        : COMPANY
WELL .                        : WELL
FLD  .                        : FIELD
LOC  .                        : LOCATION
PROV .                        : PROVINCE
CNTY .                        : COUNTY
STAT .                        : STATE
CTRY .                        : COUNTRY
SRVC .                        : SERVICE COMPANY
DATE .                        : DATE
UWI  .                        : UNIQUE WELL ID
API  .                        : API NUMBER
SLAT .WGS84 4.714298334146797 : SURFACE LATITUDE
SLON .WGS84 2.241382740048607 : SURFACE LONGITUDE
DATUM.F                970.48 : DEPTH DATUM ELEV
~Curve Information -----------------------------------------
DEPT.F     : 
CILD.MMHO  : CONDUCTIVITY INDUCTION LOG DEEP
SPR .MV    : SPONTANEOUS POTENTIAL FROM RES.
GRR .GAPI  : GAMMA RAY FROM RESISTIVITY
ILM .OHMM  : INDUCTION LOG MEDIUM
DTCO.US/F  : COMPRESSIONAL-WAVE INTERVAL TRANSIT TIME ACOUSTIC SLOWNESS
DTSM.US/F  : SHEAR-WAVE INTERVAL TRANSIT TIME DELTA-T
ILD .OHMM  : INDUCTION LOG DEEP
SFL .OHMM  : SPHERICALLY FOCUSED LOG RESISTIVITY
~Params ----------------------------------------------------
~Other -----------------------------------------------------
~ASCII -----------------------------------------------------
# ...
 6980.00000  353.82310   -2.47020   99.24930   -9999.25   -9999.25   -9999.25    2.65370    2.39880
 6980.50000  352.32390   -2.46090  100.57830   -9999.25   -9999.25   -9999.25    2.65290    2.39880
 6981.00000  350.35420   -2.45480   97.74770   -9999.25   -9999.25   -9999.25    2.74460    2.47380
 6981.50000  347.07640   -2.44700   94.89880   -9999.25   -9999.25   -9999.25    2.80130    2.48290
 6982.00000  344.73850   -2.60850   90.84000   -9999.25   -9999.25   -9999.25    2.87560    2.54870
 6982.50000  344.96440   -2.73430   89.86490   -9999.25   -9999.25   -9999.25    2.94980    2.54870
 6983.00000  346.32680   -2.72500   91.99770   -9999.25   -9999.25   -9999.25    3.02380    2.54870
 6983.50000  348.14850   -2.71840   94.36940   -9999.25   -9999.25   -9999.25    3.02320    2.54870
 6984.00000  349.36580   -2.71080   97.11710   -9999.25   -9999.25   -9999.25    3.02250    2.54870
 6984.50000  352.32390   -2.70180   96.32960   -9999.25   -9999.25   -9999.25    2.90550    2.62370
 6985.00000  356.74550   -2.69580   94.36940   -9999.25   -9999.25   -9999.25    2.79610    2.62370
 6985.50000  361.31930   -2.68790   94.69580   -9999.25   -9999.25   -9999.25    2.72030    2.62370
 6986.00000  367.45650   -2.68070   95.31510   -9999.25   -9999.25   -9999.25    2.64470    2.62370
 6986.50000  368.06600   -2.67320   96.84680   -9999.25   -9999.25   -9999.25    2.64390    2.60080
 6987.00000  366.56670   -2.66470   97.88270   -9999.25   -9999.25   -9999.25    2.69060    2.54870
 6987.50000  366.12950   -2.65810   97.74770   -9999.25   -9999.25   -9999.25    2.73610    2.47380
 6988.00000  366.59640   -2.65060   97.86780   -9999.25   -9999.25   -9999.25    2.86650    2.39880
 6988.50000  368.30950   -2.64310   98.23200   -9999.25   -9999.25   -9999.25    2.86580    2.39880
 6989.00000  370.74490   -2.63550   97.97300   -9999.25   -9999.25   -9999.25    2.85760    2.39880
 6989.50000  373.31340   -2.62760   97.74770   -9999.25   -9999.25   -9999.25    2.78920    2.39880
 6990.00000  378.71400   -2.92170   98.19820   -9999.25   -9999.25   -9999.25    2.66370    2.39880
 6990.50000  384.27860   -2.91420   97.78150   -9999.25   -9999.25   -9999.25    2.48800    2.39880
 6991.00000  389.80510   -2.90560   96.02780   -9999.25   -9999.25   -9999.25    2.41230    2.39880
 6991.50000  394.76020   -2.89910   96.17120   -9999.25   -9999.25   -9999.25    2.33660    2.32380
 6992.00000  400.42100   -2.89160   98.72480   -9999.25   -9999.25   -9999.25    2.33570    2.31580
 6992.50000  406.74590   -2.88400  100.58250   -9999.25   -9999.25   -9999.25    2.33510    2.24890
 6993.00000  411.41120   -2.87650  100.22520   -9999.25   -9999.25   -9999.25    2.25940    2.24890
 6993.50000  413.79310   -2.86850   97.29730   -9999.25   -9999.25   -9999.25    2.25860    2.24890
 6994.00000  414.93240   -2.56020   99.09910   -9999.25   -9999.25   -9999.25    2.25790    2.17390
 6994.50000  410.79580   -2.55270  101.41860   -9999.25   -9999.25   -9999.25    2.25710    2.17390
 6995.00000  404.04800   -2.54410  103.15210   -9999.25   -9999.25   -9999.25    2.25640    2.24890
 6995.50000  402.25650   -2.53770  103.92630   -9999.25   -9999.25   -9999.25    2.25560    2.24890
 6996.00000  401.79910   -2.53010  100.09110   -9999.25   -9999.25   -9999.25    2.32970    2.24890
 6996.50000  403.77590   -2.52260   96.13560   -9999.25   -9999.25   -9999.25    2.32910    2.24890
 6997.00000  404.79760   -2.51510   92.63480   -9999.25   -9999.25   -9999.25    2.32830    2.24890
 6997.50000  400.29980   -2.50700   90.76580   -9999.25   -9999.25   -9999.25    2.40250    2.24890
 6998.00000  399.18020   -2.50000   94.36940   -9999.25   -9999.25   -9999.25    2.38690    2.24890
 6998.50000  403.68800   -2.49250   97.04970   -9999.25   -9999.25   -9999.25    2.32600    2.25980
 6999.00000  407.79610   -2.48380   98.71690   -9999.25   -9999.25   -9999.25    2.32530    2.32380
 6999.50000  404.88310   -2.47740   97.07210   -9999.25   -9999.25   -9999.25    2.32460    2.39880
 7000.00000  398.80060   -2.46990   95.91290   -9999.25   -9999.25   -9999.25    2.34190    2.39920
 7000.50000  396.36220   -2.75360   94.50830   -9999.25   -9999.25   -9999.25    2.38490    2.39980
 7001.00000  395.60830   -3.05670   93.02270   -9999.25   -9999.25   -9999.25    2.42790    2.40040
 7001.50000  388.99210   -3.04970   91.76840   -9999.25   -9999.25   -9999.25    2.47490    2.40110
 7002.00000  383.82350   -3.04220   90.90060   -9999.25   -9999.25   -9999.25    2.47530    2.47680
 7002.50000  383.07720   -2.73210   92.12870   -9999.25   -9999.25   -9999.25    2.47560    2.47750
 7003.00000  383.10580   -2.72590   95.70640   -9999.25   -9999.25   -9999.25    2.40110    2.47840
 7003.50000  386.26790   -2.41690   99.12630   -9999.25   -9999.25   -9999.25    2.30270    2.45710
 7004.00000  394.43470   -2.40960  100.91890   -9999.25   -9999.25   -9999.25    2.25190    2.32990
 7004.50000  410.07900   -2.40210  101.08800   -9999.25   -9999.25   -9999.25    2.13610    2.21670
 7005.00000  429.20560   -2.39360  102.27500   -9999.25   -9999.25   -9999.25    2.02770    2.09640
 7005.50000  445.44390   -2.38700  104.06170   -9999.25   -9999.25   -9999.25    2.02820    2.03220
 7006.00000  457.31700   -2.07830  105.27880   -9999.25   -9999.25   -9999.25    2.10340    2.03300
 7006.50000  464.13780   -2.07080  105.88550   -9999.25   -9999.25   -9999.25    2.17880    2.03370
 7007.00000  470.06750   -1.99360  105.42800   -9999.25   -9999.25   -9999.25    2.17920    2.03450
 7007.50000  462.51110   -1.75380  104.31310   -9999.25   -9999.25   -9999.25    2.17950    2.11020
 7008.00000  454.47850   -1.74700  102.39590   -9999.25   -9999.25   -9999.25    2.17990    2.11100
 7008.50000  444.59190   -2.04100   99.75990   -9999.25   -9999.25   -9999.25    2.21650    2.14360
 7009.00000  438.47500   -2.03310   97.56330   -9999.25   -9999.25   -9999.25    2.25560    2.18740
 7009.50000  431.59830   -2.32820   96.13770   -9999.25   -9999.25   -9999.25    2.25610    2.23710
 7010.00000  423.11340   -2.31880   95.54050   -9999.25   -9999.25   -9999.25    2.33130    2.26390
 7010.50000  413.88130   -2.31180   96.21890   -9999.25   -9999.25   -9999.25    2.40670    2.26470
 7011.00000  404.88030   -2.60600   97.79190   -9999.25   -9999.25   -9999.25    2.44960    2.34030
 7011.50000  398.86080   -2.59670  101.40330   -9999.25   -9999.25   -9999.25    2.49610    2.34110
 7012.00000  397.94200   -2.59040  104.41760   -9999.25   -9999.25   -9999.25    2.55780    2.34200
 7012.50000  394.39710   -2.58260  103.17070   -9999.25   -9999.25   -9999.25    2.52680    2.36760
 7013.00000  392.07680   -2.57530   99.83360   -9999.25   -9999.25   -9999.25    2.48350    2.41830
 7013.50000  388.40710   -2.26660  101.68690   -9999.25   -9999.25   -9999.25    2.48390    2.41900
 7014.00000  384.36190   -2.25810  102.99100   -9999.25   -9999.25   -9999.25    2.46440    2.41980
 7014.50000  382.09120   -1.95030  101.60300   -9999.25   -9999.25   -9999.25    2.40970    2.42060
 7015.00000  380.17280   -1.94280   97.70930   -9999.25   -9999.25   -9999.25    2.37260    2.49630
 7015.50000  378.67690   -1.74580   93.76370   -9999.25   -9999.25   -9999.25    2.32670    2.42200
 7016.00000  383.42710   -1.62760   95.58470   -9999.25   -9999.25   -9999.25    2.26090    2.42280
 7016.50000  391.42880   -1.92020   99.31600   -9999.25   -9999.25   -9999.25    2.16000    2.33060
 7017.00000  400.50310   -2.21390  101.20310   -9999.25   -9999.25   -9999.25    2.11170    2.19950
 7017.50000  409.42670   -2.20630  102.21080   -9999.25   -9999.25   -9999.25    2.03710    2.12520
 7018.00000  417.82510   -2.19730  101.65770   -9999.25   -9999.25   -9999.25    2.02250    2.05090
 7018.50000  426.37510   -2.19130   99.94670   -9999.25   -9999.25   -9999.25    1.96290    1.97690
 7019.00000  432.67670   -2.18330  100.18750   -9999.25   -9999.25   -9999.25    1.96330    1.97750
 7019.50000  438.43930   -2.17620  100.98900   -9999.25   -9999.25   -9999.25    1.96360    1.97830
