~Version ---------------------------------------------------
VERS.   2.0 : CWLS log ASCII Standard -VERSION 2.0
WRAP.    NO : One line per depth step
DLM . SPACE : Column Data Section Delimiter
~Well ------------------------------------------------------
STRT .F                5740.0 : START DEPTH
STOP .F                9313.0 : STOP DEPTH
STEP .F                   0.5 : STEP
NULL .               -9999.25 : NULL VALUE
COMP .                        : COMPANY
WELL .                        : WELL
FLD  .                        : FIELD
LOC  .                        : LOCATION
PROV .                        : PROVINCE
CNTY .                        : COUNTY
STAT .                        : STATE
CTRY .                        : COUNTRY
SRVC .                        : SERVICE COMPANY
DATE .                        : DATE
UWI  .                        : UNIQUE WELL ID
API  .                        : API NUMBER
SLAT .WGS84 4.714298334146797 : SURFACE LATITUDE
SLON .WGS84 2.241382740048607 : SURFACE LONGITUDE
DATUM.F                970.48 : DEPTH DATUM ELEV
~Curve Information -----------------------------------------
DEPT.F     : 
CILD.MMHO  : CONDUCTIVITY INDUCTION LOG DEEP
SPR .MV    : SPONTANEOUS POTENTIAL FROM RES.
GRR .GAPI  : GAMMA RAY FROM RESISTIVITY
ILM .OHMM  : INDUCTION LOG MEDIUM
DTCO.US/F  : COMPRESSIONAL-WAVE INTERVAL TRANSIT TIME ACOUSTIC SLOWNESS
DTSM.US/F  : SHEAR-WAVE INTERVAL TRANSIT TIME DELTA-T
ILD .OHMM  : INDUCTION LOG DEEP
SFL .OHMM  : SPHERICALLY FOCUSED LOG RESISTIVITY
~Params ----------------------------------------------------
~Other -----------------------------------------------------
~ASCII -----------------------------------------------------
# ...
 9020.00000   45.57720   -3.53840  121.78760   21.58060   72.43650  111.45640   23.87180   26.87600
 9020.50000   46.80440   -3.53980  125.26330   20.99190   72.43650  114.03410   23.04690   25.25160
 9021.00000   47.10430   -3.54130  126.99190   20.70360   72.43650  115.30580   22.13480   23.88710
 9021.50000   45.62360   -3.54280  128.12240   20.56090   72.43650  113.06390   21.97920   23.72050
 9022.00000   45.28720   -3.84410  128.57730   20.56090   72.43650  110.82150   21.97620   24.04540
 9022.50000   43.27560   -4.14550  128.35550   20.70360   72.43650  109.62630   22.28010   24.04030
 9023.00000   39.67290   -4.74670  127.46010   20.99190   72.43650  109.02900   22.90160   23.87000
 9023.50000   36.71980   -5.04800  124.98710   22.18580   72.43650  109.77880   23.70460   23.86410
 9024.00000   33.70380   -5.34930  123.18980   25.12630   72.43650  108.43400   25.93230   24.02570
 9024.50000   30.64630   -6.25040  123.19420   29.05310   72.43650  104.84530   30.40200   24.69340
 9025.00000   28.23900   -6.85160  125.22570   34.29760   72.43650  101.40630   35.64220   27.57050
 9025.50000   25.50430   -7.15290  128.38330   41.33760   72.43650  100.80900   38.99180   39.19950
 9026.00000   23.71910   -7.80570  131.09050   49.47930   72.43650   99.31500   44.46450   54.59070
 9026.50000   22.51000   -8.65550  133.12190   54.51770   72.43650   96.02550   51.05750   85.49340
 9027.00000   20.57420   -9.25670  135.82910   59.22450   72.43650   95.83500   56.24370  133.88930
 9027.50000   20.31250   -9.85780  136.73450   58.36320   72.43650   97.82350   59.43700  144.42420
 9028.00000   22.57990  -10.45900  137.18930   55.20420   72.43650  100.84970   61.94820  137.58190
 9028.50000   24.45590  -11.06020  138.31990   51.57530   72.43650  105.23470   59.35630  122.32020
 9029.00000   26.43250  -11.96120  140.80190   48.12950   72.43650  108.49150   54.81190  102.90740
 9029.50000   27.87370  -12.56240  140.35590   44.91400   72.43650  109.64730   49.08830   84.80070
 9030.00000   28.88630  -13.16360  138.08670   42.79180   72.43650  110.39670   41.15920   70.36400
 9030.50000   30.15040  -13.46490  134.69850   39.65770   72.43650  111.14610   37.87430   61.27620
 9031.00000   30.91450  -13.76630  133.61250   36.75310   72.43650  111.44670   36.32900   54.10400
 9031.50000   30.79240  -14.06760  132.67720   36.24840   72.43650  110.99950   36.32400   49.10910
 9032.00000   26.44860  -14.66880  128.66750   36.49990   72.43650  106.81240   37.33840   45.82190
 9032.50000   23.58860  -14.97010  122.59090   39.65770   72.43650  100.38160   40.28600   44.87330
 9033.00000   21.95530  -15.27150  112.68550   44.29710   72.43650   95.44670   46.25940   45.17500
 9033.50000   20.27010  -15.87260   94.22150   53.38960   72.43650   92.00760   50.95830   51.85350
 9034.00000   18.60850  -16.17400   75.08180   71.87630   72.43650   90.66280   56.13440   74.74980
 9034.50000   16.77770  -16.77520   54.59070   79.73160   72.43650   91.41220   64.45770  140.08270
 9035.00000   15.66600  -17.07650   42.88350   89.05920   72.43650   92.31120   73.50470  381.13430
 9035.50000   13.72030  -17.37780   34.77980   96.81250   72.28700   92.46220   86.17410 1080.84310
 9036.00000   11.57670  -17.97900   32.75720  103.86440   72.28700   92.01500  108.26580 1635.24740
 9036.50000   11.58920  -18.28040   30.50940  113.87380   72.13750   90.95510  131.39510 1634.91280
 9037.00000   12.35410  -18.58170   28.26160  130.26980   72.13750   90.05790  138.85510 1645.98650
 9037.50000   13.55490  -18.58320   29.16700  146.51930   72.13750   89.12740  138.83620 1691.64340
 9038.00000   14.93060  -18.88460   32.77510  154.85270   72.13750   91.12370  125.22270 1726.78280
 9038.50000   17.64790  -18.88630   42.23900  147.53590   72.13750   93.66820   87.90920 1811.82280
 9039.00000   21.52990  -18.58800   52.82900   95.43520   72.13750   95.31510   67.25100 1503.37440
 9039.50000   26.78520  -18.28920   70.17580   51.21990   72.13750   99.05630   46.17580  743.24330
 9040.00000   29.93660  -17.39160   92.70280   38.04600   72.28700  108.63150   36.99870  177.97220
 9040.50000   35.68770  -16.19360  105.54510   29.66210   72.58600  116.86030   29.23810   31.23500
 9041.00000   46.20780  -15.29560  115.04830   22.65080   72.73540  120.45190   23.10520   25.91750
 9041.50000   53.40840  -14.09770  122.30650   19.05500   72.28700  119.25670   20.82440   26.63770
 9042.00000   58.73930  -12.30000  126.17920   17.05930   70.94170  117.16390   18.51070   27.56770
 9042.50000   63.49560  -11.10210  129.28260   15.70090   70.94170  116.26750   17.03340   27.37230
 9043.00000   63.70930   -9.90420  131.01890   14.95900   71.39010  118.36360   16.00270   27.17840
 9043.50000   60.52490   -9.00610  129.44680   14.85600   70.18480  116.86910   15.45640   26.11750
 9044.00000   56.94300   -8.70740  126.07290   15.91960   66.82930  110.28870   15.56160   22.92950
 9044.50000   52.41320   -8.40900  119.99620   18.17870   61.08450  102.06280   16.10730   19.76990
 9045.00000   45.57880   -8.41090  108.73940   20.78710   58.03730   95.26630   19.54830   19.36170
 9045.50000   41.99590   -8.11220   84.64480   27.19960   56.89090   93.05250   25.42440   23.81150
 9046.00000   33.36490   -8.11400   69.10870   34.53560   56.59190   92.34400   32.16400   35.28680
 9046.50000   26.88450   -8.41530   51.54560   44.60450   56.29300   92.94420   39.03530   62.14410
 9047.00000   22.24700   -8.71670   46.59510   54.88690   58.38570   93.84320   48.06710  190.13760
 9047.50000   18.66640   -9.31790   51.32930   58.41110   62.12260   95.04140   58.13080  319.05580
 9048.00000   17.18140   -9.91900   72.50490   60.46590   66.60690   96.09000   67.98590  323.44230
 9048.50000   17.19640  -10.53430   86.69850   62.16160   70.04480   96.83900   71.89330  245.32710
 9049.00000   17.21360  -11.44730  103.14440   64.34840   70.19430   95.94330   72.71670  155.50900
 9049.50000   18.26210  -12.35800  109.00470   68.95530   70.19430   94.89770   71.70500  134.49250
 9050.00000   18.74060  -13.22340   99.54970   79.18220   70.19500   96.57050   69.89190  141.75420
 9050.50000   19.96640  -13.82490   85.59020   87.83600   70.19920   98.49680   66.37330  174.35790
 9051.00000   21.19450  -15.02580   81.31540   88.44550   70.20330   99.24300   63.17560  236.82590
 9051.50000   22.53510  -15.92680   85.59910   83.10910   70.20780   99.24610   59.57140  312.13310
 9052.00000   25.09790  -16.22810   96.24240   71.87630   70.21220  101.64490   53.18270  323.08000
 9052.50000   29.49540  -15.92980  105.57810   58.81640   70.21680  105.88380   45.66000  219.46070
 9053.00000   33.07620  -15.33160  113.92840   43.68870   69.56960  108.97820   40.58150  129.84980
 9053.50000   34.07530  -14.73300  119.24360   36.43660   67.83500  103.44710   36.57040   77.89740
 9054.00000   33.85370  -13.53540  117.82970   33.79720   64.40140  100.30870   34.83170   60.75010
 9054.50000   33.45420  -12.63740  111.75310   33.09230   61.26690   99.26380   35.06640   53.64690
 9055.00000   32.38220  -11.43940   98.91970   32.67710   60.22500  101.06260   35.78970   52.18200
 9055.50000   31.65120  -10.24110   92.61790   33.13210   57.98730   99.71920   35.78000   54.38540
 9056.00000   29.26820   -9.34350   88.79350   34.53560   56.49700   95.83290   35.27860   58.28180
 9056.50000   26.40810   -8.74490   79.78890   36.49990   55.45510   93.89120   36.76410   60.78920
 9057.00000   23.99860   -8.14700   69.65830   43.99190   55.90800   94.34300   42.20950   64.90420
 9057.50000   21.96170   -7.54880   46.91500   53.76000   59.49990  100.32950   51.57560   79.80160
 9058.00000   23.47950   -6.95060   33.18070   63.90490   66.08130  110.05570   52.28060  164.09200
 9058.50000   26.43970   -6.35240   30.25720   66.61200   71.16800  118.88440   50.48830  512.63770
 9059.00000   31.38290   -5.45430   41.52290   57.60890   73.56290  123.07580   45.18440 1008.40280
 9059.50000   38.51840   -4.85610   57.29310   40.76990   66.09470  121.43330   38.23510 1103.04260
