~Version ---------------------------------------------------
VERS.   2.0 : CWLS log ASCII Standard -VERSION 2.0
WRAP.    NO : One line per depth step
DLM . SPACE : Column Data Section Delimiter
~Well ------------------------------------------------------
STRT .F                5740.0 : START DEPTH
STOP .F                9313.0 : STOP DEPTH
STEP .F                   0.5 : STEP
NULL .               -9999.25 : NULL VALUE
COMP .                        : COMPANY
WELL .                        : WELL
FLD  .                        : FIELD
LOC  .                        : LOCATION
PROV .                        : PROVINCE
CNTY .                        : COUNTY
STAT .                        : STATE
CTRY .                        : COUNTRY
SRVC .                        : SERVICE COMPANY
DATE .                        : DATE
UWI  .                        : UNIQUE WELL ID
API  .                        : API NUMBER
SLAT .WGS84 4.714298334146797 : SURFACE LATITUDE
SLON .WGS84 2.241382740048607 : SURFACE LONGITUDE
DATUM.F                970.48 : DEPTH DATUM ELEV
~Curve Information -----------------------------------------
DEPT.F     : 
CILD.MMHO  : CONDUCTIVITY INDUCTION LOG DEEP
SPR .MV    : SPONTANEOUS POTENTIAL FROM RES.
GRR .GAPI  : GAMMA RAY FROM RESISTIVITY
ILM .OHMM  : INDUCTION LOG MEDIUM
DTCO.US/F  : COMPRESSIONAL-WAVE INTERVAL TRANSIT TIME ACOUSTIC SLOWNESS
DTSM.US/F  : SHEAR-WAVE INTERVAL TRANSIT TIME DELTA-T
ILD .OHMM  : INDUCTION LOG DEEP
SFL .OHMM  : SPHERICALLY FOCUSED LOG RESISTIVITY
~Params ----------------------------------------------------
~Other -----------------------------------------------------
~ASCII -----------------------------------------------------
# ...
 6060.00000  226.63590  -89.85030   30.69070   -9999.25   -9999.25   -9999.25    4.70760   25.95260
 6060.50000  233.90540  -88.42380   35.26560   -9999.25   -9999.25   -9999.25    4.47840   23.28170
 6061.00000  237.60940  -86.67650   38.50860   -9999.25   -9999.25   -9999.25    4.21050   19.87100
 6061.50000  241.43640  -85.01080   41.65670   -9999.25   -9999.25   -9999.25    4.06470   17.36960
 6062.00000  245.34210  -82.48070   42.90950   -9999.25   -9999.25   -9999.25    3.90850   15.80060
 6062.50000  248.46870  -80.16990   42.59550   -9999.25   -9999.25   -9999.25    3.90720   14.83280
 6063.00000  249.74010  -77.70360   41.77500   -9999.25   -9999.25   -9999.25    3.90630   14.12890
 6063.50000  250.20120  -74.68680   44.24690   -9999.25   -9999.25   -9999.25    3.90510   13.26780
 6064.00000  249.77480  -72.72430   46.19520   -9999.25   -9999.25   -9999.25    3.90400   11.50080
 6064.50000  250.27900  -70.78940   50.31970   -9999.25   -9999.25   -9999.25    3.97800   10.60100
 6065.00000  251.51200  -69.03900   54.42410   -9999.25   -9999.25   -9999.25    3.97660   10.08140
 6065.50000  252.83120  -67.51880   58.61770   -9999.25   -9999.25   -9999.25    3.97560    9.39810
 6066.00000  254.35730  -65.39980   61.79230   -9999.25   -9999.25   -9999.25    3.97450    8.71540
 6066.50000  255.11620  -64.22600   55.87800   -9999.25   -9999.25   -9999.25    3.97320    8.29270
 6067.00000  255.13790  -62.95970   50.16490   -9999.25   -9999.25   -9999.25    3.97230    8.11980
 6067.50000  252.07930  -62.11050   46.68840   -9999.25   -9999.25   -9999.25    3.97110    8.26470
 6068.00000  247.67630  -62.89880   45.70870   -9999.25   -9999.25   -9999.25    3.85410    8.25990
 6068.50000  245.28710  -64.22090   46.90530   -9999.25   -9999.25   -9999.25    3.81910    8.11520
 6069.00000  243.79590  -64.04240   48.23330   -9999.25   -9999.25   -9999.25    3.89280    7.91440
 6069.50000  242.48680  -62.89210   50.01170   -9999.25   -9999.25   -9999.25    3.96660    7.58770
 6070.00000  242.15380  -60.93160   51.62120   -9999.25   -9999.25   -9999.25    4.04050    7.15920
 6070.50000  241.70760  -57.80170   50.28470   -9999.25   -9999.25   -9999.25    4.03940    7.04610
 6071.00000  240.29570  -51.03000   50.03630   -9999.25   -9999.25   -9999.25    4.01750    6.98330
 6071.50000  239.31710  -46.44480   50.93160   -9999.25   -9999.25   -9999.25    3.96210    6.87540
 6072.00000  235.83270  -42.98880   52.20420   -9999.25   -9999.25   -9999.25    4.00000    6.67180
 6072.50000  229.55490  -38.73170   53.17560   -9999.25   -9999.25   -9999.25    4.13120    6.30610
 6073.00000  221.81650  -36.65920   58.50050   -9999.25   -9999.25   -9999.25    4.40840    5.79080
 6073.50000  216.40030  -34.92320   65.92870   -9999.25   -9999.25   -9999.25    4.51120    5.47670
 6074.00000  209.24790  -29.43630   68.47700   -9999.25   -9999.25   -9999.25    4.70660    5.28680
 6074.50000  201.98630  -25.50100   70.34090   -9999.25   -9999.25   -9999.25    4.82710    5.09900
 6075.00000  194.71750  -23.13840   71.39660   -9999.25   -9999.25   -9999.25    5.04120    5.02230
 6075.50000  188.84250  -21.78180   64.85960   -9999.25   -9999.25   -9999.25    5.37730    5.10380
 6076.00000  185.75820  -21.64520   58.24920   -9999.25   -9999.25   -9999.25    5.45130    5.61920
 6076.50000  183.48670  -21.95110   52.01340   -9999.25   -9999.25   -9999.25    5.37520    6.08320
 6077.00000  181.93620  -21.95500   48.89370   -9999.25   -9999.25   -9999.25    5.29890    6.30760
 6077.50000  180.56860  -21.95950   51.13940   -9999.25   -9999.25   -9999.25    5.16940    6.36430
 6078.00000  186.93750  -21.48160   56.50400   -9999.25   -9999.25   -9999.25    4.99700    6.14400
 6078.50000  196.40250  -20.93420   57.38230   -9999.25   -9999.25   -9999.25    4.80090    5.89380
 6079.00000  209.58710  -19.87130   58.16500   -9999.25   -9999.25   -9999.25    4.67820    5.46000
 6079.50000  219.23240  -18.70300   60.54420   -9999.25   -9999.25   -9999.25    4.61870    5.01290
 6080.00000  223.38980  -17.71680   62.11710   -9999.25   -9999.25   -9999.25    4.61770    4.70760
 6080.50000  220.81180  -16.28170   64.59000   -9999.25   -9999.25   -9999.25    4.61660    4.58980
 6081.00000  218.01950  -15.59560   68.22710   -9999.25   -9999.25   -9999.25    4.54030    4.54210
 6081.50000  215.95140  -15.08880   70.21230   -9999.25   -9999.25   -9999.25    4.53940    4.55300
 6082.00000  214.95760  -14.79280   65.92750   -9999.25   -9999.25   -9999.25    4.46320    4.65710
 6082.50000  212.98760  -14.83990   62.08640   -9999.25   -9999.25   -9999.25    4.59150    4.77700
 6083.00000  209.43700  -15.10280   58.76670   -9999.25   -9999.25   -9999.25    4.77560    4.84860
 6083.50000  205.81200  -15.10660   55.32800   -9999.25   -9999.25   -9999.25    4.83470    4.96140
 6084.00000  201.80110  -15.41140   52.99700   -9999.25   -9999.25   -9999.25    4.83360    5.37020
 6084.50000  195.98210  -15.41590   53.96840   -9999.25   -9999.25   -9999.25    4.83710    5.33140
 6085.00000  193.58990  -15.42040   58.74840   -9999.25   -9999.25   -9999.25    4.90630    5.13370
 6085.50000  192.86340  -15.42540   62.62260   -9999.25   -9999.25   -9999.25    4.98030    4.99080
 6086.00000  192.87860  -15.42940   64.99050   -9999.25   -9999.25   -9999.25    4.97900    4.98950
 6086.50000  192.14850  -15.43390   66.44100   -9999.25   -9999.25   -9999.25    5.05280    4.98800
 6087.00000  191.00700  -15.43840   64.65990   -9999.25   -9999.25   -9999.25    5.12680    5.03070
 6087.50000  189.68720  -15.44290   59.79650   -9999.25   -9999.25   -9999.25    5.12540    5.15060
 6088.00000  187.70860  -15.74800   59.19240   -9999.25   -9999.25   -9999.25    5.19940    5.35820
 6088.50000  186.67040  -15.90900   57.76110   -9999.25   -9999.25   -9999.25    5.27580    5.54010
 6089.00000  185.43430  -16.69880   55.22320   -9999.25   -9999.25   -9999.25    5.39630    5.74430
 6089.50000  180.83900  -17.26350   51.38970   -9999.25   -9999.25   -9999.25    5.42110    6.10320
 6090.00000  179.53220  -17.56760   51.66620   -9999.25   -9999.25   -9999.25    5.26980    6.46930
 6090.50000  185.55230  -17.87240   54.04510   -9999.25   -9999.25   -9999.25    5.07970    6.32530
 6091.00000  190.08650  -17.69780   57.64390   -9999.25   -9999.25   -9999.25    5.03190    5.71300
 6091.50000  192.33360  -17.51750   60.66140   -9999.25   -9999.25   -9999.25    4.96650    5.26120
 6092.00000  187.10940  -16.98550   61.48350   -9999.25   -9999.25   -9999.25    4.96550    5.12120
 6092.50000  181.52670  -16.85690   62.45480   -9999.25   -9999.25   -9999.25    5.03940    5.11990
 6093.00000  176.64930  -16.69350   63.12610   -9999.25   -9999.25   -9999.25    5.08540    5.11840
 6093.50000  173.35150  -16.90000   61.30190   -9999.25   -9999.25   -9999.25    5.37470    5.33320
 6094.00000  168.51190  -17.17470   57.71130   -9999.25   -9999.25   -9999.25    5.56060    5.69560
 6094.50000  161.71470  -17.99510   56.14920   -9999.25   -9999.25   -9999.25    5.78380    6.08830
 6095.00000  157.68340  -18.69230   54.36370   -9999.25   -9999.25   -9999.25    5.94210    6.56800
 6095.50000  155.75240  -19.38960   49.36410   -9999.25   -9999.25   -9999.25    6.15690    7.24070
 6096.00000  159.52360  -20.08680   45.15620   -9999.25   -9999.25   -9999.25    6.25780    7.80780
 6096.50000  168.22370  -20.84610   43.49990   -9999.25   -9999.25   -9999.25    6.22970    8.03150
 6097.00000  180.54790  -20.94100   48.48840   -9999.25   -9999.25   -9999.25    5.82300    7.88000
 6097.50000  187.61150  -19.98260   50.43510   -9999.25   -9999.25   -9999.25    5.50220    7.12740
 6098.00000  194.16810  -18.59260   63.98150   -9999.25   -9999.25   -9999.25    5.10180    6.45550
 6098.50000  201.59520  -16.44340   66.36200   -9999.25   -9999.25   -9999.25    4.91570    5.70150
 6099.00000  207.39050  -14.68350   69.88560   -9999.25   -9999.25   -9999.25    4.79980    5.26090
 6099.50000  209.87580  -14.34970   71.40010   -9999.25   -9999.25   -9999.25    4.79850    5.24890
