~Version ---------------------------------------------------
VERS.   2.0 : CWLS log ASCII Standard -VERSION 2.0
WRAP.    NO : One line per depth step
DLM . SPACE : Column Data Section Delimiter
~Well ------------------------------------------------------
STRT .FT                 200.0 : START DEPTH
STOP .FT               16532.0 : STOP DEPTH
STEP .FT                   0.5 : STEP
NULL .                -9999.25 : NULL VALUE
COMP .                         : COMPANY
WELL .                         : WELL
FLD  .                         : FIELD
LOC  .                         : LOCATION
PROV .                         : PROVINCE
CNTY .                         : COUNTY
STAT .                         : STATE
CTRY .                         : COUNTRY
SRVC .                         : SERVICE COMPANY
DATE .                         : DATE
UWI  .                         : UNIQUE WELL ID
API  .                         : API NUMBER
SLAT .WGS84 2.6157399686776017 : SURFACE LATITUDE
SLON .WGS84     8.508945526066 : SURFACE LONGITUDE
DATUM.F                    nan : DEPTH DATUM ELEV
~Curve Information -----------------------------------------
DEPT   .FT    : 
CALD   .IN    : CALIPER FROM DENSITY LOG
DPHZ_LS.DEC   : HGRD STANDARD RESOLUTION DENSITY POROSITY
DTCO   .US/F  : DELTA-T COMPRESSIONAL
DTSM   .US/F  : DELTA-T SHEAR
HDRA   .G/C3  : HRDD SPINE AND RIBS DENSITY CORRECTION
PEFZ   .B/E   : HRDD STANDARD RESOLUTION FORMATION PHOTOELECTRIC FACTOR
SGRDD  .GAPI  : SPECTROSCOPY GAMMA RAY FROM DENSITY LOG
TNPH_LS.DEC   : THERMAL NEUTRON POROSITY [LIMESTONE]
~Params ----------------------------------------------------
~Other -----------------------------------------------------
~ASCII -----------------------------------------------------
# ...
 1000.00000   -9999.25   -9999.25   56.03800  179.89790   -9999.25   -9999.25   54.23500    0.12330
 1000.50000   -9999.25   -9999.25   55.78080  179.89940   -9999.25   -9999.25   49.24310    0.08840
 1001.00000   -9999.25   -9999.25   55.73520  179.90100   -9999.25   -9999.25   40.78260    0.05420
 1001.50000   -9999.25   -9999.25   55.76950  179.90250   -9999.25   -9999.25   31.16270    0.02990
 1002.00000   -9999.25   -9999.25   55.98720  179.90400   -9999.25   -9999.25   25.67230    0.02720
 1002.50000   -9999.25   -9999.25   55.96060  179.90550   -9999.25   -9999.25   23.89350    0.05030
 1003.00000   -9999.25   -9999.25   55.85760  179.90700   -9999.25   -9999.25   22.35960    0.03820
 1003.50000   -9999.25   -9999.25   56.05000  179.90860   -9999.25   -9999.25   21.03380    0.01490
 1004.00000   -9999.25   -9999.25   56.26930  179.91010   -9999.25   -9999.25   18.96020    0.00330
 1004.50000   -9999.25   -9999.25   56.47060  179.91160   -9999.25   -9999.25   19.27340   -0.00320
 1005.00000   -9999.25   -9999.25   56.18570  179.91310   -9999.25   -9999.25   21.48060    0.00560
 1005.50000   -9999.25   -9999.25   55.89840  177.83500   -9999.25   -9999.25   25.91020    0.01950
 1006.00000   -9999.25   -9999.25   55.86040  167.94810   -9999.25   -9999.25   31.00200    0.01870
 1006.50000   -9999.25   -9999.25   55.75430  162.01500   -9999.25   -9999.25   36.88390    0.01350
 1007.00000   -9999.25   -9999.25   55.47510  164.02410   -9999.25   -9999.25   41.61820    0.01350
 1007.50000   -9999.25   -9999.25   55.76550  166.87070   -9999.25   -9999.25   46.35240    0.02740
 1008.00000   -9999.25   -9999.25   55.68340  168.48670   -9999.25   -9999.25   51.46750    0.04340
 1008.50000   -9999.25   -9999.25   55.41210  169.67400   -9999.25   -9999.25   55.77140    0.07280
 1009.00000   -9999.25   -9999.25   55.69320  171.07060   -9999.25   -9999.25   56.67670    0.11180
 1009.50000   -9999.25   -9999.25   55.50220  172.22500   -9999.25   -9999.25   55.77180    0.16410
 1010.00000   -9999.25   -9999.25   55.66130  167.93110   -9999.25   -9999.25   54.93710    0.21650
 1010.50000   -9999.25   -9999.25   56.29250  147.65050   -9999.25   -9999.25   58.03390    0.25890
 1011.00000   -9999.25   -9999.25   57.86420  147.80300   -9999.25   -9999.25   60.20770    0.25070
 1011.50000   -9999.25   -9999.25   59.35150  150.82470   -9999.25   -9999.25   59.07750    0.21540
 1012.00000   -9999.25   -9999.25   56.80040  152.44510   -9999.25   -9999.25   56.24020    0.15460
 1012.50000   -9999.25   -9999.25   55.55670  152.64340   -9999.25   -9999.25   50.35260    0.11090
 1013.00000   -9999.25   -9999.25   57.98030  155.75160   -9999.25   -9999.25   45.09260    0.09860
 1013.50000   -9999.25   -9999.25   55.65260  158.10790   -9999.25   -9999.25   39.17350    0.12110
 1014.00000   -9999.25   -9999.25   57.18590  158.13360   -9999.25   -9999.25   36.07310    0.17390
 1014.50000   -9999.25   -9999.25   55.06490  156.51900   -9999.25   -9999.25   37.32790    0.22660
 1015.00000   -9999.25   -9999.25   53.36830  153.18110   -9999.25   -9999.25   38.83260    0.18860
 1015.50000   -9999.25   -9999.25   55.17750  144.34570   -9999.25   -9999.25   39.10710    0.12950
 1016.00000   -9999.25   -9999.25   54.85980  140.00770   -9999.25   -9999.25   34.93430    0.08450
 1016.50000   -9999.25   -9999.25   55.10200  136.06260   -9999.25   -9999.25   29.71380    0.05670
 1017.00000   -9999.25   -9999.25   55.87770  129.54040   -9999.25   -9999.25   26.05080    0.04120
 1017.50000   -9999.25   -9999.25   56.32800  125.65100   -9999.25   -9999.25   24.72530    0.02560
 1018.00000   -9999.25   -9999.25   57.75830  124.51510   -9999.25   -9999.25   25.48520    0.01610
 1018.50000   -9999.25   -9999.25   57.14230  134.43540   -9999.25   -9999.25   26.89010    0.00410
 1019.00000   -9999.25   -9999.25   56.14140  142.66130   -9999.25   -9999.25   29.57320   -0.00230
 1019.50000   -9999.25   -9999.25   54.82670  144.06070   -9999.25   -9999.25   33.06330   -0.00380
 1020.00000   -9999.25   -9999.25   54.34000  146.20990   -9999.25   -9999.25   37.28450    0.01080
 1020.50000   -9999.25   -9999.25   53.07100  152.31750   -9999.25   -9999.25   39.01380    0.02490
 1021.00000   -9999.25   -9999.25   51.34770  131.09230   -9999.25   -9999.25   35.16120    0.05640
 1021.50000   -9999.25   -9999.25   54.22540  125.19150   -9999.25   -9999.25   30.69490    0.08640
 1022.00000   -9999.25   -9999.25   52.40130  119.78900   -9999.25   -9999.25   31.29270    0.10820
 1022.50000   -9999.25   -9999.25   52.70180  115.80170   -9999.25   -9999.25   44.37780    0.13250
 1023.00000   -9999.25   -9999.25   55.32470  118.06900   -9999.25   -9999.25   59.97560    0.17850
 1023.50000   -9999.25   -9999.25   55.74590  120.81990   -9999.25   -9999.25   67.04640    0.21020
 1024.00000   -9999.25   -9999.25   59.79090  126.15510   -9999.25   -9999.25   63.72680    0.18820
 1024.50000   -9999.25   -9999.25   58.68140  124.87150   -9999.25   -9999.25   51.59340    0.18270
 1025.00000   -9999.25   -9999.25   57.57500  122.48370   -9999.25   -9999.25   52.15480    0.14680
 1025.50000   -9999.25   -9999.25   56.70660  121.04190   -9999.25   -9999.25   55.40870    0.16590
 1026.00000   -9999.25   -9999.25   56.47160  118.38210   -9999.25   -9999.25   64.68880    0.19730
 1026.50000   -9999.25   -9999.25   57.21710  114.66170   -9999.25   -9999.25   75.24240    0.22010
 1027.00000   -9999.25   -9999.25   58.54130  111.91010   -9999.25   -9999.25   82.81660    0.22280
 1027.50000   -9999.25   -9999.25   57.30460  109.20950   -9999.25   -9999.25   85.92900    0.23450
 1028.00000   -9999.25   -9999.25   57.30340  103.52180   -9999.25   -9999.25   82.01240    0.28130
 1028.50000   -9999.25   -9999.25   57.20420   94.91370   -9999.25   -9999.25   78.36120    0.29390
 1029.00000   -9999.25   -9999.25   56.90900   95.17920   -9999.25   -9999.25   78.06790    0.27550
 1029.50000   -9999.25   -9999.25   57.11890  100.27450   -9999.25   -9999.25   75.05240    0.23050
 1030.00000   -9999.25   -9999.25   53.98080  102.91850   -9999.25   -9999.25   64.74020    0.18180
 1030.50000   -9999.25   -9999.25   53.85520   99.45620   -9999.25   -9999.25   42.52770    0.08910
 1031.00000   -9999.25   -9999.25   50.90070   80.41150   -9999.25   -9999.25   32.19750    0.03380
 1031.50000   -9999.25   -9999.25   52.83210   99.29280   -9999.25   -9999.25   25.65080    0.00340
 1032.00000   -9999.25   -9999.25   52.71270  125.26470   -9999.25   -9999.25   20.77370   -0.00690
 1032.50000   -9999.25   -9999.25   53.09010  145.66950   -9999.25   -9999.25   18.75690   -0.00890
 1033.00000   -9999.25   -9999.25   53.42960  163.27360   -9999.25   -9999.25   18.00400   -0.00720
 1033.50000   -9999.25   -9999.25   53.75650  157.37730   -9999.25   -9999.25   19.23340   -0.00790
 1034.00000   -9999.25   -9999.25   53.55550  180.13140   -9999.25   -9999.25   20.08810   -0.00780
 1034.50000   -9999.25   -9999.25   53.48730  178.28930   -9999.25   -9999.25   21.34730   -0.00760
 1035.00000   -9999.25   -9999.25   53.42190  163.75850   -9999.25   -9999.25   23.23470   -0.00440
 1035.50000   -9999.25   -9999.25   52.64270  142.49900   -9999.25   -9999.25   23.84470   -0.00290
 1036.00000   -9999.25   -9999.25   51.50030  126.20480   -9999.25   -9999.25   23.56380   -0.00270
 1036.50000   -9999.25   -9999.25   50.33540  120.89750   -9999.25   -9999.25   21.69290   -0.00500
 1037.00000   -9999.25   -9999.25   49.51110  124.87880   -9999.25   -9999.25   20.03670   -0.00910
 1037.50000   -9999.25   -9999.25   49.32650  127.40240   -9999.25   -9999.25   17.68810   -0.01580
 1038.00000   -9999.25   -9999.25   48.94140  107.33760   -9999.25   -9999.25   17.12600   -0.02040
 1038.50000   -9999.25   -9999.25   48.84580  100.98710   -9999.25   -9999.25   18.94010   -0.02200
 1039.00000   -9999.25   -9999.25   48.84130   94.14170   -9999.25   -9999.25   19.30760   -0.01900
 1039.50000   -9999.25   -9999.25   49.52130  120.00720   -9999.25   -9999.25   18.79700   -0.01530
