~Version ---------------------------------------------------
VERS.   2.0 : CWLS log ASCII Standard -VERSION 2.0
WRAP.    NO : One line per depth step
DLM . SPACE : Column Data Section Delimiter
~Well ------------------------------------------------------
STRT .FT                 200.0 : START DEPTH
STOP .FT               16532.0 : STOP DEPTH
STEP .FT                   0.5 : STEP
NULL .                -9999.25 : NULL VALUE
COMP .                         : COMPANY
WELL .                         : WELL
FLD  .                         : FIELD
LOC  .                         : LOCATION
PROV .                         : PROVINCE
CNTY .                         : COUNTY
STAT .                         : STATE
CTRY .                         : COUNTRY
SRVC .                         : SERVICE COMPANY
DATE .                         : DATE
UWI  .                         : UNIQUE WELL ID
API  .                         : API NUMBER
SLAT .WGS84 2.6157399686776017 : SURFACE LATITUDE
SLON .WGS84     8.508945526066 : SURFACE LONGITUDE
DATUM.F                    nan : DEPTH DATUM ELEV
~Curve Information -----------------------------------------
DEPT   .FT    : 
CALD   .IN    : CALIPER FROM DENSITY LOG
DPHZ_LS.DEC   : HGRD STANDARD RESOLUTION DENSITY POROSITY
DTCO   .US/F  : DELTA-T COMPRESSIONAL
DTSM   .US/F  : DELTA-T SHEAR
HDRA   .G/C3  : HRDD SPINE AND RIBS DENSITY CORRECTION
PEFZ   .B/E   : HRDD STANDARD RESOLUTION FORMATION PHOTOELECTRIC FACTOR
SGRDD  .GAPI  : SPECTROSCOPY GAMMA RAY FROM DENSITY LOG
TNPH_LS.DEC   : THERMAL NEUTRON POROSITY [LIMESTONE]
~Params ----------------------------------------------------
~Other -----------------------------------------------------
~ASCII -----------------------------------------------------
# ...
 4280.00000   12.98720    0.06290   65.98340  110.09210   -0.00100    2.90850   67.29430    0.08700
 4280.50000   12.98310    0.06930   65.57200  110.78550   -0.00020    2.87220   64.90390    0.09640
 4281.00000   12.98060    0.07150   66.43930  111.16420   -0.00230    2.87430   63.92520    0.09920
 4281.50000   12.96620    0.06680   65.62810  109.36990   -0.00170    2.87650   63.16870    0.09340
 4282.00000   12.94310    0.06280   65.20440  109.53370   -0.00110    2.89320   61.90910    0.08430
 4282.50000   12.96270    0.06280   64.39400  109.60770   -0.00050    2.91000   59.41160    0.08120
 4283.00000   12.91880    0.06510   63.74140  109.32630   -0.00090    2.91390   59.48860    0.07860
 4283.50000   12.87500    0.06460   63.46170  108.92910   -0.00210    2.91450   61.05090    0.07630
 4284.00000   12.83410    0.06250   63.45720  108.75360   -0.00340    2.91520   62.04240    0.07350
 4284.50000   12.79480    0.05980   63.61160  108.24920   -0.00410    2.98490   62.66920    0.07330
 4285.00000   12.75380    0.05550   63.62400  107.99710   -0.00300    3.07900   63.57990    0.07760
 4285.50000   12.74050    0.05230   63.33290  109.55150   -0.00200    3.02090   67.78440    0.08300
 4286.00000   12.72720    0.04900   64.10140  112.13250   -0.00090    3.14110   71.98900    0.08840
 4286.50000   12.72200    0.04640   64.99580  115.17300    0.00010    3.29770   74.27320    0.09600
 4287.00000   12.71690    0.04660   66.04330  116.61390   -0.00080    3.34470   75.48900    0.10820
 4287.50000   12.71170    0.05270   67.40430  117.29330   -0.00350    3.36810   77.62680    0.12580
 4288.00000   12.73720    0.06290   69.40460  117.51620   -0.00520    3.37900   81.03200    0.14260
 4288.50000   12.76000    0.06820   67.84760  117.74980   -0.00590    3.46120   83.78490    0.15930
 4289.00000   12.73190    0.06130   64.46800  113.66750   -0.00660    3.61610   84.49960    0.16850
 4289.50000   12.72880    0.04350   61.78510  109.18490   -0.00240    3.84660   75.69020    0.14480
 4290.00000   12.70040    0.02230   57.74210  106.08680    0.00670    4.39190   61.27540    0.08810
 4290.50000   12.66600   -0.00910   53.69910  102.33000    0.00960    4.57620   46.62890    0.04920
 4291.00000   12.66530   -0.01410   50.74310  100.29320    0.01150    4.74560   35.57190    0.01610
 4291.50000   12.66390   -0.00850   51.44680   99.54760    0.00840    4.77020   31.63040    0.00330
 4292.00000   12.65090   -0.00440   51.88900   99.53530    0.00520    4.67590   33.16370    0.00790
 4292.50000   12.63780    0.00670   52.91370   99.43720    0.00210    4.54870   39.82420    0.01480
 4293.00000   12.63340    0.02010   54.46730   99.42310   -0.00110    4.40490   48.10550    0.02180
 4293.50000   12.65090    0.03390   55.12380  100.28730   -0.00420    4.39320   53.75220    0.02870
 4294.00000   12.62750    0.03480   55.59840  100.59540   -0.00470    4.43490   51.91380    0.03050
 4294.50000   12.58720    0.02670   54.73580  100.51080   -0.00280    4.57290   46.90960    0.02790
 4295.00000   12.54700    0.01880   53.50830  100.41490   -0.00090    4.67870   44.91260    0.02450
 4295.50000   12.51750    0.01280   54.05610  100.76210   -0.00050    4.74050   42.19050    0.02110
 4296.00000   12.54260    0.01410   54.52820  100.69800   -0.00110    4.80000   38.32020    0.02110
 4296.50000   12.57120    0.01840   54.86480  100.50390   -0.00170    4.79960   34.37650    0.02360
 4297.00000   12.57690    0.02850   54.63020   99.67990   -0.00240    4.84340   32.04910    0.02620
 4297.50000   12.57340    0.03040   53.87590   98.71750   -0.00100    4.86910   30.27010    0.02770
 4298.00000   12.56990    0.02300   54.14700   98.03950    0.00230    4.89470   28.60160    0.02560
 4298.50000   12.56640    0.01400   54.67450   98.03920    0.00570    4.92040   28.05130    0.02130
 4299.00000   12.56290    0.02530   54.91050   97.63680    0.00420    4.94190   26.74320    0.02560
 4299.50000   12.58470    0.05170   55.05100   97.65240    0.00180    4.98310   24.36910    0.03690
 4300.00000   12.62510    0.05740   55.11100   98.32150   -0.00060    5.02430   23.83330    0.04810
 4300.50000   12.65810    0.05480   54.78980   98.99200   -0.00200    5.04660   25.53670    0.05040
 4301.00000   12.62150    0.04020   54.45410   99.66250    0.00320    4.96860   28.68550    0.04290
 4301.50000   12.58490    0.02390   54.41790  100.24700    0.00810    4.88040   33.76440    0.03580
 4302.00000   12.54850    0.01130   55.77180  101.00070    0.01180    4.75600   39.41300    0.03270
 4302.50000   12.54650    0.00970   57.92960  101.65220    0.01600    4.61350   45.04740    0.04160
 4303.00000   12.57680    0.01210   59.42180  101.56260    0.01700    4.46630   49.93650    0.05120
 4303.50000   12.53720    0.02110   60.18740  102.19600    0.01340    4.30860   57.79510    0.06080
 4304.00000   12.54040    0.02990   59.91270  104.63310    0.00980    4.18500   64.73390    0.07550
 4304.50000   12.54350    0.03440   60.28470  105.63900    0.00620    4.20820   67.83820    0.08880
 4305.00000   12.54670    0.03200   60.57180  106.53460    0.00260    4.27400   66.07760    0.08000
 4305.50000   12.54160    0.02850   59.65900  106.43180   -0.00020    4.25070   64.68800    0.07190
 4306.00000   12.53460    0.03090   60.32590  107.10650    0.00060    4.19120   67.60090    0.08370
 4306.50000   12.53460    0.03840   61.97930  108.07190    0.00150    4.09900   72.93570    0.10970
 4307.00000   12.53460    0.05090   64.58830  109.38330    0.00250    4.00670   76.04410    0.13560
 4307.50000   12.62060    0.06600   66.67220  111.79310    0.00350    3.85090   77.83200    0.14090
 4308.00000   12.76600    0.08880   70.06030  114.81130    0.00440    3.58780   77.95780    0.15340
 4308.50000   12.91140    0.11930   72.35980  120.87060    0.00540    3.14980   71.63710    0.17100
 4309.00000   13.01840    0.14850   75.15940  125.65780    0.00530    2.79610   65.56650    0.18860
 4309.50000   13.11140    0.16460   75.90940  129.04530    0.00270    2.66000   57.55820    0.19840
 4310.00000   13.20450    0.17120   75.90460  131.33710   -0.00030    2.66090   55.50850    0.20150
 4310.50000   13.29750    0.17000   73.57190  132.07560   -0.00320    2.70760   57.10600    0.19790
 4311.00000   13.32030    0.15030   72.18490  131.37710   -0.00320    2.70870   55.77820    0.18990
 4311.50000   13.34130    0.12000   71.07550  129.08340   -0.00220    2.70450   53.23200    0.17550
 4312.00000   13.35800    0.10430   71.37790  126.55130   -0.00120    2.70820   50.45770    0.15030
 4312.50000   13.32870    0.11450   72.03260  125.82230   -0.00030    2.74640   48.17310    0.14270
 4313.00000   13.27990    0.13410   73.77470  127.92520   -0.00030    2.71510   49.31760    0.15790
 4313.50000   13.26030    0.15210   75.31730  129.46670   -0.00180    2.67280   50.71310    0.17310
 4314.00000   13.28820    0.16440   76.45110  132.38880   -0.00320    2.65260   55.08050    0.18240
 4314.50000   13.31200    0.16880   76.82120  135.21930   -0.00440    2.63240   56.84520    0.19190
 4315.00000   13.30500    0.17070   77.07970  138.45600   -0.00450    2.61220   57.41480    0.18310
 4315.50000   13.29800    0.17180   77.13060  138.89040   -0.00370    2.56760   57.43370    0.18840
 4316.00000   13.29100    0.17210   77.20940  138.43060   -0.00280    2.50540   57.33490    0.18750
 4316.50000   13.28820    0.17160   77.10250  138.14660   -0.00190    2.45300   58.02260    0.20020
 4317.00000   13.28820    0.16990   76.63820  138.12940    0.00130    2.45300   57.51220    0.20140
 4317.50000   13.33010    0.16550   76.12520  137.00720    0.00130    2.45580   57.58390    0.21200
 4318.00000   13.34410    0.15960   75.98030  135.63780    0.00190    2.46940   57.58130    0.21940
 4318.50000   13.33330    0.15580   75.95940  134.86260    0.00140    2.48310   58.31520    0.20660
 4319.00000   13.32250    0.15450   76.10770  134.57510    0.00140    2.49240   59.09510    0.19450
 4319.50000   13.31170    0.15990   76.47570  134.28540    0.00140    2.49680   59.32190    0.19470
