~Version ---------------------------------------------------
VERS.   2.0 : CWLS log ASCII Standard -VERSION 2.0
WRAP.    NO : One line per depth step
DLM . SPACE : Column Data Section Delimiter
~Well ------------------------------------------------------
STRT .FT                 200.0 : START DEPTH
STOP .FT               16532.0 : STOP DEPTH
STEP .FT                   0.5 : STEP
NULL .                -9999.25 : NULL VALUE
COMP .                         : COMPANY
WELL .                         : WELL
FLD  .                         : FIELD
LOC  .                         : LOCATION
PROV .                         : PROVINCE
CNTY .                         : COUNTY
STAT .                         : STATE
CTRY .                         : COUNTRY
SRVC .                         : SERVICE COMPANY
DATE .                         : DATE
UWI  .                         : UNIQUE WELL ID
API  .                         : API NUMBER
SLAT .WGS84 2.6157399686776017 : SURFACE LATITUDE
SLON .WGS84     8.508945526066 : SURFACE LONGITUDE
DATUM.F                    nan : DEPTH DATUM ELEV
~Curve Information -----------------------------------------
DEPT   .FT    : 
CALD   .IN    : CALIPER FROM DENSITY LOG
DPHZ_LS.DEC   : HGRD STANDARD RESOLUTION DENSITY POROSITY
DTCO   .US/F  : DELTA-T COMPRESSIONAL
DTSM   .US/F  : DELTA-T SHEAR
HDRA   .G/C3  : HRDD SPINE AND RIBS DENSITY CORRECTION
PEFZ   .B/E   : HRDD STANDARD RESOLUTION FORMATION PHOTOELECTRIC FACTOR
SGRDD  .GAPI  : SPECTROSCOPY GAMMA RAY FROM DENSITY LOG
TNPH_LS.DEC   : THERMAL NEUTRON POROSITY [LIMESTONE]
~Params ----------------------------------------------------
~Other -----------------------------------------------------
~ASCII -----------------------------------------------------
# ...
 5080.00000   12.79040    0.04570   62.58990  108.35550   -0.00490    2.87000   71.04410    0.12130
 5080.50000   12.79260    0.03940   62.66420  107.88290   -0.00280    2.86380   73.19480    0.12380
 5081.00000   12.79480    0.03330   62.99490  107.15800    0.00030    2.83070   72.12700    0.12610
 5081.50000   12.79700    0.03110   62.74430  105.69730    0.00080    2.78720   70.06660    0.12420
 5082.00000   12.79920    0.03970   62.95290  106.31910    0.00100    2.75440   66.93100    0.11790
 5082.50000   12.79970    0.05400   62.96310  106.13540    0.00050    2.73180   61.81230    0.11250
 5083.00000   12.79970    0.06650   62.82430  106.63380    0.00080    2.72580   57.35670    0.10420
 5083.50000   12.79970    0.06910   62.89650  107.76380   -0.00260    2.75960   59.89670    0.10520
 5084.00000   12.79970    0.06400   63.14240  108.62570   -0.00610    2.79860   64.76330    0.10810
 5084.50000   12.79970    0.06010   63.38830  107.95360   -0.00500    2.78000   68.21340    0.11100
 5085.00000   12.78570    0.05640   63.24090  107.47650   -0.00380    2.76130   70.59000    0.11240
 5085.50000   12.75780    0.05780   63.30780  107.29180   -0.00280    2.74520   66.17560    0.10840
 5086.00000   12.75780    0.06270   63.75740  106.78310   -0.00240    2.73930   69.09390    0.10780
 5086.50000   12.85750    0.06870   64.15520  107.29530   -0.00120    2.73340   68.80930    0.11380
 5087.00000   12.95720    0.06570   64.39720  107.86350   -0.00010    2.68820   69.89790    0.11930
 5087.50000   13.03690    0.06050   64.60310  108.11070    0.00100    2.61770   71.32260    0.12330
 5088.00000   13.03690    0.05670   64.70730  108.25810    0.00210    2.55100   69.87130    0.12480
 5088.50000   13.02300    0.05800   64.62080  108.82250    0.00320    2.58700   69.50840    0.12600
 5089.00000   12.93650    0.06050   64.60580  108.35280    0.00110    2.61640   70.34570    0.13220
 5089.50000   12.85270    0.06180   64.06840  107.59570   -0.00100    2.63740   73.60200    0.13630
 5090.00000   12.78570    0.06720   63.39870  107.57340   -0.00240    2.64320   73.83460    0.12410
 5090.50000   12.78570    0.07450   62.83410  107.30310   -0.00410    2.64520   68.88040    0.09440
 5091.00000   12.78570    0.08060   62.43000  106.66400   -0.00550    2.64720   60.07860    0.08260
 5091.50000   12.78570    0.06830   62.12390  106.11940   -0.00490    2.64470   54.34840    0.06800
 5092.00000   12.78570    0.05580   62.20820  106.73560   -0.00440    2.65930   57.45830    0.07370
 5092.50000   12.78570    0.05170   62.69270  105.95010   -0.00380    2.69960   64.35710    0.09350
 5093.00000   12.78570    0.05850   63.60030  106.73550   -0.00250    2.73470   69.86250    0.11330
 5093.50000   12.81760    0.06450   64.30490  107.65150   -0.00170    2.73450   74.38380    0.13330
 5094.00000   12.82760    0.06770   64.57850  108.25360   -0.00090    2.73050   77.00060    0.13840
 5094.50000   12.83760    0.06390   64.81330  109.97390   -0.00020    2.70650   77.57410    0.12870
 5095.00000   12.84160    0.06100   64.96440  111.30230   -0.00120    2.71850   75.60570    0.12180
 5095.50000   12.81540    0.06350   65.17150  110.96110   -0.00250    2.72840   75.02900    0.11930
 5096.00000   12.77180    0.06900   65.84960  110.29430   -0.00380    2.73090   77.59470    0.11870
 5096.50000   12.77180    0.07600   66.69520  111.63080   -0.00500    2.74580   88.17820    0.12580
 5097.00000   12.77180    0.08010   67.18600  111.17430   -0.00600    2.76070  100.34920    0.13360
 5097.50000   12.77180    0.08050   66.62050  110.67970   -0.00700    2.79050  143.90090    0.13880
 5098.00000   12.77030    0.07750   65.47640  111.20980   -0.00730    2.81560  175.15050    0.14360
 5098.50000   12.76290    0.06770   64.72790  111.84730   -0.00600    2.81480  199.93090    0.14170
 5099.00000   12.75550    0.06000   64.54430  108.99990   -0.00350    2.77360  199.59250    0.13410
 5099.50000   12.74810    0.05020   64.03470  107.51320   -0.00110    2.69440  139.75580    0.12730
 5100.00000   12.74070    0.04820   63.17060  106.26420    0.00130    2.66250   99.87160    0.11770
 5100.50000   12.73330    0.05110   62.85580  105.66400    0.00180    2.64470   85.14240    0.11020
 5101.00000   12.71660    0.05830   62.67990  105.39390    0.00180    2.64420   72.09760    0.09740
 5101.50000   12.71700    0.06270   62.55200  105.68170    0.00070    2.64380   61.84350    0.08210
 5102.00000   12.71720    0.06120   62.74180  105.85050   -0.00070    2.64660   56.12830    0.06680
 5102.50000   12.71770    0.05840   62.86950  106.58740   -0.00220    2.68530   55.65470    0.06360
 5103.00000   12.71810    0.06400   63.81330  107.10770   -0.00360    2.72000   62.28520    0.08280
 5103.50000   12.72560    0.06870   64.55720  107.57630   -0.00500    2.72610   68.39180    0.10150
 5104.00000   12.73320    0.06810   64.89490  107.72430   -0.00500    2.72510   72.26550    0.11580
 5104.50000   12.74080    0.06130   64.78480  107.87230   -0.00500    2.71810   72.09500    0.11950
 5105.00000   12.74830    0.05700   64.60990  108.11180   -0.00320    2.71120   70.29560    0.11230
 5105.50000   12.75590    0.05580   64.69490  108.37010   -0.00140    2.69770   67.54480    0.10470
 5106.00000   12.76200    0.05810   64.32590  107.10640   -0.00140    2.63770   65.65730    0.10170
 5106.50000   12.76240    0.06130   64.27230  107.69610   -0.00140    2.62580   65.29860    0.10570
 5107.00000   12.76830    0.06490   64.10980  107.52770   -0.00140    2.67280   66.94490    0.11060
 5107.50000   12.77560    0.06630   63.97670  107.09790   -0.00120    2.73840   68.38120    0.11570
 5108.00000   12.77730    0.06090   63.90650  107.69150   -0.00100    2.75460   66.72720    0.10880
 5108.50000   12.77760    0.05860   63.80850  108.65230   -0.00080    2.75010   62.48080    0.10250
 5109.00000   12.77810    0.05600   63.79870  109.24830   -0.00070    2.71080   61.69260    0.10040
 5109.50000   12.78440    0.05360   63.78900  108.16690   -0.00050    2.67560   62.68170    0.10280
 5110.00000   12.77890    0.04630   63.68300  106.99320   -0.00030    2.65510   63.67080    0.10370
 5110.50000   12.77670    0.04380   63.60510  106.46790   -0.00010    2.63460   64.20770    0.09960
 5111.00000   12.77320    0.04610   63.57850  107.15730    0.00010    2.61420   65.64980    0.09860
 5111.50000   12.76780    0.04740   63.78990  108.45260    0.00030    2.64210   67.77260    0.10090
 5112.00000   12.76250    0.04540   63.65420  107.27160    0.00050    2.65850   67.93170    0.10930
 5112.50000   12.75940    0.04640   63.50680  106.82150    0.00060    2.72030   67.96350    0.11180
 5113.00000   12.79110    0.04750   63.59830  107.34800    0.00080    2.75870   69.75460    0.10880
 5113.50000   12.82980    0.04430   64.62680  108.58810    0.00030    2.76520   71.54370    0.10740
 5114.00000   12.84760    0.04050   66.09820  107.87280   -0.00190    2.77630   73.02040    0.11590
 5114.50000   12.86540    0.04380   66.91400  107.03500   -0.00300    2.81560   76.51240    0.12390
 5115.00000   12.88310    0.05680   67.90940  110.46980   -0.00460    2.89430   84.57940    0.13190
 5115.50000   12.88690    0.07200   68.90470  114.94050   -0.00610    2.93640   95.69790    0.14260
 5116.00000   12.88730    0.08460   69.70120  116.32070   -0.00710    2.94420  108.90190    0.15700
 5116.50000   12.89460    0.08310   70.06030  115.45090   -0.00730    2.95190  112.87760    0.15240
 5117.00000   12.90650    0.08520   70.12780  115.66150   -0.00650    2.89020  108.32820    0.15300
 5117.50000   12.91850    0.09130   70.09400  117.25540   -0.00460    2.81010  102.26590    0.15650
 5118.00000   12.93050    0.10200   70.63500  118.68700   -0.00240    2.71370   92.99260    0.14760
 5118.50000   12.90290    0.10880   71.00010  118.24280   -0.00240    2.63370   86.47520    0.14290
 5119.00000   12.87530    0.11050   70.19890  116.46090   -0.00410    2.60860   87.71600    0.14150
 5119.50000   12.87560    0.11330   69.18490  117.07550   -0.00520    2.61620   96.17480    0.15280
