~Version ---------------------------------------------------
VERS.   2.0 : CWLS log ASCII Standard -VERSION 2.0
WRAP.    NO : One line per depth step
DLM . SPACE : Column Data Section Delimiter
~Well ------------------------------------------------------
STRT .FT                 200.0 : START DEPTH
STOP .FT               16532.0 : STOP DEPTH
STEP .FT                   0.5 : STEP
NULL .                -9999.25 : NULL VALUE
COMP .                         : COMPANY
WELL .                         : WELL
FLD  .                         : FIELD
LOC  .                         : LOCATION
PROV .                         : PROVINCE
CNTY .                         : COUNTY
STAT .                         : STATE
CTRY .                         : COUNTRY
SRVC .                         : SERVICE COMPANY
DATE .                         : DATE
UWI  .                         : UNIQUE WELL ID
API  .                         : API NUMBER
SLAT .WGS84 2.6157399686776017 : SURFACE LATITUDE
SLON .WGS84     8.508945526066 : SURFACE LONGITUDE
DATUM.F                    nan : DEPTH DATUM ELEV
~Curve Information -----------------------------------------
DEPT   .FT    : 
CALD   .IN    : CALIPER FROM DENSITY LOG
DPHZ_LS.DEC   : HGRD STANDARD RESOLUTION DENSITY POROSITY
DTCO   .US/F  : DELTA-T COMPRESSIONAL
DTSM   .US/F  : DELTA-T SHEAR
HDRA   .G/C3  : HRDD SPINE AND RIBS DENSITY CORRECTION
PEFZ   .B/E   : HRDD STANDARD RESOLUTION FORMATION PHOTOELECTRIC FACTOR
SGRDD  .GAPI  : SPECTROSCOPY GAMMA RAY FROM DENSITY LOG
TNPH_LS.DEC   : THERMAL NEUTRON POROSITY [LIMESTONE]
~Params ----------------------------------------------------
~Other -----------------------------------------------------
~ASCII -----------------------------------------------------
# ...
 8320.00000   12.54900    0.16940   75.72210  124.41360    0.00120    2.81770   69.37640    0.18200
 8320.50000   12.54900    0.17020   76.77420  124.98770    0.00130    2.84730   71.53810    0.19240
 8321.00000   12.54790    0.16860   78.10460  126.23830   -0.00020    2.90610   73.69990    0.20440
 8321.50000   12.57540    0.17030   80.09440  128.00850   -0.00120    2.90510   73.71850    0.21490
 8322.00000   12.57510    0.18480   82.73700  131.69930   -0.00230    2.82000   76.07360    0.21470
 8322.50000   12.57470    0.19460   82.53770  131.86610   -0.00330    2.68550   79.81030    0.21430
 8323.00000   12.53250    0.19480   82.98750  131.50950   -0.00090    2.55100   83.24290    0.22100
 8323.50000   12.47640    0.18070   83.32640  129.43210    0.00150    2.56120   81.54470    0.21990
 8324.00000   12.45510    0.15700   79.62130  127.99930    0.00390    2.70890   75.92380    0.19310
 8324.50000   12.41980    0.13500   76.76300  127.69270    0.00630    2.90040   63.59890    0.16590
 8325.00000   12.39760    0.11760   72.96410  120.72000    0.00880    3.16860   54.86780    0.14370
 8325.50000   12.39120    0.10460   68.85640  118.77420    0.01120    3.50190   46.51640    0.12550
 8326.00000   12.39090    0.09320   68.73450  117.35460    0.00960    3.75290   42.22920    0.12110
 8326.50000   12.41290    0.08410   67.00260  116.12950    0.00610    3.83000   41.77330    0.11930
 8327.00000   12.44040    0.08410   64.68800  118.24010    0.00300    3.70920   44.69730    0.12470
 8327.50000   12.46790    0.10390   61.80700  119.28390    0.00010    3.53500   49.07170    0.13840
 8328.00000   12.48710    0.12060   66.00800  118.72460   -0.00280    3.42390   50.44410    0.15210
 8328.50000   12.48680    0.14330   69.89610  118.41380   -0.00550    3.38830   51.07150    0.16580
 8329.00000   12.48650    0.15190   73.26980  119.56440   -0.00530    3.35920   48.91180    0.18250
 8329.50000   12.43650    0.14820   73.32180  119.89540   -0.00510    3.33020   47.93550    0.18210
 8330.00000   12.41690    0.14350   74.34030  118.85240   -0.00190    3.27570   52.78820    0.16320
 8330.50000   12.40900    0.15380   76.01960  118.15340    0.00170    3.15370   56.67040    0.15400
 8331.00000   12.39510    0.14450   74.39000  118.57130    0.00500    3.11110   52.06510    0.16130
 8331.50000   12.39510    0.12140   72.51670  118.66190    0.00370    3.21550   47.15500    0.14520
 8332.00000   12.40670    0.09800   70.46380  117.32930    0.00310    3.39200   39.04460    0.11930
 8332.50000   12.41830    0.08760   68.39210  115.28110    0.00240    3.49900   36.83580    0.09080
 8333.00000   12.43000    0.08970   64.23150  112.80260    0.00180    3.40810   38.23940    0.09010
 8333.50000   12.44160    0.09660   67.02780  112.56480    0.00170    3.23630   40.55180    0.09410
 8334.00000   12.45320    0.09630   65.14210  109.50610    0.00160    3.29760   40.55180    0.09870
 8334.50000   12.46490    0.08880   62.86500  107.24100    0.00140    3.40390   40.32150    0.10040
 8335.00000   12.47650    0.08290   61.45750  106.14390    0.00130    3.49910   40.13310    0.10130
 8335.50000   12.48810    0.08680   67.20630  105.11950    0.00110    3.48750   39.95870    0.10210
 8336.00000   12.49970    0.08960   63.71510  105.67680    0.00100    3.39660   37.79310    0.11050
 8336.50000   12.50670    0.09140   61.96990  107.56150    0.00090    3.30090   35.12960    0.10010
 8337.00000   12.49280    0.08600   63.06080  106.87330    0.00070    3.26310   32.20510    0.08430
 8337.50000   12.46830    0.08610   65.21790  104.52050    0.00060    3.31980   33.45540    0.06840
 8338.00000   12.46490    0.09110   64.01930  105.44170    0.00040    3.43260   39.21520    0.08020
 8338.50000   12.45090    0.09200   64.69400  107.64850   -0.00030    3.54540   43.92080    0.08830
 8339.00000   12.45090    0.09420   65.80070  109.29080   -0.00170    3.58830   46.67110    0.09110
 8339.50000   12.45090    0.10400   66.02980  109.71430   -0.00310    3.53100   47.55930    0.10320
 8340.00000   12.45090    0.11780   65.49230  109.00450   -0.00310    3.45600   53.59860    0.12090
 8340.50000   12.45090    0.14340   64.80410  107.19100    0.00070    3.26700   59.79540    0.13220
 8341.00000   12.45210    0.12340   64.22310  109.20320    0.00450    3.10190   54.13880    0.11770
 8341.50000   12.45340    0.09410   65.00370  110.23160    0.00670    3.00520   45.03960    0.09670
 8342.00000   12.45460    0.08670   65.88030  109.30760    0.00740    2.97080   35.94050    0.07570
 8342.50000   12.45580    0.11450   66.56990  108.51410    0.00810    2.93640   42.67040    0.08870
 8343.00000   12.45700    0.13890   65.42380  110.95620    0.00060    2.99290   50.97080    0.11670
 8343.50000   12.45820    0.13830   65.33230  113.44070   -0.00240    3.10880   49.93400    0.12840
 8344.00000   12.45950    0.11210   65.05880  110.56630    0.00010    3.26840   42.47250    0.11100
 8344.50000   12.46070    0.09210   64.91790  108.28120    0.00180    3.39300   32.87590    0.09060
 8345.00000   12.46190    0.07600   63.30470  108.98920    0.00350    3.51310   33.07970    0.07920
 8345.50000   12.46310    0.07480   63.91600  109.48640    0.00510    3.50010   38.15790    0.08330
 8346.00000   12.46440    0.08230   64.83840  107.74740    0.00360    3.46660   43.81340    0.09260
 8346.50000   12.46490    0.08990   63.62360  105.48580    0.00210    3.47830   44.66860    0.09880
 8347.00000   12.46490    0.08840   65.41530  105.08160    0.00060    3.49010   37.83050    0.09300
 8347.50000   12.46490    0.07960   66.23790  105.98450    0.00140    3.54970   29.25160    0.07570
 8348.00000   12.46490    0.07090   66.59300  104.67740    0.00150    3.59680   25.98180    0.05920
 8348.50000   12.45660    0.06780   66.46100  105.42340    0.00150    3.57650   26.48090    0.05360
 8349.00000   12.44840    0.07240   66.60240  107.85780    0.00140    3.51510   33.32800    0.05850
 8349.50000   12.44020    0.08020   67.57490  111.27900    0.00140    3.39410   42.06490    0.06860
 8350.00000   12.43690    0.09480   70.30460  112.77550    0.00300    3.22830   53.16580    0.08450
 8350.50000   12.46470    0.11630   76.69760  117.31160    0.00500    3.05010   64.38250    0.12520
 8351.00000   12.50520    0.13760   84.61690  126.22670    0.00240    2.94520   74.48150    0.16600
 8351.50000   12.54580    0.15970   77.37830  126.76330   -0.00020    2.87540   86.26030    0.19500
 8352.00000   12.56190    0.17790   80.01360  128.85800   -0.00280    2.79080   94.90810    0.20550
 8352.50000   12.54780    0.18050   81.51770  130.42630   -0.00460    2.69380   96.82700    0.21470
 8353.00000   12.54760    0.17750   82.26420  131.31680   -0.00490    2.62110   97.60330    0.21770
 8353.50000   12.54750    0.16950   81.91040  131.89700   -0.00520    2.66840   94.88830    0.20900
 8354.00000   12.54730    0.15660   80.82420  129.96390   -0.00540    2.76490   92.44820    0.21850
 8354.50000   12.57040    0.14150   81.92490  129.61280   -0.00510    2.92430   89.84440    0.21800
 8355.00000   12.59940    0.14400   86.27590  128.50490   -0.00480    2.96850   85.22110    0.21180
 8355.50000   12.61670    0.15510   88.11360  128.51080   -0.00450    2.99930   82.73150    0.20910
 8356.00000   12.60530    0.16600   88.46090  130.17810   -0.00210    2.97910   83.00250    0.22090
 8356.50000   12.59160    0.16170   85.34070  132.42720    0.00300    2.87520   92.63570    0.23460
 8357.00000   12.58080    0.16030   84.75980  132.74140    0.00660    2.88650  100.21070    0.22850
 8357.50000   12.57700    0.17310   85.64250  132.71140    0.00410    2.88590  103.85040    0.23780
 8358.00000   12.56920    0.19470   83.77780  133.24250   -0.00080    2.77190  100.70700    0.24360
 8358.50000   12.56750    0.19680   81.02630  135.58160   -0.00580    2.71630   95.81470    0.22540
 8359.00000   12.56210    0.16830   79.24450  134.43450   -0.00800    2.83740   87.58980    0.19770
 8359.50000   12.54330    0.12790   78.59640  132.34490   -0.00280    3.01190   81.47850    0.17730
