~Version ---------------------------------------------------
VERS.   2.0 : CWLS log ASCII Standard -VERSION 2.0
WRAP.    NO : One line per depth step
DLM . SPACE : Column Data Section Delimiter
~Well ------------------------------------------------------
STRT .FT                 200.0 : START DEPTH
STOP .FT               16532.0 : STOP DEPTH
STEP .FT                   0.5 : STEP
NULL .                -9999.25 : NULL VALUE
COMP .                         : COMPANY
WELL .                         : WELL
FLD  .                         : FIELD
LOC  .                         : LOCATION
PROV .                         : PROVINCE
CNTY .                         : COUNTY
STAT .                         : STATE
CTRY .                         : COUNTRY
SRVC .                         : SERVICE COMPANY
DATE .                         : DATE
UWI  .                         : UNIQUE WELL ID
API  .                         : API NUMBER
SLAT .WGS84 2.6157399686776017 : SURFACE LATITUDE
SLON .WGS84     8.508945526066 : SURFACE LONGITUDE
DATUM.F                    nan : DEPTH DATUM ELEV
~Curve Information -----------------------------------------
DEPT   .FT    : 
CALD   .IN    : CALIPER FROM DENSITY LOG
DPHZ_LS.DEC   : HGRD STANDARD RESOLUTION DENSITY POROSITY
DTCO   .US/F  : DELTA-T COMPRESSIONAL
DTSM   .US/F  : DELTA-T SHEAR
HDRA   .G/C3  : HRDD SPINE AND RIBS DENSITY CORRECTION
PEFZ   .B/E   : HRDD STANDARD RESOLUTION FORMATION PHOTOELECTRIC FACTOR
SGRDD  .GAPI  : SPECTROSCOPY GAMMA RAY FROM DENSITY LOG
TNPH_LS.DEC   : THERMAL NEUTRON POROSITY [LIMESTONE]
~Params ----------------------------------------------------
~Other -----------------------------------------------------
~ASCII -----------------------------------------------------
# ...
 5880.00000   12.94110    0.10450   68.01600  113.41540   -0.00100    2.52890   77.61160    0.13410
 5880.50000   12.96790    0.10870   68.10140  113.56590   -0.00170    2.49270   72.98930    0.13190
 5881.00000   12.99480    0.11000   68.25570  114.14490   -0.00230    2.47640   71.81480    0.13230
 5881.50000   13.02160    0.10890   68.32110  115.04350   -0.00300    2.44920   68.95230    0.13280
 5882.00000   13.04310    0.10680   68.66170  115.51510   -0.00290    2.41920   65.24410    0.13360
 5882.50000   13.07100    0.10880   68.96500  115.98670   -0.00280    2.38930   60.32480    0.13510
 5883.00000   13.07100    0.11190   69.18050  116.66040   -0.00280    2.39050   58.23150    0.14030
 5883.50000   13.07100    0.11200   69.18330  117.20550   -0.00270    2.39180   58.29170    0.13850
 5884.00000   13.05710    0.11470   69.01280  116.07690   -0.00260    2.39300   57.33090    0.13400
 5884.50000   12.99010    0.12190   68.35380  116.09960   -0.00250    2.43540   59.40990    0.13230
 5885.00000   13.02440    0.12870   67.35610  116.41140   -0.00250    2.45630   59.19970    0.12860
 5885.50000   13.02090    0.11590   66.46880  115.61320   -0.00240    2.45810   58.65690    0.12300
 5886.00000   13.00020    0.10020   66.12890  113.86800   -0.00240    2.45710   56.23970    0.12020
 5886.50000   12.97520    0.09160   66.26730  112.56800   -0.00230    2.53190   53.94780    0.12020
 5887.00000   12.97680    0.08940   66.56830  111.63450   -0.00170    2.55100   55.21730    0.11600
 5887.50000   12.97840    0.09410   67.13060  110.30780   -0.00100    2.52160   56.72480    0.11350
 5888.00000   13.00220    0.10140   67.67960  111.76310   -0.00020    2.49210   59.05750    0.11810
 5888.50000   13.02250    0.11080   67.53420  114.26460   -0.00220    2.46260   61.00590    0.12330
 5889.00000   13.02370    0.11340   67.15060  115.94610   -0.00140    2.46860   62.62750    0.12540
 5889.50000   12.98150    0.10490   66.76660  115.80160   -0.00060    2.47300   60.63080    0.11770
 5890.00000   12.97770    0.09600   66.62210  115.57210    0.00010    2.47280   58.61240    0.11310
 5890.50000   12.95370    0.09010   66.80060  115.21390    0.00090    2.46650   57.35340    0.11180
 5891.00000   12.95520    0.09390   67.23630  114.43740    0.00170    2.43640   59.09760    0.11200
 5891.50000   12.97850    0.10380   67.59370  114.86710    0.00140    2.44800   60.77300    0.11480
 5892.00000   13.03300    0.11040   67.78170  115.10130   -0.00040    2.46290   62.12110    0.11880
 5892.50000   13.03120    0.11270   67.99720  115.49770   -0.00280    2.47020   61.39550    0.12150
 5893.00000   12.95770    0.11430   68.20320  115.13310   -0.00420    2.45530   60.52450    0.12360
 5893.50000   12.97050    0.11760   68.26850  114.92870   -0.00510    2.43890   59.32970    0.13090
 5894.00000   12.97100    0.12090   68.41840  114.72430   -0.00550    2.42260   58.52580    0.13030
 5894.50000   12.97770    0.11710   68.48990  114.87720   -0.00460    2.40630   57.49750    0.12970
 5895.00000   12.98440    0.11370   68.48070  116.06140   -0.00370    2.40050   57.88440    0.13030
 5895.50000   12.99110    0.11020   69.49940  118.31690   -0.00420    2.42810   60.42430    0.13460
 5896.00000   12.99780    0.10490   71.55340  119.34730   -0.00350    2.45000   67.64030    0.14100
 5896.50000   13.00450    0.09510   72.39140  119.03300   -0.00270    2.56600   77.18140    0.15320
 5897.00000   13.01120    0.09200   73.11620  118.51480   -0.00210    2.66380   87.53780    0.16470
 5897.50000   13.00130    0.09920   73.41750  119.57050   -0.00230    2.80760   98.06250    0.18260
 5898.00000   12.96780    0.10550   71.54230  116.86660   -0.00240    2.87350  113.33010    0.20330
 5898.50000   12.93150    0.10440   69.90970  115.63950   -0.00260    2.85140  109.66370    0.20250
 5899.00000   12.91750    0.09780   68.27700  113.82120   -0.00190    2.77700  104.01810    0.17810
 5899.50000   12.91750    0.09400   66.77580  113.79730   -0.00110    2.70250   99.65380    0.15730
 5900.00000   12.91750    0.09050   66.12000  112.14800   -0.00030    2.60650   85.25290    0.15080
 5900.50000   12.94970    0.08850   65.74210  110.32930    0.00060    2.51270   73.89980    0.13700
 5901.00000   12.95970    0.09230   66.03010  107.70800   -0.00180    2.46690   67.34550    0.11900
 5901.50000   12.97370    0.09950   66.41370  108.79770   -0.00380    2.48680   63.46770    0.11500
 5902.00000   12.97370    0.10550   66.94210  112.53240   -0.00580    2.50840   63.96690    0.12420
 5902.50000   12.93180    0.11110   67.23830  112.83400   -0.00700    2.52700   64.05630    0.13470
 5903.00000   12.89170    0.11150   67.53770  110.62210   -0.00700    2.53670   64.96960    0.13630
 5903.50000   12.87600    0.11020   67.74400  111.90600   -0.00580    2.50760   63.29980    0.13220
 5904.00000   12.88990    0.11280   67.87330  113.38530   -0.00390    2.49710   61.37430    0.12840
 5904.50000   12.90390    0.11790   68.17360  113.45580   -0.00490    2.48660   57.63360    0.12460
 5905.00000   12.92710    0.12080   68.91090  115.13080   -0.00610    2.47610   59.33870    0.12360
 5905.50000   12.94570    0.12340   70.00600  117.00800   -0.00690    2.52260   61.42660    0.13270
 5906.00000   12.92960    0.12340   71.30670  119.63010   -0.00770    2.61780   66.43340    0.14150
 5906.50000   12.88920    0.11720   72.63960  119.92510   -0.00770    2.74810   74.09750    0.15580
 5907.00000   12.84880    0.11220   73.80520  118.10680   -0.00770    2.85350   84.85530    0.17350
 5907.50000   12.80840    0.11620   74.72950  119.77470   -0.00770    2.92790  100.55080    0.19140
 5908.00000   12.79220    0.12210   74.42580  120.17000   -0.00770    2.99870  110.06500    0.21820
 5908.50000   12.75320    0.11840   73.06400  120.86320   -0.00650    3.05500  120.81120    0.27030
 5909.00000   12.70850    0.10030   70.93500  118.27580   -0.00460    3.06890  122.26260    0.23550
 5909.50000   12.70850    0.08220   68.49180  115.62230   -0.00260    2.92920  110.05110    0.19420
 5910.00000   12.70850    0.06930   66.64460  114.16440   -0.00070    2.86780  100.07250    0.17410
 5910.50000   12.70810    0.05890   65.89560  112.70980   -0.00070    2.82600   93.36690    0.16000
 5911.00000   12.71310    0.05860   65.38070  109.38120   -0.00070    2.80840   85.50940    0.15070
 5911.50000   12.73800    0.06590   65.13340  105.69530   -0.00130    2.77090   81.77800    0.13800
 5912.00000   12.76290    0.07510   65.58510  107.02750   -0.00230    2.67520   75.97140    0.12390
 5912.50000   12.77790    0.08460   65.88770  108.27140   -0.00330    2.55200   66.68250    0.11430
 5913.00000   12.79650    0.09330   66.42110  106.39910   -0.00350    2.49900   63.62170    0.11760
 5913.50000   12.81980    0.09620   67.69540  114.64680   -0.00300    2.47310   65.61120    0.12540
 5914.00000   12.80750    0.10000   70.48980  116.33240   -0.00180    2.52370   67.30780    0.13000
 5914.50000   12.81630    0.11130   72.15950  117.08530   -0.00060    2.60790   67.80180    0.13950
 5915.00000   12.83600    0.12810   73.65310  116.40020    0.00070    2.69220   75.90300    0.15390
 5915.50000   12.84770    0.13700   74.23520  119.02800    0.00190    2.79230   88.08690    0.19580
 5916.00000   12.81980    0.12840   74.25180  121.09180    0.00210    2.85870  100.27090    0.23280
 5916.50000   12.78410    0.10950   73.24540  120.80360    0.00140    2.84210  110.37150    0.23930
 5917.00000   12.79960    0.09680   71.92750  119.20270   -0.00010    2.84300  112.58570    0.21640
 5917.50000   12.81980    0.08920   70.51110  117.77980   -0.00040    2.84390  108.37590    0.19090
 5918.00000   12.84070    0.08860   69.09470  115.20000   -0.00070    2.86190  103.42180    0.16940
 5918.50000   12.87560    0.08850   68.19010  111.33880   -0.00210    2.84300   97.13100    0.16090
 5919.00000   12.92110    0.09000   67.24780  108.94890   -0.00300    2.76710   87.64140    0.14020
 5919.50000   12.95050    0.09610   66.68660  109.00250   -0.00430    2.66120   75.11660    0.11240
