~Version ---------------------------------------------------
VERS.   2.0 : CWLS log ASCII Standard -VERSION 2.0
WRAP.    NO : One line per depth step
DLM . SPACE : Column Data Section Delimiter
~Well ------------------------------------------------------
STRT .FT                 200.0 : START DEPTH
STOP .FT               16532.0 : STOP DEPTH
STEP .FT                   0.5 : STEP
NULL .                -9999.25 : NULL VALUE
COMP .                         : COMPANY
WELL .                         : WELL
FLD  .                         : FIELD
LOC  .                         : LOCATION
PROV .                         : PROVINCE
CNTY .                         : COUNTY
STAT .                         : STATE
CTRY .                         : COUNTRY
SRVC .                         : SERVICE COMPANY
DATE .                         : DATE
UWI  .                         : UNIQUE WELL ID
API  .                         : API NUMBER
SLAT .WGS84 2.6157399686776017 : SURFACE LATITUDE
SLON .WGS84     8.508945526066 : SURFACE LONGITUDE
DATUM.F                    nan : DEPTH DATUM ELEV
~Curve Information -----------------------------------------
DEPT   .FT    : 
CALD   .IN    : CALIPER FROM DENSITY LOG
DPHZ_LS.DEC   : HGRD STANDARD RESOLUTION DENSITY POROSITY
DTCO   .US/F  : DELTA-T COMPRESSIONAL
DTSM   .US/F  : DELTA-T SHEAR
HDRA   .G/C3  : HRDD SPINE AND RIBS DENSITY CORRECTION
PEFZ   .B/E   : HRDD STANDARD RESOLUTION FORMATION PHOTOELECTRIC FACTOR
SGRDD  .GAPI  : SPECTROSCOPY GAMMA RAY FROM DENSITY LOG
TNPH_LS.DEC   : THERMAL NEUTRON POROSITY [LIMESTONE]
~Params ----------------------------------------------------
~Other -----------------------------------------------------
~ASCII -----------------------------------------------------
# ...
 16480.00000    5.90180   -0.00330   -9999.25   -9999.25    0.00650    3.49110   -9999.25   -0.00460
 16480.50000    5.90860   -0.00390   -9999.25   -9999.25    0.00400    3.21220   -9999.25   -0.00290
 16481.00000    5.90410   -0.00450   -9999.25   -9999.25    0.00330    3.17290   -9999.25   -0.00170
 16481.50000    5.91120   -0.00680   -9999.25   -9999.25    0.00400    3.36900   -9999.25   -0.00250
 16482.00000    5.93450   -0.01040   -9999.25   -9999.25    0.00470    3.56510   -9999.25   -0.00390
 16482.50000    5.94770   -0.00620   -9999.25   -9999.25    0.00570    3.61100   -9999.25   -0.00530
 16483.00000    5.91900   -0.00190   -9999.25   -9999.25    0.00380    3.38020   -9999.25   -0.00530
 16483.50000    5.91330    0.00010   -9999.25   -9999.25    0.00200    3.14490   -9999.25   -0.00470
 16484.00000    5.91960    0.00230   -9999.25   -9999.25    0.00020    3.07760   -9999.25   -0.00440
 16484.50000    5.92580   -0.00500   -9999.25   -9999.25   -0.00170    3.36090   -9999.25   -0.00420
 16485.00000    5.93200   -0.01080   -9999.25   -9999.25   -0.00350    3.70410   -9999.25   -0.00400
 16485.50000    5.95420   -0.01520   -9999.25   -9999.25   -0.00540    3.99960   -9999.25   -0.00380
 16486.00000    5.95620   -0.01750   -9999.25   -9999.25   -0.00490    4.05350   -9999.25   -0.00350
 16486.50000    5.94880   -0.01650   -9999.25   -9999.25   -0.00410    4.11580   -9999.25   -0.00340
 16487.00000    5.94840   -0.01310   -9999.25   -9999.25   -0.00330    4.17800   -9999.25   -0.00310
 16487.50000    5.94220   -0.00870   -9999.25   -9999.25   -0.00420    4.21030   -9999.25   -0.00280
 16488.00000    5.94790   -0.01270   -9999.25   -9999.25   -0.00080    4.25200   -9999.25   -0.00280
 16488.50000    5.95890   -0.02270   -9999.25   -9999.25   -0.00190    4.26070   -9999.25   -0.00280
 16489.00000    5.95640   -0.02920   -9999.25   -9999.25    0.00000    4.21560   -9999.25   -0.00360
 16489.50000    5.95380   -0.03040   -9999.25   -9999.25    0.00020    4.18080   -9999.25   -0.00350
 16490.00000    5.95130   -0.02870   -9999.25   -9999.25    0.00320    4.16930   -9999.25   -0.00340
 16490.50000    5.94880   -0.02670   -9999.25   -9999.25    0.00420    4.17430   -9999.25   -0.00340
 16491.00000    5.94620   -0.02270   -9999.25   -9999.25    0.00420    4.25090   -9999.25   -0.00300
 16491.50000    5.94600   -0.01750   -9999.25   -9999.25    0.00420    4.27720   -9999.25   -0.00290
 16492.00000    5.94570   -0.01780   -9999.25   -9999.25    0.00420    4.29350   -9999.25   -0.00270
 16492.50000    5.94180   -0.02240   -9999.25   -9999.25    0.00420    4.28920   -9999.25   -0.00260
 16493.00000    5.94830   -0.02580   -9999.25   -9999.25    0.00410    4.15520   -9999.25   -0.00250
 16493.50000    5.93570   -0.02290   -9999.25   -9999.25    0.00410    4.05600   -9999.25   -0.00230
 16494.00000    5.93330   -0.02200   -9999.25   -9999.25    0.00410    3.97720   -9999.25   -0.00220
 16494.50000    5.92420   -0.02060   -9999.25   -9999.25    0.00410    4.03900   -9999.25   -0.00200
 16495.00000    5.97150   -0.01820   -9999.25   -9999.25    0.00410    4.15910   -9999.25   -0.00190
 16495.50000    5.97310   -0.01340   -9999.25   -9999.25    0.00410    4.27770   -9999.25   -0.00180
 16496.00000    5.96070   -0.01440   -9999.25   -9999.25    0.00410    4.18750   -9999.25   -0.00160
 16496.50000    5.95340   -0.01900   -9999.25   -9999.25    0.00410    4.07080   -9999.25   -0.00150
 16497.00000    5.94610   -0.02240   -9999.25   -9999.25    0.00400    3.97160   -9999.25   -0.00130
 16497.50000    5.95200   -0.02320   -9999.25   -9999.25    0.00410    3.92900   -9999.25   -0.00120
 16498.00000    5.93550   -0.02570   -9999.25   -9999.25    0.00440    4.05090   -9999.25   -0.00110
 16498.50000    5.94700   -0.02300   -9999.25   -9999.25    0.00480    4.16630   -9999.25   -0.00090
 16499.00000    5.95850   -0.02170   -9999.25   -9999.25    0.00520    4.31010   -9999.25   -0.00080
 16499.50000    5.96810   -0.01790   -9999.25   -9999.25    0.00420    4.34820   -9999.25   -0.00060
 16500.00000    5.97050   -0.01690   -9999.25   -9999.25    0.00270    4.26110   -9999.25   -0.00020
 16500.50000    5.96850   -0.01860   -9999.25   -9999.25    0.00110    4.06940   -9999.25    0.00020
 16501.00000    5.95440   -0.02380   -9999.25   -9999.25    0.00220    4.01450   -9999.25    0.00070
 16501.50000    5.94030   -0.02540   -9999.25   -9999.25    0.00060    4.00970   -9999.25    0.00100
 16502.00000    5.95170   -0.02370   -9999.25   -9999.25   -0.00100    4.07820   -9999.25    0.00100
 16502.50000    5.96140   -0.02320   -9999.25   -9999.25   -0.00290    4.21610   -9999.25    0.00130
 16503.00000    5.95900   -0.02970   -9999.25   -9999.25   -0.00040    4.33320   -9999.25    0.00130
 16503.50000    5.96710   -0.02800   -9999.25   -9999.25   -0.00090    4.32150   -9999.25    0.00030
 16504.00000    5.95930   -0.01890   -9999.25   -9999.25   -0.00250    4.26630   -9999.25   -0.00050
 16504.50000    5.95150   -0.00350   -9999.25   -9999.25   -0.00290    4.19650   -9999.25   -0.00110
 16505.00000    5.96300    0.00350   -9999.25   -9999.25   -0.00330    4.18740   -9999.25   -0.00170
 16505.50000    5.96200    0.00700   -9999.25   -9999.25   -0.00240    4.17830   -9999.25   -0.00230
 16506.00000    5.97860    0.00320   -9999.25   -9999.25    0.00390    4.22580   -9999.25   -0.00290
 16506.50000    5.95980   -0.00380   -9999.25   -9999.25    0.01020    4.26140   -9999.25   -0.00380
 16507.00000    5.94100   -0.01080   -9999.25   -9999.25    0.01300    4.19820   -9999.25   -0.00430
 16507.50000    5.94560   -0.00840   -9999.25   -9999.25    0.01590    4.11280   -9999.25   -0.00440
 16508.00000    5.93400   -0.00620   -9999.25   -9999.25    0.01360    4.08050   -9999.25   -0.00430
 16508.50000    5.96640   -0.00910   -9999.25   -9999.25    0.00860    4.13410   -9999.25   -0.00410
 16509.00000    5.97560   -0.01420   -9999.25   -9999.25    0.00500    4.12070   -9999.25   -0.00410
 16509.50000    5.96710   -0.01730   -9999.25   -9999.25    0.01510    4.04240   -9999.25   -0.00410
 16510.00000    5.95870   -0.02200   -9999.25   -9999.25    0.02660    3.88000   -9999.25   -0.00420
 16510.50000    5.96170   -0.02920   -9999.25   -9999.25    0.03890    3.71760   -9999.25   -9999.25
 16511.00000    5.96060   -0.02600   -9999.25   -9999.25    0.04440    3.63590   -9999.25   -9999.25
 16511.50000    5.95950   -0.01320   -9999.25   -9999.25    0.02650    3.64150   -9999.25   -9999.25
 16512.00000    5.95840   -0.00150   -9999.25   -9999.25    0.01850    3.71360   -9999.25   -9999.25
 16512.50000    5.95950    0.00360   -9999.25   -9999.25    0.00740    3.84690   -9999.25   -9999.25
 16513.00000    5.96810    0.00450   -9999.25   -9999.25    0.00070    3.94000   -9999.25   -9999.25
 16513.50000    5.95980    0.00490   -9999.25   -9999.25    0.00020    3.90900   -9999.25   -9999.25
 16514.00000    5.95150    0.00420   -9999.25   -9999.25    0.00000    3.83580   -9999.25   -9999.25
 16514.50000    5.95110    0.00300   -9999.25   -9999.25    0.00060    3.82850   -9999.25   -9999.25
 16515.00000    5.95260    0.00530   -9999.25   -9999.25    0.00170    3.82130   -9999.25   -9999.25
 16515.50000    5.95610    0.00380   -9999.25   -9999.25    0.00210    3.85850   -9999.25   -9999.25
 16516.00000    5.96240    0.00060   -9999.25   -9999.25    0.00190    3.94910   -9999.25   -9999.25
 16516.50000    5.96870   -0.00330   -9999.25   -9999.25    0.00140    3.93990   -9999.25   -9999.25
 16517.00000    5.95900   -0.01310   -9999.25   -9999.25    0.01000    3.92540   -9999.25   -9999.25
 16517.50000    5.95140   -0.02100   -9999.25   -9999.25    0.02140    3.86080   -9999.25   -9999.25
 16518.00000    5.95120   -0.01980   -9999.25   -9999.25    0.02000    3.79340   -9999.25   -9999.25
 16518.50000    5.95110   -0.01130   -9999.25   -9999.25    0.01820    3.70920   -9999.25   -9999.25
 16519.00000    5.95120   -0.00160   -9999.25   -9999.25    0.00930    3.63960   -9999.25   -9999.25
 16519.50000    5.95690   -0.00030   -9999.25   -9999.25    0.00480    3.64800   -9999.25   -9999.25
