~Version ---------------------------------------------------
VERS.   2.0 : CWLS log ASCII Standard -VERSION 2.0
WRAP.    NO : One line per depth step
DLM . SPACE : Column Data Section Delimiter
~Well ------------------------------------------------------
STRT .FT                 200.0 : START DEPTH
STOP .FT               16532.0 : STOP DEPTH
STEP .FT                   0.5 : STEP
NULL .                -9999.25 : NULL VALUE
COMP .                         : COMPANY
WELL .                         : WELL
FLD  .                         : FIELD
LOC  .                         : LOCATION
PROV .                         : PROVINCE
CNTY .                         : COUNTY
STAT .                         : STATE
CTRY .                         : COUNTRY
SRVC .                         : SERVICE COMPANY
DATE .                         : DATE
UWI  .                         : UNIQUE WELL ID
API  .                         : API NUMBER
SLAT .WGS84 2.6157399686776017 : SURFACE LATITUDE
SLON .WGS84     8.508945526066 : SURFACE LONGITUDE
DATUM.F                    nan : DEPTH DATUM ELEV
~Curve Information -----------------------------------------
DEPT   .FT    : 
CALD   .IN    : CALIPER FROM DENSITY LOG
DPHZ_LS.DEC   : HGRD STANDARD RESOLUTION DENSITY POROSITY
DTCO   .US/F  : DELTA-T COMPRESSIONAL
DTSM   .US/F  : DELTA-T SHEAR
HDRA   .G/C3  : HRDD SPINE AND RIBS DENSITY CORRECTION
PEFZ   .B/E   : HRDD STANDARD RESOLUTION FORMATION PHOTOELECTRIC FACTOR
SGRDD  .GAPI  : SPECTROSCOPY GAMMA RAY FROM DENSITY LOG
TNPH_LS.DEC   : THERMAL NEUTRON POROSITY [LIMESTONE]
~Params ----------------------------------------------------
~Other -----------------------------------------------------
~ASCII -----------------------------------------------------
# ...
 10760.00000   12.75540   -0.00140   59.28830  104.12370    0.00040    3.92340   48.41340    0.03330
 10760.50000   12.80150    0.02540   60.08950  103.55460    0.00040    3.40780   57.07440    0.05140
 10761.00000   12.86130    0.04910   61.90310  103.61670   -0.00140    3.06850   64.65970    0.06960
 10761.50000   12.88030    0.06090   63.08540  105.45790   -0.00320    2.95060   64.60660    0.07970
 10762.00000   12.82450    0.06620   64.14050  107.96590   -0.00330    2.87570   62.44420    0.08140
 10762.50000   12.78730    0.06700   65.49250  109.86890   -0.00240    2.86140   63.28150    0.08280
 10763.00000   12.75020    0.07090   66.69670  113.00390   -0.00150    2.81170   71.26820    0.08640
 10763.50000   12.74540    0.08080   68.35240  115.14460   -0.00060    2.77070   79.69500    0.10410
 10764.00000   12.75170    0.08860   70.74590  115.53490   -0.00030    2.74290   92.73380    0.12340
 10764.50000   12.74260    0.09260   71.78700  114.52120   -0.00170    2.76730  100.12310    0.14280
 10765.00000   12.73970    0.09040   72.12800  115.52290   -0.00340    2.80010  103.72790    0.14530
 10765.50000   12.74040    0.08450   70.70690  116.83410   -0.00450    2.85960  100.69260    0.13600
 10766.00000   12.73920    0.07660   68.50760  115.53300   -0.00380    2.87700   85.17250    0.12100
 10766.50000   12.69260    0.06490   66.83570  112.86120   -0.00250    2.88170   72.33440    0.10610
 10767.00000   12.67890    0.05800   65.09730  109.04750   -0.00120    2.87770   65.93180    0.09110
 10767.50000   12.65620    0.05750   63.32700  107.37560    0.00000    2.87370   62.36720    0.07860
 10768.00000   12.66300    0.05990   62.80670  107.25250    0.00030    2.88350   60.95840    0.07800
 10768.50000   12.66670    0.06110   62.87000  107.63420    0.00030    2.87740   61.72870    0.07910
 10769.00000   12.67520    0.06110   64.10810  107.32370    0.00030    2.86500   63.89080    0.08360
 10769.50000   12.68380    0.06350   65.59460  109.59050    0.00000    2.85380   68.09440    0.09290
 10770.00000   12.69230    0.06670   66.89330  112.70120   -0.00070    2.86740   73.16210    0.10620
 10770.50000   12.70080    0.06910   68.04210  115.72610   -0.00140    2.92890   78.94320    0.11940
 10771.00000   12.70940    0.07070   70.27450  116.38170   -0.00240    3.05470   83.27300    0.13020
 10771.50000   12.71790    0.07670   71.17720  119.06200   -0.00290    3.18640   84.20420    0.13110
 10772.00000   12.72640    0.08300   71.74810  120.22010   -0.00220    3.28520   84.77580    0.13360
 10772.50000   12.72980    0.08710   72.33130  120.21570   -0.00150    3.38400   87.48510    0.13360
 10773.00000   12.71590    0.08740   72.43970  120.15130    0.00030    3.35610   91.76120    0.13360
 10773.50000   12.64610    0.08920   71.74770  119.16190    0.00030    3.17440   92.85640    0.13920
 10774.00000   12.60430    0.09250   70.86310  117.72660    0.00030    2.99230   89.42050    0.13540
 10774.50000   12.65080    0.09390   70.19930  115.81170    0.00030    2.91460   81.78960    0.13150
 10775.00000   12.65960    0.09520   69.88050  115.29070    0.00030    3.01940   75.28360    0.12950
 10775.50000   12.65720    0.09490   69.35750  114.76720    0.00020    3.22950   70.44900    0.12560
 10776.00000   12.65480    0.09530   68.85010  114.71580    0.00020    3.54980   63.63190    0.11840
 10776.50000   12.64920    0.09630   68.82820  114.97770    0.00010    3.66570   58.38790    0.11110
 10777.00000   12.61020    0.09330   68.53490  114.42930   -0.00020    3.61770   55.48520    0.10360
 10777.50000   12.61930    0.08980   67.81940  114.02710   -0.00060    3.48840   53.71000    0.09630
 10778.00000   12.61590    0.08870   67.14960  114.02710   -0.00110    3.34810   54.06810    0.09000
 10778.50000   12.61180    0.09480   67.82560  114.03970   -0.00150    3.20320   58.51870    0.09260
 10779.00000   12.60760    0.09910   68.38510  114.07740   -0.00190    3.03480   61.41240    0.09550
 10779.50000   12.60430    0.10200   68.41210  112.61950   -0.00240    3.00690   65.37470    0.09840
 10780.00000   12.55600    0.09740   67.97860  114.04720   -0.00280    3.09350   64.89320    0.09920
 10780.50000   12.53070    0.09440   68.38660  114.15520   -0.00330    3.16190   63.38610    0.10010
 10781.00000   12.52050    0.10410   70.34340  112.73640   -0.00370    3.18710   68.70300    0.10310
 10781.50000   12.52050    0.11310   69.99410  112.28470   -0.00380    3.14040   75.07180    0.11010
 10782.00000   12.53450    0.11110   70.48460  114.00870   -0.00380    3.03770   80.24180    0.11650
 10782.50000   12.54750    0.10130   70.90450  115.50430   -0.00330    2.90970   82.59730    0.12290
 10783.00000   12.56700    0.09660   72.20830  118.00530   -0.00260    2.82760   84.89020    0.12770
 10783.50000   12.57740    0.10140   73.24990  118.81970   -0.00180    2.84800   89.82790    0.14300
 10784.00000   12.58790    0.10590   74.08770  119.28910   -0.00110    2.91170   97.22330    0.15540
 10784.50000   12.60020    0.10520   73.73580  121.01630   -0.00030    3.06740   99.70430    0.16540
 10785.00000   12.61250    0.09630   74.30120  120.38560    0.00040    3.18920   96.35510    0.15630
 10785.50000   12.62480    0.07460   71.04230  118.31700    0.00010    3.33640   75.39240    0.11740
 10786.00000   12.63220    0.05870   66.47110  115.96650   -0.00010    3.47600   58.06580    0.08490
 10786.50000   12.64610    0.04620   63.44720  113.76860   -0.00030    3.60940   45.93540    0.05930
 10787.00000   12.68800    0.05030   60.99150  110.00540    0.00110    3.71340   41.70210    0.05320
 10787.50000   12.68700    0.05190   60.08990  107.99350    0.00170    3.68630   45.10240    0.06900
 10788.00000   12.65910    0.05730   63.33040  108.19330    0.00250    3.54010   55.83170    0.09250
 10788.50000   12.63120    0.06450   66.37970  109.62000    0.00460    3.33630   68.39130    0.11610
 10789.00000   12.60770    0.07310   69.06800  112.83740    0.00460    3.19430   79.88340    0.13960
 10789.50000   12.60180    0.08010   71.19440  117.41210    0.00320    3.08880   86.55700    0.15990
 10790.00000   12.59500    0.08290   73.73810  120.00590    0.00190    2.99540   90.47910    0.16720
 10790.50000   12.58650    0.08880   75.09680  122.68290    0.00020    2.96490   93.94830    0.17460
 10791.00000   12.57810    0.09450   75.89830  125.92510   -0.00140    2.96420   99.70480    0.18840
 10791.50000   12.57640    0.10260   76.92840  126.43550   -0.00240    3.04890  109.91000    0.20220
 10792.00000   12.60430    0.10480   77.56400  124.35010   -0.00240    3.09820  115.55090    0.20110
 10792.50000   12.63680    0.09650   73.80860  121.00660   -0.00310    3.29140  110.15610    0.17550
 10793.00000   12.68800    0.07140   69.21660  118.45110   -0.00450    3.51200  100.37860    0.13380
 10793.50000   12.69670    0.05100   65.05850  116.15230   -0.00410    3.76710   65.56400    0.09290
 10794.00000   12.60080    0.03350   61.26080  112.03920   -0.00330    3.99970   48.94380    0.05380
 10794.50000   12.54210    0.02690   59.14950  106.97240   -0.00240    4.15570   38.48660    0.05350
 10795.00000   12.51050    0.03140   59.54690  104.17600   -0.00150    4.17370   39.51120    0.06350
 10795.50000   12.50180    0.03990   59.55760  103.64610   -0.00060    4.11640   42.38200    0.07360
 10796.00000   12.48480    0.04850   58.82530  103.45820    0.00020    4.05910   44.37900    0.07260
 10796.50000   12.50400    0.05660   59.43140  103.83820    0.00110    4.01130   44.84220    0.07040
 10797.00000   12.49370    0.05950   60.64620  104.52590    0.00200    4.01090   44.42360    0.06940
 10797.50000   12.50030    0.05820   61.18210  103.82210    0.00250    3.96760   43.57030    0.06970
 10798.00000   12.49760    0.05730   58.52370  103.44820    0.00250    3.87230   43.32510    0.06990
 10798.50000   12.49480    0.05720   57.23720  102.21060    0.00320    3.81510   43.37430    0.06800
 10799.00000   12.50270    0.05640   56.97370  100.84800    0.00320    3.79450   43.12450    0.06400
 10799.50000   12.49870    0.05250   56.36600  101.61930    0.00390    3.80300   40.25140    0.05970
