~Version ---------------------------------------------------
VERS.   2.0 : CWLS log ASCII Standard -VERSION 2.0
WRAP.    NO : One line per depth step
DLM . SPACE : Column Data Section Delimiter
~Well ------------------------------------------------------
STRT .FT                 200.0 : START DEPTH
STOP .FT               16532.0 : STOP DEPTH
STEP .FT                   0.5 : STEP
NULL .                -9999.25 : NULL VALUE
COMP .                         : COMPANY
WELL .                         : WELL
FLD  .                         : FIELD
LOC  .                         : LOCATION
PROV .                         : PROVINCE
CNTY .                         : COUNTY
STAT .                         : STATE
CTRY .                         : COUNTRY
SRVC .                         : SERVICE COMPANY
DATE .                         : DATE
UWI  .                         : UNIQUE WELL ID
API  .                         : API NUMBER
SLAT .WGS84 2.6157399686776017 : SURFACE LATITUDE
SLON .WGS84     8.508945526066 : SURFACE LONGITUDE
DATUM.F                    nan : DEPTH DATUM ELEV
~Curve Information -----------------------------------------
DEPT   .FT    : 
CALD   .IN    : CALIPER FROM DENSITY LOG
DPHZ_LS.DEC   : HGRD STANDARD RESOLUTION DENSITY POROSITY
DTCO   .US/F  : DELTA-T COMPRESSIONAL
DTSM   .US/F  : DELTA-T SHEAR
HDRA   .G/C3  : HRDD SPINE AND RIBS DENSITY CORRECTION
PEFZ   .B/E   : HRDD STANDARD RESOLUTION FORMATION PHOTOELECTRIC FACTOR
SGRDD  .GAPI  : SPECTROSCOPY GAMMA RAY FROM DENSITY LOG
TNPH_LS.DEC   : THERMAL NEUTRON POROSITY [LIMESTONE]
~Params ----------------------------------------------------
~Other -----------------------------------------------------
~ASCII -----------------------------------------------------
# ...
 9160.00000   13.16390    0.08950   74.42410  126.57440   -0.00130    2.55880   70.98720    0.12790
 9160.50000   13.18230    0.09550   73.84560  124.56640   -0.00090    2.55950   72.03460    0.12950
 9161.00000   13.20060    0.11450   74.47490  122.97610   -0.00040    2.50380   70.15550    0.12810
 9161.50000   13.21900    0.13080   75.56800  125.77450    0.00000    2.41020   67.97910    0.12740
 9162.00000   13.23730    0.14050   74.46320  127.14860    0.00000    2.38370   66.12650    0.12380
 9162.50000   13.25570    0.14100   73.99960  126.39460    0.00000    2.33260   64.02760    0.12020
 9163.00000   13.27000    0.13760   74.59880  127.00780   -0.00020    2.32640   62.20720    0.11980
 9163.50000   13.14540    0.13210   74.47940  127.64680   -0.00050    2.34310   60.90540    0.12200
 9164.00000   13.09400    0.12660   73.19110  126.49380   -0.00070    2.36410   60.70130    0.12410
 9164.50000   13.14770    0.12540   70.92390  124.20070   -0.00090    2.38500   63.28070    0.12500
 9165.00000   13.20150    0.12250   71.18380  122.35070   -0.00120    2.38920   65.98910    0.12600
 9165.50000   13.23350    0.12220   74.60280  122.63430   -0.00140    2.38470   68.86100    0.13310
 9166.00000   13.25300    0.12100   72.55790  122.62800   -0.00160    2.37710   69.76500    0.14130
 9166.50000   13.27020    0.11970   71.97290  122.95440   -0.00290    2.39830   70.11030    0.14300
 9167.00000   13.26830    0.11870   72.07940  124.60630   -0.00420    2.42300   70.17380    0.13280
 9167.50000   13.25870    0.11250   72.00130  124.93670   -0.00430    2.50900   70.64810    0.12260
 9168.00000   13.24180    0.10430   72.58070  122.51690   -0.00400    2.66560   69.78080    0.11990
 9168.50000   13.19870    0.09930   71.94430  120.50940   -0.00380    2.76680   68.26630    0.12010
 9169.00000   13.20370    0.10250   71.36270  118.50190   -0.00350    2.68230   66.68700    0.12210
 9169.50000   13.23350    0.10710   71.81380  120.92460   -0.00320    2.59780   67.00190    0.13090
 9170.00000   13.24430    0.11150   72.59310  122.99210   -0.00300    2.50470   68.62490    0.13980
 9170.50000   13.25700    0.11180   72.84270  123.63180   -0.00270    2.48770   70.62190    0.14710
 9171.00000   13.26960    0.11040   71.34530  124.32820   -0.00230    2.52000   72.58760    0.15570
 9171.50000   13.28230    0.11170   72.47910  125.01990   -0.00190    2.55820   74.09900    0.15590
 9172.00000   13.27220    0.11510   72.77270  124.26640   -0.00140    2.57390   75.41310    0.15340
 9172.50000   13.31960    0.11920   73.14920  123.50430    0.00120    2.56950   77.06450    0.14540
 9173.00000   13.31750    0.11790   74.22500  123.07580    0.01030    2.56630   77.25450    0.13640
 9173.50000   13.23700    0.12140   75.01250  123.20190    0.01240    2.56170   75.95450    0.13620
 9174.00000   13.27120    0.12130   76.54830  123.39410    0.00730    2.55920   74.07600    0.14040
 9174.50000   13.31960    0.12610   76.90900  123.47710    0.00100    2.52080   69.62620    0.14250
 9175.00000   13.32190    0.12040   76.72130  123.35970   -0.00050    2.48230   67.96900    0.13480
 9175.50000   13.32530    0.11530   76.15400  123.23730   -0.00090    2.44870   68.86030    0.13530
 9176.00000   13.33300    0.11290   76.07440  123.14300   -0.00140    2.43430   70.13060    0.14090
 9176.50000   13.34070    0.11840   77.61910  123.04880   -0.00180    2.42000   67.68180    0.14270
 9177.00000   13.34020    0.12540   75.45590  123.10490   -0.00220    2.38770   64.78820    0.13570
 9177.50000   13.33970    0.12660   72.78410  123.48300   -0.00260    2.37070   60.78490    0.12550
 9178.00000   13.33290    0.11860   73.62620  123.18620   -0.00300    2.40820   57.90140    0.11090
 9178.50000   13.32060    0.11070   73.53090  121.93770   -0.00340    2.45600   54.63800    0.09620
 9179.00000   13.32370    0.11280   73.65600  120.60070   -0.00390    2.51520   54.25250    0.09080
 9179.50000   13.36170    0.12180   72.20030  121.05580   -0.00420    2.50800   56.07590    0.09770
 9180.00000   13.39890    0.13410   72.96420  121.51090   -0.00280    2.44550   58.41300    0.10840
 9180.50000   13.41750    0.13490   78.24500  121.76730   -0.00230    2.35900   61.18350    0.11920
 9181.00000   13.43600    0.13320   76.46920  121.37700   -0.00060    2.30740   61.98580    0.12300
 9181.50000   13.45460    0.12760   72.53080  122.22400   -0.00060    2.32990   63.96140    0.12340
 9182.00000   13.46530    0.11640   71.10420  123.43130   -0.00050    2.38060   65.77070    0.12120
 9182.50000   13.48440    0.10820   71.49050  126.30440   -0.00250    2.41870   67.56960    0.12110
 9183.00000   13.48400    0.10800   72.26850  127.25170   -0.00330    2.44530   68.94210    0.12360
 9183.50000   13.48350    0.11220   72.52240  127.26290   -0.00380    2.44830   69.17660    0.12990
 9184.00000   13.50870    0.11740   73.57450  127.38280   -0.00380    2.41930   69.83250    0.13610
 9184.50000   13.53390    0.12080   75.58470  127.85490   -0.00370    2.40290   69.95450    0.14130
 9185.00000   13.54650    0.12240   76.19380  128.46170   -0.00320    2.40930   69.83260    0.14320
 9185.50000   13.54030    0.12130   74.66320  128.52980   -0.00230    2.42500   70.64700    0.14510
 9186.00000   13.51410    0.11830   76.96860  128.38060    0.00030    2.44070   73.17680    0.14790
 9186.50000   13.50930    0.11800   75.47780  128.23130    0.00290    2.45640   75.10570    0.14990
 9187.00000   13.50450    0.11860   75.75430  128.67060    0.00570    2.47640   76.90570    0.15130
 9187.50000   13.49970    0.11840   75.06560  129.47760    0.00730    2.52590   77.67870    0.15210
 9188.00000   13.49490    0.12090   74.79230  129.56380    0.00890    2.56120   76.12390    0.15300
 9188.50000   13.49010    0.12540   75.12140  129.58100    0.00860    2.57620   74.12560    0.15440
 9189.00000   13.48530    0.13340   74.85100  129.94920    0.00290    2.58100   71.17890    0.15530
 9189.50000   13.48050    0.13540   74.89120  130.70090   -0.00240    2.58570   68.36300    0.15550
 9190.00000   13.47570    0.13500   77.01350  131.01960   -0.00040    2.56810   67.10350    0.15520
 9190.50000   13.46020    0.13390   75.26640  130.16380   -0.00060    2.49510   66.32580    0.15330
 9191.00000   13.44470    0.13510   78.80630  129.51000   -0.00080    2.42740   67.69880    0.15170
 9191.50000   13.43520    0.13810   77.55810  128.55630   -0.00100    2.41700   68.98430    0.15170
 9192.00000   13.43150    0.14010   75.56790  130.46660   -0.00120    2.41900   69.02700    0.15280
 9192.50000   13.42790    0.14110   76.39580  132.13360   -0.00140    2.42090   69.59620    0.15390
 9193.00000   13.41620    0.13700   76.69750  132.22120   -0.00160    2.45160   72.58730    0.15580
 9193.50000   13.39230    0.13310   77.25020  131.57620   -0.00190    2.50740   75.93730    0.15900
 9194.00000   13.35930    0.13300   78.52240  130.99320   -0.00240    2.58560   79.03250    0.15940
 9194.50000   13.34580    0.13970   79.87800  130.50020   -0.00280    2.65080   74.85370    0.15930
 9195.00000   13.31820    0.15400   78.62050  129.15960   -0.00320    2.74850   67.60470    0.16060
 9195.50000   13.31870    0.16090   79.21430  127.79730   -0.00380    2.84610   59.11980    0.15270
 9196.00000   13.29120    0.16020   75.58770  126.28370   -0.00480    2.91160   51.70760    0.14310
 9196.50000   13.26130    0.14270   73.56050  125.42110   -0.00580    2.96390   50.22030    0.13360
 9197.00000   13.24150    0.11620   71.70590  124.18340   -0.00660    2.96390   52.58920    0.12510
 9197.50000   13.22180    0.08960   69.73240  122.08040   -0.00550    2.97800   55.73280    0.11560
 9198.00000   13.20580    0.07880   70.69590  121.21700   -0.00360    2.82870   57.58350    0.10990
 9198.50000   13.20580    0.10320   72.33990  121.54680   -0.00220    2.67940   57.17350    0.11460
 9199.00000   13.22140    0.13360   74.13860  122.73490   -0.00340    2.53000   54.92950    0.12060
 9199.50000   13.21020    0.16150   75.35560  123.92300   -0.00390    2.39830   52.98860    0.12370
