~Version ---------------------------------------------------
VERS.   2.0 : CWLS log ASCII Standard -VERSION 2.0
WRAP.    NO : One line per depth step
DLM . SPACE : Column Data Section Delimiter
~Well ------------------------------------------------------
STRT .FT                 200.0 : START DEPTH
STOP .FT               16532.0 : STOP DEPTH
STEP .FT                   0.5 : STEP
NULL .                -9999.25 : NULL VALUE
COMP .                         : COMPANY
WELL .                         : WELL
FLD  .                         : FIELD
LOC  .                         : LOCATION
PROV .                         : PROVINCE
CNTY .                         : COUNTY
STAT .                         : STATE
CTRY .                         : COUNTRY
SRVC .                         : SERVICE COMPANY
DATE .                         : DATE
UWI  .                         : UNIQUE WELL ID
API  .                         : API NUMBER
SLAT .WGS84 2.6157399686776017 : SURFACE LATITUDE
SLON .WGS84     8.508945526066 : SURFACE LONGITUDE
DATUM.F                    nan : DEPTH DATUM ELEV
~Curve Information -----------------------------------------
DEPT   .FT    : 
CALD   .IN    : CALIPER FROM DENSITY LOG
DPHZ_LS.DEC   : HGRD STANDARD RESOLUTION DENSITY POROSITY
DTCO   .US/F  : DELTA-T COMPRESSIONAL
DTSM   .US/F  : DELTA-T SHEAR
HDRA   .G/C3  : HRDD SPINE AND RIBS DENSITY CORRECTION
PEFZ   .B/E   : HRDD STANDARD RESOLUTION FORMATION PHOTOELECTRIC FACTOR
SGRDD  .GAPI  : SPECTROSCOPY GAMMA RAY FROM DENSITY LOG
TNPH_LS.DEC   : THERMAL NEUTRON POROSITY [LIMESTONE]
~Params ----------------------------------------------------
~Other -----------------------------------------------------
~ASCII -----------------------------------------------------
# ...
 7520.00000   12.83980    0.07130   65.92100  105.98370   -0.00300    3.53650   96.30610    0.11140
 7520.50000   12.82590    0.07820   68.13320  106.54900   -0.00270    3.45710  100.29700    0.11640
 7521.00000   12.82590    0.08020   70.07840  106.99150   -0.00230    3.38640  103.95410    0.13140
 7521.50000   12.83420    0.08220   68.28810  105.15650   -0.00200    3.32740  107.66970    0.15000
 7522.00000   12.83750    0.08270   65.34760  104.74680    0.00000    3.27630  107.56500    0.16850
 7522.50000   12.82590    0.08060   62.04780  104.73470   -0.00090    3.35710  100.65720    0.16040
 7523.00000   12.80880    0.06820   58.85930  104.75110   -0.00190    3.55700   79.96000    0.12830
 7523.50000   12.80110    0.05690   58.26820  104.92310   -0.00220    3.77010   65.10580    0.08950
 7524.00000   12.83980    0.05420   62.23580  105.20320   -0.00120    3.84800   54.14030    0.06510
 7524.50000   12.88730    0.06420   63.92520  105.88930   -0.00020    3.67130   64.29270    0.07660
 7525.00000   12.91980    0.08420   64.98730  106.36140    0.00020    3.41660   80.51550    0.09480
 7525.50000   12.95240    0.09240   66.09270  105.68440    0.00020    3.25710   96.73840    0.11300
 7526.00000   12.96540    0.08930   67.11640  106.00040    0.00030    3.20080  113.84480    0.13110
 7526.50000   12.90150    0.07930   68.76020  107.03370    0.00030    3.27370  107.40800    0.13730
 7527.00000   12.83750    0.07150   68.28940  107.98210    0.00030    3.43460  100.55260    0.12570
 7527.50000   12.79800    0.07380   66.49610  107.41510    0.00030    3.45120   98.02050    0.11720
 7528.00000   12.80730    0.07800   65.56850  106.71320    0.00030    3.41510   99.98300    0.13830
 7528.50000   12.83980    0.07650   63.64610  105.01600    0.00030    3.48920  106.51840    0.15490
 7529.00000   12.83980    0.06960   61.33870  103.62090    0.00030    3.72470  100.44790    0.13490
 7529.50000   12.79100    0.05950   57.95180  101.34180    0.00030    4.09100   80.32120    0.10670
 7530.00000   12.78400    0.04260   56.01360  100.86640   -0.00080    4.40220   67.37310    0.07670
 7530.50000   12.82310    0.02940   54.40900  100.82050   -0.00180    4.61070   57.09770    0.04540
 7531.00000   12.84160    0.01570   53.65510  100.77220   -0.00250    4.80460   43.83300    0.03270
 7531.50000   12.84460    0.00750   53.98310  100.98380   -0.00270    4.90550   35.67800    0.02390
 7532.00000   12.83180    0.00350   55.90420  101.60270   -0.00290    4.79320   37.39800    0.02590
 7532.50000   12.81910    0.01620   58.91880  102.22150   -0.00320    4.46750   49.67520    0.03270
 7533.00000   12.82100    0.03930   62.00020  102.90870   -0.00350    4.12670   73.78550    0.06090
 7533.50000   12.86890    0.06900   65.52380  104.58150   -0.00370    3.77580  100.29800    0.10060
 7534.00000   12.83820    0.08530   66.28130  106.63720   -0.00390    3.59170  157.80410    0.14030
 7534.50000   12.84730    0.08780   67.85840  105.91460   -0.00300    3.42140  149.05720    0.14800
 7535.00000   12.86010    0.07810   58.66410  104.71020    0.00130    3.40130  133.22100    0.13180
 7535.50000   12.86780    0.06740   63.08060  104.13590    0.01530    3.58600  110.26020    0.11560
 7536.00000   12.86780    0.05510   59.14240  104.73620    0.02010    3.91130   86.00080    0.09920
 7536.50000   12.86780    0.03910   57.53970  104.97820    0.02050    4.45790   63.45600    0.07610
 7537.00000   12.86780    0.02050   58.12170  103.16850    0.01010    4.79800   42.92890    0.04720
 7537.50000   12.86780    0.00880   59.01460  101.36520    0.00100    4.94700   32.70370    0.03230
 7538.00000   12.83990    0.01110   58.48980  102.24230    0.00100    4.89120   35.00720    0.04040
 7538.50000   12.83410    0.02820   58.86930  101.54660    0.00100    4.72700   45.41190    0.05760
 7539.00000   12.80530    0.04540   58.15590  100.90620    0.00090    4.55660   56.19930    0.07490
 7539.50000   12.79210    0.05470   57.22900  101.44070    0.00080    4.38630   55.76530    0.08560
 7540.00000   12.78120    0.03870   55.79630  101.50100   -0.00230    4.39880   49.01330    0.07140
 7540.50000   12.77910    0.02720   55.26820  101.22750   -0.00340    4.53930   39.66410    0.05100
 7541.00000   12.78150    0.01330   54.34480  100.21780   -0.00090    4.66080   33.20760    0.04020
 7541.50000   12.76360    0.00330   54.29930   99.28300    0.00160    4.74020   33.60930    0.03620
 7542.00000   12.74570    0.00360   54.84030   98.89600    0.00270    4.70550   34.77460    0.03920
 7542.50000   12.74210    0.00830   55.20500   99.26150    0.00100    4.59920   36.18600    0.04470
 7543.00000   12.75140    0.01660   55.76340   99.43080    0.00070    4.49810   37.43520    0.05010
 7543.50000   12.75610    0.02400   55.89770   98.65820   -0.00190    4.48540   39.46790    0.05550
 7544.00000   12.67760    0.02410   55.92640   98.60280    0.00020    4.47270   41.61130    0.06030
 7544.50000   12.63050    0.01690   56.60670   99.50140    0.00180    4.45990   43.58080    0.06050
 7545.00000   12.66040    0.01040   57.06280   99.45620    0.00330    4.34440   47.70350    0.06050
 7545.50000   12.67040    0.01640   58.47590  100.17220    0.00420    4.15300   52.15170    0.07410
 7546.00000   12.67240    0.03570   59.37850  100.88830    0.00200    3.84320   61.62010    0.08710
 7546.50000   12.64910    0.05940   59.62350  101.60430   -0.00060    3.63500   68.29870    0.10020
 7547.00000   12.63050    0.07460   62.38390  102.22910   -0.00260    3.47630   74.58000    0.11320
 7547.50000   12.63050    0.07370   61.75170  103.39860   -0.00250    3.37240   77.51020    0.11500
 7548.00000   12.61650    0.06650   61.22540  102.71350   -0.00250    3.45140   73.32720    0.10510
 7548.50000   12.60120    0.05330   60.12850  101.38860   -0.00240    3.66910   67.92130    0.09520
 7549.00000   12.59430    0.04280   59.42710  102.23450   -0.00320    3.88180   60.53700    0.08710
 7549.50000   12.58740    0.03900   60.50390  102.81340   -0.00310    3.95800   55.73180    0.07760
 7550.00000   12.58050    0.04950   61.19290  102.86080   -0.00300    3.76730   58.23830    0.07350
 7550.50000   12.57510    0.06830   62.12700  103.43530   -0.00290    3.50950   71.38910    0.09150
 7551.00000   12.58940    0.08340   63.82190  103.11820    0.01590    3.28040   83.15010    0.10960
 7551.50000   12.58940    0.08630   62.70190  105.24630    0.03100    3.19950   92.83950    0.12760
 7552.00000   12.59000    0.07990   61.14910  103.72470    0.03100    3.27770   89.68960    0.12720
 7552.50000   12.58380    0.06910   60.22600  103.26730    0.01830    3.49100   78.87480    0.11570
 7553.00000   12.57480    0.06040   59.09270  103.26900    0.00420    3.71350   67.55120    0.10410
 7553.50000   12.58160    0.04900   57.74180  105.99340   -0.00320    3.92820   59.14970    0.09390
 7554.00000   12.59690    0.04590   59.51720  105.30890   -0.00120    4.03050   52.69780    0.08530
 7554.50000   12.55760    0.05090   62.95950  105.16120    0.00070    3.91760   52.29870    0.07770
 7555.00000   12.56910    0.06550   65.46350  104.89830    0.00410    3.60730   61.48400    0.09420
 7555.50000   12.59120    0.08810   64.52570  106.89370    0.00280    3.32720   74.27740    0.11450
 7556.00000   12.57320    0.10820   66.53880  107.97690    0.00140    3.13500   87.38890    0.12600
 7556.50000   12.55200    0.11370   67.95270  108.97820    0.00010    2.97200   95.88030    0.13160
 7557.00000   12.54930    0.10510   70.34260  111.20210    0.00100    2.99950  100.26180    0.13650
 7557.50000   12.58110    0.08710   72.26750  112.18380    0.00460    3.04200   99.01260    0.13190
 7558.00000   12.55000    0.07560   70.79960  111.04680    0.00550    3.01280   96.45290    0.12710
 7558.50000   12.55040    0.08310   70.21640  111.83870    0.00310    2.90100   96.71960    0.13630
 7559.00000   12.55910    0.10190   71.98620  112.20480    0.00000    2.81310   99.86430    0.14720
 7559.50000   12.57100    0.10900   74.05630  112.80110   -0.00240    2.77220   96.93950    0.15340
