~Version ---------------------------------------------------
VERS.   2.0 : CWLS log ASCII Standard -VERSION 2.0
WRAP.    NO : One line per depth step
DLM . SPACE : Column Data Section Delimiter
~Well ------------------------------------------------------
STRT .FT                 200.0 : START DEPTH
STOP .FT               16532.0 : STOP DEPTH
STEP .FT                   0.5 : STEP
NULL .                -9999.25 : NULL VALUE
COMP .                         : COMPANY
WELL .                         : WELL
FLD  .                         : FIELD
LOC  .                         : LOCATION
PROV .                         : PROVINCE
CNTY .                         : COUNTY
STAT .                         : STATE
CTRY .                         : COUNTRY
SRVC .                         : SERVICE COMPANY
DATE .                         : DATE
UWI  .                         : UNIQUE WELL ID
API  .                         : API NUMBER
SLAT .WGS84 2.6157399686776017 : SURFACE LATITUDE
SLON .WGS84     8.508945526066 : SURFACE LONGITUDE
DATUM.F                    nan : DEPTH DATUM ELEV
~Curve Information -----------------------------------------
DEPT   .FT    : 
CALD   .IN    : CALIPER FROM DENSITY LOG
DPHZ_LS.DEC   : HGRD STANDARD RESOLUTION DENSITY POROSITY
DTCO   .US/F  : DELTA-T COMPRESSIONAL
DTSM   .US/F  : DELTA-T SHEAR
HDRA   .G/C3  : HRDD SPINE AND RIBS DENSITY CORRECTION
PEFZ   .B/E   : HRDD STANDARD RESOLUTION FORMATION PHOTOELECTRIC FACTOR
SGRDD  .GAPI  : SPECTROSCOPY GAMMA RAY FROM DENSITY LOG
TNPH_LS.DEC   : THERMAL NEUTRON POROSITY [LIMESTONE]
~Params ----------------------------------------------------
~Other -----------------------------------------------------
~ASCII -----------------------------------------------------
# ...
 3440.00000   -9999.25   -9999.25   50.72150   93.74100   -9999.25   -9999.25   10.83310    0.10980
 3440.50000   -9999.25   -9999.25   50.92670   93.28820   -9999.25   -9999.25    9.68280    0.10290
 3441.00000   -9999.25   -9999.25   51.29200   92.83540   -9999.25   -9999.25   10.24690    0.09270
 3441.50000   -9999.25   -9999.25   51.50910   92.38250   -9999.25   -9999.25   11.67350    0.08220
 3442.00000   -9999.25   -9999.25   51.81490   93.07140   -9999.25   -9999.25   13.05770    0.07960
 3442.50000   -9999.25   -9999.25   52.13850   94.23780   -9999.25   -9999.25   12.33660    0.08040
 3443.00000   -9999.25   -9999.25   52.13800   95.29570   -9999.25   -9999.25   11.45880    0.08530
 3443.50000   -9999.25   -9999.25   51.96900   95.69500   -9999.25   -9999.25   10.61830    0.09170
 3444.00000   -9999.25   -9999.25   51.25670   96.16180   -9999.25   -9999.25   10.71650    0.11300
 3444.50000   -9999.25   -9999.25   50.83640   96.05180   -9999.25   -9999.25   11.92790    0.13500
 3445.00000   -9999.25   -9999.25   50.08800   95.62490   -9999.25   -9999.25   13.28680    0.15370
 3445.50000   -9999.25   -9999.25   49.46700   95.16950   -9999.25   -9999.25   13.65900    0.15060
 3446.00000   -9999.25   -9999.25   49.40670   94.69520   -9999.25   -9999.25   13.97900    0.13520
 3446.50000   -9999.25   -9999.25   49.31210   93.91810   -9999.25   -9999.25   13.90100    0.11540
 3447.00000   -9999.25   -9999.25   49.59560   93.79410   -9999.25   -9999.25   13.37710    0.10960
 3447.50000   -9999.25   -9999.25   49.85390   93.80480   -9999.25   -9999.25   13.50230    0.09760
 3448.00000   -9999.25   -9999.25   50.38180   93.94970   -9999.25   -9999.25   13.25260    0.09420
 3448.50000   -9999.25   -9999.25   50.67750   94.07500   -9999.25   -9999.25   13.22630    0.09670
 3449.00000   -9999.25   -9999.25   50.86030   94.06800   -9999.25   -9999.25   12.72190    0.10410
 3449.50000   -9999.25   -9999.25   50.81180   94.06100   -9999.25   -9999.25   13.04120    0.11600
 3450.00000   -9999.25   -9999.25   50.73890   94.05400   -9999.25   -9999.25   12.90260    0.12740
 3450.50000   -9999.25   -9999.25   50.57300   93.90900   -9999.25   -9999.25   12.79830    0.14160
 3451.00000   -9999.25   -9999.25   50.12690   93.43690   -9999.25   -9999.25   11.95360    0.14870
 3451.50000   -9999.25   -9999.25   49.64290   93.34760   -9999.25   -9999.25   11.11890    0.15190
 3452.00000   -9999.25   -9999.25   48.81350   93.11330   -9999.25   -9999.25   10.89020    0.15130
 3452.50000   -9999.25   -9999.25   47.44160   92.61000   -9999.25   -9999.25   11.80010    0.14590
 3453.00000   -9999.25   -9999.25   47.06690   93.66120   -9999.25   -9999.25   13.29660    0.13810
 3453.50000   -9999.25   -9999.25   49.01650   94.66180   -9999.25   -9999.25   14.91400    0.12460
 3454.00000   -9999.25   -9999.25   48.84510   94.60660   -9999.25   -9999.25   16.13860    0.11980
 3454.50000   -9999.25   -9999.25   49.05830   94.65240   -9999.25   -9999.25   16.64240    0.11330
 3455.00000   -9999.25   -9999.25   49.70960   95.60270   -9999.25   -9999.25   16.30450    0.11040
 3455.50000   -9999.25   -9999.25   49.61670   95.44700   -9999.25   -9999.25   16.02130    0.11060
 3456.00000   -9999.25   -9999.25   50.28500   95.17640   -9999.25   -9999.25   15.44360    0.10190
 3456.50000   -9999.25   -9999.25   50.22200   94.67180   -9999.25   -9999.25   15.60950    0.10000
 3457.00000   -9999.25   -9999.25   49.77900   94.25210   -9999.25   -9999.25   15.03200    0.10540
 3457.50000   -9999.25   -9999.25   49.66730   93.77840   -9999.25   -9999.25   15.36870    0.11470
 3458.00000   -9999.25   -9999.25   49.22230   92.87090   -9999.25   -9999.25   14.74920    0.12200
 3458.50000   -9999.25   -9999.25   48.69800   93.28050   -9999.25   -9999.25   13.82580    0.12850
 3459.00000   -9999.25   -9999.25   48.17370   93.45180   -9999.25   -9999.25   12.90230    0.13330
 3459.50000   -9999.25   -9999.25   47.75370   94.62280   -9999.25   -9999.25   13.30410    0.13330
 3460.00000   -9999.25   -9999.25   47.53030   95.50230   -9999.25   -9999.25   13.57450    0.12840
 3460.50000   -9999.25   -9999.25   47.68660   95.79690   -9999.25   -9999.25   14.34320    0.12360
 3461.00000   -9999.25   -9999.25   48.97460   95.26610   -9999.25   -9999.25   13.81670    0.11600
 3461.50000   -9999.25   -9999.25   49.37820   94.61470   -9999.25   -9999.25   14.34350    0.11760
 3462.00000   -9999.25   -9999.25   49.08870   93.92810   -9999.25   -9999.25   14.54190    0.11990
 3462.50000   -9999.25   -9999.25   48.81000   94.43650   -9999.25   -9999.25   14.82040    0.12160
 3463.00000   -9999.25   -9999.25   47.45410   94.58270   -9999.25   -9999.25   14.89900    0.11800
 3463.50000   -9999.25   -9999.25   49.61130   95.03130   -9999.25   -9999.25   15.30300    0.13380
 3464.00000   -9999.25   -9999.25   49.14680   95.63040   -9999.25   -9999.25   15.10100    0.15320
 3464.50000   -9999.25   -9999.25   47.92070   96.02720   -9999.25   -9999.25   14.66230    0.18540
 3465.00000   -9999.25   -9999.25   48.68390   95.89230   -9999.25   -9999.25   13.76870    0.19560
 3465.50000   -9999.25   -9999.25   49.05910   94.58880   -9999.25   -9999.25   13.45000    0.20060
 3466.00000   -9999.25   -9999.25   48.97030   93.28530   -9999.25   -9999.25   13.49070    0.18590
 3466.50000   -9999.25   -9999.25   48.76040   92.36690   -9999.25   -9999.25   14.70510    0.15720
 3467.00000   -9999.25   -9999.25   48.37690   92.89500   -9999.25   -9999.25   15.34530    0.12740
 3467.50000   -9999.25   -9999.25   48.14000   93.16420   -9999.25   -9999.25   15.34730    0.11430
 3468.00000   -9999.25   -9999.25   48.97570   93.41800   -9999.25   -9999.25   14.58690    0.12620
 3468.50000   -9999.25   -9999.25   49.14300   93.49720   -9999.25   -9999.25   14.80240    0.13470
 3469.00000   -9999.25   -9999.25   48.80900   93.18410   -9999.25   -9999.25   16.20750    0.13350
 3469.50000   -9999.25   -9999.25   49.02010   92.98440   -9999.25   -9999.25   16.69970    0.13530
 3470.00000   -9999.25   -9999.25   49.12970   93.07710   -9999.25   -9999.25   15.78540    0.14600
 3470.50000   -9999.25   -9999.25   49.34540   93.24690   -9999.25   -9999.25   14.68580    0.18050
 3471.00000   -9999.25   -9999.25   49.08350   93.41680   -9999.25   -9999.25   14.39470    0.18490
 3471.50000   -9999.25   -9999.25   49.17410   93.73320   -9999.25   -9999.25   14.94420    0.19590
 3472.00000   -9999.25   -9999.25   49.42440   94.42720   -9999.25   -9999.25   15.52780    0.21020
 3472.50000   -9999.25   -9999.25   50.15580   95.35770   -9999.25   -9999.25   16.17400    0.24200
 3473.00000   -9999.25   -9999.25   50.88720   96.28820   -9999.25   -9999.25   15.81210    0.27540
 3473.50000   -9999.25   -9999.25   51.91900   97.21880   -9999.25   -9999.25   15.11150    0.26700
 3474.00000   -9999.25   -9999.25   53.26270   97.57020   -9999.25   -9999.25   14.56970    0.28570
 3474.50000   -9999.25   -9999.25   53.23650   97.45590   -9999.25   -9999.25   13.55660    0.24810
 3475.00000   -9999.25   -9999.25   52.60710   97.21590   -9999.25   -9999.25   12.40690    0.20200
 3475.50000   -9999.25   -9999.25   51.86480   96.47290   -9999.25   -9999.25   11.67610    0.15400
 3476.00000   -9999.25   -9999.25   51.10320   95.63670   -9999.25   -9999.25   10.70730    0.13840
 3476.50000   -9999.25   -9999.25   49.90330   94.50370   -9999.25   -9999.25   10.09540    0.13560
 3477.00000   -9999.25   -9999.25   48.52290   93.80040   -9999.25   -9999.25   10.25140    0.13050
 3477.50000   -9999.25   -9999.25   46.57220   93.49890   -9999.25   -9999.25   10.66560    0.12770
 3478.00000   -9999.25   -9999.25   47.13330   93.56400   -9999.25   -9999.25   11.83790    0.13220
 3478.50000   -9999.25   -9999.25   47.50850   93.62900   -9999.25   -9999.25   12.44370    0.13450
 3479.00000   -9999.25   -9999.25   48.12900   93.69410   -9999.25   -9999.25   13.75010    0.15920
 3479.50000   -9999.25   -9999.25   48.54070   93.75920   -9999.25   -9999.25   14.09180    0.17150
