~Version ---------------------------------------------------
VERS.   2.0 : CWLS log ASCII Standard -VERSION 2.0
WRAP.    NO : One line per depth step
DLM . SPACE : Column Data Section Delimiter
~Well ------------------------------------------------------
STRT .FT                 200.0 : START DEPTH
STOP .FT               16532.0 : STOP DEPTH
STEP .FT                   0.5 : STEP
NULL .                -9999.25 : NULL VALUE
COMP .                         : COMPANY
WELL .                         : WELL
FLD  .                         : FIELD
LOC  .                         : LOCATION
PROV .                         : PROVINCE
CNTY .                         : COUNTY
STAT .                         : STATE
CTRY .                         : COUNTRY
SRVC .                         : SERVICE COMPANY
DATE .                         : DATE
UWI  .                         : UNIQUE WELL ID
API  .                         : API NUMBER
SLAT .WGS84 2.6157399686776017 : SURFACE LATITUDE
SLON .WGS84     8.508945526066 : SURFACE LONGITUDE
DATUM.F                    nan : DEPTH DATUM ELEV
~Curve Information -----------------------------------------
DEPT   .FT    : 
CALD   .IN    : CALIPER FROM DENSITY LOG
DPHZ_LS.DEC   : HGRD STANDARD RESOLUTION DENSITY POROSITY
DTCO   .US/F  : DELTA-T COMPRESSIONAL
DTSM   .US/F  : DELTA-T SHEAR
HDRA   .G/C3  : HRDD SPINE AND RIBS DENSITY CORRECTION
PEFZ   .B/E   : HRDD STANDARD RESOLUTION FORMATION PHOTOELECTRIC FACTOR
SGRDD  .GAPI  : SPECTROSCOPY GAMMA RAY FROM DENSITY LOG
TNPH_LS.DEC   : THERMAL NEUTRON POROSITY [LIMESTONE]
~Params ----------------------------------------------------
~Other -----------------------------------------------------
~ASCII -----------------------------------------------------
# ...
 15680.00000    5.93210   -0.01700   -9999.25   -9999.25   -0.00130    4.76740    9.38020   -0.00860
 15680.50000    5.91930   -0.01830   -9999.25   -9999.25   -0.00030    4.78170    8.95120   -0.00870
 15681.00000    5.89210   -0.01790   -9999.25   -9999.25    0.00060    4.81480    9.18150   -0.00890
 15681.50000    5.86500   -0.01900   -9999.25   -9999.25    0.00150    4.81410    8.55330   -0.00900
 15682.00000    5.90990   -0.02120   -9999.25   -9999.25    0.00300    4.85330   10.38160   -0.00870
 15682.50000    5.90170   -0.02270   -9999.25   -9999.25    0.00300    4.81360   10.12740   -0.00830
 15683.00000    5.90070   -0.02190   -9999.25   -9999.25    0.00300    4.78170   10.23770   -0.00830
 15683.50000    5.89620   -0.01880   -9999.25   -9999.25    0.00100    4.73280   10.49470   -0.00820
 15684.00000    5.89160   -0.01500   -9999.25   -9999.25    0.00010    4.75120   10.70040   -0.00820
 15684.50000    5.88600   -0.01180   -9999.25   -9999.25   -0.00070    4.77920   10.70040   -0.00820
 15685.00000    5.88030   -0.00840   -9999.25   -9999.25   -0.00150    4.76800   10.19540   -0.00830
 15685.50000    5.87490   -0.00550   -9999.25   -9999.25   -0.00190    4.75680    9.69050   -0.00830
 15686.00000    5.84320   -0.00420   -9999.25   -9999.25   -0.00310    4.73430   10.11800   -0.00840
 15686.50000    5.84390   -0.00250   -9999.25   -9999.25   -0.00440    4.73010   10.03160   -0.00840
 15687.00000    5.84460   -0.00080   -9999.25   -9999.25   -0.00570    4.76450   10.03160   -0.00840
 15687.50000    5.84530   -0.00060   -9999.25   -9999.25   -0.00440    4.71260    9.50660   -0.00920
 15688.00000    5.84610   -0.00080   -9999.25   -9999.25   -0.00310    4.54060    8.62380   -0.00930
 15688.50000    5.84680    0.00170   -9999.25   -9999.25   -0.00190    4.41500    8.17290   -0.00940
 15689.00000    5.84750    0.01040   -9999.25   -9999.25   -0.00010    4.49330    8.13090   -0.00940
 15689.50000    5.84820    0.01720   -9999.25   -9999.25   -0.00010    4.73920    7.79060   -0.00930
 15690.00000    5.84900    0.01690   -9999.25   -9999.25   -0.00010    4.87650    7.43180   -0.00960
 15690.50000    5.84970    0.00710   -9999.25   -9999.25   -0.00010    4.83250    6.94110   -0.00990
 15691.00000    5.85000   -0.00500   -9999.25   -9999.25    0.00000    4.74910    7.24310   -0.01020
 15691.50000    5.85000   -0.01420   -9999.25   -9999.25    0.00230    4.72530    7.96260   -0.01040
 15692.00000    5.85000   -0.02120   -9999.25   -9999.25    0.00320    4.75890    7.74360   -0.01080
 15692.50000    5.86270   -0.02190   -9999.25   -9999.25    0.00480    4.76410    8.02520   -0.01060
 15693.00000    5.86590   -0.02040   -9999.25   -9999.25    0.00560    4.72340    8.63060   -0.00980
 15693.50000    5.86460   -0.02010   -9999.25   -9999.25    0.00340    4.62970    9.40500   -0.00920
 15694.00000    5.86340   -0.01630   -9999.25   -9999.25    0.00110    4.57900    9.71480   -0.00870
 15694.50000    5.86220   -0.00570   -9999.25   -9999.25   -0.00110    4.55620    8.95130   -0.00810
 15695.00000    5.86090    0.00230   -9999.25   -9999.25   -0.00300    4.60540    8.15210   -0.00780
 15695.50000    5.85970    0.00900   -9999.25   -9999.25   -0.00470    4.74720    8.27590   -0.00790
 15696.00000    5.85840    0.00640   -9999.25   -9999.25   -0.00640    4.80890    8.95450   -0.00790
 15696.50000    5.85840    0.00370   -9999.25   -9999.25   -0.00690    4.77740    8.78970   -0.00790
 15697.00000    5.85840    0.00340   -9999.25   -9999.25   -0.00560    4.63160    8.86140   -0.00780
 15697.50000    5.85840   -0.00010   -9999.25   -9999.25   -0.00430    4.45530    8.88380   -0.00780
 15698.00000    5.85840   -0.00450   -9999.25   -9999.25   -0.00310    4.29780    8.70970   -0.00780
 15698.50000    5.85840   -0.01340   -9999.25   -9999.25   -0.00210    4.04670    8.73910   -0.00780
 15699.00000    5.85840   -0.01200   -9999.25   -9999.25   -0.00230    4.01600    8.94990   -0.00820
 15699.50000    5.85840   -0.00950   -9999.25   -9999.25   -0.00240    4.11030    9.26860   -0.00860
 15700.00000    5.86690   -0.00850   -9999.25   -9999.25   -0.00260    4.28400    8.69580   -0.00900
 15700.50000    5.86700   -0.00830   -9999.25   -9999.25   -0.00270    4.38210    8.13550   -0.00930
 15701.00000    5.86710   -0.00500   -9999.25   -9999.25   -0.00290    4.39970    7.57530   -0.00920
 15701.50000    5.89050   -0.00140   -9999.25   -9999.25   -0.00360    4.39070    7.60450   -0.00910
 15702.00000    5.90120   -0.00080   -9999.25   -9999.25   -0.00340    4.41420    9.71690   -0.00900
 15702.50000    5.88140   -0.00140   -9999.25   -9999.25   -0.00320    4.52430   10.03720   -0.00820
 15703.00000    5.86740   -0.00430   -9999.25   -9999.25   -0.00300    4.63440   10.72500   -0.00770
 15703.50000    5.89320   -0.00410   -9999.25   -9999.25   -0.00220    4.75200   11.37500   -0.00750
 15704.00000    5.89740   -0.00670   -9999.25   -9999.25   -0.00250    4.79900   12.37070   -0.00730
 15704.50000    5.89550   -0.00870   -9999.25   -9999.25   -0.00280    4.79240   14.25750   -0.00720
 15705.00000    5.83550   -0.00930   -9999.25   -9999.25   -0.00300    4.74220   15.29430   -0.00700
 15705.50000    5.88920   -0.00810   -9999.25   -9999.25   -0.00290    4.65820   15.60980   -0.00690
 15706.00000    5.88090   -0.00630   -9999.25   -9999.25   -0.00260    4.58020   15.19780   -0.00680
 15706.50000    5.87270   -0.01050   -9999.25   -9999.25   -0.00220    4.53600   14.69890   -0.00660
 15707.00000    5.86530   -0.01370   -9999.25   -9999.25   -0.00180    4.51970   14.78330   -0.00770
 15707.50000    5.82970   -0.01710   -9999.25   -9999.25   -0.00120    4.50620   14.69750   -0.00890
 15708.00000    5.84550   -0.01810   -9999.25   -9999.25   -0.00060    4.49270   14.60440   -0.00930
 15708.50000    5.85390   -0.01530   -9999.25   -9999.25    0.00000    4.40280   13.97470   -0.00950
 15709.00000    5.81900   -0.00540   -9999.25   -9999.25    0.00060    4.28890   13.35300   -0.00970
 15709.50000    5.78420    0.00130   -9999.25   -9999.25   -0.00290    4.30430   13.01580   -0.00960
 15710.00000    5.79090    0.01010   -9999.25   -9999.25   -0.00680    4.40650   13.43560   -0.00850
 15710.50000    5.84140    0.01580   -9999.25   -9999.25   -0.00910    4.46070   13.55760   -0.00760
 15711.00000    5.85820    0.00980   -9999.25   -9999.25   -0.00710    4.39230   13.90330   -0.00690
 15711.50000    5.85810   -0.00710   -9999.25   -9999.25   -0.00590    4.34800   14.69970   -0.00660
 15712.00000    5.85790   -0.01890   -9999.25   -9999.25   -0.00480    4.36740   15.79660   -0.00640
 15712.50000    5.85300   -0.01970   -9999.25   -9999.25   -0.00370    4.47270   16.63390   -0.00630
 15713.00000    5.84080   -0.01680   -9999.25   -9999.25   -0.00260    4.54350   17.59300   -0.00610
 15713.50000    5.84070   -0.00920   -9999.25   -9999.25   -0.00150    4.49520   15.78660   -0.00710
 15714.00000    5.85740   -0.00040   -9999.25   -9999.25   -0.00010    4.35800   12.32800   -0.00800
 15714.50000    5.86580    0.00480   -9999.25   -9999.25   -0.00010    4.15020   11.39490   -0.00840
 15715.00000    5.85440    0.00750   -9999.25   -9999.25   -0.00260    3.99810   10.38670   -0.00830
 15715.50000    5.79830    0.00900   -9999.25   -9999.25   -0.00050    3.92830    9.58720   -0.00810
 15716.00000    5.80620    0.00900   -9999.25   -9999.25    0.00110    3.93670    9.42690   -0.00780
 15716.50000    5.81460    0.00140   -9999.25   -9999.25    0.00270    3.86150    9.70790   -0.00740
 15717.00000    5.82290   -0.00420   -9999.25   -9999.25    0.00430    3.78630    9.94060   -0.00690
 15717.50000    5.82270   -0.00210   -9999.25   -9999.25    0.00160    3.73800   10.17120   -0.00700
 15718.00000    5.83320    0.00540   -9999.25   -9999.25   -0.00180    3.79880   10.40190   -0.00680
 15718.50000    5.85630    0.01120   -9999.25   -9999.25   -0.00590    3.97640   10.54150   -0.00620
 15719.00000    5.87260    0.00840   -9999.25   -9999.25   -0.00430    4.11600   10.83860   -0.00630
 15719.50000    5.87010    0.00450   -9999.25   -9999.25   -0.00270    4.10190   11.67580   -0.00640
