~Version ---------------------------------------------------
VERS.   2.0 : CWLS log ASCII Standard -VERSION 2.0
WRAP.    NO : One line per depth step
DLM . SPACE : Column Data Section Delimiter
~Well ------------------------------------------------------
STRT .FT                 200.0 : START DEPTH
STOP .FT               16532.0 : STOP DEPTH
STEP .FT                   0.5 : STEP
NULL .                -9999.25 : NULL VALUE
COMP .                         : COMPANY
WELL .                         : WELL
FLD  .                         : FIELD
LOC  .                         : LOCATION
PROV .                         : PROVINCE
CNTY .                         : COUNTY
STAT .                         : STATE
CTRY .                         : COUNTRY
SRVC .                         : SERVICE COMPANY
DATE .                         : DATE
UWI  .                         : UNIQUE WELL ID
API  .                         : API NUMBER
SLAT .WGS84 2.6157399686776017 : SURFACE LATITUDE
SLON .WGS84     8.508945526066 : SURFACE LONGITUDE
DATUM.F                    nan : DEPTH DATUM ELEV
~Curve Information -----------------------------------------
DEPT   .FT    : 
CALD   .IN    : CALIPER FROM DENSITY LOG
DPHZ_LS.DEC   : HGRD STANDARD RESOLUTION DENSITY POROSITY
DTCO   .US/F  : DELTA-T COMPRESSIONAL
DTSM   .US/F  : DELTA-T SHEAR
HDRA   .G/C3  : HRDD SPINE AND RIBS DENSITY CORRECTION
PEFZ   .B/E   : HRDD STANDARD RESOLUTION FORMATION PHOTOELECTRIC FACTOR
SGRDD  .GAPI  : SPECTROSCOPY GAMMA RAY FROM DENSITY LOG
TNPH_LS.DEC   : THERMAL NEUTRON POROSITY [LIMESTONE]
~Params ----------------------------------------------------
~Other -----------------------------------------------------
~ASCII -----------------------------------------------------
  200.00000   -9999.25   -9999.25   54.55500  106.03740   -9999.25   -9999.25    9.07080    0.69510
  200.50000   -9999.25   -9999.25   54.92340  121.85330   -9999.25   -9999.25    8.46240    0.62120
  201.00000   -9999.25   -9999.25   55.23060  133.42860   -9999.25   -9999.25    8.32280    0.57840
  201.50000   -9999.25   -9999.25   55.33660  125.65120   -9999.25   -9999.25    8.52480    0.69960
  202.00000   -9999.25   -9999.25   55.34990  162.28850   -9999.25   -9999.25    8.65220    0.65000
  202.50000   -9999.25   -9999.25   55.23530  179.62760   -9999.25   -9999.25   10.02890    0.39430
  203.00000   -9999.25   -9999.25   55.04420  122.80990   -9999.25   -9999.25   10.16590    0.44990
  203.50000   -9999.25   -9999.25   54.85320   94.17820   -9999.25   -9999.25   10.63650    0.50280
  204.00000   -9999.25   -9999.25   54.66220  106.23220   -9999.25   -9999.25   10.07420    0.57640
  204.50000   -9999.25   -9999.25   54.46510  112.17540   -9999.25   -9999.25    9.01620    0.66760
  205.00000   -9999.25   -9999.25   54.30420  100.37830   -9999.25   -9999.25    7.93740    1.01280
  205.50000   -9999.25   -9999.25   53.96240  102.21040   -9999.25   -9999.25    7.65710    0.89470
  206.00000   -9999.25   -9999.25   53.70100  119.25360   -9999.25   -9999.25    9.25480    0.69740
  206.50000   -9999.25   -9999.25   53.91560  158.02290   -9999.25   -9999.25   11.66260    0.40340
  207.00000   -9999.25   -9999.25   54.11350  179.98800   -9999.25   -9999.25   15.21240    0.53440
  207.50000   -9999.25   -9999.25   53.76070  179.98140   -9999.25   -9999.25   18.41630    0.69810
  208.00000   -9999.25   -9999.25   53.41700  179.97050   -9999.25   -9999.25   20.49960    1.07240
  208.50000   -9999.25   -9999.25   53.38250  179.95950   -9999.25   -9999.25   20.78830    0.70150
  209.00000   -9999.25   -9999.25   53.72350  179.94860   -9999.25   -9999.25   21.01020    0.39840
  209.50000   -9999.25   -9999.25   54.42960  179.93760   -9999.25   -9999.25   21.49340    0.62340
  210.00000   -9999.25   -9999.25   55.62200  179.92670   -9999.25   -9999.25   22.75360    0.95100
  210.50000   -9999.25   -9999.25   53.74090  179.91970   -9999.25   -9999.25   23.67720    1.09390
  211.00000   -9999.25   -9999.25   54.52020  136.88560   -9999.25   -9999.25   23.81700    0.69880
  211.50000   -9999.25   -9999.25   54.74390  100.95810   -9999.25   -9999.25   23.83600    0.36910
  212.00000   -9999.25   -9999.25   54.62220  101.62690   -9999.25   -9999.25   24.27900    0.58870
  212.50000   -9999.25   -9999.25   55.26490  100.67570   -9999.25   -9999.25   23.89430    0.86980
  213.00000   -9999.25   -9999.25   55.94770  106.10130   -9999.25   -9999.25   22.71720    1.01030
  213.50000   -9999.25   -9999.25   56.06740  114.22380   -9999.25   -9999.25   21.82470    0.70070
  214.00000   -9999.25   -9999.25   55.76900  108.63650   -9999.25   -9999.25   22.17500    0.38030
  214.50000   -9999.25   -9999.25   55.48570  103.04920   -9999.25   -9999.25   22.72190    0.69870
  215.00000   -9999.25   -9999.25   56.51210  100.61220   -9999.25   -9999.25   21.16450    0.87230
  215.50000   -9999.25   -9999.25   56.19380  103.82810   -9999.25   -9999.25   19.90900    1.01340
  216.00000   -9999.25   -9999.25   55.69870  101.68160   -9999.25   -9999.25   20.33680    0.70270
  216.50000   -9999.25   -9999.25   55.61960  111.53370   -9999.25   -9999.25   22.12080    0.43580
  217.00000   -9999.25   -9999.25   55.61850  105.63310   -9999.25   -9999.25   22.66200    0.48660
  217.50000   -9999.25   -9999.25   55.50270  108.06150   -9999.25   -9999.25   21.58690    0.50890
  218.00000   -9999.25   -9999.25   55.41560  116.08720   -9999.25   -9999.25   20.49740    0.69840
  218.50000   -9999.25   -9999.25   55.65610  105.22650   -9999.25   -9999.25   20.20260    0.76570
  219.00000   -9999.25   -9999.25   55.73560   90.60760   -9999.25   -9999.25   20.53650    0.50120
  219.50000   -9999.25   -9999.25   55.97960   88.81230   -9999.25   -9999.25   21.30500    0.30290
  220.00000   -9999.25   -9999.25   55.75990   86.12060   -9999.25   -9999.25   21.27280    0.50390
  220.50000   -9999.25   -9999.25   55.30600   92.89050   -9999.25   -9999.25   20.74400    0.37780
  221.00000   -9999.25   -9999.25   54.70800   83.90870   -9999.25   -9999.25   19.31980    0.30210
  221.50000   -9999.25   -9999.25   54.76270   96.37600   -9999.25   -9999.25   17.69140    0.69850
  222.00000   -9999.25   -9999.25   54.94650   94.51260   -9999.25   -9999.25   16.30030    0.69890
  222.50000   -9999.25   -9999.25   54.39360   93.09160   -9999.25   -9999.25   15.08260    0.58890
  223.00000   -9999.25   -9999.25   55.55490   91.07120   -9999.25   -9999.25   14.28920    0.96630
  223.50000   -9999.25   -9999.25   52.92610   89.53910   -9999.25   -9999.25   13.69440    1.09890
  224.00000   -9999.25   -9999.25   54.95020   93.07480   -9999.25   -9999.25   14.39620    0.69970
  224.50000   -9999.25   -9999.25   56.48490  101.57910   -9999.25   -9999.25   16.08730    0.44540
  225.00000   -9999.25   -9999.25   60.55730  125.06430   -9999.25   -9999.25   17.63230    0.51080
  225.50000   -9999.25   -9999.25   63.18610  155.21870   -9999.25   -9999.25   17.27950    0.30150
  226.00000   -9999.25   -9999.25   62.70650  179.92660   -9999.25   -9999.25   15.25930    0.69860
  226.50000   -9999.25   -9999.25   63.33300  179.92660   -9999.25   -9999.25   13.04390    0.59100
  227.00000   -9999.25   -9999.25   63.36780  179.92660   -9999.25   -9999.25   12.43170    0.60930
  227.50000   -9999.25   -9999.25   64.67940  179.92660   -9999.25   -9999.25   11.42120    0.30150
  228.00000   -9999.25   -9999.25   65.54550  179.92660   -9999.25   -9999.25    9.82820    0.63170
  228.50000   -9999.25   -9999.25   65.53870  179.92660   -9999.25   -9999.25    9.25410    0.46360
  229.00000   -9999.25   -9999.25   65.32520  179.92660   -9999.25   -9999.25   10.97890    0.69920
  229.50000   -9999.25   -9999.25   54.97170  179.92660   -9999.25   -9999.25   11.87690    1.02690
  230.00000   -9999.25   -9999.25   51.39410  139.35190   -9999.25   -9999.25   12.37400    1.10040
  230.50000   -9999.25   -9999.25   50.91150   99.53030   -9999.25   -9999.25   12.38970    1.09960
  231.00000   -9999.25   -9999.25   49.79120   95.82140   -9999.25   -9999.25   11.60630    0.69980
  231.50000   -9999.25   -9999.25   50.22210   87.65130   -9999.25   -9999.25   10.31840    0.30050
  232.00000   -9999.25   -9999.25   49.68490   85.44570   -9999.25   -9999.25    9.31160    0.11000
  232.50000   -9999.25   -9999.25   49.11520   83.64450   -9999.25   -9999.25   10.07770    0.01650
  233.00000   -9999.25   -9999.25   49.47520  106.25550   -9999.25   -9999.25   10.94020    0.12990
  233.50000   -9999.25   -9999.25   49.88600  117.87380   -9999.25   -9999.25   11.46350    0.27140
  234.00000   -9999.25   -9999.25   50.72250  146.16890   -9999.25   -9999.25   11.75440    0.70010
  234.50000   -9999.25   -9999.25   52.95250  179.28160   -9999.25   -9999.25   11.76810    0.69840
  235.00000   -9999.25   -9999.25   54.61360  175.52800   -9999.25   -9999.25   11.76290    0.30010
  235.50000   -9999.25   -9999.25   55.01760  176.77470   -9999.25   -9999.25   10.61350    0.22800
  236.00000   -9999.25   -9999.25   54.92520  178.85260   -9999.25   -9999.25   10.21820    0.46850
  236.50000   -9999.25   -9999.25   54.51430  179.88480   -9999.25   -9999.25    9.53920    0.60880
  237.00000   -9999.25   -9999.25   54.21250  179.88480   -9999.25   -9999.25    9.48560    0.53140
  237.50000   -9999.25   -9999.25   54.06640  179.88480   -9999.25   -9999.25    9.31410    0.55820
  238.00000   -9999.25   -9999.25   54.53420  179.88480   -9999.25   -9999.25   10.31020    0.32930
  238.50000   -9999.25   -9999.25   54.87500  179.88480   -9999.25   -9999.25    9.24420    0.43040
  239.00000   -9999.25   -9999.25   55.28310  179.88480   -9999.25   -9999.25   10.55980    0.59790
  239.50000   -9999.25   -9999.25   56.48330  179.88480   -9999.25   -9999.25   10.43840    0.69830
