~Version ---------------------------------------------------
VERS.   2.0 : CWLS log ASCII Standard -VERSION 2.0
WRAP.    NO : One line per depth step
DLM . SPACE : Column Data Section Delimiter
~Well ------------------------------------------------------
STRT .FT                 200.0 : START DEPTH
STOP .FT               16532.0 : STOP DEPTH
STEP .FT                   0.5 : STEP
NULL .                -9999.25 : NULL VALUE
COMP .                         : COMPANY
WELL .                         : WELL
FLD  .                         : FIELD
LOC  .                         : LOCATION
PROV .                         : PROVINCE
CNTY .                         : COUNTY
STAT .                         : STATE
CTRY .                         : COUNTRY
SRVC .                         : SERVICE COMPANY
DATE .                         : DATE
UWI  .                         : UNIQUE WELL ID
API  .                         : API NUMBER
SLAT .WGS84 2.6157399686776017 : SURFACE LATITUDE
SLON .WGS84     8.508945526066 : SURFACE LONGITUDE
DATUM.F                    nan : DEPTH DATUM ELEV
~Curve Information -----------------------------------------
DEPT   .FT    : 
CALD   .IN    : CALIPER FROM DENSITY LOG
DPHZ_LS.DEC   : HGRD STANDARD RESOLUTION DENSITY POROSITY
DTCO   .US/F  : DELTA-T COMPRESSIONAL
DTSM   .US/F  : DELTA-T SHEAR
HDRA   .G/C3  : HRDD SPINE AND RIBS DENSITY CORRECTION
PEFZ   .B/E   : HRDD STANDARD RESOLUTION FORMATION PHOTOELECTRIC FACTOR
SGRDD  .GAPI  : SPECTROSCOPY GAMMA RAY FROM DENSITY LOG
TNPH_LS.DEC   : THERMAL NEUTRON POROSITY [LIMESTONE]
~Params ----------------------------------------------------
~Other -----------------------------------------------------
~ASCII -----------------------------------------------------
# ...
 1840.00000   -9999.25   -9999.25   70.08480  122.56790   -9999.25   -9999.25   14.64720    0.06610
 1840.50000   -9999.25   -9999.25   70.41830  122.27300   -9999.25   -9999.25   13.90350    0.06440
 1841.00000   -9999.25   -9999.25   70.17750  122.06150   -9999.25   -9999.25   13.10930    0.06470
 1841.50000   -9999.25   -9999.25   69.87010  121.84990   -9999.25   -9999.25   14.11880    0.06530
 1842.00000   -9999.25   -9999.25   69.56090  121.89720   -9999.25   -9999.25   14.24530    0.06260
 1842.50000   -9999.25   -9999.25   69.51040  121.95590   -9999.25   -9999.25   14.47510    0.05160
 1843.00000   -9999.25   -9999.25   69.60090  122.09630   -9999.25   -9999.25   13.74500    0.04430
 1843.50000   -9999.25   -9999.25   69.82410  122.20660   -9999.25   -9999.25   13.23380    0.04250
 1844.00000   -9999.25   -9999.25   69.63110  122.03990   -9999.25   -9999.25   12.42310    0.04480
 1844.50000   -9999.25   -9999.25   67.38900  121.69860   -9999.25   -9999.25   12.20930    0.04680
 1845.00000   -9999.25   -9999.25   67.14240  120.77380   -9999.25   -9999.25   12.60580    0.04560
 1845.50000   -9999.25   -9999.25   68.24280  120.15560   -9999.25   -9999.25   12.81520    0.04750
 1846.00000   -9999.25   -9999.25   70.05330  120.08360   -9999.25   -9999.25   13.57020    0.05020
 1846.50000   -9999.25   -9999.25   67.48450  120.01160   -9999.25   -9999.25   13.26620    0.05440
 1847.00000   -9999.25   -9999.25   67.61940  120.47480   -9999.25   -9999.25   12.59240    0.06600
 1847.50000   -9999.25   -9999.25   67.46950  121.50240   -9999.25   -9999.25   11.78570    0.06960
 1848.00000   -9999.25   -9999.25   67.76220  119.95350   -9999.25   -9999.25   12.89320    0.07160
 1848.50000   -9999.25   -9999.25   68.60120  117.91870   -9999.25   -9999.25   13.72120    0.05840
 1849.00000   -9999.25   -9999.25   68.41260  118.11980   -9999.25   -9999.25   13.33850    0.06910
 1849.50000   -9999.25   -9999.25   68.06130  122.14150   -9999.25   -9999.25   12.33180    0.06010
 1850.00000   -9999.25   -9999.25   67.03660  121.73930   -9999.25   -9999.25   12.58570    0.05300
 1850.50000   -9999.25   -9999.25   65.60490  127.26930   -9999.25   -9999.25   13.84380    0.05660
 1851.00000   -9999.25   -9999.25   64.23190  125.78630   -9999.25   -9999.25   13.59920    0.07060
 1851.50000   -9999.25   -9999.25   65.05860  121.87770   -9999.25   -9999.25   12.29900    0.09640
 1852.00000   -9999.25   -9999.25   66.13470  120.98530   -9999.25   -9999.25   10.84870    0.12640
 1852.50000   -9999.25   -9999.25   66.64920  122.54380   -9999.25   -9999.25   11.21710    0.11000
 1853.00000   -9999.25   -9999.25   67.48060  124.20270   -9999.25   -9999.25   12.28440    0.08650
 1853.50000   -9999.25   -9999.25   68.09280  125.20820   -9999.25   -9999.25   13.08380    0.07160
 1854.00000   -9999.25   -9999.25   68.88460  127.00460   -9999.25   -9999.25   12.80140    0.06760
 1854.50000   -9999.25   -9999.25   69.54060  129.13570   -9999.25   -9999.25   11.89160    0.06830
 1855.00000   -9999.25   -9999.25   68.64870  129.93370   -9999.25   -9999.25   10.98170    0.06590
 1855.50000   -9999.25   -9999.25   68.00230  128.62660   -9999.25   -9999.25   10.09040    0.06440
 1856.00000   -9999.25   -9999.25   68.67140  128.28310   -9999.25   -9999.25    9.73820    0.06720
 1856.50000   -9999.25   -9999.25   69.11310  127.82220   -9999.25   -9999.25    9.75400    0.08200
 1857.00000   -9999.25   -9999.25   69.31240  127.12610   -9999.25   -9999.25   10.36960    0.09080
 1857.50000   -9999.25   -9999.25   69.24380  127.16390   -9999.25   -9999.25   11.71980    0.09480
 1858.00000   -9999.25   -9999.25   72.47770  128.97850   -9999.25   -9999.25   12.96370    0.08990
 1858.50000   -9999.25   -9999.25   72.63610  129.03710   -9999.25   -9999.25   14.31240    0.07870
 1859.00000   -9999.25   -9999.25   71.80680  128.63620   -9999.25   -9999.25   12.70270    0.07650
 1859.50000   -9999.25   -9999.25   70.96560  127.97780   -9999.25   -9999.25   11.80900    0.07950
 1860.00000   -9999.25   -9999.25   70.00740  127.25840   -9999.25   -9999.25   11.16930    0.08520
 1860.50000   -9999.25   -9999.25   69.29470  127.31540   -9999.25   -9999.25   12.31300    0.08590
 1861.00000   -9999.25   -9999.25   69.07010  126.94770   -9999.25   -9999.25   12.18360    0.09000
 1861.50000   -9999.25   -9999.25   68.79910  125.44070   -9999.25   -9999.25   12.72720    0.09220
 1862.00000   -9999.25   -9999.25   69.12440  122.97590   -9999.25   -9999.25   13.21170    0.09650
 1862.50000   -9999.25   -9999.25   69.11600  121.45370   -9999.25   -9999.25   13.38790    0.10240
 1863.00000   -9999.25   -9999.25   68.91490  119.72860   -9999.25   -9999.25   13.39140    0.09290
 1863.50000   -9999.25   -9999.25   68.60120  121.01340   -9999.25   -9999.25   13.53900    0.09260
 1864.00000   -9999.25   -9999.25   68.81110  121.05100   -9999.25   -9999.25   13.56490    0.08730
 1864.50000   -9999.25   -9999.25   68.30240  121.41200   -9999.25   -9999.25   13.31100    0.08220
 1865.00000   -9999.25   -9999.25   67.81320  121.13200   -9999.25   -9999.25   13.15140    0.07690
 1865.50000   -9999.25   -9999.25   68.51430  119.65250   -9999.25   -9999.25   13.91980    0.07280
 1866.00000   -9999.25   -9999.25   68.99650  117.99300   -9999.25   -9999.25   14.25470    0.06500
 1866.50000   -9999.25   -9999.25   68.75240  117.59740   -9999.25   -9999.25   13.67590    0.07750
 1867.00000   -9999.25   -9999.25   68.27750  118.88460   -9999.25   -9999.25   13.31580    0.08150
 1867.50000   -9999.25   -9999.25   67.85410  118.36280   -9999.25   -9999.25   13.10760    0.11130
 1868.00000   -9999.25   -9999.25   66.94320  115.47340   -9999.25   -9999.25   12.71900    0.11360
 1868.50000   -9999.25   -9999.25   65.79520  116.76290   -9999.25   -9999.25   11.90870    0.13920
 1869.00000   -9999.25   -9999.25   67.53510  119.87520   -9999.25   -9999.25   11.64720    0.12460
 1869.50000   -9999.25   -9999.25   68.37450  121.85080   -9999.25   -9999.25   11.26320    0.11550
 1870.00000   -9999.25   -9999.25   68.78210  123.17050   -9999.25   -9999.25   10.61690    0.09070
 1870.50000   -9999.25   -9999.25   68.91490  123.81670   -9999.25   -9999.25   10.23960    0.07050
 1871.00000   -9999.25   -9999.25   68.78130  124.56430   -9999.25   -9999.25   11.56110    0.06500
 1871.50000   -9999.25   -9999.25   69.25890  124.47890   -9999.25   -9999.25   13.38170    0.07190
 1872.00000   -9999.25   -9999.25   69.51110  124.39360   -9999.25   -9999.25   14.13290    0.07550
 1872.50000   -9999.25   -9999.25   69.89730  124.17040   -9999.25   -9999.25   13.40500    0.07640
 1873.00000   -9999.25   -9999.25   69.94790  124.02540   -9999.25   -9999.25   13.26430    0.07740
 1873.50000   -9999.25   -9999.25   69.75430  123.26070   -9999.25   -9999.25   13.43710    0.08150
 1874.00000   -9999.25   -9999.25   69.01350  119.50750   -9999.25   -9999.25   13.18180    0.08360
 1874.50000   -9999.25   -9999.25   67.27320  118.13020   -9999.25   -9999.25   12.93330    0.08570
 1875.00000   -9999.25   -9999.25   64.19730  115.54170   -9999.25   -9999.25   13.55410    0.11240
 1875.50000   -9999.25   -9999.25   61.78200  109.97590   -9999.25   -9999.25   13.28730    0.13450
 1876.00000   -9999.25   -9999.25   58.99770  106.17500   -9999.25   -9999.25   12.09720    0.14180
 1876.50000   -9999.25   -9999.25   55.47250  102.76460   -9999.25   -9999.25   10.74320    0.13030
 1877.00000   -9999.25   -9999.25   54.47310  101.13660   -9999.25   -9999.25   10.59430    0.11930
 1877.50000   -9999.25   -9999.25   55.98610  100.73330   -9999.25   -9999.25   11.36120    0.12430
 1878.00000   -9999.25   -9999.25   60.41560  104.74030   -9999.25   -9999.25   11.80850    0.09750
 1878.50000   -9999.25   -9999.25   61.35160  107.88540   -9999.25   -9999.25   12.54910    0.08150
 1879.00000   -9999.25   -9999.25   62.58050  114.49890   -9999.25   -9999.25   11.68790    0.06750
 1879.50000   -9999.25   -9999.25   65.33290  119.02480   -9999.25   -9999.25   10.65110    0.06260
