~Version ---------------------------------------------------
VERS.   2.0 : CWLS log ASCII Standard -VERSION 2.0
WRAP.    NO : One line per depth step
DLM . SPACE : Column Data Section Delimiter
~Well ------------------------------------------------------
STRT .FT                 200.0 : START DEPTH
STOP .FT               16532.0 : STOP DEPTH
STEP .FT                   0.5 : STEP
NULL .                -9999.25 : NULL VALUE
COMP .                         : COMPANY
WELL .                         : WELL
FLD  .                         : FIELD
LOC  .                         : LOCATION
PROV .                         : PROVINCE
CNTY .                         : COUNTY
STAT .                         : STATE
CTRY .                         : COUNTRY
SRVC .                         : SERVICE COMPANY
DATE .                         : DATE
UWI  .                         : UNIQUE WELL ID
API  .                         : API NUMBER
SLAT .WGS84 2.6157399686776017 : SURFACE LATITUDE
SLON .WGS84     8.508945526066 : SURFACE LONGITUDE
DATUM.F                    nan : DEPTH DATUM ELEV
~Curve Information -----------------------------------------
DEPT   .FT    : 
CALD   .IN    : CALIPER FROM DENSITY LOG
DPHZ_LS.DEC   : HGRD STANDARD RESOLUTION DENSITY POROSITY
DTCO   .US/F  : DELTA-T COMPRESSIONAL
DTSM   .US/F  : DELTA-T SHEAR
HDRA   .G/C3  : HRDD SPINE AND RIBS DENSITY CORRECTION
PEFZ   .B/E   : HRDD STANDARD RESOLUTION FORMATION PHOTOELECTRIC FACTOR
SGRDD  .GAPI  : SPECTROSCOPY GAMMA RAY FROM DENSITY LOG
TNPH_LS.DEC   : THERMAL NEUTRON POROSITY [LIMESTONE]
~Params ----------------------------------------------------
~Other -----------------------------------------------------
~ASCII -----------------------------------------------------
# ...
 2640.00000   -9999.25   -9999.25   64.04020  116.99240   -9999.25   -9999.25    9.47280   -0.05060
 2640.50000   -9999.25   -9999.25   67.20730  115.56100   -9999.25   -9999.25    9.49180   -0.05200
 2641.00000   -9999.25   -9999.25   67.32610  115.18360   -9999.25   -9999.25   10.69630   -0.05270
 2641.50000   -9999.25   -9999.25   67.04730  116.43180   -9999.25   -9999.25   10.99900   -0.05130
 2642.00000   -9999.25   -9999.25   66.86810  118.80820   -9999.25   -9999.25   11.63970   -0.05070
 2642.50000   -9999.25   -9999.25   66.78500  122.52680   -9999.25   -9999.25   12.90590   -0.04990
 2643.00000   -9999.25   -9999.25   67.09090  125.80460   -9999.25   -9999.25   13.94810   -0.04930
 2643.50000   -9999.25   -9999.25   67.41840  128.34110   -9999.25   -9999.25   13.85470   -0.04820
 2644.00000   -9999.25   -9999.25   66.42300  129.76240   -9999.25   -9999.25   13.32060   -0.04710
 2644.50000   -9999.25   -9999.25   67.87090  126.06380   -9999.25   -9999.25   12.59930   -0.04650
 2645.00000   -9999.25   -9999.25   67.56920  121.46760   -9999.25   -9999.25   12.65380   -0.04600
 2645.50000   -9999.25   -9999.25   66.84950  121.61840   -9999.25   -9999.25   11.79460   -0.04660
 2646.00000   -9999.25   -9999.25   66.12490  119.96180   -9999.25   -9999.25   10.65100   -0.04680
 2646.50000   -9999.25   -9999.25   65.67450  119.42470   -9999.25   -9999.25    9.94840   -0.04780
 2647.00000   -9999.25   -9999.25   65.47530  119.45490   -9999.25   -9999.25   10.65660   -0.04880
 2647.50000   -9999.25   -9999.25   65.06850  119.44540   -9999.25   -9999.25   11.25910   -0.04980
 2648.00000   -9999.25   -9999.25   64.82420  118.65320   -9999.25   -9999.25   11.44330   -0.04780
 2648.50000   -9999.25   -9999.25   64.37270  118.00160   -9999.25   -9999.25   11.09600   -0.04550
 2649.00000   -9999.25   -9999.25   64.13370  117.49610   -9999.25   -9999.25   11.32880   -0.04420
 2649.50000   -9999.25   -9999.25   64.45990  118.03040   -9999.25   -9999.25   11.56010   -0.04690
 2650.00000   -9999.25   -9999.25   65.23920  118.36710   -9999.25   -9999.25   12.04350   -0.05010
 2650.50000   -9999.25   -9999.25   65.85510  118.81450   -9999.25   -9999.25   11.84490   -0.05110
 2651.00000   -9999.25   -9999.25   65.72110  119.50850   -9999.25   -9999.25   11.90000   -0.05090
 2651.50000   -9999.25   -9999.25   65.12880  120.21180   -9999.25   -9999.25   12.16280   -0.04980
 2652.00000   -9999.25   -9999.25   65.76220  120.08020   -9999.25   -9999.25   12.56560   -0.04900
 2652.50000   -9999.25   -9999.25   65.86870  120.24410   -9999.25   -9999.25   11.58920   -0.04920
 2653.00000   -9999.25   -9999.25   66.05360  120.27700   -9999.25   -9999.25   10.80990   -0.04940
 2653.50000   -9999.25   -9999.25   67.03620  120.33270   -9999.25   -9999.25   10.37600   -0.05010
 2654.00000   -9999.25   -9999.25   67.70500  120.33040   -9999.25   -9999.25    9.87870   -0.05120
 2654.50000   -9999.25   -9999.25   68.23780  120.32820   -9999.25   -9999.25   10.07890   -0.05120
 2655.00000   -9999.25   -9999.25   68.01420  119.50840   -9999.25   -9999.25   11.01460   -0.05120
 2655.50000   -9999.25   -9999.25   67.80610  119.16550   -9999.25   -9999.25   12.22990   -0.05130
 2656.00000   -9999.25   -9999.25   66.93610  118.37380   -9999.25   -9999.25   11.98990   -0.05080
 2656.50000   -9999.25   -9999.25   65.39580  119.63040   -9999.25   -9999.25   10.89120   -0.05020
 2657.00000   -9999.25   -9999.25   63.14860  119.86950   -9999.25   -9999.25   11.56510   -0.04840
 2657.50000   -9999.25   -9999.25   60.93590  117.40700   -9999.25   -9999.25   11.80850   -0.04370
 2658.00000   -9999.25   -9999.25   57.75350  115.14550   -9999.25   -9999.25   12.15180   -0.03140
 2658.50000   -9999.25   -9999.25   56.17520  111.64920   -9999.25   -9999.25   12.01980   -0.02190
 2659.00000   -9999.25   -9999.25   55.58850  109.91930   -9999.25   -9999.25   11.15560   -0.01660
 2659.50000   -9999.25   -9999.25   56.48060  109.12660   -9999.25   -9999.25   11.24810   -0.02480
 2660.00000   -9999.25   -9999.25   59.21340  111.99920   -9999.25   -9999.25   10.42010   -0.04040
 2660.50000   -9999.25   -9999.25   62.05280  113.46240   -9999.25   -9999.25    9.82060   -0.04450
 2661.00000   -9999.25   -9999.25   65.23820  115.73650   -9999.25   -9999.25    9.11230   -0.04590
 2661.50000   -9999.25   -9999.25   66.31820  117.70820   -9999.25   -9999.25    8.75050   -0.04510
 2662.00000   -9999.25   -9999.25   66.50130  118.85810   -9999.25   -9999.25    9.33730   -0.04350
 2662.50000   -9999.25   -9999.25   66.13440  117.77120   -9999.25   -9999.25    9.58040   -0.04190
 2663.00000   -9999.25   -9999.25   64.36990  119.00460   -9999.25   -9999.25    9.17450   -0.04180
 2663.50000   -9999.25   -9999.25   64.81120  119.36690   -9999.25   -9999.25    9.39950   -0.04250
 2664.00000   -9999.25   -9999.25   64.90640  119.23640   -9999.25   -9999.25   10.31710   -0.04320
 2664.50000   -9999.25   -9999.25   64.92820  119.74120   -9999.25   -9999.25   10.55780   -0.04320
 2665.00000   -9999.25   -9999.25   66.56850  119.89250   -9999.25   -9999.25   10.25500   -0.04330
 2665.50000   -9999.25   -9999.25   68.94390  119.91620   -9999.25   -9999.25    9.95770   -0.04370
 2666.00000   -9999.25   -9999.25   67.33340  119.18100   -9999.25   -9999.25   10.70060   -0.04450
 2666.50000   -9999.25   -9999.25   64.88490  117.93990   -9999.25   -9999.25   11.23850   -0.04630
 2667.00000   -9999.25   -9999.25   68.07910  116.93080   -9999.25   -9999.25   11.30510   -0.04740
 2667.50000   -9999.25   -9999.25   68.92670  116.93900   -9999.25   -9999.25   11.46110   -0.04840
 2668.00000   -9999.25   -9999.25   67.02670  117.84500   -9999.25   -9999.25   10.46460   -0.04650
 2668.50000   -9999.25   -9999.25   65.22440  119.82510   -9999.25   -9999.25    9.33910   -0.04420
 2669.00000   -9999.25   -9999.25   63.94770  120.36190   -9999.25   -9999.25    9.09020   -0.04090
 2669.50000   -9999.25   -9999.25   64.19670  120.21110   -9999.25   -9999.25    8.06640   -0.03640
 2670.00000   -9999.25   -9999.25   62.98350  119.07710   -9999.25   -9999.25    8.78820   -0.03320
 2670.50000   -9999.25   -9999.25   62.01930  118.09950   -9999.25   -9999.25   10.38510   -0.03010
 2671.00000   -9999.25   -9999.25   63.54660  117.98730   -9999.25   -9999.25   11.48000   -0.03310
 2671.50000   -9999.25   -9999.25   64.00510  117.84020   -9999.25   -9999.25   11.61780   -0.03640
 2672.00000   -9999.25   -9999.25   64.17990  117.58110   -9999.25   -9999.25   11.94000   -0.03930
 2672.50000   -9999.25   -9999.25   64.73440  118.29160   -9999.25   -9999.25   11.14180   -0.04200
 2673.00000   -9999.25   -9999.25   65.18510  119.46040   -9999.25   -9999.25   10.67110   -0.04420
 2673.50000   -9999.25   -9999.25   65.49360  120.81670   -9999.25   -9999.25   10.26290   -0.04570
 2674.00000   -9999.25   -9999.25   66.75240  120.10850   -9999.25   -9999.25   10.92560   -0.04640
 2674.50000   -9999.25   -9999.25   66.99700  120.61900   -9999.25   -9999.25    9.25690   -0.04720
 2675.00000   -9999.25   -9999.25   67.58750  120.94630   -9999.25   -9999.25    8.34870   -0.04750
 2675.50000   -9999.25   -9999.25   67.54340  120.35040   -9999.25   -9999.25    8.60320   -0.04770
 2676.00000   -9999.25   -9999.25   66.88440  120.24120   -9999.25   -9999.25    9.85380   -0.04780
 2676.50000   -9999.25   -9999.25   66.10720  119.94050   -9999.25   -9999.25   11.38460   -0.04790
 2677.00000   -9999.25   -9999.25   65.23240  119.90710   -9999.25   -9999.25   12.16250   -0.04810
 2677.50000   -9999.25   -9999.25   64.81370  119.66310   -9999.25   -9999.25   13.45420   -0.04770
 2678.00000   -9999.25   -9999.25   64.55520  119.29940   -9999.25   -9999.25   14.51670   -0.04630
 2678.50000   -9999.25   -9999.25   64.56920  119.43580   -9999.25   -9999.25   14.22130   -0.04510
 2679.00000   -9999.25   -9999.25   65.64440  119.66610   -9999.25   -9999.25   13.05800   -0.04450
 2679.50000   -9999.25   -9999.25   65.02770  120.13320   -9999.25   -9999.25   12.00410   -0.04560
