~Version ---------------------------------------------------
VERS.   2.0 : CWLS log ASCII Standard -VERSION 2.0
WRAP.    NO : One line per depth step
DLM . SPACE : Column Data Section Delimiter
~Well ------------------------------------------------------
STRT .FT                 200.0 : START DEPTH
STOP .FT               16532.0 : STOP DEPTH
STEP .FT                   0.5 : STEP
NULL .                -9999.25 : NULL VALUE
COMP .                         : COMPANY
WELL .                         : WELL
FLD  .                         : FIELD
LOC  .                         : LOCATION
PROV .                         : PROVINCE
CNTY .                         : COUNTY
STAT .                         : STATE
CTRY .                         : COUNTRY
SRVC .                         : SERVICE COMPANY
DATE .                         : DATE
UWI  .                         : UNIQUE WELL ID
API  .                         : API NUMBER
SLAT .WGS84 2.6157399686776017 : SURFACE LATITUDE
SLON .WGS84     8.508945526066 : SURFACE LONGITUDE
DATUM.F                    nan : DEPTH DATUM ELEV
~Curve Information -----------------------------------------
DEPT   .FT    : 
CALD   .IN    : CALIPER FROM DENSITY LOG
DPHZ_LS.DEC   : HGRD STANDARD RESOLUTION DENSITY POROSITY
DTCO   .US/F  : DELTA-T COMPRESSIONAL
DTSM   .US/F  : DELTA-T SHEAR
HDRA   .G/C3  : HRDD SPINE AND RIBS DENSITY CORRECTION
PEFZ   .B/E   : HRDD STANDARD RESOLUTION FORMATION PHOTOELECTRIC FACTOR
SGRDD  .GAPI  : SPECTROSCOPY GAMMA RAY FROM DENSITY LOG
TNPH_LS.DEC   : THERMAL NEUTRON POROSITY [LIMESTONE]
~Params ----------------------------------------------------
~Other -----------------------------------------------------
~ASCII -----------------------------------------------------
# ...
 6720.00000   13.09300    0.12650   64.75200  106.68690    0.00040    2.23120   31.94120    0.06300
 6720.50000   13.10110    0.13260   65.23950  108.74130    0.00040    2.19470   30.68360    0.07310
 6721.00000   13.10930    0.13440   65.63410  112.03160    0.00040    2.13860   33.16280    0.08970
 6721.50000   13.11740    0.13580   65.85380  112.93330   -0.00040    2.12120   36.13420    0.09410
 6722.00000   13.12550    0.13880   66.13370  114.99590   -0.00210    2.13310   37.60380    0.09400
 6722.50000   13.13370    0.13690   66.13890  115.46430   -0.00370    2.19000   40.11530    0.09580
 6723.00000   13.14180    0.13310   66.12790  115.52370   -0.00420    2.21400   43.47920    0.10820
 6723.50000   13.15000    0.13280   66.33250  115.61770   -0.00330    2.20670   45.34460    0.11560
 6724.00000   13.15810    0.14210   67.13740  115.04000   -0.00240    2.15410   42.91440    0.12350
 6724.50000   13.16630    0.15030   67.90610  116.00300   -0.00150    2.10140   37.97380    0.12160
 6725.00000   13.17440    0.15660   68.99910  117.03360    0.00030    2.07420   35.45010    0.11840
 6725.50000   13.17630    0.15780   68.57280  117.77630    0.00030    2.07280   34.32040    0.11520
 6726.00000   13.17930    0.15710   67.51620  118.34180    0.00030    2.05920   34.31700    0.11090
 6726.50000   13.18220    0.15440   66.41200  118.55020    0.00030    2.09880   34.36370    0.10590
 6727.00000   13.17970    0.14370   66.17020  117.18130   -0.00010    2.16150   34.20140    0.09780
 6727.50000   13.15600    0.12850   66.20520  114.53280   -0.00080    2.25010   33.08490    0.07560
 6728.00000   13.16010    0.12380   65.80020  112.91020   -0.00150    2.29690   33.94320    0.07620
 6728.50000   13.16150    0.13000   65.24610  114.44430   -0.00210    2.27330   34.49940    0.09050
 6729.00000   13.17720    0.13480   67.05360  115.52420   -0.00280    2.22340   34.68820    0.10490
 6729.50000   13.18390    0.13470   67.66400  116.36760   -0.00350    2.15360   33.44910    0.11430
 6730.00000   13.19060    0.13450   68.16690  117.40880   -0.00350    2.08380   35.24670    0.11020
 6730.50000   13.20250    0.13860   69.06150  116.90690   -0.00260    2.09320   37.26520    0.10610
 6731.00000   13.19900    0.14620   69.09500  121.18440   -0.00170    2.09870   39.15530    0.10810
 6731.50000   13.21610    0.15080   69.31400  121.71750   -0.00080    2.12020   37.21570    0.12310
 6732.00000   13.22000    0.14920   69.63010  121.45780    0.00010    2.17970   39.83700    0.13800
 6732.50000   13.22400    0.13720   69.89200  120.57880    0.00040    2.26190   45.45400    0.14760
 6733.00000   13.22790    0.12880   70.01350  119.64640    0.00040    2.31360   51.57440    0.14440
 6733.50000   13.23180    0.13080   70.31650  119.60920    0.00040    2.29530   51.66700    0.14260
 6734.00000   13.22540    0.14110   69.77320  119.43740    0.00010    2.22190   47.53720    0.14110
 6734.50000   13.23640    0.15730   69.12500  119.26570   -0.00130    2.19230   38.80640    0.13700
 6735.00000   13.24730    0.16120   68.10220  119.59180   -0.00270    2.21230   37.31020    0.13240
 6735.50000   13.21920    0.15290   67.07930  119.15930   -0.00380    2.23220   36.44460    0.12830
 6736.00000   13.17240    0.13890   66.31780  117.18200   -0.00380    2.25220   35.57890    0.12160
 6736.50000   13.12550    0.12800   64.84510  115.28020   -0.00280    2.24250   33.00150    0.10050
 6737.00000   13.07870    0.12450   64.23330  112.81750   -0.00190    2.22270   31.60540    0.09070
 6737.50000   13.08560    0.12390   64.37250  110.72590   -0.00290    2.19210   32.11410    0.09080
 6738.00000   13.06800    0.12270   64.53580  108.53710   -0.00330    2.16700   34.24650    0.09080
 6738.50000   13.05040    0.12300   64.57150  108.53010   -0.00360    2.16330   35.89330    0.08300
 6739.00000   13.03280    0.12820   64.45140  108.52310   -0.00400    2.15960   38.61090    0.08180
 6739.50000   13.01520    0.13500   64.62370  108.43940   -0.00370    2.16550   38.99240    0.08320
 6740.00000   12.98160    0.13580   64.26610  107.62960   -0.00330    2.17020   39.02110    0.08430
 6740.50000   12.96180    0.13300   63.76730  107.37880   -0.00290    2.17020   37.31110    0.08280
 6741.00000   12.95410    0.12500   63.25520  107.32580   -0.00190    2.19480   36.52540    0.08120
 6741.50000   12.94650    0.11600   62.86630  107.09340   -0.00190    2.21940   36.16830    0.07770
 6742.00000   12.93880    0.10850   62.67650  106.48620   -0.00190    2.24400   36.61840    0.06830
 6742.50000   12.93120    0.10350   62.61230  105.72000   -0.00190    2.24860   37.70350    0.06620
 6743.00000   12.92360    0.09580   62.88760  105.23160    0.00080    2.21900   38.07560    0.06650
 6743.50000   12.91590    0.08910   63.23440  104.84100    0.00270    2.17840   38.09650    0.06710
 6744.00000   12.91130    0.08570   63.56660  105.37500    0.00460    2.14580   36.55290    0.06630
 6744.50000   12.91540    0.09400   63.81440  106.46930    0.00420    2.13030   34.79470    0.07000
 6745.00000   12.91950    0.10340   64.32280  106.75450    0.00310    2.11140   33.25460    0.07430
 6745.50000   12.92360    0.11120   64.70650  106.86800    0.00200    2.09550   33.65480    0.08530
 6746.00000   12.91740    0.11620   65.06220  108.43090    0.00090    2.09220   34.96970    0.08930
 6746.50000   12.90440    0.11800   64.96680  108.31490   -0.00020    2.06680   37.43990    0.09380
 6747.00000   12.89130    0.11960   65.15370  108.24450   -0.00130    2.12570   38.16080    0.09070
 6747.50000   12.89740    0.11800   65.08170  107.75400   -0.00240    2.20270   38.56260    0.09060
 6748.00000   12.89740    0.11730   65.13210  106.73690   -0.00330    2.27450   37.86530    0.08760
 6748.50000   12.89500    0.11370   64.87780  106.60930   -0.00360    2.29060   37.98360    0.08240
 6749.00000   12.89200    0.11780   64.67020  106.92830   -0.00380    2.25860   37.41130    0.08150
 6749.50000   12.88900    0.11950   64.69260  106.97570   -0.00400    2.21410   37.64210    0.08320
 6750.00000   12.88610    0.11750   64.64640  107.80130   -0.00290    2.18160   37.12790    0.08880
 6750.50000   12.88310    0.11440   64.41270  108.40280   -0.00140    2.16900   35.78800    0.09280
 6751.00000   12.88010    0.11580   64.42450  108.40020    0.00000    2.15050   37.51560    0.09120
 6751.50000   12.87710    0.12130   64.60670  108.29870    0.00020    2.11490   36.88040    0.08670
 6752.00000   12.87420    0.12180   64.07740  107.97540   -0.00180    2.05480   38.09470    0.07960
 6752.50000   12.87120    0.12310   64.42410  107.97450   -0.00390    2.05530   37.55840    0.07660
 6753.00000   12.86940    0.12560   64.69420  108.05960   -0.00570    2.11050   38.29730    0.07270
 6753.50000   12.89140    0.12810   65.08780  107.72510   -0.00540    2.16570   38.39050    0.06770
 6754.00000   12.88800    0.12460   65.19420  107.30240   -0.00480    2.20670   37.70510    0.06330
 6754.50000   12.88450    0.12180   65.24080  107.20760   -0.00380    2.19110   37.34550    0.06310
 6755.00000   12.88100    0.11890   65.33870  108.20820   -0.00250    2.15180   37.31220    0.06810
 6755.50000   12.87760    0.12340   65.53440  107.36650   -0.00370    2.13310   36.81500    0.07040
 6756.00000   12.87410    0.12880   65.82470  108.38410   -0.00490    2.14910   34.96830    0.07080
 6756.50000   12.87070    0.13130   65.42010  106.04970   -0.00560    2.16740   34.27100    0.07170
 6757.00000   12.86720    0.12700   64.80450  106.28620   -0.00310    2.14440   34.39030    0.07590
 6757.50000   12.86370    0.12210   64.90690  106.64690   -0.00070    2.10650   36.07360    0.07900
 6758.00000   12.86030    0.12090   65.93440  107.59730    0.00030    2.07580   36.36000    0.08000
 6758.50000   12.85680    0.11840   65.80610  107.65720    0.00030    2.07970   35.63160    0.07880
 6759.00000   12.85540    0.11400   65.21910  107.72990    0.00030    2.08360   35.85850    0.07760
 6759.50000   12.88120    0.11110   64.89490  108.17110    0.00040    2.08750   36.98480    0.07580
