~Version ---------------------------------------------------
VERS.   2.0 : CWLS log ASCII Standard -VERSION 2.0
WRAP.    NO : One line per depth step
DLM . SPACE : Column Data Section Delimiter
~Well ------------------------------------------------------
STRT .FT                 200.0 : START DEPTH
STOP .FT               16532.0 : STOP DEPTH
STEP .FT                   0.5 : STEP
NULL .                -9999.25 : NULL VALUE
COMP .                         : COMPANY
WELL .                         : WELL
FLD  .                         : FIELD
LOC  .                         : LOCATION
PROV .                         : PROVINCE
CNTY .                         : COUNTY
STAT .                         : STATE
CTRY .                         : COUNTRY
SRVC .                         : SERVICE COMPANY
DATE .                         : DATE
UWI  .                         : UNIQUE WELL ID
API  .                         : API NUMBER
SLAT .WGS84 2.6157399686776017 : SURFACE LATITUDE
SLON .WGS84     8.508945526066 : SURFACE LONGITUDE
DATUM.F                    nan : DEPTH DATUM ELEV
~Curve Information -----------------------------------------
DEPT   .FT    : 
CALD   .IN    : CALIPER FROM DENSITY LOG
DPHZ_LS.DEC   : HGRD STANDARD RESOLUTION DENSITY POROSITY
DTCO   .US/F  : DELTA-T COMPRESSIONAL
DTSM   .US/F  : DELTA-T SHEAR
HDRA   .G/C3  : HRDD SPINE AND RIBS DENSITY CORRECTION
PEFZ   .B/E   : HRDD STANDARD RESOLUTION FORMATION PHOTOELECTRIC FACTOR
SGRDD  .GAPI  : SPECTROSCOPY GAMMA RAY FROM DENSITY LOG
TNPH_LS.DEC   : THERMAL NEUTRON POROSITY [LIMESTONE]
~Params ----------------------------------------------------
~Other -----------------------------------------------------
~ASCII -----------------------------------------------------
# ...
 9960.00000   12.59180    0.05170   67.35320  107.29070   -0.00040    3.37570   67.26990    0.09850
 9960.50000   12.58970    0.04610   65.23170  108.46080   -0.00040    3.46260   67.84570    0.09930
 9961.00000   12.59830    0.04120   66.27700  110.55730   -0.00030    3.61700   64.47980    0.09340
 9961.50000   12.60520    0.03760   65.94430  113.23750   -0.00010    3.73870   61.70230    0.08370
 9962.00000   12.60160    0.04150   66.65240  115.48190    0.00000    3.61470   67.50310    0.08840
 9962.50000   12.59800    0.05230   67.76420  113.55980    0.00010    3.30780   75.84320    0.10560
 9963.00000   12.59440    0.06700   69.43100  119.30110   -0.00110    2.93680   84.18330    0.12280
 9963.50000   12.58080    0.07800   72.01540  119.11370   -0.00230    2.78580   90.59580    0.14000
 9964.00000   12.57410    0.08280   73.39060  118.95340   -0.00350    2.76480   94.89180    0.14920
 9964.50000   12.56730    0.08050   74.56590  119.55360   -0.00440    2.79130   95.59000    0.14920
 9965.00000   12.56050    0.07670   72.63470  119.73700   -0.00490    2.84230   95.42800    0.14160
 9965.50000   12.55380    0.07410   72.94220  119.32220   -0.00530    2.91240   92.91110    0.13270
 9966.00000   12.55080    0.06920   69.75880  119.12100   -0.00510    3.02500   85.09060    0.12740
 9966.50000   12.56210    0.06080   67.25230  118.54590   -0.00400    3.20960   76.05210    0.10250
 9967.00000   12.57620    0.06050   69.25560  115.55820   -0.00290    3.25580   71.43630    0.09880
 9967.50000   12.59040    0.06380   67.99270  112.67730   -0.00170    3.18560   74.11990    0.10850
 9968.00000   12.60460    0.06820   66.44230  108.22440   -0.00230    3.13540   78.20420    0.11610
 9968.50000   12.60410    0.06390   63.33280  109.06770   -0.00290    3.43320   67.57190    0.08950
 9969.00000   12.61780    0.05320   61.32510  105.53970   -0.00350    3.80610   51.47940    0.06300
 9969.50000   12.61700    0.03490   59.00150  103.28680   -0.00130    4.20830   35.11650    0.03260
 9970.00000   12.62120    0.02690   56.54520  103.17300    0.00100    4.42970   26.52780    0.01410
 9970.50000   12.61440    0.01840   55.54000  103.95330    0.00340    4.49150   22.34120    0.01390
 9971.00000   12.60760    0.01310   56.81580  103.83220    0.00210    4.43150   25.76560    0.02270
 9971.50000   12.60670    0.01890   59.10070  103.06810    0.00150    4.14250   36.31100    0.03320
 9972.00000   12.60590    0.03460   61.90940  106.81330    0.00080    3.72590   51.61680    0.06610
 9972.50000   12.60510    0.05040   65.50380  111.33490    0.00020    3.27490   73.52970    0.09910
 9973.00000   12.60420    0.06610   68.73240  118.21650   -0.00090    3.09540   90.68390    0.13100
 9973.50000   12.60340    0.08180   72.71020  123.36260   -0.00380    3.08750   99.37370    0.15990
 9974.00000   12.60260    0.08870   75.77170  124.78300   -0.00660    3.07960  112.75620    0.18130
 9974.50000   12.63050    0.09150   77.43710  126.37600   -0.00880    3.11470  115.86440    0.19010
 9975.00000   12.64680    0.08760   77.87640  128.51010   -0.00780    3.21410  110.74050    0.19310
 9975.50000   12.65080    0.08590   77.93480  128.79940   -0.00680    3.26660  106.07680    0.18200
 9976.00000   12.65480    0.08810   78.24740  124.79340   -0.00670    3.26280  103.28210    0.17660
 9976.50000   12.65880    0.08280   75.78140  122.33870   -0.00530    3.28760  101.38690    0.15440
 9977.00000   12.66280    0.06950   69.16890  119.45870   -0.00320    3.39380   87.10710    0.12560
 9977.50000   12.66680    0.05220   65.28260  116.18950   -0.00110    3.55390   58.24350    0.06350
 9978.00000   12.67080    0.02440   62.66850  113.72860    0.00050    3.83060   45.92540    0.03600
 9978.50000   12.65700    0.02100   61.85790  112.56750    0.00180    3.91120   37.72680    0.03660
 9979.00000   12.65000    0.02690   64.10850  111.40650    0.00310    3.74190   42.90760    0.05560
 9979.50000   12.64310    0.03760   65.34290  111.76850    0.00400    3.43820   51.44670    0.08370
 9980.00000   12.63610    0.05180   67.53260  113.14860    0.00210    3.21640   65.43690    0.11180
 9980.50000   12.63050    0.05940   69.55750  116.20560    0.00030    3.03010   76.34730    0.13160
 9981.00000   12.63050    0.06510   72.66810  119.13810   -0.00160    3.00920   84.67460    0.13920
 9981.50000   12.63050    0.07370   74.48220  122.08740   -0.00230    2.98940   91.93030    0.14300
 9982.00000   12.63050    0.08220   73.68940  123.15410   -0.00230    2.96970   99.58390    0.14950
 9982.50000   12.63070    0.08070   73.93020  121.78570   -0.00230    2.94990  106.01380    0.15790
 9983.00000   12.63160    0.06930   72.42560  122.72410   -0.00190    2.94060  102.84390    0.14910
 9983.50000   12.63250    0.06180   70.93390  122.27270   -0.00060    2.99620  100.46660    0.13600
 9984.00000   12.63330    0.05930   70.52390  121.52100   -0.00130    3.11400   85.99590    0.12440
 9984.50000   12.63420    0.06330   70.13290  119.49340   -0.00200    3.26020   82.39970    0.12100
 9985.00000   12.63510    0.06960   68.94970  116.30610   -0.00310    3.39740   85.92000    0.12740
 9985.50000   12.63590    0.07140   67.20690  112.80390   -0.00330    3.69010   88.17540    0.13070
 9986.00000   12.63680    0.05780   65.10360  110.32610   -0.00340    3.97260   76.81840    0.10610
 9986.50000   12.63770    0.03300   62.80830  108.38870   -0.00190    4.32050   55.33110    0.05390
 9987.00000   12.63850    0.01230   61.19740  109.38330    0.00080    4.38320   35.51050    0.02990
 9987.50000   12.63940    0.01380   61.02500  108.16720    0.00090    3.93980   41.51430    0.04460
 9988.00000   12.64030    0.02850   64.49370  109.11900    0.00220    3.50090   56.93310    0.06730
 9988.50000   12.64110    0.04730   65.35990  111.18150    0.00090    3.08230   74.11550    0.09010
 9989.00000   12.64200    0.06140   68.78840  114.10230    0.00080    2.98910   89.36160    0.11380
 9989.50000   12.64290    0.06860   71.12410  114.61730   -0.00180    2.91730   92.67600    0.13420
 9990.00000   12.64370    0.06590   68.61230  115.33050   -0.00190    3.01500   90.57990    0.13080
 9990.50000   12.64440    0.06260   68.81780  116.64750   -0.00120    3.11350   85.47780    0.12930
 9991.00000   12.64440    0.06070   69.65620  117.89810   -0.00060    3.23700   79.05020    0.11620
 9991.50000   12.66840    0.06250   69.07990  114.92500   -0.00200    3.28700   75.69390    0.10210
 9992.00000   12.69360    0.06650   68.29560  112.73730   -0.00230    3.24940   74.75440    0.10040
 9992.50000   12.71180    0.06750   67.53810  113.25000   -0.00220    3.13560   74.05590    0.10590
 9993.00000   12.73000    0.06520   67.73380  113.74860   -0.00220    3.12150   73.21000    0.10900
 9993.50000   12.74820    0.06430   69.17150  114.19010   -0.00220    3.23120   77.85750    0.11000
 9994.00000   12.76640    0.06900   70.24650  114.12580   -0.00220    3.36830   86.71160    0.11800
 9994.50000   12.78460    0.07340   71.76460  115.63620   -0.00220    3.50400   97.08410    0.12810
 9995.00000   12.80280    0.06990   71.69120  116.16380   -0.00200    3.56320  104.54840    0.13830
 9995.50000   12.82100    0.05760   69.25460  117.03870    0.00010    3.61690  102.81100    0.13750
 9996.00000   12.83920    0.03970   68.23980  118.40350    0.00070    3.65050  100.36190    0.11160
 9996.50000   12.85380    0.03120   67.67070  116.31230    0.00120    3.55980   79.65980    0.08960
 9997.00000   12.85380    0.03740   66.72770  112.79670    0.00180    3.36940   80.94550    0.10180
 9997.50000   12.88170    0.05170   67.16970  113.06610    0.00080    3.23720   86.31570    0.11610
 9998.00000   12.89910    0.05950   68.86250  114.40720    0.00070    3.09860   89.71970    0.13040
 9998.50000   12.92090    0.06460   70.79300  114.83150    0.00040    2.96000   91.39080    0.13350
 9999.00000   12.94270    0.07060   72.51700  114.27860   -0.00020    2.92280   97.16760    0.14180
 9999.50000   12.96540    0.07850   72.04950  117.05740   -0.00090    2.90320   99.79230    0.16980
