~Version ---------------------------------------------------
VERS.   2.0 : CWLS log ASCII Standard -VERSION 2.0
WRAP.    NO : One line per depth step
DLM . SPACE : Column Data Section Delimiter
~Well ------------------------------------------------------
STRT .F                 411.0 : START DEPTH
STOP .F                9424.0 : STOP DEPTH
STEP .F                   0.5 : STEP
NULL .               -9999.25 : NULL VALUE
COMP .                        : COMPANY
WELL .                        : WELL
FLD  .                        : FIELD
LOC  .                        : LOCATION
PROV .                        : PROVINCE
CNTY .                        : COUNTY
STAT .                        : STATE
CTRY .                        : COUNTRY
SRVC .                        : SERVICE COMPANY
DATE .                        : DATE
UWI  .                        : UNIQUE WELL ID
API  .                        : API NUMBER
SLAT .WGS84 5.407728042412799 : SURFACE LATITUDE
SLON .WGS84 2.504718022797306 : SURFACE LONGITUDE
DATUM.F               1273.61 : DEPTH DATUM ELEV
~Curve Information -----------------------------------------
DEPT     .F     : 1 MEASURED DEPTH
DPHZ_LS  .DEC   : HGRD STANDARD RESOLUTION DENSITY POROSITY
NPHI_LS  .DEC   : NEUTRON POROSITY LIMESTONE
PEFZ     .B/E   : HRDD STANDARD RESOLUTION FORMATION PHOTOELECTRIC FACTOR
RHOZ     .G/C3  : HRDD STANDARD RESOLUTION FORMATION DENSITY
HDRA     .G/C3  : HRDD SPINE AND RIBS DENSITY CORRECTION
DTSM_FAST.US/F  : SHEAR SLOWNESS OF FAST SHEAR WAVES
DTSM_SLOW.US/F  : SHEAR SLOWNESS OF SLOW SHEAR WAVES
AHT20    .OHMM  : ARRAY INDUCTION TWO FOOT RESISTIVITY A20
AHT30    .OHMM  : ARRAY INDUCTION TWO FOOT RESISTIVITY A30
AHT60    .OHMM  : ARRAY INDUCTION TWO FOOT RESISTIVITY A60
CALR     .IN    : CALIPER FROM RESISTIVITY LOG
GRR      .GAPI  : GAMMA RAY FROM RESISTIVITY LOG
SPR      .MV    : SPONTANEOUS POTENTIAL FROM RESISTIVITY LOG
AHF20    .OHMM  : ARRAY INDUCTION FOUR FOOT RESISTIVITY A20
AHF60    .OHMM  : ARRAY INDUCTION FOUR FOOT RESISTIVITY A60
AHFCO60  .MMHO  : ARRAY INDUCTION FOUR FOOT CONDUCTIVITY A60
DTCO     .US/F  : DELTA-T COMPRESSIONAL
DTSM     .US/F  : DELTA-T SHEAR
~Params ----------------------------------------------------
~Other -----------------------------------------------------
~ASCII -----------------------------------------------------
# ...
 9069.00000    0.01800    0.21680    3.69090    2.68240    0.18600  143.11340  144.36720    8.50230    8.26780    8.01680    8.38190  127.74690 -467.00200   -9999.25   -9999.25   -9999.25   74.88660  140.12120
 9069.50000    0.01520    0.22000    3.61350    2.67900    0.16500  143.50660  144.76030    8.14220    7.87500    7.66360    8.62250  125.98230 -466.32790   -9999.25   -9999.25   -9999.25   75.44240  140.62820
 9070.00000    0.02920    0.22720    3.54270    2.66000    0.13840  143.89970  145.15340    7.79730    7.50090    7.29000    8.82430  126.72240 -465.65380   -9999.25   -9999.25   -9999.25   75.67200  140.14790
 9070.50000    0.04700    0.23530    3.48640    2.63030    0.11230  144.29280  145.54650    7.51670    7.31970    7.00790    8.79970  130.69800 -465.15640   -9999.25   -9999.25   -9999.25   75.80020  139.50600
 9071.00000    0.05440    0.23670    3.47290    2.61740    0.09820  143.72160  144.98100    7.52400    7.37550    7.21510    8.70590  133.05640 -464.91670   -9999.25   -9999.25   -9999.25   76.08350  138.86410
 9071.50000    0.05950    0.23300    3.47330    2.61020    0.09640  143.13520  144.39450    8.00250    7.73010    7.54060    8.73550  132.24480 -464.91890   -9999.25   -9999.25   -9999.25   75.97640  137.85570
 9072.00000    0.05370    0.22830    3.47400    2.62100    0.10800  142.38820  143.66330    8.51150    8.31250    8.10880    8.39840  127.86130 -465.09990   -9999.25   -9999.25   -9999.25   75.68310  136.99350
 9072.50000    0.05110    0.23210    3.46300    2.62400    0.11470  141.39880  142.67430    8.91720    8.74180    8.60660    8.46400  125.36300 -465.51880   -9999.25   -9999.25   -9999.25   75.16610  136.13130
 9073.00000    0.05280    0.24110    3.41770    2.62160    0.10560  140.40950  141.68530    9.22060    9.05290    8.83810    8.55350  124.34750 -465.93770   -9999.25   -9999.25   -9999.25   74.55470  135.38110
 9073.50000    0.05550    0.23680    3.34620    2.61390    0.09630  139.42020  140.69630    9.53440    9.37560    9.07580    8.47150  123.13510 -466.31050   -9999.25   -9999.25   -9999.25   73.43010  134.93940
 9074.00000    0.06740    0.22230    3.29140    2.59760    0.08980  139.62150  140.89670   10.09340    9.76750    9.58460    8.23500  120.60520 -466.76110   -9999.25   -9999.25   -9999.25   72.21910  135.26990
 9074.50000    0.07510    0.20310    3.27320    2.58250    0.09180  140.69180  142.04920   10.20070    9.99480    9.76540    8.10950  116.77550 -467.36110   -9999.25   -9999.25   -9999.25   72.18070  136.02570
 9075.00000    0.07810    0.19380    3.29260    2.57810    0.10590  141.76200  143.65520    9.67260    9.52740    9.30590    7.94720  112.94660 -468.26790   -9999.25   -9999.25   -9999.25   72.62610  136.80910
 9075.50000    0.07970    0.19840    3.35140    2.57440    0.13040  142.83220  145.26120    9.15810    9.08200    8.88520    7.95430  113.59120 -469.13380   -9999.25   -9999.25   -9999.25   73.22060  137.59260
 9076.00000    0.08380    0.20530    3.41010    2.56960    0.15270  143.88330  145.49980    8.81600    8.75000    8.54220    8.04860  119.57890 -469.86500   -9999.25   -9999.25   -9999.25   73.65280  138.70860
 9076.50000    0.08900    0.21120    3.43580    2.55920    0.15660  144.43800  145.69550    8.75040    8.62150    8.31420    8.12890  125.98960 -470.42400   -9999.25   -9999.25   -9999.25   74.16140  140.21200
 9077.00000    0.08390    0.21880    3.44250    2.56850    0.15440  144.99260  146.25020    8.93220    8.70080    8.44840    8.26940  128.29750 -470.90840   -9999.25   -9999.25   -9999.25   74.54510  141.14250
 9077.50000    0.07100    0.21840    3.44330    2.59600    0.15630  145.54720  146.80500    9.06340    8.78080    8.58480    8.32150  125.89890 -471.40040   -9999.25   -9999.25   -9999.25   74.97020  142.07300
 9078.00000    0.05760    0.21790    3.43150    2.61280    0.15540  146.10190  147.35970    9.06340    8.85900    8.71170    8.26630  124.34480 -471.83370   -9999.25   -9999.25   -9999.25   75.49650  142.96790
 9078.50000    0.05710    0.22440    3.40550    2.61200    0.14100  146.65650  147.91440    9.06340    8.78860    8.60270    8.33350  124.86330 -471.86970   -9999.25   -9999.25   -9999.25   76.20810  143.55530
 9079.00000    0.06220    0.23320    3.40480    2.60330    0.13330  147.21110  148.46910    9.05210    8.71870    8.49500    8.54160  127.32160 -471.60710   -9999.25   -9999.25   -9999.25   76.56790  143.70920
 9079.50000    0.06350    0.24270    3.42150    2.60370    0.12780  147.48050  148.73050    8.96930    8.64940    8.38870    8.79190  130.69170 -471.34460   -9999.25   -9999.25   -9999.25   76.83450  143.74090
 9080.00000    0.05840    0.24790    3.43770    2.61240    0.12230  147.34950  148.59950    8.88720    8.57970    8.28370    8.51920  132.88170 -471.30560   -9999.25   -9999.25   -9999.25   76.90430  143.81280
 9080.50000    0.05720    0.24990    3.44320    2.61280    0.11750  147.21840  148.46850    8.80590    8.50970    8.18000    8.41120  133.21930 -471.31660   -9999.25   -9999.25   -9999.25   76.78920  144.12470
 9081.00000    0.05730    0.24590    3.46200    2.61190    0.11890  147.31920  148.57390    8.76010    8.44020    8.10020    8.17240  131.51530 -471.17030   -9999.25   -9999.25   -9999.25   76.38450  144.46270
 9081.50000    0.06660    0.23800    3.49360    2.59530    0.12620  147.77300  149.02750    8.71480    8.38540    8.04960    8.23540  130.01940 -471.39680   -9999.25   -9999.25   -9999.25   76.56430  144.62410
 9082.00000    0.07570    0.23860    3.51770    2.57990    0.13240  148.07490  149.32770    8.57230    8.21430    7.93460    8.38090  130.42350 -471.33180   -9999.25   -9999.25   -9999.25   76.67290  144.04310
 9082.50000    0.08590    0.24860    3.51140    2.55820    0.13680  147.72710  148.97990    8.22320    8.00620    7.85010    8.45980  132.21930 -471.24920   -9999.25   -9999.25   -9999.25   76.72200  143.53240
 9083.00000    0.07960    0.25490    3.48560    2.57860    0.13550  147.37930  148.63220    8.24430    8.06440    7.96080    8.71310  132.90260 -471.26360   -9999.25   -9999.25   -9999.25   76.42030  143.68270
 9083.50000    0.06610    0.25700    3.53610    2.60090    0.13420  147.03150  148.28440    8.53960    8.29560    8.08900    8.75830  135.56480 -471.44320   -9999.25   -9999.25   -9999.25   76.04860  143.71860
 9084.00000    0.05310    0.25260    3.56740    2.62180    0.13270  146.85260  148.10230    8.84540    8.53350    8.21920    8.69770  139.46760 -471.09330   -9999.25   -9999.25   -9999.25   75.80960  143.25100
 9084.50000    0.04020    0.24540    3.56920    2.64030    0.12860  146.82860  148.07830    8.98810    8.76730    8.35160    8.48910  140.32490 -470.10170   -9999.25   -9999.25   -9999.25   75.77710  142.78350
 9085.00000    0.03210    0.24120    3.52510    2.65460    0.10750  146.80460  148.05430    8.89560    8.75940    8.47630    8.67740  137.09800 -469.26890   -9999.25   -9999.25   -9999.25   75.76230  143.16790
 9085.50000    0.02780    0.23990    3.49040    2.66170    0.09280  146.78060  148.03030    8.80400    8.64430    8.40250    8.94670  133.35250 -469.38010   -9999.25   -9999.25   -9999.25   75.77560  143.59590
 9086.00000    0.04400    0.23580    3.48370    2.63130    0.08390  146.93870  148.19100    8.71340    8.53060    8.30360    8.86770  132.39920 -469.49140   -9999.25   -9999.25   -9999.25   75.88980  143.80910
 9086.50000    0.06000    0.23090    3.47730    2.60600    0.09270  147.25620  148.50860    8.62190    8.41850    8.20590    8.73170  133.04240 -469.54870   -9999.25   -9999.25   -9999.25   75.94680  143.73240
 9087.00000    0.06360    0.23030    3.47210    2.60180    0.10740  147.57380  148.82610    8.45870    8.30780    8.10930    8.61350  135.92630 -469.54870   -9999.25   -9999.25   -9999.25   75.91070  143.19750
 9087.50000    0.06190    0.23640    3.52680    2.60480    0.11790  147.89130  149.14360    8.46480    8.26170    8.02680    8.62800  138.25970 -469.54870   -9999.25   -9999.25   -9999.25   75.82450  142.53550
 9088.00000    0.05200    0.24270    3.54530    2.62220    0.11720  146.86950  148.14620    8.59940    8.39310    8.23550    8.52280  135.35120 -469.53030   -9999.25   -9999.25   -9999.25   75.79120  142.15500
