~Version ---------------------------------------------------
VERS.   2.0 : CWLS log ASCII Standard -VERSION 2.0
WRAP.    NO : One line per depth step
DLM . SPACE : Column Data Section Delimiter
~Well ------------------------------------------------------
STRT .F                 411.0 : START DEPTH
STOP .F                9424.0 : STOP DEPTH
STEP .F                   0.5 : STEP
NULL .               -9999.25 : NULL VALUE
COMP .                        : COMPANY
WELL .                        : WELL
FLD  .                        : FIELD
LOC  .                        : LOCATION
PROV .                        : PROVINCE
CNTY .                        : COUNTY
STAT .                        : STATE
CTRY .                        : COUNTRY
SRVC .                        : SERVICE COMPANY
DATE .                        : DATE
UWI  .                        : UNIQUE WELL ID
API  .                        : API NUMBER
SLAT .WGS84 5.407728042412799 : SURFACE LATITUDE
SLON .WGS84 2.504718022797306 : SURFACE LONGITUDE
DATUM.F               1273.61 : DEPTH DATUM ELEV
~Curve Information -----------------------------------------
DEPT     .F     : 1 MEASURED DEPTH
DPHZ_LS  .DEC   : HGRD STANDARD RESOLUTION DENSITY POROSITY
NPHI_LS  .DEC   : NEUTRON POROSITY LIMESTONE
PEFZ     .B/E   : HRDD STANDARD RESOLUTION FORMATION PHOTOELECTRIC FACTOR
RHOZ     .G/C3  : HRDD STANDARD RESOLUTION FORMATION DENSITY
HDRA     .G/C3  : HRDD SPINE AND RIBS DENSITY CORRECTION
DTSM_FAST.US/F  : SHEAR SLOWNESS OF FAST SHEAR WAVES
DTSM_SLOW.US/F  : SHEAR SLOWNESS OF SLOW SHEAR WAVES
AHT20    .OHMM  : ARRAY INDUCTION TWO FOOT RESISTIVITY A20
AHT30    .OHMM  : ARRAY INDUCTION TWO FOOT RESISTIVITY A30
AHT60    .OHMM  : ARRAY INDUCTION TWO FOOT RESISTIVITY A60
CALR     .IN    : CALIPER FROM RESISTIVITY LOG
GRR      .GAPI  : GAMMA RAY FROM RESISTIVITY LOG
SPR      .MV    : SPONTANEOUS POTENTIAL FROM RESISTIVITY LOG
AHF20    .OHMM  : ARRAY INDUCTION FOUR FOOT RESISTIVITY A20
AHF60    .OHMM  : ARRAY INDUCTION FOUR FOOT RESISTIVITY A60
AHFCO60  .MMHO  : ARRAY INDUCTION FOUR FOOT CONDUCTIVITY A60
DTCO     .US/F  : DELTA-T COMPRESSIONAL
DTSM     .US/F  : DELTA-T SHEAR
~Params ----------------------------------------------------
~Other -----------------------------------------------------
~ASCII -----------------------------------------------------
# ...
 8269.50000    0.09730    0.25230    3.30330    2.54360    0.13290   -9999.25   -9999.25    8.81070    8.68010    8.53420    7.66870  134.93470 -115.13200   -9999.25   -9999.25   -9999.25   74.80820  139.55760
 8270.00000    0.09190    0.24280    3.33850    2.55290    0.13950   -9999.25   -9999.25    8.80970    8.59980    8.49630    7.67050  134.22310 -115.21110   -9999.25   -9999.25   -9999.25   74.81870  139.61160
 8270.50000    0.08080    0.23380    3.36150    2.57170    0.15110   -9999.25   -9999.25    8.89810    8.69460    8.55730    7.67040  130.88070 -115.32740   -9999.25   -9999.25   -9999.25   74.70880  139.66550
 8271.00000    0.07580    0.22980    3.36390    2.58050    0.15860   -9999.25   -9999.25    8.98730    8.82840    8.65420    7.66310  125.58540 -115.64830   -9999.25   -9999.25   -9999.25   74.81930  139.71950
 8271.50000    0.08030    0.23120    3.33210    2.57280    0.14780   -9999.25   -9999.25    8.99060    8.88240    8.75220    7.65470  122.67280 -116.19010   -9999.25   -9999.25   -9999.25   75.15600  139.77350
 8272.00000    0.09440    0.23550    3.27500    2.54860    0.13690   -9999.25   -9999.25    8.96840    8.86400    8.76980    7.65410  125.16830 -116.73960   -9999.25   -9999.25   -9999.25   75.04710  139.82750
 8272.50000    0.10120    0.23990    3.21790    2.53810    0.13200   -9999.25   -9999.25    8.94620    8.84560    8.73300    7.66290  128.34230 -116.98100   -9999.25   -9999.25   -9999.25   74.64120  139.88140
 8273.00000    0.09840    0.24330    3.19530    2.54450    0.13960   -9999.25   -9999.25    8.92410    8.82720    8.69630    7.67180  128.59600 -117.04460   -9999.25   -9999.25   -9999.25   74.24950  139.93540
 8273.50000    0.09070    0.24540    3.20340    2.55510    0.14650   -9999.25   -9999.25    8.90210    8.74280    8.64730    7.67870  129.36240 -117.33410   -9999.25   -9999.25   -9999.25   74.20090  139.94280
 8274.00000    0.08930    0.24870    3.22870    2.55740    0.14430   -9999.25   -9999.25    8.88010    8.64540    8.54960    7.65190  133.82750 -117.78140   -9999.25   -9999.25   -9999.25   73.79560  139.83890
 8274.50000    0.09520    0.25080    3.26880    2.55030    0.12910   -9999.25   -9999.25    8.91370    8.76390    8.49100    7.64840  136.93910 -118.08920   -9999.25   -9999.25   -9999.25   73.42820  139.41000
 8275.00000    0.09610    0.25110    3.31680    2.54780    0.12310   -9999.25   -9999.25    8.95410    8.87370    8.56370    7.65880  139.56080 -118.29020   -9999.25   -9999.25   -9999.25   73.52650  138.68420
 8275.50000    0.10000    0.25030    3.35570    2.53840    0.12550   -9999.25   -9999.25    8.99460    8.90800    8.71240    7.66040  141.16660 -118.49120   -9999.25   -9999.25   -9999.25   73.96270  137.80720
 8276.00000    0.10620    0.24930    3.39460    2.52840    0.13950   -9999.25   -9999.25    8.90190    8.79190    8.59300    7.66940  141.51680 -118.52880   -9999.25   -9999.25   -9999.25   73.97850  137.01130
 8276.50000    0.09000    0.24420    3.42410    2.56080    0.15470   -9999.25   -9999.25    8.81820    8.70060    8.51520    7.67860  139.78400 -118.18420   -9999.25   -9999.25   -9999.25   73.63850  136.83760
 8277.00000    0.06050    0.23470    3.44610    2.61150    0.17330   -9999.25   -9999.25    9.16620    8.95010    8.78800    7.69960  136.73460 -119.06200   -9999.25   -9999.25   -9999.25   73.13130  136.58030
 8277.50000    0.04520    0.22410    3.43390    2.63190    0.17290   -9999.25   -9999.25    9.51370    9.29140    9.16760    7.66100  134.52740 -119.82640   -9999.25   -9999.25   -9999.25   72.58700  135.67190
 8278.00000    0.05480    0.22450    3.39880    2.61650    0.16230   -9999.25   -9999.25    9.59080    9.39070    9.27380    7.61080  133.02600 -120.13260   -9999.25   -9999.25   -9999.25   72.39650  134.83040
 8278.50000    0.06720    0.22750    3.32610    2.59590    0.14120   -9999.25   -9999.25    9.48600    9.33120    9.16170    7.59750  131.71850 -119.93760   -9999.25   -9999.25   -9999.25   72.65480  134.03390
 8279.00000    0.06720    0.22980    3.28310    2.59560    0.12720   -9999.25   -9999.25    9.55630    9.43600    9.21460    7.61260  130.91520 -119.74260   -9999.25   -9999.25   -9999.25   73.07020  133.75010
 8279.50000    0.06950    0.23210    3.26940    2.59210    0.11110   -9999.25   -9999.25    9.71780    9.55900    9.35580    7.59900  129.70890 -119.54760   -9999.25   -9999.25   -9999.25   72.99430  134.32120
 8280.00000    0.07480    0.23370    3.26860    2.58290    0.09320   -9999.25   -9999.25    9.88200    9.70040    9.49920    7.59420  127.95770 -119.33390   -9999.25   -9999.25   -9999.25   72.61620  134.60390
 8280.50000    0.07030    0.22880    3.26880    2.58950    0.07620   -9999.25   -9999.25   10.04900    9.84880    9.64480    7.58980  125.68150 -119.12000   -9999.25   -9999.25   -9999.25   72.36420  134.74000
 8281.00000    0.06810    0.22080    3.28540    2.59460    0.06030   -9999.25   -9999.25   10.21880    9.99960    9.80070    7.58860  124.57070 -118.96810   -9999.25   -9999.25   -9999.25   72.44300  134.87520
 8281.50000    0.06830    0.21670    3.30240    2.59520    0.05960   -9999.25   -9999.25   10.39140   10.15260    9.94000    7.58440  124.50570 -118.89670   -9999.25   -9999.25   -9999.25   72.78350  135.34000
 8282.00000    0.06660    0.22040    3.30940    2.59910    0.07830   -9999.25   -9999.25   10.34920   10.12260    9.80360    7.56950  126.06510 -118.81220   -9999.25   -9999.25   -9999.25   72.87120  135.80950
 8282.50000    0.05570    0.22280    3.30510    2.61460    0.09940   -9999.25   -9999.25   10.24760   10.01780    9.65010    7.62340  128.97520 -118.84900   -9999.25   -9999.25   -9999.25   73.04760  135.79860
 8283.00000    0.04470    0.21900    3.26230    2.63380    0.11040   -9999.25   -9999.25   10.14700    9.91430    9.60340    7.62740  131.27090 -119.09850   -9999.25   -9999.25   -9999.25   73.21040  134.53210
 8283.50000    0.05490    0.21450    3.17120    2.61620    0.10400   -9999.25   -9999.25   10.04740    9.88450    9.65210    7.60630  134.35840 -119.28010   -9999.25   -9999.25   -9999.25   73.23330  134.44280
 8284.00000    0.06710    0.21340    3.11930    2.59560    0.09030   -9999.25   -9999.25    9.98280    9.85490    9.56620    7.58580  136.38100 -119.07530   -9999.25   -9999.25   -9999.25   73.22540  134.93510
 8284.50000    0.07670    0.22350    3.09290    2.57890    0.08260   -9999.25   -9999.25   10.00450    9.82530    9.48110    7.56840  138.26470 -119.03780   -9999.25   -9999.25   -9999.25   73.03100  135.36670
 8285.00000    0.07520    0.23560    3.09540    2.58150    0.07560   -9999.25   -9999.25   10.02620    9.79580    9.50860    7.57740  137.59050 -119.04920   -9999.25   -9999.25   -9999.25   72.75810  135.16270
 8285.50000    0.06840    0.23870    3.12210    2.59330    0.07220   -9999.25   -9999.25   10.04800    9.77720    9.55400    7.58560  133.92840 -119.29360   -9999.25   -9999.25   -9999.25   72.82580  134.70110
 8286.00000    0.06520    0.21430    3.15410    2.59840    0.07270   -9999.25   -9999.25   10.06990    9.81980    9.59970    7.58570  129.10500 -119.83270   -9999.25   -9999.25   -9999.25   72.76190  134.52800
 8286.50000    0.05460    0.20280    3.19770    2.61690    0.07550   -9999.25   -9999.25   10.09180    9.86260    9.64560    7.58240  124.85250 -120.07820   -9999.25   -9999.25   -9999.25   72.64390  134.41530
 8287.00000    0.04930    0.20580    3.24130    2.62570    0.08320   -9999.25   -9999.25   10.10670    9.90560    9.69160    7.56890  124.66710 -120.10610   -9999.25   -9999.25   -9999.25   72.71670  134.28580
 8287.50000    0.04480    0.21300    3.27990    2.63360    0.09310   -9999.25   -9999.25   10.10520    9.94880    9.71830    7.59610  128.16870 -120.23870   -9999.25   -9999.25   -9999.25   72.95990  134.23700
 8288.00000    0.04720    0.21740    3.31160    2.63160    0.10590   -9999.25   -9999.25   10.10360    9.93820    9.67090    7.62430  130.58120 -119.75500   -9999.25   -9999.25   -9999.25   72.92130  134.18820
 8288.50000    0.04570    0.22000    3.35590    2.63300    0.12140   -9999.25   -9999.25   10.10210    9.87760    9.62380    7.62490  132.51910 -119.27240   -9999.25   -9999.25   -9999.25   72.49240  133.85860
