~Version ---------------------------------------------------
VERS.   2.0 : CWLS log ASCII Standard -VERSION 2.0
WRAP.    NO : One line per depth step
DLM . SPACE : Column Data Section Delimiter
~Well ------------------------------------------------------
STRT .F                 411.0 : START DEPTH
STOP .F                9424.0 : STOP DEPTH
STEP .F                   0.5 : STEP
NULL .               -9999.25 : NULL VALUE
COMP .                        : COMPANY
WELL .                        : WELL
FLD  .                        : FIELD
LOC  .                        : LOCATION
PROV .                        : PROVINCE
CNTY .                        : COUNTY
STAT .                        : STATE
CTRY .                        : COUNTRY
SRVC .                        : SERVICE COMPANY
DATE .                        : DATE
UWI  .                        : UNIQUE WELL ID
API  .                        : API NUMBER
SLAT .WGS84 5.407728042412799 : SURFACE LATITUDE
SLON .WGS84 2.504718022797306 : SURFACE LONGITUDE
DATUM.F               1273.61 : DEPTH DATUM ELEV
~Curve Information -----------------------------------------
DEPT     .F     : 1 MEASURED DEPTH
DPHZ_LS  .DEC   : HGRD STANDARD RESOLUTION DENSITY POROSITY
NPHI_LS  .DEC   : NEUTRON POROSITY LIMESTONE
PEFZ     .B/E   : HRDD STANDARD RESOLUTION FORMATION PHOTOELECTRIC FACTOR
RHOZ     .G/C3  : HRDD STANDARD RESOLUTION FORMATION DENSITY
HDRA     .G/C3  : HRDD SPINE AND RIBS DENSITY CORRECTION
DTSM_FAST.US/F  : SHEAR SLOWNESS OF FAST SHEAR WAVES
DTSM_SLOW.US/F  : SHEAR SLOWNESS OF SLOW SHEAR WAVES
AHT20    .OHMM  : ARRAY INDUCTION TWO FOOT RESISTIVITY A20
AHT30    .OHMM  : ARRAY INDUCTION TWO FOOT RESISTIVITY A30
AHT60    .OHMM  : ARRAY INDUCTION TWO FOOT RESISTIVITY A60
CALR     .IN    : CALIPER FROM RESISTIVITY LOG
GRR      .GAPI  : GAMMA RAY FROM RESISTIVITY LOG
SPR      .MV    : SPONTANEOUS POTENTIAL FROM RESISTIVITY LOG
AHF20    .OHMM  : ARRAY INDUCTION FOUR FOOT RESISTIVITY A20
AHF60    .OHMM  : ARRAY INDUCTION FOUR FOOT RESISTIVITY A60
AHFCO60  .MMHO  : ARRAY INDUCTION FOUR FOOT CONDUCTIVITY A60
DTCO     .US/F  : DELTA-T COMPRESSIONAL
DTSM     .US/F  : DELTA-T SHEAR
~Params ----------------------------------------------------
~Other -----------------------------------------------------
~ASCII -----------------------------------------------------
# ...
 7294.50000    0.15950    0.17490    2.66650    2.46630    0.06770   -9999.25   -9999.25    6.96830    6.47790    7.40890    7.58400   91.72160  -81.08060   -9999.25   -9999.25   -9999.25   64.02010  133.54760
 7295.00000    0.20760    0.22720    2.76610    2.36660    0.12370   -9999.25   -9999.25    6.22250    5.85160    6.76660    7.59080   97.55960  -83.76500   -9999.25   -9999.25   -9999.25   65.87120  132.98900
 7295.50000    0.19910    0.25660    2.81300    2.36950    0.15770   -9999.25   -9999.25    5.52540    5.09460    6.17990    7.68740  104.25410  -86.66580   -9999.25   -9999.25   -9999.25   68.39130  130.60670
 7296.00000    0.14700    0.25340    2.70550    2.45870    0.13530   -9999.25   -9999.25    4.31640    3.74460    4.81160    7.64550  101.64610  -93.28290   -9999.25   -9999.25   -9999.25   70.18620  125.93420
 7296.50000    0.10890    0.20390    2.56610    2.52390    0.08410   -9999.25   -9999.25    3.29730    2.80180    3.52610    7.59250   93.09820  -98.34000   -9999.25   -9999.25   -9999.25   70.80530  122.27250
 7297.00000    0.13030    0.17550    2.42440    2.48720    0.03610   -9999.25   -9999.25    2.81000    2.63000    2.52150    7.57280   78.30070 -102.60450   -9999.25   -9999.25   -9999.25   70.31930  120.60360
 7297.50000    0.14340    0.16210    2.34950    2.46480    0.00560   -9999.25   -9999.25    3.02350    2.71160    2.48610    7.52900   69.32390 -106.11860   -9999.25   -9999.25   -9999.25   69.87360  118.95650
 7298.00000    0.14380    0.15330    2.36410    2.46410    0.00990   -9999.25   -9999.25    3.37130    2.84870    2.60500    7.50680   67.61220 -107.47380   -9999.25   -9999.25   -9999.25   69.43710  117.36430
 7298.50000    0.13730    0.14670    2.37880    2.47530    0.01600   -9999.25   -9999.25    3.97130    3.09040    2.74230    7.49120   69.19320 -108.87070   -9999.25   -9999.25   -9999.25   69.14270  116.36470
 7299.00000    0.13150    0.14680    2.35050    2.48520    0.01780   -9999.25   -9999.25    4.80140    3.19900    2.83820    7.46410   72.11820 -111.58830   -9999.25   -9999.25   -9999.25   69.31050  115.75370
 7299.50000    0.13220    0.15210    2.29210    2.48410    0.01520   -9999.25   -9999.25    4.54830    2.99320    2.77320    7.44070   72.08300 -116.24290   -9999.25   -9999.25   -9999.25   69.50710  115.32850
 7300.00000    0.13680    0.15860    2.18900    2.47830    0.01770   -9999.25   -9999.25    4.28610    2.85770    2.61350    7.41500   70.77030 -120.44220   -9999.25   -9999.25   -9999.25   69.34260  115.08390
 7300.50000    0.14220    0.16150    2.17440    2.46680    0.02210   -9999.25   -9999.25    4.20800    2.79830    2.45460    7.36770   69.09310 -126.90750   -9999.25   -9999.25   -9999.25   69.00420  114.75280
 7301.00000    0.14610    0.15310    2.16910    2.46020    0.04630   -9999.25   -9999.25    4.11350    2.73220    2.30520    7.29510   66.67520 -133.39500   -9999.25   -9999.25   -9999.25   68.63080  114.69820
 7301.50000    0.14930    0.14230    2.16730    2.45460    0.07720   -9999.25   -9999.25    3.97390    2.60640    2.06720    7.22260   61.70200 -139.17410   -9999.25   -9999.25   -9999.25   68.51730  114.36700
 7302.00000    0.15290    0.13610    2.14240    2.45050    0.08760   -9999.25   -9999.25    3.68420    2.44040    1.82790    7.17340   57.22070 -144.56930   -9999.25   -9999.25   -9999.25   68.53210  114.01420
 7302.50000    0.15180    0.13540    2.16870    2.45110    0.09260   -9999.25   -9999.25    3.22810    2.18120    1.65060    7.17320   54.72150 -149.60540   -9999.25   -9999.25   -9999.25   68.18510  113.66140
 7303.00000    0.15580    0.14280    2.17360    2.44640    0.09500   -9999.25   -9999.25    2.90740    1.94960    1.51500    7.18330   54.14510 -153.91560   -9999.25   -9999.25   -9999.25   67.20500  113.49470
 7303.50000    0.16930    0.14650    2.13360    2.42130    0.09160   -9999.25   -9999.25    2.63680    1.77550    1.39050    7.19770   52.22210 -156.58080   -9999.25   -9999.25   -9999.25   67.36780  113.68040
 7304.00000    0.18530    0.14510    2.07030    2.39310    0.07480   -9999.25   -9999.25    2.45290    1.63840    1.27630    7.18890   46.97770 -159.03980   -9999.25   -9999.25   -9999.25   67.80790  113.87800
 7304.50000    0.19590    0.14210    1.99860    2.37520    0.05790   -9999.25   -9999.25    2.22890    1.51180    1.18090    7.18030   42.89960 -160.14870   -9999.25   -9999.25   -9999.25   67.93890  114.53630
 7305.00000    0.19420    0.13890    1.93280    2.38020    0.05470   -9999.25   -9999.25    2.03910    1.39510    1.11680    7.20380   37.74600 -161.59880   -9999.25   -9999.25   -9999.25   67.68980  115.49260
 7305.50000    0.18700    0.13650    1.92260    2.39070    0.05930   -9999.25   -9999.25    1.93060    1.34550    1.05620    7.24980   37.74530 -163.04900   -9999.25   -9999.25   -9999.25   67.44260  116.42520
 7306.00000    0.18380    0.13460    1.94620    2.39610    0.06570   -9999.25   -9999.25    1.84830    1.30030    1.01350    7.25810   39.39090 -163.81710   -9999.25   -9999.25   -9999.25   66.78860  116.76520
 7306.50000    0.18310    0.13420    1.96710    2.39690    0.07480   -9999.25   -9999.25    1.81710    1.27230    0.99380    7.26410   41.38930 -164.93870   -9999.25   -9999.25   -9999.25   66.13450  115.87780
 7307.00000    0.18520    0.13410    1.99180    2.39390    0.07910   -9999.25   -9999.25    1.78650    1.30120    0.99580    7.24840   41.60500 -165.69450   -9999.25   -9999.25   -9999.25   65.58370  114.34950
 7307.50000    0.18520    0.13120    2.01170    2.39540    0.07740   -9999.25   -9999.25    1.84590    1.35070    1.02660    7.23410   39.21950 -165.92180   -9999.25   -9999.25   -9999.25   65.32150  112.82110
 7308.00000    0.18220    0.12320    2.00650    2.40210    0.07280   -9999.25   -9999.25    1.99740    1.44870    1.08940    7.21670   34.84990 -166.47450   -9999.25   -9999.25   -9999.25   65.25700  111.29270
 7308.50000    0.17510    0.11290    2.03790    2.41060    0.06780   -9999.25   -9999.25    2.17970    1.55450    1.15490    7.21740   31.65300 -167.37410   -9999.25   -9999.25   -9999.25   65.22630  109.76440
 7309.00000    0.17150    0.10700    2.05570    2.41680    0.06140   -9999.25   -9999.25    2.43770    1.66800    1.22430    7.23820   29.75220 -168.15770   -9999.25   -9999.25   -9999.25   65.28500  108.23600
 7309.50000    0.17060    0.10810    2.03280    2.41840    0.06250   -9999.25   -9999.25    2.47310    1.75210    1.25060    7.24700   30.30610 -168.90680   -9999.25   -9999.25   -9999.25   65.56360  106.70760
 7310.00000    0.17280    0.11120    2.01580    2.41450    0.05920   -9999.25   -9999.25    2.42600    1.73180    1.23220    7.24230   30.96980 -169.27570   -9999.25   -9999.25   -9999.25   65.84240  105.95870
 7310.50000    0.17870    0.11340    2.00690    2.40480    0.05580   -9999.25   -9999.25    2.29480    1.64520    1.21400    7.24790   31.64160 -169.42870   -9999.25   -9999.25   -9999.25   66.00860  105.85810
 7311.00000    0.18430    0.11450    2.00690    2.39500    0.05110   -9999.25   -9999.25    2.09350    1.56300    1.16850    7.26390   33.29120 -169.61670   -9999.25   -9999.25   -9999.25   66.00860  105.68370
 7311.50000    0.18930    0.11630    2.00690    2.38870    0.04620   -9999.25   -9999.25    1.82900    1.40360    1.10130    7.28360   34.42860 -170.30700   -9999.25   -9999.25   -9999.25   66.07930  105.41260
 7312.00000    0.18670    0.11680    2.01320    2.39390    0.04620   -9999.25   -9999.25    1.53490    1.24890    1.00680    7.29420   34.07230 -170.98710   -9999.25   -9999.25   -9999.25   66.15890  105.68120
 7312.50000    0.18270    0.11690    2.03800    2.39740    0.05000   -9999.25   -9999.25    1.34030    1.11120    0.91370    7.27340   32.44610 -171.25500   -9999.25   -9999.25   -9999.25   67.03480  107.08350
 7313.00000    0.18470    0.11590    2.11890    2.39650    0.05930   -9999.25   -9999.25    1.16990    0.98870    0.82930    7.21400   30.78620 -171.27160   -9999.25   -9999.25   -9999.25   68.86320  109.42790
 7313.50000    0.18950    0.11520    2.00210    2.38790    0.07460   -9999.25   -9999.25    1.06740    0.92920    0.80780    7.14390   29.72270 -169.55520   -9999.25   -9999.25   -9999.25   70.38500  112.36040
