~Version ---------------------------------------------------
VERS.   2.0 : CWLS log ASCII Standard -VERSION 2.0
WRAP.    NO : One line per depth step
DLM . SPACE : Column Data Section Delimiter
~Well ------------------------------------------------------
STRT .F                 411.0 : START DEPTH
STOP .F                9424.0 : STOP DEPTH
STEP .F                   0.5 : STEP
NULL .               -9999.25 : NULL VALUE
COMP .                        : COMPANY
WELL .                        : WELL
FLD  .                        : FIELD
LOC  .                        : LOCATION
PROV .                        : PROVINCE
CNTY .                        : COUNTY
STAT .                        : STATE
CTRY .                        : COUNTRY
SRVC .                        : SERVICE COMPANY
DATE .                        : DATE
UWI  .                        : UNIQUE WELL ID
API  .                        : API NUMBER
SLAT .WGS84 5.407728042412799 : SURFACE LATITUDE
SLON .WGS84 2.504718022797306 : SURFACE LONGITUDE
DATUM.F               1273.61 : DEPTH DATUM ELEV
~Curve Information -----------------------------------------
DEPT     .F     : 1 MEASURED DEPTH
DPHZ_LS  .DEC   : HGRD STANDARD RESOLUTION DENSITY POROSITY
NPHI_LS  .DEC   : NEUTRON POROSITY LIMESTONE
PEFZ     .B/E   : HRDD STANDARD RESOLUTION FORMATION PHOTOELECTRIC FACTOR
RHOZ     .G/C3  : HRDD STANDARD RESOLUTION FORMATION DENSITY
HDRA     .G/C3  : HRDD SPINE AND RIBS DENSITY CORRECTION
DTSM_FAST.US/F  : SHEAR SLOWNESS OF FAST SHEAR WAVES
DTSM_SLOW.US/F  : SHEAR SLOWNESS OF SLOW SHEAR WAVES
AHT20    .OHMM  : ARRAY INDUCTION TWO FOOT RESISTIVITY A20
AHT30    .OHMM  : ARRAY INDUCTION TWO FOOT RESISTIVITY A30
AHT60    .OHMM  : ARRAY INDUCTION TWO FOOT RESISTIVITY A60
CALR     .IN    : CALIPER FROM RESISTIVITY LOG
GRR      .GAPI  : GAMMA RAY FROM RESISTIVITY LOG
SPR      .MV    : SPONTANEOUS POTENTIAL FROM RESISTIVITY LOG
AHF20    .OHMM  : ARRAY INDUCTION FOUR FOOT RESISTIVITY A20
AHF60    .OHMM  : ARRAY INDUCTION FOUR FOOT RESISTIVITY A60
AHFCO60  .MMHO  : ARRAY INDUCTION FOUR FOOT CONDUCTIVITY A60
DTCO     .US/F  : DELTA-T COMPRESSIONAL
DTSM     .US/F  : DELTA-T SHEAR
~Params ----------------------------------------------------
~Other -----------------------------------------------------
~ASCII -----------------------------------------------------
# ...
 7938.00000    0.14370    0.11730    2.47660    2.46770    0.11380   -9999.25   -9999.25    4.48160    3.70280    3.11550    7.38090   50.64400 -163.30850   -9999.25   -9999.25   -9999.25   59.19130  123.09340
 7938.50000    0.19530    0.18660    2.72070    2.38030    0.14720   -9999.25   -9999.25    3.94250    3.16220    2.78030    7.41180   67.36190 -159.95580   -9999.25   -9999.25   -9999.25   60.19150  123.52450
 7939.00000    0.22120    0.25540    2.73420    2.33200    0.17290   -9999.25   -9999.25    3.51910    2.65270    2.40250    7.47800   83.15370 -162.86740   -9999.25   -9999.25   -9999.25   62.32610  120.15900
 7939.50000    0.20520    0.26060    2.65450    2.36670    0.16590   -9999.25   -9999.25    3.41000    2.58950    2.13530    7.49920   85.52390 -172.74080   -9999.25   -9999.25   -9999.25   63.63650  115.76330
 7940.00000    0.16530    0.22610    2.34430    2.42740    0.12900   -9999.25   -9999.25    3.40400    2.52780    1.99920    7.36440   70.67830 -182.53360   -9999.25   -9999.25   -9999.25   64.09320  111.48460
 7940.50000    0.14570    0.16360    2.15840    2.45980    0.09290   -9999.25   -9999.25    3.28770    2.36480    1.87860    7.30650   53.10040 -189.60310   -9999.25   -9999.25   -9999.25   64.46580  108.60580
 7941.00000    0.14600    0.13390    2.05160    2.45960    0.07600   -9999.25   -9999.25    3.17260    2.21640    1.76520    7.30420   39.55540 -194.72320   -9999.25   -9999.25   -9999.25   64.87990  107.28450
 7941.50000    0.15200    0.12070    2.01410    2.44980    0.07400   -9999.25   -9999.25    3.03610    2.13350    1.65870    7.30080   36.21680 -198.04460   -9999.25   -9999.25   -9999.25   64.92910  106.81020
 7942.00000    0.15620    0.11610    1.96530    2.44220    0.07720   -9999.25   -9999.25    2.89000    2.00060    1.55900    7.32240   37.12750 -201.80470   -9999.25   -9999.25   -9999.25   64.60730  106.01130
 7942.50000    0.15840    0.11140    1.97340    2.43910    0.07930   -9999.25   -9999.25    2.70750    1.87600    1.51490    7.29350   38.57660 -203.56450   -9999.25   -9999.25   -9999.25   64.20930  106.05410
 7943.00000    0.15590    0.10670    2.02800    2.44330    0.08460   -9999.25   -9999.25    2.57330    1.84370    1.47200    7.27730   36.51670 -205.10620   -9999.25   -9999.25   -9999.25   63.92160  106.79340
 7943.50000    0.15480    0.10370    2.07130    2.44530    0.08650   -9999.25   -9999.25    2.53610    1.83700    1.46350    7.27100   34.27160 -206.08280   -9999.25   -9999.25   -9999.25   63.84260  107.73740
 7944.00000    0.15520    0.10160    2.09430    2.44470    0.08600   -9999.25   -9999.25    2.53160    1.86170    1.47350    7.26160   33.66100 -206.76990   -9999.25   -9999.25   -9999.25   64.23320  108.94140
 7944.50000    0.15940    0.09950    2.11720    2.43530    0.08370   -9999.25   -9999.25    2.54290    1.88780    1.48360    7.25560   33.61000 -207.46240   -9999.25   -9999.25   -9999.25   64.59650  109.51710
 7945.00000    0.16190    0.10100    2.09250    2.43680    0.08530   -9999.25   -9999.25    2.55440    1.91420    1.48890    7.28250   33.14970 -207.71600   -9999.25   -9999.25   -9999.25   64.87050  109.60130
 7945.50000    0.15380    0.10350    2.02800    2.44940    0.09340   -9999.25   -9999.25    2.52020    1.89710    1.48520    7.30660   31.06350 -207.56840   -9999.25   -9999.25   -9999.25   65.15730  109.03060
 7946.00000    0.14590    0.10600    1.95520    2.46070    0.09400   -9999.25   -9999.25    2.46170    1.87670    1.47870    7.31550   29.16150 -207.16080   -9999.25   -9999.25   -9999.25   65.34400  108.12030
 7946.50000    0.14770    0.10660    1.96450    2.45840    0.09100   -9999.25   -9999.25    2.42560    1.85650    1.47230    7.32310   28.17410 -206.54550   -9999.25   -9999.25   -9999.25   65.31270  107.59460
 7947.00000    0.15330    0.10320    1.95730    2.44780    0.07880   -9999.25   -9999.25    2.44430    1.85220    1.47400    7.31470   28.82320 -204.98420   -9999.25   -9999.25   -9999.25   64.88300  107.98900
 7947.50000    0.15710    0.09940    1.96980    2.44050    0.07240   -9999.25   -9999.25    2.46310    1.82980    1.48260    7.30010   30.81360 -202.71490   -9999.25   -9999.25   -9999.25   65.05660  109.70110
 7948.00000    0.15820    0.09420    1.98960    2.44080    0.07840   -9999.25   -9999.25    2.42420    1.80620    1.49100    7.30660   32.57820 -200.05310   -9999.25   -9999.25   -9999.25   65.60300  113.27480
 7948.50000    0.15470    0.09250    2.05520    2.44540    0.08570   -9999.25   -9999.25    2.36490    1.78580    1.49640    7.30880   34.50180 -196.49230   -9999.25   -9999.25   -9999.25   66.70030  119.40610
 7949.00000    0.15420    0.09280    2.07710    2.44640    0.09380   -9999.25   -9999.25    2.31620    1.77140    1.50400    7.31760   36.11680 -191.76260   -9999.25   -9999.25   -9999.25   68.55330  126.02730
 7949.50000    0.15570    0.09660    2.11510    2.44410    0.08780   -9999.25   -9999.25    2.33420    1.82010    1.59840    7.33780   38.65220 -184.34990   -9999.25   -9999.25   -9999.25   69.52850  132.10250
 7950.00000    0.15740    0.10420    2.18880    2.44290    0.08200   -9999.25   -9999.25    2.52610    1.98740    1.78820    7.36560   45.17590 -174.17240   -9999.25   -9999.25   -9999.25   69.64250  133.49670
 7950.50000    0.15580    0.12680    2.26650    2.44440    0.08020   -9999.25   -9999.25    2.76880    2.16320    2.00050    7.39680   59.84760 -164.99060   -9999.25   -9999.25   -9999.25   69.65750  134.04170
 7951.00000    0.14680    0.16220    2.48440    2.45910    0.09370   -9999.25   -9999.25    2.99630    2.35450    2.23800    7.45040   89.88590 -157.50880   -9999.25   -9999.25   -9999.25   69.67250  131.86690
 7951.50000    0.14120    0.21520    2.69580    2.46850    0.13000   -9999.25   -9999.25    3.19000    2.56270    2.44960    7.43880  116.19540 -154.50360   -9999.25   -9999.25   -9999.25   69.56720  126.55010
 7952.00000    0.14690    0.25470    2.73130    2.45860    0.16350   -9999.25   -9999.25    3.56620    2.76810    2.59200    7.59400  130.54330 -155.07090   -9999.25   -9999.25   -9999.25   68.72330  119.51170
 7952.50000    0.13700    0.25910    2.66260    2.47580    0.17650   -9999.25   -9999.25    4.11570    2.94970    2.60570    7.61370  124.85280 -161.79580   -9999.25   -9999.25   -9999.25   66.03700  112.60360
 7953.00000    0.13970    0.24130    2.52070    2.47210    0.16080   -9999.25   -9999.25    4.33930    2.93710    2.41180    7.65460  105.31600 -172.62010   -9999.25   -9999.25   -9999.25   64.94130  110.45710
 7953.50000    0.14280    0.20970    2.34270    2.46630    0.13090   -9999.25   -9999.25    4.02160    2.71430    2.03540    7.54570   84.27280 -186.76320   -9999.25   -9999.25   -9999.25   65.72600  109.71130
 7954.00000    0.15980    0.17670    2.17530    2.43560    0.09360   -9999.25   -9999.25    2.93020    2.22790    1.69510    7.43100   55.35130 -196.42410   -9999.25   -9999.25   -9999.25   66.35190  109.68240
 7954.50000    0.16710    0.14140    2.07980    2.42380    0.08070   -9999.25   -9999.25    2.41740    1.82860    1.41170    7.41270   37.03070 -202.39080   -9999.25   -9999.25   -9999.25   66.66790  109.65820
 7955.00000    0.16130    0.12770    2.08750    2.43430    0.08170   -9999.25   -9999.25    2.10320    1.50090    1.18960    7.39970   30.36690 -205.24880   -9999.25   -9999.25   -9999.25   66.69780  109.63400
 7955.50000    0.15710    0.12780    2.09460    2.44140    0.08380   -9999.25   -9999.25    1.68610    1.32100    1.06690    7.40110   29.98730 -206.40410   -9999.25   -9999.25   -9999.25   66.67130  109.62000
 7956.00000    0.15650    0.13030    2.08090    2.44240    0.08860   -9999.25   -9999.25    1.51560    1.18090    1.04130    7.40540   31.44220 -207.41310   -9999.25   -9999.25   -9999.25   66.60970  109.86880
 7956.50000    0.16080    0.12920    2.05470    2.43500    0.09250   -9999.25   -9999.25    1.57850    1.31170    1.11000    7.40940   31.70090 -207.04520   -9999.25   -9999.25   -9999.25   66.96770  109.81380
 7957.00000    0.16780    0.12730    2.04650    2.42430    0.09340   -9999.25   -9999.25    1.72660    1.46850    1.17240    7.40520   30.47520 -206.52810   -9999.25   -9999.25   -9999.25   67.46240  109.75880
