~Version ---------------------------------------------------
VERS.   2.0 : CWLS log ASCII Standard -VERSION 2.0
WRAP.    NO : One line per depth step
DLM . SPACE : Column Data Section Delimiter
~Well ------------------------------------------------------
STRT .F                 411.0 : START DEPTH
STOP .F                9424.0 : STOP DEPTH
STEP .F                   0.5 : STEP
NULL .               -9999.25 : NULL VALUE
COMP .                        : COMPANY
WELL .                        : WELL
FLD  .                        : FIELD
LOC  .                        : LOCATION
PROV .                        : PROVINCE
CNTY .                        : COUNTY
STAT .                        : STATE
CTRY .                        : COUNTRY
SRVC .                        : SERVICE COMPANY
DATE .                        : DATE
UWI  .                        : UNIQUE WELL ID
API  .                        : API NUMBER
SLAT .WGS84 5.407728042412799 : SURFACE LATITUDE
SLON .WGS84 2.504718022797306 : SURFACE LONGITUDE
DATUM.F               1273.61 : DEPTH DATUM ELEV
~Curve Information -----------------------------------------
DEPT     .F     : 1 MEASURED DEPTH
DPHZ_LS  .DEC   : HGRD STANDARD RESOLUTION DENSITY POROSITY
NPHI_LS  .DEC   : NEUTRON POROSITY LIMESTONE
PEFZ     .B/E   : HRDD STANDARD RESOLUTION FORMATION PHOTOELECTRIC FACTOR
RHOZ     .G/C3  : HRDD STANDARD RESOLUTION FORMATION DENSITY
HDRA     .G/C3  : HRDD SPINE AND RIBS DENSITY CORRECTION
DTSM_FAST.US/F  : SHEAR SLOWNESS OF FAST SHEAR WAVES
DTSM_SLOW.US/F  : SHEAR SLOWNESS OF SLOW SHEAR WAVES
AHT20    .OHMM  : ARRAY INDUCTION TWO FOOT RESISTIVITY A20
AHT30    .OHMM  : ARRAY INDUCTION TWO FOOT RESISTIVITY A30
AHT60    .OHMM  : ARRAY INDUCTION TWO FOOT RESISTIVITY A60
CALR     .IN    : CALIPER FROM RESISTIVITY LOG
GRR      .GAPI  : GAMMA RAY FROM RESISTIVITY LOG
SPR      .MV    : SPONTANEOUS POTENTIAL FROM RESISTIVITY LOG
AHF20    .OHMM  : ARRAY INDUCTION FOUR FOOT RESISTIVITY A20
AHF60    .OHMM  : ARRAY INDUCTION FOUR FOOT RESISTIVITY A60
AHFCO60  .MMHO  : ARRAY INDUCTION FOUR FOOT CONDUCTIVITY A60
DTCO     .US/F  : DELTA-T COMPRESSIONAL
DTSM     .US/F  : DELTA-T SHEAR
~Params ----------------------------------------------------
~Other -----------------------------------------------------
~ASCII -----------------------------------------------------
# ...
 7606.50000    0.04980    0.19430    3.28680    2.62480    0.10450   -9999.25   -9999.25    8.66420    8.79570    9.63840    7.68740  112.45720 -121.13210   -9999.25   -9999.25   -9999.25   69.40000  126.39570
 7607.00000    0.04230    0.19070    3.26980    2.63830    0.10100   -9999.25   -9999.25    8.72530    8.86980    9.77490    7.69750  113.80850 -121.26100   -9999.25   -9999.25   -9999.25   68.57590  127.53560
 7607.50000    0.03900    0.18700    3.18570    2.64340    0.09880   -9999.25   -9999.25    8.78700    8.94440    9.79900    7.68320  113.65560 -122.44480   -9999.25   -9999.25   -9999.25   68.05900  129.76830
 7608.00000    0.04390    0.18380    3.07890    2.63490    0.09390   -9999.25   -9999.25    8.80080    9.01970    9.59940    7.67460  112.08230 -123.77510   -9999.25   -9999.25   -9999.25   70.40410  134.20800
 7608.50000    0.06380    0.18070    2.97470    2.59870    0.09140   -9999.25   -9999.25    8.71380    9.09570    9.40370    7.68160  110.82810 -125.25310   -9999.25   -9999.25   -9999.25   74.58050  138.81580
 7609.00000    0.09460    0.18710    2.90550    2.55780    0.11540   -9999.25   -9999.25    8.49540    8.79760    8.99430    7.68100  111.07530 -127.11530   -9999.25   -9999.25   -9999.25   78.38090  143.42350
 7609.50000    0.13990    0.21310    2.85350    2.47080    0.15580   -9999.25   -9999.25    7.48430    8.18220    8.44630    7.68260  114.55800 -128.89890   -9999.25   -9999.25   -9999.25   79.03820  146.35200
 7610.00000    0.18740    0.24430    2.74120    2.40110    0.24900   -9999.25   -9999.25    6.23560    6.61400    7.11530    7.69610  119.39590 -130.25510   -9999.25   -9999.25   -9999.25   78.52430  148.24600
 7610.50000    0.19840    0.27650    2.52910    2.37630    0.24930   -9999.25   -9999.25    5.51950    6.07750    6.34950    7.70030  122.62010 -131.37140   -9999.25   -9999.25   -9999.25   77.76260  147.15370
 7611.00000    0.16670    0.29150    2.34430    2.42690   -9999.25   -9999.25   -9999.25    5.52900    6.30610    6.45380    7.69850  122.56780 -133.25750   -9999.25   -9999.25   -9999.25   76.17430  143.70600
 7611.50000    0.13620    0.29130    2.23950    2.48870   -9999.25   -9999.25   -9999.25    5.69130    6.56570    6.71670    7.71070  120.68800 -135.27470   -9999.25   -9999.25   -9999.25   73.10000  140.94730
 7612.00000    0.10200    0.28480    2.26040    2.54340   -9999.25   -9999.25   -9999.25    6.09010    6.91790    7.39890    7.71030  116.92780 -136.80680   -9999.25   -9999.25   -9999.25   68.28030  138.37660
 7612.50000    0.03000    0.27260    2.43160    2.65840   -9999.25   -9999.25   -9999.25    7.01670    8.70280    9.42360    7.70990  112.97800 -138.33670   -9999.25   -9999.25   -9999.25   60.97440  133.23500
 7613.00000    0.01570    0.26540    2.75220    2.68410   -9999.25   -9999.25   -9999.25    8.54770    9.71690   10.39680    7.70990  102.39090 -139.34740   -9999.25   -9999.25   -9999.25   54.54690  126.55740
 7613.50000    0.06190    0.27650    3.23950    2.59350   -9999.25   -9999.25   -9999.25    7.14780    7.74350    9.54980    7.70400   93.93380 -140.04230   -9999.25   -9999.25   -9999.25   52.65990  119.87970
 7614.00000    0.05880    0.26670    3.70800    2.60920   -9999.25   -9999.25   -9999.25    9.81890   12.59020   16.83470    7.70980   81.17160 -141.34870   -9999.25   -9999.25   -9999.25   51.57550  112.71570
 7614.50000    0.00490    0.20290    4.21390    2.72180    0.24920   -9999.25   -9999.25   21.69140   27.73180   37.04450    7.68850   66.12320 -142.79120   -9999.25   -9999.25   -9999.25   50.44740  102.42810
 7615.00000   -0.09310    0.08760    4.69600    2.86770    0.24930   -9999.25   -9999.25   47.90650   61.59640   74.75970    7.63110   47.74110 -144.23370   -9999.25   -9999.25   -9999.25   49.89290   94.08240
 7615.50000   -0.05550    0.03210    5.15960    2.82810    0.10950   -9999.25   -9999.25  107.34470   83.68460  103.38680    7.61130   41.33810 -144.34660   -9999.25   -9999.25   -9999.25   49.38320   90.19610
 7616.00000   -0.02550    0.02020    5.24960    2.75360    0.02680   -9999.25   -9999.25  120.91710   90.90950  110.06350    7.59220   42.64280 -145.01890   -9999.25   -9999.25   -9999.25   48.94260   90.12540
 7616.50000   -0.01860    0.01380    5.20590    2.74040   -0.00650   -9999.25   -9999.25   96.61900   79.38180  119.14740    7.57920   48.30930 -146.56720   -9999.25   -9999.25   -9999.25   48.52520   91.48970
 7617.00000   -0.01730    0.01220    5.07360    2.74060   -0.01930   -9999.25   -9999.25   96.56050   77.42440  128.98100    7.57290   54.04040 -147.62960   -9999.25   -9999.25   -9999.25   48.53190   92.41540
 7617.50000   -0.02550    0.01050    4.99200    2.74880   -0.01710   -9999.25   -9999.25  115.65740   79.94050  138.91910    7.57640   55.88060 -148.33220   -9999.25   -9999.25   -9999.25   48.71600   92.49270
 7618.00000   -0.02810    0.00890    4.92370    2.75700   -0.01140   -9999.25   -9999.25  132.19880   92.83220  149.49180    7.57740   54.96430 -148.84500   -9999.25   -9999.25   -9999.25   49.00310   92.49670
 7618.50000   -0.02740    0.00860    4.86230    2.75620   -0.00180   -9999.25   -9999.25  147.99470  110.40680  180.01270    7.57700   50.35870 -149.89660   -9999.25   -9999.25   -9999.25   49.38780   92.35060
 7619.00000   -0.02200    0.00930    4.81910    2.74790    0.00260   -9999.25   -9999.25  176.31100  135.15110  216.76490    7.57690   47.36220 -151.72360   -9999.25   -9999.25   -9999.25   49.24000   92.22350
 7619.50000   -0.01480    0.00950    4.78310    2.73530    0.00380   -9999.25   -9999.25  210.45350  167.72590  261.10360    7.57690   46.82200 -153.12490   -9999.25   -9999.25   -9999.25   48.95000   92.11380
 7620.00000   -0.01040    0.00960    4.80270    2.72780    0.00330   -9999.25   -9999.25  229.22030  208.15190  302.57450    7.57780   47.89340 -155.05880   -9999.25   -9999.25   -9999.25   48.83250   91.80520
 7620.50000   -0.00680    0.01010    4.85000    2.72150    0.00280   -9999.25   -9999.25  239.59930  232.38590  339.49710    7.57850   49.46740 -157.29700   -9999.25   -9999.25   -9999.25   48.82420   91.47820
 7621.00000   -0.00550    0.01070    4.97410    2.71940    0.00230   -9999.25   -9999.25  263.07610  242.48400  368.83720    7.57770   50.28210 -159.93040   -9999.25   -9999.25   -9999.25   48.69630   91.20250
 7621.50000   -0.00150    0.01050    5.09250    2.71250    0.00190   -9999.25   -9999.25  293.43730  253.35600  383.32230    7.57820   50.10750 -162.56380   -9999.25   -9999.25   -9999.25   48.22790   90.98700
 7622.00000    0.00200    0.00910    5.20830    2.70660    0.00150   -9999.25   -9999.25  356.63320  272.51860  417.02680    7.57870   50.38880 -166.10240   -9999.25   -9999.25   -9999.25   48.01040   90.77150
 7622.50000    0.00380    0.00770    5.25860    2.70360    0.00120   -9999.25   -9999.25  485.29610  360.47760  586.72240    7.57800   51.03010 -170.24350   -9999.25   -9999.25   -9999.25   48.27430   90.55600
 7623.00000    0.00040    0.00680    5.25330    2.71030    0.00080   -9999.25   -9999.25  660.37680  501.98830  825.47000    7.57490   51.20420 -175.32780   -9999.25   -9999.25   -9999.25   48.37930   90.44960
 7623.50000   -0.00320    0.00640    5.24180    2.71550    0.00090   -9999.25   -9999.25  810.93910  642.93840 1056.19150    7.57110   48.61510 -180.80850   -9999.25   -9999.25   -9999.25   48.09150   90.38870
 7624.00000   -0.00780    0.00610    5.21100    2.72550    0.00170   -9999.25   -9999.25  806.55160  791.86760 1109.42410    7.57400   44.52650 -186.28920   -9999.25   -9999.25   -9999.25   48.06630   90.32790
 7624.50000   -0.01250    0.00490    5.16960    2.73120    0.00280   -9999.25   -9999.25  809.25800  909.28730 1077.10850    7.57690   42.36440 -192.92580   -9999.25   -9999.25   -9999.25   48.14910   90.26700
 7625.00000   -0.01920    0.00360    5.11350    2.74250    0.00410   -9999.25   -9999.25  826.42580  963.18840 1046.45450    7.57770   42.51720 -197.37270   -9999.25   -9999.25   -9999.25   48.29930   90.20610
 7625.50000   -0.02190    0.00300    5.13820    2.74780    0.00540   -9999.25   -9999.25  845.02280 1020.28520 1086.51330    7.57820   44.12450 -200.90560   -9999.25   -9999.25   -9999.25   48.32930   90.21700
