~Version ---------------------------------------------------
VERS.   2.0 : CWLS log ASCII Standard -VERSION 2.0
WRAP.    NO : One line per depth step
DLM . SPACE : Column Data Section Delimiter
~Well ------------------------------------------------------
STRT .F                 411.0 : START DEPTH
STOP .F                9424.0 : STOP DEPTH
STEP .F                   0.5 : STEP
NULL .               -9999.25 : NULL VALUE
COMP .                        : COMPANY
WELL .                        : WELL
FLD  .                        : FIELD
LOC  .                        : LOCATION
PROV .                        : PROVINCE
CNTY .                        : COUNTY
STAT .                        : STATE
CTRY .                        : COUNTRY
SRVC .                        : SERVICE COMPANY
DATE .                        : DATE
UWI  .                        : UNIQUE WELL ID
API  .                        : API NUMBER
SLAT .WGS84 5.407728042412799 : SURFACE LATITUDE
SLON .WGS84 2.504718022797306 : SURFACE LONGITUDE
DATUM.F               1273.61 : DEPTH DATUM ELEV
~Curve Information -----------------------------------------
DEPT     .F     : 1 MEASURED DEPTH
DPHZ_LS  .DEC   : HGRD STANDARD RESOLUTION DENSITY POROSITY
NPHI_LS  .DEC   : NEUTRON POROSITY LIMESTONE
PEFZ     .B/E   : HRDD STANDARD RESOLUTION FORMATION PHOTOELECTRIC FACTOR
RHOZ     .G/C3  : HRDD STANDARD RESOLUTION FORMATION DENSITY
HDRA     .G/C3  : HRDD SPINE AND RIBS DENSITY CORRECTION
DTSM_FAST.US/F  : SHEAR SLOWNESS OF FAST SHEAR WAVES
DTSM_SLOW.US/F  : SHEAR SLOWNESS OF SLOW SHEAR WAVES
AHT20    .OHMM  : ARRAY INDUCTION TWO FOOT RESISTIVITY A20
AHT30    .OHMM  : ARRAY INDUCTION TWO FOOT RESISTIVITY A30
AHT60    .OHMM  : ARRAY INDUCTION TWO FOOT RESISTIVITY A60
CALR     .IN    : CALIPER FROM RESISTIVITY LOG
GRR      .GAPI  : GAMMA RAY FROM RESISTIVITY LOG
SPR      .MV    : SPONTANEOUS POTENTIAL FROM RESISTIVITY LOG
AHF20    .OHMM  : ARRAY INDUCTION FOUR FOOT RESISTIVITY A20
AHF60    .OHMM  : ARRAY INDUCTION FOUR FOOT RESISTIVITY A60
AHFCO60  .MMHO  : ARRAY INDUCTION FOUR FOOT CONDUCTIVITY A60
DTCO     .US/F  : DELTA-T COMPRESSIONAL
DTSM     .US/F  : DELTA-T SHEAR
~Params ----------------------------------------------------
~Other -----------------------------------------------------
~ASCII -----------------------------------------------------
# ...
 8757.00000    0.04660    0.20040    2.96170    2.63230    0.05380   -9999.25   -9999.25   10.93960   10.47060   10.18190    7.47420  111.16550 -118.38810   -9999.25   -9999.25   -9999.25   69.99170  128.62450
 8757.50000    0.04370    0.20450    2.96190    2.63830    0.05880   -9999.25   -9999.25   10.91140   10.52480   10.27250    7.47570  111.24350 -118.59210   -9999.25   -9999.25   -9999.25   69.88050  126.78120
 8758.00000    0.03950    0.20090    2.96630    2.64180    0.06080   -9999.25   -9999.25   10.92250   10.57930   10.36380    7.47720  113.95220 -118.78680   -9999.25   -9999.25   -9999.25   69.86790  126.69480
 8758.50000    0.02580    0.19180    2.98430    2.66700    0.06180   -9999.25   -9999.25   11.01970   10.63410   10.45600    7.47870  119.85190 -119.00950   -9999.25   -9999.25   -9999.25   69.91340  127.05310
 8759.00000    0.02900    0.19270    2.97740    2.66160    0.05050   -9999.25   -9999.25   11.11770   10.70870   10.54890    7.48030  126.69200 -119.23220   -9999.25   -9999.25   -9999.25   70.29380  127.41150
 8759.50000    0.03780    0.19400    3.00580    2.64610    0.03880   -9999.25   -9999.25   11.21400   10.87590   10.61870    7.48180  127.89670 -119.25740   -9999.25   -9999.25   -9999.25   70.82630  127.23790
 8760.00000    0.03840    0.19520    3.03970    2.64460    0.03000   -9999.25   -9999.25   11.29890   10.97410   10.56300    7.48330  123.45510 -119.40770   -9999.25   -9999.25   -9999.25   71.27190  127.03070
 8760.50000    0.03820    0.19540    3.07360    2.64530    0.03300   -9999.25   -9999.25   11.31910   10.82000   10.42640    7.48480  119.86990 -119.67490   -9999.25   -9999.25   -9999.25   71.76830  126.85860
 8761.00000    0.03150    0.19490    3.11250    2.65690    0.03960   -9999.25   -9999.25   11.16210   10.66800   10.28540    7.47370  120.41030 -119.97500   -9999.25   -9999.25   -9999.25   71.77630  126.74350
 8761.50000    0.03260    0.19390    3.12470    2.65360    0.04330   -9999.25   -9999.25   11.00730   10.51820   10.14620    7.47190  123.48700 -120.12760   -9999.25   -9999.25   -9999.25   71.75080  126.89170
 8762.00000    0.03470    0.19420    3.14390    2.65070    0.04940   -9999.25   -9999.25   10.85460   10.37060   10.00900    7.49490  124.84610 -120.13380   -9999.25   -9999.25   -9999.25   71.75490  127.17010
 8762.50000    0.02700    0.20110    3.19010    2.66550    0.05800   -9999.25   -9999.25   10.70410   10.22490    9.94400    7.49890  125.08070 -119.95650   -9999.25   -9999.25   -9999.25   71.72680  127.20680
 8763.00000    0.02300    0.20240    3.20530    2.67280    0.05950   -9999.25   -9999.25   10.58580   10.24520   10.02050    7.50590  126.19880 -119.62690   -9999.25   -9999.25   -9999.25   71.58050  126.44570
 8763.50000    0.02030    0.20150    3.16520    2.67700    0.05770   -9999.25   -9999.25   10.62120   10.34820   10.09760    7.51340  126.01010 -119.30820   -9999.25   -9999.25   -9999.25   71.32830  126.39680
 8764.00000    0.02270    0.20060    3.06490    2.67050    0.05030   -9999.25   -9999.25   10.84150   10.45210   10.17540    7.49210  121.67590 -119.48470   -9999.25   -9999.25   -9999.25   71.08390  127.09160
 8764.50000    0.03290    0.19960    3.04270    2.65580    0.04230   -9999.25   -9999.25   11.06650   10.52040   10.25370    7.47850  116.29830 -119.86080   -9999.25   -9999.25   -9999.25   71.09870  126.99090
 8765.00000    0.03080    0.19920    3.08610    2.65900    0.05160   -9999.25   -9999.25   10.97730   10.45150   10.22580    7.48010  114.92590 -120.28070   -9999.25   -9999.25   -9999.25   71.01820  126.89030
 8765.50000    0.03150    0.19950    3.12960    2.65690    0.06090   -9999.25   -9999.25   10.78870   10.38940   10.18040    7.51430  118.20270 -120.70060   -9999.25   -9999.25   -9999.25   70.75560  126.88860
 8766.00000    0.02750    0.19970    3.17300    2.66570    0.06790   -9999.25   -9999.25   10.78050   10.38940   10.13520    7.53000  121.31420 -120.39170   -9999.25   -9999.25   -9999.25   70.47400  127.09280
 8766.50000    0.02570    0.20000    3.17570    2.66720    0.06940   -9999.25   -9999.25   10.87360   10.43170   10.19450    7.52560  121.80180 -119.84230   -9999.25   -9999.25   -9999.25   70.57970  126.98780
 8767.00000    0.02360    0.20070    3.15910    2.67140    0.06340   -9999.25   -9999.25   10.96740   10.47510   10.29270    7.51810  120.15240 -119.29300   -9999.25   -9999.25   -9999.25   71.07070  126.92670
 8767.50000    0.02430    0.20260    3.12710    2.67000    0.05590   -9999.25   -9999.25   11.03370   10.51880   10.39190    7.50020  118.39620 -119.61250   -9999.25   -9999.25   -9999.25   71.31950  127.56050
 8768.00000    0.02640    0.20440    3.08930    2.66720    0.05720   -9999.25   -9999.25   10.97140   10.47230   10.34130    7.52060  120.57210 -120.42300   -9999.25   -9999.25   -9999.25   71.58340  128.48310
 8768.50000    0.02510    0.19980    3.03690    2.66840    0.06130   -9999.25   -9999.25   10.92420   10.37380   10.26100    7.53530  125.63000 -120.15390   -9999.25   -9999.25   -9999.25   71.87440  128.90970
 8769.00000    0.02190    0.19250    2.97570    2.67550    0.06080   -9999.25   -9999.25   10.87800   10.27620   10.16390    7.52900  128.37340 -119.76790   -9999.25   -9999.25   -9999.25   71.89900  127.40140
 8769.50000    0.02690    0.18740    2.91410    2.66430    0.05360   -9999.25   -9999.25   10.83200   10.17950    9.98330    7.51570  127.27780 -119.87230   -9999.25   -9999.25   -9999.25   71.75860  126.86730
 8770.00000    0.03280    0.19170    2.89480    2.65330    0.04150   -9999.25   -9999.25   10.78620   10.23020   10.01210    7.51770  125.45120 -120.37680   -9999.25   -9999.25   -9999.25   71.73340  127.54560
 8770.50000    0.03510    0.20140    2.91450    2.64830    0.03680   -9999.25   -9999.25   10.74840   10.28840   10.07180    7.52080  124.36300 -120.88120   -9999.25   -9999.25   -9999.25   71.87370  128.44980
 8771.00000    0.03450    0.20660    2.95940    2.64900    0.03610   -9999.25   -9999.25   10.87070   10.34700   10.13180    7.52920  126.18220 -121.38570   -9999.25   -9999.25   -9999.25   71.75720  128.34150
 8771.50000    0.02640    0.20820    3.00440    2.66580    0.03750   -9999.25   -9999.25   10.99440   10.40590   10.19220    7.53660  128.38820 -120.97440   -9999.25   -9999.25   -9999.25   71.40270  127.09000
 8772.00000    0.03380    0.20670    3.03470    2.65230    0.03270   -9999.25   -9999.25   11.11950   10.46490   10.25290    7.55270  130.23010 -120.54870   -9999.25   -9999.25   -9999.25   71.02790  126.69210
 8772.50000    0.04050    0.20250    3.06550    2.64280    0.03090   -9999.25   -9999.25   11.13090   10.52420   10.21250    7.55990  130.13350 -120.12290   -9999.25   -9999.25   -9999.25   70.79260  126.74230
 8773.00000    0.04550    0.19790    3.09740    2.63270    0.03640   -9999.25   -9999.25   10.93980   10.46110   10.14590    7.55910  129.16260 -119.69710   -9999.25   -9999.25   -9999.25   70.85990  126.77800
 8773.50000    0.03930    0.19430    3.11820    2.64360    0.04350   -9999.25   -9999.25   10.79400   10.40590   10.07980    7.55680  129.72650 -119.27140   -9999.25   -9999.25   -9999.25   71.03570  126.81370
 8774.00000    0.03370    0.19500    3.09660    2.65080    0.04110   -9999.25   -9999.25   10.76770   10.35100   10.01410    7.54500  130.29050 -119.16960   -9999.25   -9999.25   -9999.25   71.28660  127.35510
 8774.50000    0.03480    0.19740    3.03540    2.65090    0.03150   -9999.25   -9999.25   10.87510   10.29640    9.94890    7.53940  130.85440 -119.10030   -9999.25   -9999.25   -9999.25   71.47120  128.38960
 8775.00000    0.03890    0.20800    2.94910    2.64390    0.02300   -9999.25   -9999.25   10.87340   10.24210    9.90540    7.54400  129.94430 -118.99840   -9999.25   -9999.25   -9999.25   71.27900  128.45790
 8775.50000    0.04360    0.21460    2.88800    2.63620    0.01340   -9999.25   -9999.25   10.51210   10.29800    9.91940    7.54860  128.99880 -118.95660   -9999.25   -9999.25   -9999.25   70.81190  127.57760
 8776.00000    0.05610    0.21190    2.86430    2.61630    0.01030   -9999.25   -9999.25   10.66500   10.36590   10.05320    7.53540  128.33530 -119.10350   -9999.25   -9999.25   -9999.25   71.03120  127.28420
