~Version ---------------------------------------------------
VERS.   2.0 : CWLS log ASCII Standard -VERSION 2.0
WRAP.    NO : One line per depth step
DLM . SPACE : Column Data Section Delimiter
~Well ------------------------------------------------------
STRT .F                 411.0 : START DEPTH
STOP .F                9424.0 : STOP DEPTH
STEP .F                   0.5 : STEP
NULL .               -9999.25 : NULL VALUE
COMP .                        : COMPANY
WELL .                        : WELL
FLD  .                        : FIELD
LOC  .                        : LOCATION
PROV .                        : PROVINCE
CNTY .                        : COUNTY
STAT .                        : STATE
CTRY .                        : COUNTRY
SRVC .                        : SERVICE COMPANY
DATE .                        : DATE
UWI  .                        : UNIQUE WELL ID
API  .                        : API NUMBER
SLAT .WGS84 5.407728042412799 : SURFACE LATITUDE
SLON .WGS84 2.504718022797306 : SURFACE LONGITUDE
DATUM.F               1273.61 : DEPTH DATUM ELEV
~Curve Information -----------------------------------------
DEPT     .F     : 1 MEASURED DEPTH
DPHZ_LS  .DEC   : HGRD STANDARD RESOLUTION DENSITY POROSITY
NPHI_LS  .DEC   : NEUTRON POROSITY LIMESTONE
PEFZ     .B/E   : HRDD STANDARD RESOLUTION FORMATION PHOTOELECTRIC FACTOR
RHOZ     .G/C3  : HRDD STANDARD RESOLUTION FORMATION DENSITY
HDRA     .G/C3  : HRDD SPINE AND RIBS DENSITY CORRECTION
DTSM_FAST.US/F  : SHEAR SLOWNESS OF FAST SHEAR WAVES
DTSM_SLOW.US/F  : SHEAR SLOWNESS OF SLOW SHEAR WAVES
AHT20    .OHMM  : ARRAY INDUCTION TWO FOOT RESISTIVITY A20
AHT30    .OHMM  : ARRAY INDUCTION TWO FOOT RESISTIVITY A30
AHT60    .OHMM  : ARRAY INDUCTION TWO FOOT RESISTIVITY A60
CALR     .IN    : CALIPER FROM RESISTIVITY LOG
GRR      .GAPI  : GAMMA RAY FROM RESISTIVITY LOG
SPR      .MV    : SPONTANEOUS POTENTIAL FROM RESISTIVITY LOG
AHF20    .OHMM  : ARRAY INDUCTION FOUR FOOT RESISTIVITY A20
AHF60    .OHMM  : ARRAY INDUCTION FOUR FOOT RESISTIVITY A60
AHFCO60  .MMHO  : ARRAY INDUCTION FOUR FOOT CONDUCTIVITY A60
DTCO     .US/F  : DELTA-T COMPRESSIONAL
DTSM     .US/F  : DELTA-T SHEAR
~Params ----------------------------------------------------
~Other -----------------------------------------------------
~ASCII -----------------------------------------------------
# ...
 9400.50000    0.06650    0.22450    3.28750    2.60040    0.15880  127.19260  128.44570   11.15790   10.87340   10.35150    7.83190  137.77670 -493.61530   -9999.25   -9999.25   -9999.25   66.70680  120.53910
 9401.00000    0.08390    0.22450    3.29120    2.57010    0.12970  127.16810  128.42270   11.02870   10.98710   10.19060    7.93970  139.77540 -494.99980   -9999.25   -9999.25   -9999.25   66.70680  120.49200
 9401.50000    0.10570    0.22380    3.31790    2.53180    0.10010  127.14360  128.39970   10.90100   11.10190   10.03230    8.04350  140.40820 -490.18650   -9999.25   -9999.25   -9999.25   66.70680  120.43800
 9402.00000    0.11790    0.22320    3.41200    2.50700    0.09200  127.11910  128.37670   10.82860   11.20800    9.87650    8.06710  139.85200 -485.78380   -9999.25   -9999.25   -9999.25   66.70680  120.51130
 9402.50000    0.11510    0.22260    3.49430    2.51360    0.09250  127.09460  128.35370   10.76450   11.08270    9.72300    8.09070  139.32700 -482.38320   -9999.25   -9999.25   -9999.25   66.70680  120.96280
 9403.00000    0.11270    0.22530    3.55700    2.51730    0.10110  127.07010  128.33070   10.73450   11.16730    9.74750    8.05360  140.18180 -481.48150   -9999.25   -9999.25   -9999.25   66.70680  120.98910
 9403.50000    0.11120    0.22590    3.57040    2.52050    0.10880  127.04560  128.30770   10.89320   11.48330    9.81520    8.00700  140.83960 -484.00870   -9999.25   -9999.25   -9999.25   66.70680  120.98560
 9404.00000    0.11060    0.22290    3.59050    2.52200    0.11070  127.02110  128.40170   11.10960   11.80220    9.88330    7.98120  139.46730 -492.31570   -9999.25   -9999.25   -9999.25   66.70680  120.96510
 9404.50000    0.10910    0.21990    3.57880    2.52390    0.11230  126.99660  128.52540   10.80530   12.13000    9.93220    7.95560  137.24300 -497.48550   -9999.25   -9999.25   -9999.25   66.71270  121.01710
 9405.00000    0.10750    0.22290    3.57030    2.52690    0.11290  126.97220  128.64910   10.16770   11.39490    9.97020    7.94070  136.50840 -498.15330   -9999.25   -9999.25   -9999.25   66.72530  120.96220
 9405.50000    0.10450    0.22720    3.55820    2.53220    0.11180  126.94770  128.77280    9.91690   10.77080   10.00830    7.94300  138.27350 -497.46480   -9999.25   -9999.25   -9999.25   66.72720  120.90460
 9406.00000    0.10250    0.22710    3.54970    2.53570    0.11260  126.92320  128.89650    9.67240   10.40460   10.04660    7.94520  140.91740 -497.68720   -9999.25   -9999.25   -9999.25   66.71560  120.89160
 9406.50000    0.10060    0.22690    3.54240    2.54060    0.11740  126.89870  128.87190    9.43390   10.05080   10.08500    7.94740  141.87370 -499.57530   -9999.25   -9999.25   -9999.25   66.70680  120.91690
 9407.00000    0.09860    0.22440    3.54210    2.54190    0.12220  126.87390  128.68050    9.18510    9.70910   10.09480    7.94550  139.73650 -500.61690   -9999.25   -9999.25   -9999.25   66.70680  120.92610
 9407.50000    0.09640    0.21950    3.55350    2.54600    0.12720  126.84890  128.48910    8.90310    9.45090    9.93850    7.94170  134.64340 -499.39250   -9999.25   -9999.25   -9999.25   66.70680  120.95910
 9408.00000    0.09420    0.21230    3.56500    2.55070    0.13020  126.82380  128.29760    8.66200    9.20620    9.75880    7.94000  123.73720 -498.29690   -9999.25   -9999.25   -9999.25   66.70680  120.95580
 9408.50000    0.09400    0.20870    3.58170    2.55030    0.13060  126.79880  128.10620    8.52350    8.96780    9.52220    7.93790  111.11780 -497.20130   -9999.25   -9999.25   -9999.25   66.70680  120.95250
 9409.00000    0.09890    0.20920    3.58380    2.54110    0.12490  126.77380  128.02460    8.38730    8.84370    9.10710    7.93870  101.27660 -496.24340   -9999.25   -9999.25   -9999.25   66.70680  120.94920
 9409.50000    0.10190    0.20930    3.58720    2.53630    0.12280  126.74870  127.99960    8.29560    9.04730    9.23000    7.94060   96.05850 -494.59310   -9999.25   -9999.25   -9999.25   66.70670  120.94590
 9410.00000    0.10130    0.20940    3.58500    2.53700    0.12120  126.80830  128.05910    8.63660    9.84740   10.34040    7.94000   95.52380 -494.27550   -9999.25   -9999.25   -9999.25   66.70660  120.94260
 9410.50000    0.09910    0.20970    3.58230    2.54060    0.12290  126.91360  128.16440    9.02420   10.85440   11.17380    7.93930   95.51450 -494.29240   -9999.25   -9999.25   -9999.25   66.70660  120.93930
 9411.00000    0.10120    0.21270    3.58420    2.53900    0.12350  127.01890  128.26980    9.42910   11.07960   11.61070    7.93860   95.50290 -493.86750   -9999.25   -9999.25   -9999.25   66.70650  120.93600
 9411.50000    0.10480    0.21670    3.57590    2.53220    0.12210  127.12420  128.37510    8.61870   10.62580   11.93890    7.93890   95.47860 -493.05950   -9999.25   -9999.25   -9999.25   66.70640  120.93270
 9412.00000    0.10760    0.22050    3.55790    2.52690    0.12130  127.22960  128.48040    7.82030    9.86750   11.72400    7.94010   95.45080 -492.40100   -9999.25   -9999.25   -9999.25   66.70630  120.92940
 9412.50000    0.10840    0.21820    3.53760    2.52580    0.12000  127.33490  128.58580    7.18480    9.12050   10.45550    7.94220   95.51310 -494.11800   -9999.25   -9999.25   -9999.25   66.70630  120.92610
 9413.00000    0.10860    0.20470    3.53380    2.52520    0.11880  127.44020  128.69110    7.21300   10.10780   13.78210    7.94260   95.49570 -500.55980   -9999.25   -9999.25   -9999.25   66.70630  120.92280
 9413.50000    0.11070    0.18660    3.54850    2.52030    0.11740  127.54560  128.79640    7.55800   10.70260   14.27970    7.94280   95.47830 -502.91050   -9999.25   -9999.25   -9999.25   66.70630  120.91950
 9414.00000    0.11450    0.17190    3.55870    2.51390    0.11660  127.54680  128.80210    7.90210   11.15360   15.98460    7.94240   95.50570 -499.45510   -9999.25   -9999.25   -9999.25   66.70630  120.91620
 9414.50000    0.12070    0.16610    3.55850    2.50520    0.11210  127.46880  128.73160    8.22830   12.04080   18.14660    7.94200   95.52110 -496.42030   -9999.25   -9999.25   -9999.25   66.70630  120.91290
 9415.00000    0.12910    0.16520    3.55500    2.49020    0.10760  127.39090  128.66110    8.55830   12.10970   17.49090    7.93980   95.52040 -495.34660   -9999.25   -9999.25   -9999.25   66.70630  120.90960
 9415.50000    0.14010    0.16560    3.52480    2.47180    0.09840  127.31300  128.59050    8.82980   11.95860   16.68680    7.92170   95.51980 -494.96210   -9999.25   -9999.25   -9999.25   66.70630  120.90630
 9416.00000    0.14860    0.16600    3.50630    2.45750    0.09090  127.23510  128.52000    8.90800   11.80950   16.28450    7.88550   95.51920 -494.97580   -9999.25   -9999.25   -9999.25   66.70630  120.90300
 9416.50000    0.15960    0.16600    3.47270    2.43850    0.08430  127.15720  128.51800    8.83170   11.66220   15.65060    7.88130   95.51860 -495.00060   -9999.25   -9999.25   -9999.25   66.70630  120.92360
 9417.00000    0.16900    0.16650    3.44430    2.42080    0.08120  127.07930  128.56880    8.80620   11.51670   14.81300    7.86710   95.51800 -495.01690   -9999.25   -9999.25   -9999.25   66.70630  120.97430
 9417.50000    0.18070    0.16700    3.38900    2.40180    0.07810  127.00140  128.61960    8.79290   11.47050   14.39270    7.83650   95.51730 -494.84150   -9999.25   -9999.25   -9999.25   66.70630  120.98970
 9418.00000    0.18590    0.16750    3.31130    2.39350    0.08340  126.92350  128.67050    8.79250   11.47050   14.12030    7.79750   95.51670 -494.60570   -9999.25   -9999.25   -9999.25   66.70630  120.96170
 9418.50000    0.18670    0.16790    3.19980    2.39110    0.09630  126.84560  128.72130    8.71700   11.44220   13.93050    7.74640   95.51610 -494.96030   -9999.25   -9999.25   -9999.25   66.70660  120.93190
 9419.00000    0.18520    0.16830    3.08850    2.39450    0.10810  126.76760  128.77220    8.74420   11.39280   14.08800    7.67210   95.51550 -498.14640   -9999.25   -9999.25   -9999.25   66.70700  120.90240
 9419.50000    0.18280    0.16880    2.99820    2.39940    0.11830  126.68970  128.82300    8.80390   11.34360   14.24730    7.64460   95.51490 -501.23050   -9999.25   -9999.25   -9999.25   66.70700  120.92010
