~Version ---------------------------------------------------
VERS.   2.0 : CWLS log ASCII Standard -VERSION 2.0
WRAP.    NO : One line per depth step
DLM . SPACE : Column Data Section Delimiter
~Well ------------------------------------------------------
STRT .F                 411.0 : START DEPTH
STOP .F                9424.0 : STOP DEPTH
STEP .F                   0.5 : STEP
NULL .               -9999.25 : NULL VALUE
COMP .                        : COMPANY
WELL .                        : WELL
FLD  .                        : FIELD
LOC  .                        : LOCATION
PROV .                        : PROVINCE
CNTY .                        : COUNTY
STAT .                        : STATE
CTRY .                        : COUNTRY
SRVC .                        : SERVICE COMPANY
DATE .                        : DATE
UWI  .                        : UNIQUE WELL ID
API  .                        : API NUMBER
SLAT .WGS84 5.407728042412799 : SURFACE LATITUDE
SLON .WGS84 2.504718022797306 : SURFACE LONGITUDE
DATUM.F               1273.61 : DEPTH DATUM ELEV
~Curve Information -----------------------------------------
DEPT     .F     : 1 MEASURED DEPTH
DPHZ_LS  .DEC   : HGRD STANDARD RESOLUTION DENSITY POROSITY
NPHI_LS  .DEC   : NEUTRON POROSITY LIMESTONE
PEFZ     .B/E   : HRDD STANDARD RESOLUTION FORMATION PHOTOELECTRIC FACTOR
RHOZ     .G/C3  : HRDD STANDARD RESOLUTION FORMATION DENSITY
HDRA     .G/C3  : HRDD SPINE AND RIBS DENSITY CORRECTION
DTSM_FAST.US/F  : SHEAR SLOWNESS OF FAST SHEAR WAVES
DTSM_SLOW.US/F  : SHEAR SLOWNESS OF SLOW SHEAR WAVES
AHT20    .OHMM  : ARRAY INDUCTION TWO FOOT RESISTIVITY A20
AHT30    .OHMM  : ARRAY INDUCTION TWO FOOT RESISTIVITY A30
AHT60    .OHMM  : ARRAY INDUCTION TWO FOOT RESISTIVITY A60
CALR     .IN    : CALIPER FROM RESISTIVITY LOG
GRR      .GAPI  : GAMMA RAY FROM RESISTIVITY LOG
SPR      .MV    : SPONTANEOUS POTENTIAL FROM RESISTIVITY LOG
AHF20    .OHMM  : ARRAY INDUCTION FOUR FOOT RESISTIVITY A20
AHF60    .OHMM  : ARRAY INDUCTION FOUR FOOT RESISTIVITY A60
AHFCO60  .MMHO  : ARRAY INDUCTION FOUR FOOT CONDUCTIVITY A60
DTCO     .US/F  : DELTA-T COMPRESSIONAL
DTSM     .US/F  : DELTA-T SHEAR
~Params ----------------------------------------------------
~Other -----------------------------------------------------
~ASCII -----------------------------------------------------
# ...
 7450.50000   -0.01930    0.27560    2.84830    2.74240   -9999.25   -9999.25   -9999.25    6.95260    7.05950    7.18800    7.70750  133.82110  -89.37100   -9999.25   -9999.25   -9999.25   75.51930  141.46690
 7451.00000   -0.00920    0.27490    2.94540    2.72560   -9999.25   -9999.25   -9999.25    7.06040    7.16910    7.29950    7.69790  131.17970  -89.61390   -9999.25   -9999.25   -9999.25   75.54950  141.11320
 7451.50000   -0.00550    0.27500    3.04480    2.71940   -9999.25   -9999.25   -9999.25    7.17000    7.28030    7.41280    7.69960  129.83680  -89.74260   -9999.25   -9999.25   -9999.25   75.92010  140.44160
 7452.00000   -0.00300    0.27710    3.13260    2.71500   -9999.25   -9999.25   -9999.25    7.28120    7.39330    7.52780    7.70880  130.88870  -89.77640   -9999.25   -9999.25   -9999.25   76.26430  140.98710
 7452.50000    0.00410    0.27320    3.19080    2.70260   -9999.25   -9999.25   -9999.25    7.28390    7.39280    7.52350    7.71810  131.71000  -89.68440   -9999.25   -9999.25   -9999.25   76.48060  141.77280
 7453.00000    0.01910    0.26710    3.15840    2.67450   -9999.25   -9999.25   -9999.25    7.21910    7.32630    7.45500    7.71250  131.51160  -89.90530   -9999.25   -9999.25   -9999.25   76.50160  142.92560
 7453.50000    0.03720    0.26480    3.08720    2.63930   -9999.25   -9999.25   -9999.25    7.15580    7.26210    7.38970    7.70720  130.58240  -90.12610   -9999.25   -9999.25   -9999.25   76.72790  144.08980
 7454.00000    0.06820    0.27280    2.98620    2.59020   -9999.25   -9999.25   -9999.25    7.04500    7.15840    7.29440    7.71180  129.36070  -90.27700   -9999.25   -9999.25   -9999.25   77.06860  144.44060
 7454.50000    0.08560    0.28090    2.89550    2.56350   -9999.25   -9999.25   -9999.25    6.89590    7.00690    7.13990    7.70150  128.68060  -90.42950   -9999.25   -9999.25   -9999.25   77.22640  144.45130
 7455.00000    0.07590    0.28360    2.82560    2.58050   -9999.25   -9999.25   -9999.25    6.81870    6.91910    7.03960    7.69870  129.60880  -90.89510   -9999.25   -9999.25   -9999.25   76.97560  143.99570
 7455.50000    0.05860    0.28230    2.84610    2.61340   -9999.25   -9999.25   -9999.25    6.87180    6.97560    7.10020    7.69870  132.05850  -91.34020   -9999.25   -9999.25   -9999.25   75.70150  142.66170
 7456.00000    0.03790    0.28000    2.86660    2.64950   -9999.25   -9999.25   -9999.25    6.95780    7.06290    7.18900    7.69900  134.70170  -91.77250   -9999.25   -9999.25   -9999.25   74.06420  140.15320
 7456.50000    0.02220    0.28270    2.87990    2.67210   -9999.25   -9999.25   -9999.25    7.04480    7.15120    7.27900    7.69930  135.84860  -92.30640   -9999.25   -9999.25   -9999.25   72.08820  136.78480
 7457.00000    0.00340    0.28870    2.92020    2.70430   -9999.25   -9999.25   -9999.25    7.13290    7.30460    7.47820    7.69810  135.81380  -93.13430   -9999.25   -9999.25   -9999.25   70.65230  131.90050
 7457.50000   -0.02260    0.28080    2.97820    2.74970   -9999.25   -9999.25   -9999.25    7.44370    7.71130    8.03800    7.69860  134.03730  -94.93580   -9999.25   -9999.25   -9999.25   70.12010  128.22210
 7458.00000   -0.02270    0.25620    3.04460    2.75640    0.24930   -9999.25   -9999.25    8.25290    8.54900    8.91190    7.70590  128.51600  -97.48860   -9999.25   -9999.25   -9999.25   69.76320  124.63730
 7458.50000   -0.00240    0.21250    3.04030    2.71420    0.24980   -9999.25   -9999.25    8.96430    9.13190    9.31760    7.66670  117.76850  -99.77620   -9999.25   -9999.25   -9999.25   69.31390  123.07420
 7459.00000    0.04260    0.17050    3.03980    2.63750    0.14480   -9999.25   -9999.25    9.04330    9.18420    9.35340    7.61080  105.69860 -101.87500   -9999.25   -9999.25   -9999.25   68.56250  121.76640
 7459.50000    0.06790    0.14600    3.05280    2.60360    0.11000   -9999.25   -9999.25    8.88440    9.02290    9.18950    7.57600   97.19260 -103.97380   -9999.25   -9999.25   -9999.25   67.46190  120.45610
 7460.00000    0.07560    0.14760    3.06580    2.58140    0.11180   -9999.25   -9999.25    8.72840    8.86450    9.02840    7.53770   95.37650 -104.15500   -9999.25   -9999.25   -9999.25   65.74540  118.34940
 7460.50000    0.08190    0.16220    3.07670    2.56990    0.11890   -9999.25   -9999.25    8.75510    8.88990    9.05120    7.52590   95.69720 -103.97330   -9999.25   -9999.25   -9999.25   63.83800  116.07730
 7461.00000    0.07640    0.17110    3.02820    2.57940    0.11100   -9999.25   -9999.25    9.11320    9.56220   10.13920    7.53200   95.90540 -103.97040   -9999.25   -9999.25   -9999.25   62.77400  113.49230
 7461.50000    0.07340    0.15830    2.94120    2.59010    0.08000   -9999.25   -9999.25   10.55910   11.07720   11.76970    7.46310   92.70170 -104.34580   -9999.25   -9999.25   -9999.25   63.08860  112.08330
 7462.00000    0.06720    0.12890    2.91950    2.59300    0.04320   -9999.25   -9999.25   12.34570   13.01480   13.84770    7.42000   85.93590 -105.11420   -9999.25   -9999.25   -9999.25   64.23150  111.82330
 7462.50000    0.07200    0.10850    2.94170    2.58400    0.01650   -9999.25   -9999.25   14.02140   14.36380   14.77650    7.39710   76.34570 -106.11090   -9999.25   -9999.25   -9999.25   66.31220  111.62580
 7463.00000    0.07530    0.09090    2.97930    2.58230    0.00400   -9999.25   -9999.25   14.91520   15.17770   15.49310    7.39680   69.96600 -107.02220   -9999.25   -9999.25   -9999.25   68.57430  113.75480
 7463.50000    0.06920    0.08770    2.98020    2.59380    0.00720   -9999.25   -9999.25   13.80940   14.51110   15.21030    7.42880   67.34250 -106.33980   -9999.25   -9999.25   -9999.25   69.97940  117.51200
 7464.00000    0.06060    0.09780    2.96680    2.60870    0.02260   -9999.25   -9999.25   11.87290   12.47410   13.22070    7.45910   73.39210 -104.88950   -9999.25   -9999.25   -9999.25   70.93300  121.52550
 7464.50000    0.05400    0.11890    2.94600    2.62020    0.03250   -9999.25   -9999.25   10.39100   10.72310   11.36460    7.47300   83.52370 -103.19350   -9999.25   -9999.25   -9999.25   71.45690  124.46810
 7465.00000    0.04900    0.14430    2.94200    2.62390    0.04770   -9999.25   -9999.25    9.71530    9.96570   10.26980    7.48510   94.98970 -101.96620   -9999.25   -9999.25   -9999.25   71.35430  126.60700
 7465.50000    0.05620    0.16260    2.99460    2.60780    0.06440   -9999.25   -9999.25    9.08360    9.31740    9.60190    7.50080  102.15040 -100.86770   -9999.25   -9999.25   -9999.25   70.96520  127.76030
 7466.00000    0.06860    0.17840    3.08340    2.58360    0.08540   -9999.25   -9999.25    8.74450    8.88800    9.04520    7.52000  106.84130  -99.76340   -9999.25   -9999.25   -9999.25   70.19450  127.58560
 7466.50000    0.08840    0.18710    3.12600    2.55250    0.09310   -9999.25   -9999.25    8.84200    8.98290    9.14190    7.53920  111.58480  -98.41610   -9999.25   -9999.25   -9999.25   69.32790  126.99180
 7467.00000    0.08990    0.19010    3.11790    2.56580    0.09820   -9999.25   -9999.25    8.94060    9.07880    9.23950    7.56140  114.02450  -97.47290   -9999.25   -9999.25   -9999.25   68.60060  126.46590
 7467.50000    0.07400    0.18870    3.10970    2.58880    0.09490   -9999.25   -9999.25    9.04030    9.19570    9.39560    7.56800  112.82220  -96.69260   -9999.25   -9999.25   -9999.25   68.77230  126.41360
 7468.00000    0.05220    0.18010    3.07940    2.62090    0.09160   -9999.25   -9999.25    9.39810    9.62410    9.87520    7.59750  107.68920  -96.26430   -9999.25   -9999.25   -9999.25   68.91290  126.31330
 7468.50000    0.04110    0.17100    3.05280    2.63640    0.08610   -9999.25   -9999.25    9.99870   10.17250   10.45830    7.52860  103.45160  -95.99770   -9999.25   -9999.25   -9999.25   68.93260  126.10400
 7469.00000    0.04330    0.16790    3.06850    2.63400    0.08200   -9999.25   -9999.25   10.52850   10.66650   10.85060    7.51840  101.63190  -95.73120   -9999.25   -9999.25   -9999.25   69.23930  126.87760
 7469.50000    0.05240    0.17230    3.07230    2.62260    0.08460   -9999.25   -9999.25   10.42670   10.53220   10.74360    7.52810  103.25690  -95.38660   -9999.25   -9999.25   -9999.25   70.17260  128.57540
