~Version ---------------------------------------------------
VERS.   2.0 : CWLS log ASCII Standard -VERSION 2.0
WRAP.    NO : One line per depth step
DLM . SPACE : Column Data Section Delimiter
~Well ------------------------------------------------------
STRT .F                 411.0 : START DEPTH
STOP .F                9424.0 : STOP DEPTH
STEP .F                   0.5 : STEP
NULL .               -9999.25 : NULL VALUE
COMP .                        : COMPANY
WELL .                        : WELL
FLD  .                        : FIELD
LOC  .                        : LOCATION
PROV .                        : PROVINCE
CNTY .                        : COUNTY
STAT .                        : STATE
CTRY .                        : COUNTRY
SRVC .                        : SERVICE COMPANY
DATE .                        : DATE
UWI  .                        : UNIQUE WELL ID
API  .                        : API NUMBER
SLAT .WGS84 5.407728042412799 : SURFACE LATITUDE
SLON .WGS84 2.504718022797306 : SURFACE LONGITUDE
DATUM.F               1273.61 : DEPTH DATUM ELEV
~Curve Information -----------------------------------------
DEPT     .F     : 1 MEASURED DEPTH
DPHZ_LS  .DEC   : HGRD STANDARD RESOLUTION DENSITY POROSITY
NPHI_LS  .DEC   : NEUTRON POROSITY LIMESTONE
PEFZ     .B/E   : HRDD STANDARD RESOLUTION FORMATION PHOTOELECTRIC FACTOR
RHOZ     .G/C3  : HRDD STANDARD RESOLUTION FORMATION DENSITY
HDRA     .G/C3  : HRDD SPINE AND RIBS DENSITY CORRECTION
DTSM_FAST.US/F  : SHEAR SLOWNESS OF FAST SHEAR WAVES
DTSM_SLOW.US/F  : SHEAR SLOWNESS OF SLOW SHEAR WAVES
AHT20    .OHMM  : ARRAY INDUCTION TWO FOOT RESISTIVITY A20
AHT30    .OHMM  : ARRAY INDUCTION TWO FOOT RESISTIVITY A30
AHT60    .OHMM  : ARRAY INDUCTION TWO FOOT RESISTIVITY A60
CALR     .IN    : CALIPER FROM RESISTIVITY LOG
GRR      .GAPI  : GAMMA RAY FROM RESISTIVITY LOG
SPR      .MV    : SPONTANEOUS POTENTIAL FROM RESISTIVITY LOG
AHF20    .OHMM  : ARRAY INDUCTION FOUR FOOT RESISTIVITY A20
AHF60    .OHMM  : ARRAY INDUCTION FOUR FOOT RESISTIVITY A60
AHFCO60  .MMHO  : ARRAY INDUCTION FOUR FOOT CONDUCTIVITY A60
DTCO     .US/F  : DELTA-T COMPRESSIONAL
DTSM     .US/F  : DELTA-T SHEAR
~Params ----------------------------------------------------
~Other -----------------------------------------------------
~ASCII -----------------------------------------------------
# ...
 6963.00000   -9999.25   -9999.25   -9999.25   -9999.25   -9999.25   -9999.25   -9999.25    5.22050    5.44110    5.53540    7.74100  118.22650  -55.15900   -9999.25   -9999.25   -9999.25   79.60630  154.70900
 6963.50000   -9999.25   -9999.25   -9999.25   -9999.25   -9999.25   -9999.25   -9999.25    5.18070    5.39960    5.49450    7.74260  122.67280  -54.93950   -9999.25   -9999.25   -9999.25   79.64510  154.60460
 6964.00000    0.24350   -9999.25    1.87360    2.30270   -9999.25   -9999.25   -9999.25    5.14930    5.35520    5.44990    7.74150  127.43530  -54.72010   -9999.25   -9999.25   -9999.25   79.45890  154.53320
 6964.50000    0.25050   -9999.25    1.86790    2.28990   -9999.25   -9999.25   -9999.25    5.11810    5.31110    5.42650    7.73960  129.01970  -54.42200   -9999.25   -9999.25   -9999.25   79.27280  154.54150
 6965.00000    0.25310   -9999.25    1.84390    2.27760   -9999.25   -9999.25   -9999.25    5.11580    5.32000    5.42160    7.73030  128.58070  -54.21150   -9999.25   -9999.25   -9999.25   79.13850  154.36860
 6965.50000    0.24690   -9999.25    1.80830    2.28440   -9999.25   -9999.25   -9999.25    5.15820    5.34650    5.46070    7.73210  128.26230  -54.10910   -9999.25   -9999.25   -9999.25   79.20660  154.60590
 6966.00000    0.22340   -9999.25    1.82540    2.32780   -9999.25   -9999.25   -9999.25    5.23540    5.44070    5.54240    7.74180  127.63940  -54.59430   -9999.25   -9999.25   -9999.25   79.27470  154.93050
 6966.50000    0.21140   -9999.25    1.85570    2.34860   -9999.25   -9999.25   -9999.25    5.30710    5.54780    5.65140    7.74710  126.34070  -55.53540   -9999.25   -9999.25   -9999.25   79.34280  154.91830
 6967.00000    0.21410   -9999.25    1.88600    2.34380   -9999.25   -9999.25   -9999.25    5.28880    5.55780    5.65710    7.73340  124.55470  -56.47650   -9999.25   -9999.25   -9999.25   79.39650  154.90610
 6967.50000    0.22840   -9999.25    1.91660    2.31940   -9999.25   -9999.25   -9999.25    5.29490    5.48830    5.58820    7.73900  121.71140  -56.64500   -9999.25   -9999.25   -9999.25   79.44210  154.48520
 6968.00000    0.20920   -9999.25    1.95430    2.35230   -9999.25   -9999.25   -9999.25    5.32730    5.41980    5.54990    7.74810  120.55230  -56.53930   -9999.25   -9999.25   -9999.25   79.38270  153.60390
 6968.50000    0.16210   -9999.25    1.99720    2.43310   -9999.25   -9999.25   -9999.25    5.35990    5.43740    5.53180    7.74650  120.13790  -56.47490   -9999.25   -9999.25   -9999.25   79.22030  152.81050
 6969.00000    0.13710   -9999.25    2.04610    2.47560   -9999.25   -9999.25   -9999.25    5.39270    5.47010    5.56510    7.75140  121.07480  -56.43610   -9999.25   -9999.25   -9999.25   79.02330  151.62050
 6969.50000    0.14820   -9999.25    2.06560    2.45760   -9999.25   -9999.25   -9999.25    5.42580    5.51850    5.61930    7.72660  124.64030  -55.93450   -9999.25   -9999.25   -9999.25   78.83300  151.37010
 6970.00000    0.17390   -9999.25    2.02760    2.41800   -9999.25   -9999.25   -9999.25    5.45900    5.61070    5.71320    7.72330  128.19470  -55.40390   -9999.25   -9999.25   -9999.25   78.79840  151.21650
 6970.50000    0.17760   -9999.25    2.02510    2.41720   -9999.25   -9999.25   -9999.25    5.49690    5.65600    5.75440    7.73130  130.59180  -54.88000   -9999.25   -9999.25   -9999.25   78.76370  151.37760
 6971.00000    0.13780    0.29230    2.08890    2.47430   -9999.25   -9999.25   -9999.25    5.49600    5.62040    5.71820    7.72720  132.82660  -54.40560   -9999.25   -9999.25   -9999.25   78.79270  151.67270
 6971.50000    0.13950    0.28150    2.17080    2.47150   -9999.25   -9999.25   -9999.25    5.44500    5.58510    5.68230    7.71850  134.62600  -54.11080   -9999.25   -9999.25   -9999.25   79.04050  152.12960
 6972.00000    0.15650    0.29160    2.19690    2.44570   -9999.25   -9999.25   -9999.25    5.39460    5.49890    5.61850    7.71890  135.76660  -54.06350   -9999.25   -9999.25   -9999.25   79.28080  152.57550
 6972.50000    0.15750    0.29970    2.20690    2.43330   -9999.25   -9999.25   -9999.25    5.37940    5.50510    5.63050    7.73470  136.55280  -54.17950   -9999.25   -9999.25   -9999.25   79.40680  153.25470
 6973.00000    0.14640    0.29970    2.18610    2.45880   -9999.25   -9999.25   -9999.25    5.44480    5.59820    5.70060    7.72810  136.84520  -54.54860   -9999.25   -9999.25   -9999.25   79.53290  154.02010
 6973.50000    0.17490   -9999.25    2.17410    2.41080   -9999.25   -9999.25   -9999.25    5.51090    5.68690    5.78440    7.74120  136.14250  -54.91780   -9999.25   -9999.25   -9999.25   79.65890  154.73480
 6974.00000    0.20780   -9999.25    2.16420    2.35350   -9999.25   -9999.25   -9999.25    5.54420    5.62000    5.72140    7.74840  134.00440  -54.51710   -9999.25   -9999.25   -9999.25   79.78500  155.61040
 6974.50000    0.22340   -9999.25    2.12760    2.32940   -9999.25   -9999.25   -9999.25    5.44860    5.52940    5.62980    7.73820  130.73110  -54.47230   -9999.25   -9999.25   -9999.25   79.91100  156.19390
 6975.00000    0.18830   -9999.25    2.04270    2.38900   -9999.25   -9999.25   -9999.25    5.35460    5.43800    5.53800    7.73810  128.45540  -54.35970   -9999.25   -9999.25   -9999.25   80.08290  156.52700
 6975.50000    0.15510   -9999.25    2.00100    2.44470   -9999.25   -9999.25   -9999.25    5.26230    5.37240    5.46510    7.73560  129.52800  -54.16600   -9999.25   -9999.25   -9999.25   80.26940  156.29610
 6976.00000    0.11030   -9999.25    2.04300    2.52130   -9999.25   -9999.25   -9999.25    5.27830    5.37870    5.49430    7.72600  131.45380  -54.21580   -9999.25   -9999.25   -9999.25   80.45580  156.17170
 6976.50000    0.07620   -9999.25    2.10230    2.57980   -9999.25   -9999.25   -9999.25    5.35250    5.43400    5.54480    7.71900  132.13970  -54.57110   -9999.25   -9999.25   -9999.25   80.69880  156.07140
 6977.00000    0.10850   -9999.25    2.17310    2.52450   -9999.25   -9999.25   -9999.25    5.42760    5.55090    5.64370    7.71820  132.10390  -54.92470   -9999.25   -9999.25   -9999.25   80.67060  156.34120
 6977.50000    0.16250   -9999.25    2.22420    2.43130   -9999.25   -9999.25   -9999.25    5.40130    5.56100    5.66060    7.71870  132.64170  -55.38850   -9999.25   -9999.25   -9999.25   80.44240  156.69940
 6978.00000    0.20180   -9999.25    2.21360    2.36360   -9999.25   -9999.25   -9999.25    5.32230    5.48990    5.58820    7.71950  132.52530  -55.78650   -9999.25   -9999.25   -9999.25   80.18990  156.95400
 6978.50000    0.21160   -9999.25    2.11150    2.34570   -9999.25   -9999.25   -9999.25    5.27000    5.42130    5.53760    7.72800  131.17080  -55.97350   -9999.25   -9999.25   -9999.25   79.93750  157.05100
 6979.00000    0.18920   -9999.25    1.97940    2.38640   -9999.25   -9999.25   -9999.25    5.27060    5.42190    5.52040    7.73800  128.36390  -55.89050   -9999.25   -9999.25   -9999.25   79.77540  157.02650
 6979.50000    0.17260   -9999.25    1.88670    2.41490   -9999.25   -9999.25   -9999.25    5.27110    5.42250    5.51600    7.74140  125.64950  -55.79120   -9999.25   -9999.25   -9999.25   79.89350  157.00200
 6980.00000    0.16120   -9999.25    1.85200    2.43440   -9999.25   -9999.25   -9999.25    5.25930    5.43240    5.52290    7.74200  125.74200  -55.69200   -9999.25   -9999.25   -9999.25   80.02270  157.03740
 6980.50000    0.16130   -9999.25    1.84430    2.43420   -9999.25   -9999.25   -9999.25    5.24620    5.44220    5.53320    7.73850  127.39930  -55.66820   -9999.25   -9999.25   -9999.25   79.99720  157.22560
 6981.00000    0.18330   -9999.25    1.89040    2.39530   -9999.25   -9999.25   -9999.25    5.23320    5.45210    5.54510    7.73800  130.94690  -55.62710   -9999.25   -9999.25   -9999.25   79.97180  157.24720
 6981.50000    0.18360   -9999.25    1.92560    2.39370   -9999.25   -9999.25   -9999.25    5.23290    5.42540    5.52310    7.73640  132.97290  -55.09450   -9999.25   -9999.25   -9999.25   79.94630  156.97460
 6982.00000    0.16680   -9999.25    1.93090    2.42430   -9999.25   -9999.25   -9999.25    5.23400    5.36910    5.48040    7.74280  133.63270  -54.53050   -9999.25   -9999.25   -9999.25   79.94170  157.24100
