~Version ---------------------------------------------------
VERS.   2.0 : CWLS log ASCII Standard -VERSION 2.0
WRAP.    NO : One line per depth step
DLM . SPACE : Column Data Section Delimiter
~Well ------------------------------------------------------
STRT .F                 411.0 : START DEPTH
STOP .F                9424.0 : STOP DEPTH
STEP .F                   0.5 : STEP
NULL .               -9999.25 : NULL VALUE
COMP .                        : COMPANY
WELL .                        : WELL
FLD  .                        : FIELD
LOC  .                        : LOCATION
PROV .                        : PROVINCE
CNTY .                        : COUNTY
STAT .                        : STATE
CTRY .                        : COUNTRY
SRVC .                        : SERVICE COMPANY
DATE .                        : DATE
UWI  .                        : UNIQUE WELL ID
API  .                        : API NUMBER
SLAT .WGS84 5.407728042412799 : SURFACE LATITUDE
SLON .WGS84 2.504718022797306 : SURFACE LONGITUDE
DATUM.F               1273.61 : DEPTH DATUM ELEV
~Curve Information -----------------------------------------
DEPT     .F     : 1 MEASURED DEPTH
DPHZ_LS  .DEC   : HGRD STANDARD RESOLUTION DENSITY POROSITY
NPHI_LS  .DEC   : NEUTRON POROSITY LIMESTONE
PEFZ     .B/E   : HRDD STANDARD RESOLUTION FORMATION PHOTOELECTRIC FACTOR
RHOZ     .G/C3  : HRDD STANDARD RESOLUTION FORMATION DENSITY
HDRA     .G/C3  : HRDD SPINE AND RIBS DENSITY CORRECTION
DTSM_FAST.US/F  : SHEAR SLOWNESS OF FAST SHEAR WAVES
DTSM_SLOW.US/F  : SHEAR SLOWNESS OF SLOW SHEAR WAVES
AHT20    .OHMM  : ARRAY INDUCTION TWO FOOT RESISTIVITY A20
AHT30    .OHMM  : ARRAY INDUCTION TWO FOOT RESISTIVITY A30
AHT60    .OHMM  : ARRAY INDUCTION TWO FOOT RESISTIVITY A60
CALR     .IN    : CALIPER FROM RESISTIVITY LOG
GRR      .GAPI  : GAMMA RAY FROM RESISTIVITY LOG
SPR      .MV    : SPONTANEOUS POTENTIAL FROM RESISTIVITY LOG
AHF20    .OHMM  : ARRAY INDUCTION FOUR FOOT RESISTIVITY A20
AHF60    .OHMM  : ARRAY INDUCTION FOUR FOOT RESISTIVITY A60
AHFCO60  .MMHO  : ARRAY INDUCTION FOUR FOOT CONDUCTIVITY A60
DTCO     .US/F  : DELTA-T COMPRESSIONAL
DTSM     .US/F  : DELTA-T SHEAR
~Params ----------------------------------------------------
~Other -----------------------------------------------------
~ASCII -----------------------------------------------------
# ...
 7119.00000    0.23750   -9999.25    2.76690    2.30380    0.25050   -9999.25   -9999.25    2.95270    3.87990    4.52570    7.73440  123.00740  -83.27790   -9999.25   -9999.25   -9999.25   85.88390  167.84410
 7119.50000    0.19230   -9999.25    2.77940    2.38690    0.25090   -9999.25   -9999.25    3.31500    4.30700    4.83120    7.74950  123.47380  -85.16330   -9999.25   -9999.25   -9999.25   85.76150  154.06230
 7120.00000    0.14900   -9999.25    2.81470    2.45480    0.25120   -9999.25   -9999.25    3.71600    4.80110    5.45500    7.74930  128.04200  -86.69790   -9999.25   -9999.25   -9999.25   84.53040  147.20190
 7120.50000    0.08170   -9999.25    2.83640    2.57730    0.25160   -9999.25   -9999.25    4.19890    7.06020    8.83240    7.74440  134.87160  -86.93640   -9999.25   -9999.25   -9999.25   82.47660  148.40100
 7121.00000    0.04480    0.30000    2.81610    2.63330    0.25200   -9999.25   -9999.25    8.87980   12.91110   16.10250    7.73900  142.84940  -84.59080   -9999.25   -9999.25   -9999.25   80.29990  161.29370
 7121.50000    0.04900    0.26160    2.78230    2.62640    0.21030   -9999.25   -9999.25   11.65630   22.03910   20.07690    7.71930  143.26900  -79.63670   -9999.25   -9999.25   -9999.25   78.65940  172.34940
 7122.00000    0.09720    0.20520    2.77430    2.52990    0.14460   -9999.25   -9999.25   10.21400   20.51600   13.30860    7.72060  135.51320  -76.41800   -9999.25   -9999.25   -9999.25   77.48810  176.62700
 7122.50000    0.15790    0.22390    2.79700    2.42670    0.14600   -9999.25   -9999.25    6.13590    8.36210    7.99470    7.73870  127.80690  -75.20570   -9999.25   -9999.25   -9999.25   76.28160  177.43180
 7123.00000    0.20480    0.28020    2.81970    2.36060    0.14760   -9999.25   -9999.25    3.68610    4.32630    5.22090    7.74650  128.23120  -76.06490   -9999.25   -9999.25   -9999.25   75.43230  177.06590
 7123.50000    0.24000    0.29940    2.89470    2.29950    0.14130   -9999.25   -9999.25    2.38950    2.72840    3.19500    7.74300  133.72360  -79.50890   -9999.25   -9999.25   -9999.25   74.39040  169.09010
 7124.00000    0.26620    0.29940    2.96620    2.25420    0.14300   -9999.25   -9999.25    1.81870    2.05990    2.40870    7.72950  139.18160  -83.94650   -9999.25   -9999.25   -9999.25   72.11900  157.96560
 7124.50000    0.22710    0.29940    2.98080    2.31690    0.19430   -9999.25   -9999.25    2.19870    2.97440    4.00140    7.72340  141.34470  -88.03830   -9999.25   -9999.25   -9999.25   70.89360  147.12140
 7125.00000    0.16510    0.29940    2.95390    2.42600    0.25190   -9999.25   -9999.25    4.30940    6.64390    8.94050    7.74010  136.78850  -85.82420   -9999.25   -9999.25   -9999.25   70.01150  138.92550
 7125.50000    0.11680    0.29940    2.94830    2.51130    0.25170   -9999.25   -9999.25    8.73350   12.50110   13.61130    7.74380  127.12080  -82.18900   -9999.25   -9999.25   -9999.25   67.05330  130.58650
 7126.00000    0.10130    0.29940    2.95330    2.53670    0.25150   -9999.25   -9999.25    8.85710   12.41160   12.83160    7.71890  118.41780  -78.69210   -9999.25   -9999.25   -9999.25   62.24100  124.41200
 7126.50000    0.09100    0.28850    2.96690    2.55390    0.25130   -9999.25   -9999.25    8.68870    9.63440   10.59240    7.71350  112.19910  -76.14790   -9999.25   -9999.25   -9999.25   58.03150  120.20270
 7127.00000    0.06700    0.25990    2.95270    2.59550    0.25000   -9999.25   -9999.25    8.75000    9.25400   10.04380    7.71650  109.64510  -73.42760   -9999.25   -9999.25   -9999.25   55.67930  122.97290
 7127.50000    0.06330    0.21790    2.88760    2.60190    0.14750   -9999.25   -9999.25    9.93090   11.47540   12.45040    7.72130  106.62920  -71.86350   -9999.25   -9999.25   -9999.25   55.24780  129.99780
 7128.00000    0.06760    0.18030    2.80260    2.59430    0.07440   -9999.25   -9999.25    9.50220   12.96190   13.20700    7.69160  103.57840  -73.55940   -9999.25   -9999.25   -9999.25   55.10490  140.17340
 7128.50000    0.10870    0.17380    2.73110    2.52810    0.07250   -9999.25   -9999.25    6.86730   11.34000    9.93410    7.66220  102.65940  -75.06990   -9999.25   -9999.25   -9999.25   54.77700  151.73440
 7129.00000    0.18160    0.20840    2.67300    2.38460    0.11830   -9999.25   -9999.25    4.71330    7.65700    6.81090    7.68860  108.66680  -78.57270   -9999.25   -9999.25   -9999.25   53.28200  159.47410
 7129.50000    0.24300    0.26510    2.62940    2.29460    0.18240   -9999.25   -9999.25    3.22120    5.17010    4.84380    7.69900  116.28960  -80.85530   -9999.25   -9999.25   -9999.25   51.53320  166.18330
 7130.00000    0.25670    0.29960    2.58820    2.26780    0.25040   -9999.25   -9999.25    2.53570    3.52600    3.89310    7.71960  120.64990  -81.94560   -9999.25   -9999.25   -9999.25   50.35860  169.97330
 7130.50000    0.21490    0.29940    2.68980    2.36290    0.25060   -9999.25   -9999.25    2.25070    2.99310    3.79140    7.73720  117.52180  -82.43650   -9999.25   -9999.25   -9999.25   49.20000  172.94740
 7131.00000    0.15950   -9999.25    2.85250    2.47090    0.25070   -9999.25   -9999.25    2.27530    3.18310    4.06790    7.73520  112.93730  -82.92730   -9999.25   -9999.25   -9999.25   46.68210  170.46580
 7131.50000    0.11680   -9999.25    3.00110    2.51210    0.25090   -9999.25   -9999.25    2.50960    3.49300    4.69370    7.73220  111.70410  -83.18690   -9999.25   -9999.25   -9999.25   44.56990  168.21210
 7132.00000    0.13290   -9999.25    3.11360    2.44940    0.25110   -9999.25   -9999.25    2.78640    3.89130    5.41870    7.73210  112.56750  -85.17980   -9999.25   -9999.25   -9999.25   44.93530  167.97880
 7132.50000    0.18440   -9999.25    3.15490    2.36720    0.21550   -9999.25   -9999.25    3.13520    4.45640    6.31350    7.73420  113.61290  -87.79410   -9999.25   -9999.25   -9999.25   46.57210  168.15030
 7133.00000    0.22400   -9999.25    3.14170    2.33260    0.23220   -9999.25   -9999.25    3.39660    4.96220    7.42010    7.73580  113.89300  -89.89270   -9999.25   -9999.25   -9999.25   49.09390  168.63170
 7133.50000    0.20360   -9999.25    3.13030    2.39160    0.24960   -9999.25   -9999.25    3.71630    5.23610    8.40520    7.72350  111.63400  -87.11220   -9999.25   -9999.25   -9999.25   58.13100  168.89170
 7134.00000    0.16740   -9999.25    3.10230    2.45480    0.24980   -9999.25   -9999.25    3.58090    4.91890    7.07240    7.71650  109.31550  -84.53600   -9999.25   -9999.25   -9999.25   70.05700  169.15160
 7134.50000    0.14290   -9999.25    3.06150    2.46830    0.24990   -9999.25   -9999.25    3.04190    3.92440    5.42640    7.73950  109.05570  -82.81950   -9999.25   -9999.25   -9999.25   79.34640  171.33560
 7135.00000    0.15300   -9999.25    3.10140    2.44170    0.25000   -9999.25   -9999.25    2.99170    3.88110    5.25640    7.73820  110.74610  -82.98650   -9999.25   -9999.25   -9999.25   80.41380  175.07830
 7135.50000    0.16090   -9999.25    3.11950    2.43560    0.25010   -9999.25   -9999.25    3.04070    4.08250    5.76460    7.71630  112.70310  -84.36700   -9999.25   -9999.25   -9999.25   80.93030  179.36400
 7136.00000    0.15950   -9999.25    3.12010    2.43840    0.25030   -9999.25   -9999.25    3.09050    4.14980    5.97370    7.72760  112.68680  -84.41240   -9999.25   -9999.25   -9999.25   82.65890  184.24870
 7136.50000    0.15880   -9999.25    3.09100    2.43080    0.24710   -9999.25   -9999.25    3.13910    4.06860    5.98850    7.73240  112.20610  -84.45780   -9999.25   -9999.25   -9999.25   86.05680  189.19400
 7137.00000    0.17800   -9999.25    3.01040    2.40180    0.23970   -9999.25   -9999.25    3.10430    3.98890    5.93220    7.72360  110.81960  -84.69700   -9999.25   -9999.25   -9999.25   86.15040  194.20530
 7137.50000    0.19590   -9999.25    2.95680    2.37820    0.24960   -9999.25   -9999.25    3.06980    3.89000    6.11030    7.73840  108.30680  -85.38100   -9999.25   -9999.25   -9999.25   79.17610  197.18740
 7138.00000    0.19710   -9999.25    2.86350    2.37500    0.25170   -9999.25   -9999.25    3.03990    3.74550    5.79510    7.72490  107.60650  -86.02020   -9999.25   -9999.25   -9999.25   72.14040  193.09930
