~Version ---------------------------------------------------
VERS.   2.0 : CWLS log ASCII Standard -VERSION 2.0
WRAP.    NO : One line per depth step
DLM . SPACE : Column Data Section Delimiter
~Well ------------------------------------------------------
STRT .F                 411.0 : START DEPTH
STOP .F                9424.0 : STOP DEPTH
STEP .F                   0.5 : STEP
NULL .               -9999.25 : NULL VALUE
COMP .                        : COMPANY
WELL .                        : WELL
FLD  .                        : FIELD
LOC  .                        : LOCATION
PROV .                        : PROVINCE
CNTY .                        : COUNTY
STAT .                        : STATE
CTRY .                        : COUNTRY
SRVC .                        : SERVICE COMPANY
DATE .                        : DATE
UWI  .                        : UNIQUE WELL ID
API  .                        : API NUMBER
SLAT .WGS84 5.407728042412799 : SURFACE LATITUDE
SLON .WGS84 2.504718022797306 : SURFACE LONGITUDE
DATUM.F               1273.61 : DEPTH DATUM ELEV
~Curve Information -----------------------------------------
DEPT     .F     : 1 MEASURED DEPTH
DPHZ_LS  .DEC   : HGRD STANDARD RESOLUTION DENSITY POROSITY
NPHI_LS  .DEC   : NEUTRON POROSITY LIMESTONE
PEFZ     .B/E   : HRDD STANDARD RESOLUTION FORMATION PHOTOELECTRIC FACTOR
RHOZ     .G/C3  : HRDD STANDARD RESOLUTION FORMATION DENSITY
HDRA     .G/C3  : HRDD SPINE AND RIBS DENSITY CORRECTION
DTSM_FAST.US/F  : SHEAR SLOWNESS OF FAST SHEAR WAVES
DTSM_SLOW.US/F  : SHEAR SLOWNESS OF SLOW SHEAR WAVES
AHT20    .OHMM  : ARRAY INDUCTION TWO FOOT RESISTIVITY A20
AHT30    .OHMM  : ARRAY INDUCTION TWO FOOT RESISTIVITY A30
AHT60    .OHMM  : ARRAY INDUCTION TWO FOOT RESISTIVITY A60
CALR     .IN    : CALIPER FROM RESISTIVITY LOG
GRR      .GAPI  : GAMMA RAY FROM RESISTIVITY LOG
SPR      .MV    : SPONTANEOUS POTENTIAL FROM RESISTIVITY LOG
AHF20    .OHMM  : ARRAY INDUCTION FOUR FOOT RESISTIVITY A20
AHF60    .OHMM  : ARRAY INDUCTION FOUR FOOT RESISTIVITY A60
AHFCO60  .MMHO  : ARRAY INDUCTION FOUR FOOT CONDUCTIVITY A60
DTCO     .US/F  : DELTA-T COMPRESSIONAL
DTSM     .US/F  : DELTA-T SHEAR
~Params ----------------------------------------------------
~Other -----------------------------------------------------
~ASCII -----------------------------------------------------
# ...
 8581.50000    0.00390    0.15910    4.29350    2.70790    0.00390   -9999.25   -9999.25   23.67260   20.62770   19.77340    7.52920  105.57560 -112.14160   -9999.25   -9999.25   -9999.25   74.62830  133.84400
 8582.00000   -0.00210    0.17920    4.16790    2.70900    0.01830   -9999.25   -9999.25   17.49770   15.43190   14.42210    7.52640  116.09910 -112.60680   -9999.25   -9999.25   -9999.25   74.89940  137.57470
 8582.50000   -0.00010    0.20790    3.96420    2.70980    0.03940   -9999.25   -9999.25   12.93350   11.57080   11.26320    7.51990  129.60660 -112.55560   -9999.25   -9999.25   -9999.25   74.78420  138.29960
 8583.00000    0.00600    0.24180    3.76780    2.69880    0.05430   -9999.25   -9999.25   11.78680   11.36980   11.11620    7.52050  140.09570 -111.96640   -9999.25   -9999.25   -9999.25   74.50010  138.49990
 8583.50000    0.00890    0.26160    3.74130    2.69480    0.06040   -9999.25   -9999.25   11.81870   11.30860   10.93660    7.52110  143.36220 -112.59710   -9999.25   -9999.25   -9999.25   73.89990  138.71040
 8584.00000    0.01100    0.25970    3.76720    2.69310    0.07630   -9999.25   -9999.25   11.71890   11.24770   10.82050    7.52160  143.87010 -113.41180   -9999.25   -9999.25   -9999.25   73.80950  139.13640
 8584.50000    0.00660    0.24820    3.80160    2.70160    0.08350   -9999.25   -9999.25   11.62000   11.18710   10.96990    7.52190  145.20450 -113.67620   -9999.25   -9999.25   -9999.25   73.81460  139.56250
 8585.00000    0.00090    0.23700    3.83040    2.70960    0.08360   -9999.25   -9999.25   11.52640   11.12690   11.09040    7.52240  150.44260 -113.50390   -9999.25   -9999.25   -9999.25   73.89220  139.98860
 8585.50000   -0.00210    0.24040    3.80610    2.70940    0.07050   -9999.25   -9999.25   11.43380   11.07010   10.92030    7.52010  152.76370 -113.46680   -9999.25   -9999.25   -9999.25   74.01380  140.41460
 8586.00000    0.00570    0.24830    3.74080    2.69810    0.05290   -9999.25   -9999.25   11.33850   11.01540   10.75270    7.51200  152.31790 -113.22150   -9999.25   -9999.25   -9999.25   74.21910  140.57590
 8586.50000    0.01100    0.25580    3.66280    2.68710    0.04110   -9999.25   -9999.25   11.39510   10.96100   10.69950    7.50670  148.65480 -112.59130   -9999.25   -9999.25   -9999.25   74.46340  140.46380
 8587.00000    0.01390    0.25580    3.60260    2.69410    0.03530   -9999.25   -9999.25   11.52630   10.98000   10.81510    7.51490  145.74640 -112.32000   -9999.25   -9999.25   -9999.25   74.75400  140.35180
 8587.50000    0.00900    0.25260    3.56000    2.69300    0.03180   -9999.25   -9999.25   11.45560   11.01580   10.93200    7.52320  146.10940 -112.12410   -9999.25   -9999.25   -9999.25   74.81350  140.06970
 8588.00000    0.01730    0.24760    3.53600    2.67690    0.02620   -9999.25   -9999.25   11.38540   10.94180   10.84370    7.52870  145.63920 -111.90780   -9999.25   -9999.25   -9999.25   74.75400  139.59040
 8588.50000    0.03310    0.24540    3.54480    2.65300    0.02430   -9999.25   -9999.25   11.31560   10.81710   10.71050    7.52580  143.89670 -111.79810   -9999.25   -9999.25   -9999.25   74.79680  139.88980
 8589.00000    0.03030    0.24970    3.61930    2.65810    0.03140   -9999.25   -9999.25   11.24620   10.69390   10.57900    7.52670  142.14850 -111.95850   -9999.25   -9999.25   -9999.25   74.77290  141.52780
 8589.50000    0.02420    0.25740    3.70540    2.66850    0.04830   -9999.25   -9999.25   11.17720   10.63230   10.43740    7.54080  143.12920 -112.72860   -9999.25   -9999.25   -9999.25   74.65510  142.03030
 8590.00000    0.01790    0.25570    3.79060    2.67950    0.06080   -9999.25   -9999.25   11.10870   10.60350   10.26420    7.53860  145.67260 -112.62450   -9999.25   -9999.25   -9999.25   74.39730  141.65810
 8590.50000    0.02930    0.25260    3.84160    2.66210    0.05970   -9999.25   -9999.25   11.04050   10.62670   10.26040    7.52160  146.83410 -112.18970   -9999.25   -9999.25   -9999.25   74.25850  141.25380
 8591.00000    0.02820    0.25090    3.83950    2.66320    0.05640   -9999.25   -9999.25   11.04080   10.68170   10.41160    7.51370  146.30210 -112.00160   -9999.25   -9999.25   -9999.25   74.53420  140.86000
 8591.50000    0.02940    0.25000    3.77130    2.66190    0.04200   -9999.25   -9999.25   11.16110   10.73700   10.56500    7.53440  143.82240 -112.15810   -9999.25   -9999.25   -9999.25   74.78490  140.46610
 8592.00000    0.01350    0.24810    3.71680    2.68570    0.03980   -9999.25   -9999.25   11.28270   10.79260   10.68430    7.53080  141.21710 -112.33280   -9999.25   -9999.25   -9999.25   74.73130  140.44320
 8592.50000    0.01060    0.24650    3.66400    2.69240    0.03930   -9999.25   -9999.25   11.40570   10.84850   10.60780    7.52710  138.90350 -112.63870   -9999.25   -9999.25   -9999.25   74.62950  140.61120
 8593.00000    0.00490    0.24910    3.69230    2.70200    0.05220   -9999.25   -9999.25   11.53000   10.83090   10.53190    7.51550  137.67340 -113.04560   -9999.25   -9999.25   -9999.25   74.50420  140.84540
 8593.50000    0.01490    0.25430    3.76570    2.68780    0.07290   -9999.25   -9999.25   11.46300   10.70890   10.45660    7.50610  137.98010 -113.29610   -9999.25   -9999.25   -9999.25   74.41880  140.93620
 8594.00000    0.01510    0.26030    3.84790    2.68380    0.08920   -9999.25   -9999.25   11.27480   10.58840   10.33390    7.52830  137.08230 -113.55560   -9999.25   -9999.25   -9999.25   74.32480  140.46690
 8594.50000    0.01540    0.26530    3.92650    2.68630    0.09860   -9999.25   -9999.25   11.18290   10.78460   10.41040    7.50810  134.60440 -113.80670   -9999.25   -9999.25   -9999.25   74.25270  139.82290
 8595.00000    0.00960    0.26530    3.94480    2.69600    0.10020   -9999.25   -9999.25   11.39890   11.01210   10.62750    7.48570  130.82330 -113.57370   -9999.25   -9999.25   -9999.25   74.52360  139.33260
 8595.50000    0.00690    0.25980    3.91890    2.70040    0.09420   -9999.25   -9999.25   11.61910   11.24100   10.84920    7.49500  128.23820 -113.23760   -9999.25   -9999.25   -9999.25   74.78360  139.20400
 8596.00000    0.00650    0.25410    3.87810    2.69970    0.08350   -9999.25   -9999.25   11.75650   11.38850   10.86500    7.50880  128.99540 -113.45500   -9999.25   -9999.25   -9999.25   74.80060  138.92460
 8596.50000    0.00590    0.25380    3.81040    2.70150    0.07550   -9999.25   -9999.25   11.68040   11.14640   10.71720    7.51570  133.11750 -113.58350   -9999.25   -9999.25   -9999.25   74.64170  138.73690
 8597.00000    0.00350    0.25580    3.75110    2.70360    0.07210   -9999.25   -9999.25   11.58790   10.90950   10.57140    7.53370  138.70760 -113.71210   -9999.25   -9999.25   -9999.25   74.35060  139.31270
 8597.50000    0.00330    0.25200    3.69950    2.70830    0.07570   -9999.25   -9999.25   11.49620   10.70400   10.42750    7.52610  142.47660 -113.91580   -9999.25   -9999.25   -9999.25   74.24580  140.14430
 8598.00000    0.02570    0.24220    3.66090    2.67210    0.05700   -9999.25   -9999.25   11.39970   10.57530   10.28570    7.50090  140.03110 -113.94240   -9999.25   -9999.25   -9999.25   74.41030  140.97590
 8598.50000    0.02520    0.23640    3.65420    2.66750    0.05610   -9999.25   -9999.25   11.27410   10.61510   10.27220    7.47490  136.65540 -114.00170   -9999.25   -9999.25   -9999.25   74.77210  141.80050
 8599.00000    0.01980    0.23810    3.68560    2.67620    0.05850   -9999.25   -9999.25   11.17550   10.77750   10.44250    7.46880  135.34370 -113.85970   -9999.25   -9999.25   -9999.25   75.21870  142.39180
 8599.50000    0.00050    0.24010    3.73750    2.70910    0.07430   -9999.25   -9999.25   11.37040   10.94230   10.62900    7.48380  139.19000 -113.70310   -9999.25   -9999.25   -9999.25   75.45650  142.66560
 8600.00000   -0.00280    0.24020    3.76750    2.71480    0.07420   -9999.25   -9999.25   11.63480   11.10970   10.81870    7.49890  142.70240 -113.93800   -9999.25   -9999.25   -9999.25   75.81660  142.65380
 8600.50000   -0.00550    0.23960    3.80610    2.72070    0.07150   -9999.25   -9999.25   11.90530   11.27960   11.01180    7.51390  142.23560 -114.20550   -9999.25   -9999.25   -9999.25   76.17470  142.36760
