~Version ---------------------------------------------------
VERS.   2.0 : CWLS log ASCII Standard -VERSION 2.0
WRAP.    NO : One line per depth step
DLM . SPACE : Column Data Section Delimiter
~Well ------------------------------------------------------
STRT .F                 411.0 : START DEPTH
STOP .F                9424.0 : STOP DEPTH
STEP .F                   0.5 : STEP
NULL .               -9999.25 : NULL VALUE
COMP .                        : COMPANY
WELL .                        : WELL
FLD  .                        : FIELD
LOC  .                        : LOCATION
PROV .                        : PROVINCE
CNTY .                        : COUNTY
STAT .                        : STATE
CTRY .                        : COUNTRY
SRVC .                        : SERVICE COMPANY
DATE .                        : DATE
UWI  .                        : UNIQUE WELL ID
API  .                        : API NUMBER
SLAT .WGS84 5.407728042412799 : SURFACE LATITUDE
SLON .WGS84 2.504718022797306 : SURFACE LONGITUDE
DATUM.F               1273.61 : DEPTH DATUM ELEV
~Curve Information -----------------------------------------
DEPT     .F     : 1 MEASURED DEPTH
DPHZ_LS  .DEC   : HGRD STANDARD RESOLUTION DENSITY POROSITY
NPHI_LS  .DEC   : NEUTRON POROSITY LIMESTONE
PEFZ     .B/E   : HRDD STANDARD RESOLUTION FORMATION PHOTOELECTRIC FACTOR
RHOZ     .G/C3  : HRDD STANDARD RESOLUTION FORMATION DENSITY
HDRA     .G/C3  : HRDD SPINE AND RIBS DENSITY CORRECTION
DTSM_FAST.US/F  : SHEAR SLOWNESS OF FAST SHEAR WAVES
DTSM_SLOW.US/F  : SHEAR SLOWNESS OF SLOW SHEAR WAVES
AHT20    .OHMM  : ARRAY INDUCTION TWO FOOT RESISTIVITY A20
AHT30    .OHMM  : ARRAY INDUCTION TWO FOOT RESISTIVITY A30
AHT60    .OHMM  : ARRAY INDUCTION TWO FOOT RESISTIVITY A60
CALR     .IN    : CALIPER FROM RESISTIVITY LOG
GRR      .GAPI  : GAMMA RAY FROM RESISTIVITY LOG
SPR      .MV    : SPONTANEOUS POTENTIAL FROM RESISTIVITY LOG
AHF20    .OHMM  : ARRAY INDUCTION FOUR FOOT RESISTIVITY A20
AHF60    .OHMM  : ARRAY INDUCTION FOUR FOOT RESISTIVITY A60
AHFCO60  .MMHO  : ARRAY INDUCTION FOUR FOOT CONDUCTIVITY A60
DTCO     .US/F  : DELTA-T COMPRESSIONAL
DTSM     .US/F  : DELTA-T SHEAR
~Params ----------------------------------------------------
~Other -----------------------------------------------------
~ASCII -----------------------------------------------------
# ...
 8425.50000    0.13230    0.14890    2.14720    2.48560    0.00870   -9999.25   -9999.25    4.07770    4.23140    4.64240    7.50570   61.94800 -159.71820   -9999.25   -9999.25   -9999.25   64.76790  109.00610
 8426.00000    0.12490    0.13260    2.10970    2.49970    0.00540   -9999.25   -9999.25    4.81160    5.36540    5.97690    7.52710   53.97600 -159.34050   -9999.25   -9999.25   -9999.25   64.38850  108.84650
 8426.50000    0.11550    0.11590    2.06340    2.50950    0.00510   -9999.25   -9999.25    6.62640    6.55640    6.88330    7.52330   48.13790 -158.96280   -9999.25   -9999.25   -9999.25   64.44590  109.33850
 8427.00000    0.10620    0.09910    2.05470    2.52650    0.00570   -9999.25   -9999.25    8.90120    7.83260    7.04370    7.51510   51.09190 -155.73430   -9999.25   -9999.25   -9999.25   65.11790  110.79870
 8427.50000    0.09990    0.11140    2.12040    2.53920    0.00670   -9999.25   -9999.25    9.36890    8.50800    6.89150    7.52240   60.11160 -151.91270   -9999.25   -9999.25   -9999.25   66.09280  112.13380
 8428.00000    0.09460    0.13470    2.24860    2.54820    0.00540   -9999.25   -9999.25   10.48400    9.24160    7.36210    7.51870   70.54700 -149.62450   -9999.25   -9999.25   -9999.25   67.26080  113.52090
 8428.50000    0.09250    0.16160    2.29060    2.55190    0.00330   -9999.25   -9999.25   12.35590    9.50210    8.02370    7.51560   73.73690 -149.86980   -9999.25   -9999.25   -9999.25   68.62690  114.39850
 8429.00000    0.09790    0.15680    2.28680    2.54250    0.00110   -9999.25   -9999.25   14.97400    9.49300    8.58860    7.51540   71.07660 -150.39830   -9999.25   -9999.25   -9999.25   70.36640  115.01860
 8429.50000    0.09370    0.14640    2.32890    2.54990    0.01620   -9999.25   -9999.25   14.84580    8.94230    8.05870    7.51610   69.20920 -150.25370   -9999.25   -9999.25   -9999.25   71.13250  114.58200
 8430.00000    0.08320    0.15000    2.41190    2.56770    0.03660   -9999.25   -9999.25   10.39730    7.77110    6.54520    7.51680   71.47820 -151.23550   -9999.25   -9999.25   -9999.25   70.64650  113.90390
 8430.50000    0.07120    0.16990    2.45350    2.58960    0.07530   -9999.25   -9999.25    7.09190    5.51710    4.89180    7.51760   78.23280 -153.87290   -9999.25   -9999.25   -9999.25   69.79340  113.22200
 8431.00000    0.08430    0.19300    2.39080    2.56860    0.09960   -9999.25   -9999.25    5.21270    3.90910    3.38750    7.51130   82.83520 -165.21310   -9999.25   -9999.25   -9999.25   69.27710  112.54240
 8431.50000    0.11480    0.19570    2.32790    2.51330    0.09880   -9999.25   -9999.25    3.82770    2.76970    2.42610    7.45410   80.16060 -176.58070   -9999.25   -9999.25   -9999.25   68.94850  111.76290
 8432.00000    0.15060    0.18490    2.18330    2.45260    0.09050   -9999.25   -9999.25    3.15510    2.11630    1.96800    7.39690   68.58880 -186.47570   -9999.25   -9999.25   -9999.25   68.61530  111.37600
 8432.50000    0.18020    0.16330    2.04310    2.39810    0.08370   -9999.25   -9999.25    2.71060    1.85220    1.65710    7.28500   53.99310 -195.71390   -9999.25   -9999.25   -9999.25   68.30800  111.29410
 8433.00000    0.19530    0.14700    2.00300    2.37600    0.08050   -9999.25   -9999.25    2.38730    1.62770    1.41630    7.18850   40.92280 -199.26030   -9999.25   -9999.25   -9999.25   68.05260  111.21210
 8433.50000    0.19770    0.13810    1.97740    2.37350    0.07680   -9999.25   -9999.25    2.06410    1.46690    1.22390    7.19190   34.58130 -202.18920   -9999.25   -9999.25   -9999.25   67.81830  111.10030
 8434.00000    0.19680    0.13220    1.96150    2.37460    0.08120   -9999.25   -9999.25    1.83070    1.35150    1.14810    7.19320   33.91940 -204.10440   -9999.25   -9999.25   -9999.25   67.65690  110.85190
 8434.50000    0.19460    0.12570    1.95100    2.38190    0.08690   -9999.25   -9999.25    1.72480    1.31830    1.15230    7.18220   33.74880 -205.41310   -9999.25   -9999.25   -9999.25   67.61140  110.72060
 8435.00000    0.18870    0.11700    1.94610    2.39230    0.09760   -9999.25   -9999.25    1.76400    1.35860    1.19480    7.16870   34.34830 -206.71580   -9999.25   -9999.25   -9999.25   67.56670  110.58180
 8435.50000    0.18270    0.11580    1.94640    2.40080    0.09630   -9999.25   -9999.25    1.80620    1.40980    1.23500    7.18610   35.30390 -207.22080   -9999.25   -9999.25   -9999.25   67.48430  110.16670
 8436.00000    0.17670    0.12090    1.94230    2.41040    0.09330   -9999.25   -9999.25    1.84950    1.45190    1.27140    7.18600   35.72030 -207.62190   -9999.25   -9999.25   -9999.25   67.53670  109.95280
 8436.50000    0.17040    0.12340    1.95220    2.42110    0.08970   -9999.25   -9999.25    1.90740    1.49400    1.30880    7.18550   35.89660 -208.34610   -9999.25   -9999.25   -9999.25   67.56710  109.73870
 8437.00000    0.16530    0.12210    1.96210    2.42850    0.08470   -9999.25   -9999.25    1.97050    1.54110    1.34740    7.18490   35.47080 -209.06680   -9999.25   -9999.25   -9999.25   67.19480  109.58670
 8437.50000    0.16750    0.11960    1.97200    2.42420    0.08710   -9999.25   -9999.25    2.02800    1.59220    1.38120    7.18590   34.82330 -209.34710   -9999.25   -9999.25   -9999.25   67.20000  109.56540
 8438.00000    0.17040    0.11350    1.98190    2.41980    0.09570   -9999.25   -9999.25    2.08640    1.62250    1.40980    7.17810   34.73820 -209.59330   -9999.25   -9999.25   -9999.25   67.56580  109.65290
 8438.50000    0.16760    0.11130    1.98510    2.42590    0.10430   -9999.25   -9999.25    2.11360    1.61680    1.38210    7.16760   35.56060 -209.78890   -9999.25   -9999.25   -9999.25   67.79340  109.98530
 8439.00000    0.16410    0.11140    1.95860    2.42990    0.10780   -9999.25   -9999.25    2.11310    1.59130    1.35480    7.16370   37.14680 -210.04800   -9999.25   -9999.25   -9999.25   67.86780  110.31770
 8439.50000    0.16510    0.11610    1.94030    2.42690    0.10220   -9999.25   -9999.25    2.10880    1.56620    1.32820    7.15990   37.62500 -210.39840   -9999.25   -9999.25   -9999.25   67.82680  110.65000
 8440.00000    0.17560    0.11850    1.93790    2.40970    0.09840   -9999.25   -9999.25    2.08150    1.54150    1.30160    7.15110   36.88490 -210.59500   -9999.25   -9999.25   -9999.25   67.80270  110.83580
 8440.50000    0.17840    0.11890    1.93990    2.40740    0.09790   -9999.25   -9999.25    2.04870    1.51720    1.27560    7.14730   36.57210 -212.41170   -9999.25   -9999.25   -9999.25   67.79550  110.86870
 8441.00000    0.17670    0.11940    1.95990    2.40840    0.10160   -9999.25   -9999.25    2.01650    1.49330    1.25010    7.15910   37.87500 -211.94640   -9999.25   -9999.25   -9999.25   67.55070  110.68730
 8441.50000    0.17080    0.12140    1.98870    2.41690    0.10540   -9999.25   -9999.25    1.98480    1.47810    1.23640    7.16350   39.27230 -211.46090   -9999.25   -9999.25   -9999.25   67.07690  110.16770
 8442.00000    0.17320    0.12300    2.01000    2.41510    0.10350   -9999.25   -9999.25    1.95310    1.46480    1.23890    7.16320   39.11020 -211.06820   -9999.25   -9999.25   -9999.25   66.87180  109.53850
 8442.50000    0.17220    0.12390    2.02680    2.41640    0.10260   -9999.25   -9999.25    1.92170    1.45160    1.24140    7.16080   38.45760 -210.41750   -9999.25   -9999.25   -9999.25   66.94310  109.00220
 8443.00000    0.16810    0.12090    2.03030    2.42250    0.10530   -9999.25   -9999.25    1.89510    1.43900    1.24380    7.13610   38.02950 -209.80900   -9999.25   -9999.25   -9999.25   67.02070  108.31870
 8443.50000    0.16470    0.11800    2.04350    2.43070    0.10920   -9999.25   -9999.25    1.94140    1.47560    1.26060    7.14240   38.04110 -209.70910   -9999.25   -9999.25   -9999.25   67.08470  107.87100
 8444.00000    0.16450    0.11430    2.04630    2.42850    0.11770   -9999.25   -9999.25    1.98880    1.51320    1.28090    7.14380   37.57160 -209.98570   -9999.25   -9999.25   -9999.25   66.98930  107.71420
 8444.50000    0.17100    0.11430    2.03530    2.41740    0.11710   -9999.25   -9999.25    2.01350    1.55160    1.30150    7.13870   36.14000 -210.39520   -9999.25   -9999.25   -9999.25   66.75770  107.81910
