~Version ---------------------------------------------------
VERS.   2.0 : CWLS log ASCII Standard -VERSION 2.0
WRAP.    NO : One line per depth step
DLM . SPACE : Column Data Section Delimiter
~Well ------------------------------------------------------
STRT .F                 411.0 : START DEPTH
STOP .F                9424.0 : STOP DEPTH
STEP .F                   0.5 : STEP
NULL .               -9999.25 : NULL VALUE
COMP .                        : COMPANY
WELL .                        : WELL
FLD  .                        : FIELD
LOC  .                        : LOCATION
PROV .                        : PROVINCE
CNTY .                        : COUNTY
STAT .                        : STATE
CTRY .                        : COUNTRY
SRVC .                        : SERVICE COMPANY
DATE .                        : DATE
UWI  .                        : UNIQUE WELL ID
API  .                        : API NUMBER
SLAT .WGS84 5.407728042412799 : SURFACE LATITUDE
SLON .WGS84 2.504718022797306 : SURFACE LONGITUDE
DATUM.F               1273.61 : DEPTH DATUM ELEV
~Curve Information -----------------------------------------
DEPT     .F     : 1 MEASURED DEPTH
DPHZ_LS  .DEC   : HGRD STANDARD RESOLUTION DENSITY POROSITY
NPHI_LS  .DEC   : NEUTRON POROSITY LIMESTONE
PEFZ     .B/E   : HRDD STANDARD RESOLUTION FORMATION PHOTOELECTRIC FACTOR
RHOZ     .G/C3  : HRDD STANDARD RESOLUTION FORMATION DENSITY
HDRA     .G/C3  : HRDD SPINE AND RIBS DENSITY CORRECTION
DTSM_FAST.US/F  : SHEAR SLOWNESS OF FAST SHEAR WAVES
DTSM_SLOW.US/F  : SHEAR SLOWNESS OF SLOW SHEAR WAVES
AHT20    .OHMM  : ARRAY INDUCTION TWO FOOT RESISTIVITY A20
AHT30    .OHMM  : ARRAY INDUCTION TWO FOOT RESISTIVITY A30
AHT60    .OHMM  : ARRAY INDUCTION TWO FOOT RESISTIVITY A60
CALR     .IN    : CALIPER FROM RESISTIVITY LOG
GRR      .GAPI  : GAMMA RAY FROM RESISTIVITY LOG
SPR      .MV    : SPONTANEOUS POTENTIAL FROM RESISTIVITY LOG
AHF20    .OHMM  : ARRAY INDUCTION FOUR FOOT RESISTIVITY A20
AHF60    .OHMM  : ARRAY INDUCTION FOUR FOOT RESISTIVITY A60
AHFCO60  .MMHO  : ARRAY INDUCTION FOUR FOOT CONDUCTIVITY A60
DTCO     .US/F  : DELTA-T COMPRESSIONAL
DTSM     .US/F  : DELTA-T SHEAR
~Params ----------------------------------------------------
~Other -----------------------------------------------------
~ASCII -----------------------------------------------------
# ...
 7782.00000    0.00920    0.01650    4.93450    2.69470    0.01040   -9999.25   -9999.25  199.06220  167.74600  249.60080    7.56940   36.29760 -228.72250   -9999.25   -9999.25   -9999.25   50.88150   94.73970
 7782.50000    0.01490    0.01950    4.76060    2.68670    0.01620   -9999.25   -9999.25  118.59670  100.27210  135.43150    7.56900   37.35640 -228.32820   -9999.25   -9999.25   -9999.25   51.01530   96.25670
 7783.00000    0.01530    0.02580    4.47700    2.68510    0.04300   -9999.25   -9999.25   83.20740   68.59670   75.37980    7.56700   38.17240 -228.31700   -9999.25   -9999.25   -9999.25   51.39010   96.92370
 7783.50000    0.02430    0.03390    4.27670    2.67000    0.04730   -9999.25   -9999.25   58.37830   50.07990   41.95560    7.56360   38.17620 -228.47940   -9999.25   -9999.25   -9999.25   52.00180   96.30750
 7784.00000    0.03690    0.04350    4.46480    2.64610    0.03620   -9999.25   -9999.25   42.78560   36.56150   30.11620    7.56790   37.34580 -228.64030   -9999.25   -9999.25   -9999.25   52.59140   95.70700
 7784.50000    0.04950    0.05010    4.70780    2.62520    0.02440   -9999.25   -9999.25   34.31670   26.69220   22.96000    7.56770   36.46840 -228.72340   -9999.25   -9999.25   -9999.25   52.82860   95.32430
 7785.00000    0.04050    0.04950    4.82800    2.63710    0.02770   -9999.25   -9999.25   28.87520   20.85620   19.07400    7.55710   37.13580 -228.74740   -9999.25   -9999.25   -9999.25   52.84400   95.37460
 7785.50000    0.03760    0.05190    4.83080    2.64540    0.03120   -9999.25   -9999.25   25.00250   16.89420   16.07350    7.53290   38.56490 -228.92740   -9999.25   -9999.25   -9999.25   52.84920   95.51040
 7786.00000    0.03570    0.05580    4.58780    2.64560    0.03060   -9999.25   -9999.25   19.77920   14.62610   13.54490    7.52450   38.50860 -228.88350   -9999.25   -9999.25   -9999.25   52.77720   95.64570
 7786.50000    0.04250    0.05750    4.21590    2.63620    0.02820   -9999.25   -9999.25   17.32160   13.91990   12.15790    7.52970   37.69200 -228.98740   -9999.25   -9999.25   -9999.25   52.77580   95.72540
 7787.00000    0.07150    0.05730    4.04460    2.59530    0.01770   -9999.25   -9999.25   17.68360   14.07730   12.68990    7.53090   36.55090 -229.25420   -9999.25   -9999.25   -9999.25   53.12700   96.07120
 7787.50000    0.07660    0.05700    4.19860    2.58140    0.02480   -9999.25   -9999.25   19.28330   15.78350   13.60360    7.53070   36.45560 -229.51710   -9999.25   -9999.25   -9999.25   53.24440   96.46930
 7788.00000    0.06420    0.05660    4.56540    2.59630    0.04680   -9999.25   -9999.25   20.88260   16.90050   14.25580    7.53810   38.22810 -229.55990   -9999.25   -9999.25   -9999.25   53.35230   96.74970
 7788.50000    0.04190    0.05610    4.88280    2.63850    0.07040   -9999.25   -9999.25   21.08190   17.09230   14.43480    7.54690   40.15910 -229.50770   -9999.25   -9999.25   -9999.25   53.62130   96.94350
 7789.00000    0.03200    0.05540    4.98420    2.65530    0.08430   -9999.25   -9999.25   20.19760   16.49580   13.79710    7.53540   41.51140 -229.46780   -9999.25   -9999.25   -9999.25   53.32360   97.12880
 7789.50000    0.03850    0.05510    5.07630    2.64410    0.08840   -9999.25   -9999.25   19.16830   15.58950   13.18740    7.52100   41.65380 -228.94890   -9999.25   -9999.25   -9999.25   53.60080   97.31420
 7790.00000    0.04980    0.05820    5.04210    2.62650    0.08230   -9999.25   -9999.25   18.16870   14.85690   12.60480    7.48900   41.58200 -228.62900   -9999.25   -9999.25   -9999.25   53.64460   97.26160
 7790.50000    0.06050    0.06320    4.98130    2.60470    0.07410   -9999.25   -9999.25   17.49490   14.15870   12.04780    7.46020   41.26820 -228.30910   -9999.25   -9999.25   -9999.25   53.62110   96.80240
 7791.00000    0.05910    0.06760    4.91980    2.60890    0.06390   -9999.25   -9999.25   17.00420   13.66170   11.69410    7.44470   39.81510 -227.92880   -9999.25   -9999.25   -9999.25   53.33950   96.39410
 7791.50000    0.05670    0.06900    4.87590    2.61430    0.05660   -9999.25   -9999.25   16.73280   13.47780   11.44530    7.43100   38.28990 -227.62650   -9999.25   -9999.25   -9999.25   52.93550   96.37880
 7792.00000    0.05650    0.06600    4.82980    2.61340    0.05170   -9999.25   -9999.25   16.46570   13.76100   11.73440    7.45160   37.74740 -227.07250   -9999.25   -9999.25   -9999.25   52.63680   96.75430
 7792.50000    0.05750    0.06040    4.82710    2.61380    0.04720   -9999.25   -9999.25   16.26680   14.06010   12.03080    7.48630   38.02300 -226.15380   -9999.25   -9999.25   -9999.25   52.50510   97.12220
 7793.00000    0.04980    0.05880    4.81880    2.63310    0.04420   -9999.25   -9999.25   16.64910   15.14540   12.73990    7.50550   38.25860 -225.14430   -9999.25   -9999.25   -9999.25   52.45330   96.54750
 7793.50000    0.03470    0.05740    4.84680    2.66080    0.03960   -9999.25   -9999.25   17.63400   16.65080   14.03670    7.52340   38.06420 -224.28510   -9999.25   -9999.25   -9999.25   52.34540   95.49490
 7794.00000    0.02400    0.05570    4.90890    2.67410    0.02970   -9999.25   -9999.25   19.82880   18.20030   15.46560    7.53870   37.57290 -223.23820   -9999.25   -9999.25   -9999.25   52.15080   94.44220
 7794.50000    0.02040    0.05330    4.98010    2.67870    0.01770   -9999.25   -9999.25   22.17210   19.83660   17.03990    7.55220   37.69580 -221.51460   -9999.25   -9999.25   -9999.25   51.61500   93.40520
 7795.00000    0.01760    0.05150    5.05450    2.68390    0.00580   -9999.25   -9999.25   23.40700   21.61990   19.71850    7.55350   38.39780 -219.20770   -9999.25   -9999.25   -9999.25   51.35440   92.99090
 7795.50000    0.00890    0.05070    5.11340    2.70180    0.00840   -9999.25   -9999.25   25.66930   24.00280   22.97310    7.55740   40.49070 -217.36650   -9999.25   -9999.25   -9999.25   51.00340   92.79700
 7796.00000    0.00120    0.04700    5.16000    2.71250    0.00700   -9999.25   -9999.25   30.92610   29.09320   27.76480    7.56980   43.09930 -215.80500   -9999.25   -9999.25   -9999.25   50.55370   92.71460
 7796.50000   -0.00390    0.04150    5.20570    2.71540    0.00290   -9999.25   -9999.25   37.25940   35.50190   33.99530    7.56560   44.04650 -214.59610   -9999.25   -9999.25   -9999.25   50.33170   92.17010
 7797.00000    0.00370    0.03600    5.21810    2.70260   -0.00520   -9999.25   -9999.25   44.88960   43.83310   41.62400    7.59890   43.86360 -213.29000   -9999.25   -9999.25   -9999.25   50.18530   91.58850
 7797.50000    0.01050    0.03240    5.16770    2.69080   -0.00560   -9999.25   -9999.25   54.08250   54.11940   50.96450    7.61440   43.11870 -212.25460   -9999.25   -9999.25   -9999.25   50.03880   91.31150
 7798.00000    0.01800    0.03010    5.10980    2.67980   -0.00370   -9999.25   -9999.25   66.78810   66.81960   62.40110    7.60530   42.15220 -210.84360   -9999.25   -9999.25   -9999.25   49.89240   91.70530
 7798.50000    0.01880    0.02770    5.02540    2.67890   -0.00170   -9999.25   -9999.25   83.09140   82.50000   76.51020    7.58160   41.85330 -209.42590   -9999.25   -9999.25   -9999.25   49.79630   92.27250
 7799.00000    0.02400    0.02510    4.95780    2.67110    0.00030   -9999.25   -9999.25  103.37440  101.86020   94.36760    7.56520   42.08770 -208.05890   -9999.25   -9999.25   -9999.25   49.70760   92.15230
 7799.50000    0.03070    0.02240    5.01350    2.66130    0.00090   -9999.25   -9999.25  128.60850  125.76370  116.39300    7.57110   42.19290 -207.29410   -9999.25   -9999.25   -9999.25   49.61890   91.73300
 7800.00000    0.02770    0.01980    5.10650    2.66340   -0.00080   -9999.25   -9999.25  159.87810  155.27650  143.55910    7.57160   42.35630 -206.52930   -9999.25   -9999.25   -9999.25   49.53030   91.26630
 7800.50000    0.01950    0.01750    5.12850    2.67660   -0.00010   -9999.25   -9999.25  178.51950  168.18130  156.84250    7.56850   42.53940 -205.61110   -9999.25   -9999.25   -9999.25   49.41600   90.83950
 7801.00000    0.00440    0.01700    5.06500    2.70310    0.00460   -9999.25   -9999.25  171.37610  165.15310  152.48470    7.56740   43.30540 -205.21830   -9999.25   -9999.25   -9999.25   49.18300   90.64090
