~Version ---------------------------------------------------
VERS.   2.0 : CWLS log ASCII Standard -VERSION 2.0
WRAP.    NO : One line per depth step
DLM . SPACE : Column Data Section Delimiter
~Well ------------------------------------------------------
STRT .F                 411.0 : START DEPTH
STOP .F                9424.0 : STOP DEPTH
STEP .F                   0.5 : STEP
NULL .               -9999.25 : NULL VALUE
COMP .                        : COMPANY
WELL .                        : WELL
FLD  .                        : FIELD
LOC  .                        : LOCATION
PROV .                        : PROVINCE
CNTY .                        : COUNTY
STAT .                        : STATE
CTRY .                        : COUNTRY
SRVC .                        : SERVICE COMPANY
DATE .                        : DATE
UWI  .                        : UNIQUE WELL ID
API  .                        : API NUMBER
SLAT .WGS84 5.407728042412799 : SURFACE LATITUDE
SLON .WGS84 2.504718022797306 : SURFACE LONGITUDE
DATUM.F               1273.61 : DEPTH DATUM ELEV
~Curve Information -----------------------------------------
DEPT     .F     : 1 MEASURED DEPTH
DPHZ_LS  .DEC   : HGRD STANDARD RESOLUTION DENSITY POROSITY
NPHI_LS  .DEC   : NEUTRON POROSITY LIMESTONE
PEFZ     .B/E   : HRDD STANDARD RESOLUTION FORMATION PHOTOELECTRIC FACTOR
RHOZ     .G/C3  : HRDD STANDARD RESOLUTION FORMATION DENSITY
HDRA     .G/C3  : HRDD SPINE AND RIBS DENSITY CORRECTION
DTSM_FAST.US/F  : SHEAR SLOWNESS OF FAST SHEAR WAVES
DTSM_SLOW.US/F  : SHEAR SLOWNESS OF SLOW SHEAR WAVES
AHT20    .OHMM  : ARRAY INDUCTION TWO FOOT RESISTIVITY A20
AHT30    .OHMM  : ARRAY INDUCTION TWO FOOT RESISTIVITY A30
AHT60    .OHMM  : ARRAY INDUCTION TWO FOOT RESISTIVITY A60
CALR     .IN    : CALIPER FROM RESISTIVITY LOG
GRR      .GAPI  : GAMMA RAY FROM RESISTIVITY LOG
SPR      .MV    : SPONTANEOUS POTENTIAL FROM RESISTIVITY LOG
AHF20    .OHMM  : ARRAY INDUCTION FOUR FOOT RESISTIVITY A20
AHF60    .OHMM  : ARRAY INDUCTION FOUR FOOT RESISTIVITY A60
AHFCO60  .MMHO  : ARRAY INDUCTION FOUR FOOT CONDUCTIVITY A60
DTCO     .US/F  : DELTA-T COMPRESSIONAL
DTSM     .US/F  : DELTA-T SHEAR
~Params ----------------------------------------------------
~Other -----------------------------------------------------
~ASCII -----------------------------------------------------
# ...
 8094.00000    0.06510    0.11740    2.59180    2.59960    0.00760   -9999.25   -9999.25   11.40770   11.59250   11.81450    7.55940   89.61220 -133.27410   -9999.25   -9999.25   -9999.25   68.08990  117.14610
 8094.50000    0.06760    0.13620    2.58710    2.59440    0.00650   -9999.25   -9999.25   10.81700   11.10140   11.42190    7.56090   92.28580 -132.04230   -9999.25   -9999.25   -9999.25   67.70420  117.42680
 8095.00000    0.07070    0.15290    2.61930    2.59140    0.00600   -9999.25   -9999.25   10.04300   10.31930   10.65600    7.57320   94.70530 -131.36830   -9999.25   -9999.25   -9999.25   67.15610  117.18930
 8095.50000    0.07330    0.15840    2.66680    2.58580    0.00720   -9999.25   -9999.25    9.43630    9.72250   10.02960    7.57830   97.42230 -129.93420   -9999.25   -9999.25   -9999.25   67.10330  117.60600
 8096.00000    0.07500    0.15980    2.71430    2.58460    0.00970   -9999.25   -9999.25    9.94410   10.30880   10.68060    7.57000  100.34130 -127.42350   -9999.25   -9999.25   -9999.25   67.55160  120.55410
 8096.50000    0.06600    0.16050    2.75280    2.60200    0.02100   -9999.25   -9999.25   10.78280   11.14350   11.53520    7.56620  100.92190 -124.88530   -9999.25   -9999.25   -9999.25   67.89570  121.00740
 8097.00000    0.05240    0.16270    2.76860    2.62580    0.03250   -9999.25   -9999.25   11.69220   12.04580   12.34880    7.58220   99.95090 -122.67780   -9999.25   -9999.25   -9999.25   67.75480  120.55700
 8097.50000    0.03590    0.16070    2.78190    2.65130    0.03640   -9999.25   -9999.25   12.06690   12.24360   12.45540    7.57620   98.23850 -122.46240   -9999.25   -9999.25   -9999.25   67.54470  120.22830
 8098.00000    0.03350    0.15640    2.78900    2.65370    0.02430   -9999.25   -9999.25   12.01710   12.19310   12.40400    7.57500   97.66150 -121.67080   -9999.25   -9999.25   -9999.25   67.50740  121.20420
 8098.50000    0.03550    0.15300    2.83010    2.65200    0.01880   -9999.25   -9999.25   11.94290   12.14270   12.35280    7.57720   96.87680 -120.99370   -9999.25   -9999.25   -9999.25   67.50060  121.60410
 8099.00000    0.03350    0.15670    2.89980    2.65620    0.03000   -9999.25   -9999.25   11.47650   11.69650   11.96030    7.57740   96.73410 -120.97500   -9999.25   -9999.25   -9999.25   67.35080  121.35560
 8099.50000    0.02670    0.16650    2.94370    2.66400    0.04280   -9999.25   -9999.25   11.02840   11.24000   11.49350    7.59810   99.94010 -120.22650   -9999.25   -9999.25   -9999.25   67.65300  121.59850
 8100.00000    0.01980    0.17960    2.93450    2.67850    0.06040   -9999.25   -9999.25   10.75320   10.90990   11.10340    7.60820  105.68960 -119.13710   -9999.25   -9999.25   -9999.25   68.28270  122.15860
 8100.50000    0.03220    0.18270    2.91850    2.66280    0.05560   -9999.25   -9999.25   10.96810   11.14080   11.33540    7.61820  111.92290 -118.67660   -9999.25   -9999.25   -9999.25   68.77500  122.18470
 8101.00000    0.03720    0.18430    2.86010    2.64650    0.04170   -9999.25   -9999.25   10.89910   11.06020   11.25330    7.60830  114.29170 -118.81380   -9999.25   -9999.25   -9999.25   68.72300  120.55480
 8101.50000    0.05070    0.18700    2.81080    2.62330    0.01740   -9999.25   -9999.25   10.82470   10.98890   11.26620    7.59660  113.56620 -119.58550   -9999.25   -9999.25   -9999.25   68.44450  119.38820
 8102.00000    0.04510    0.18540    2.79200    2.63290    0.00890   -9999.25   -9999.25   11.02890   11.22170   11.45350    7.60230  112.23780 -121.01120   -9999.25   -9999.25   -9999.25   68.35570  118.92520
 8102.50000    0.04440    0.17950    2.81080    2.63400    0.00910   -9999.25   -9999.25   11.36460   11.53060   11.72950    7.61500  108.57570 -122.82610   -9999.25   -9999.25   -9999.25   68.33720  118.54130
 8103.00000    0.04260    0.17290    2.85560    2.63710    0.01780   -9999.25   -9999.25   11.18600   11.36370   11.57700    7.62700  103.08050 -124.10740   -9999.25   -9999.25   -9999.25   68.14020  118.15730
 8103.50000    0.04350    0.16280    2.83790    2.63510    0.03280   -9999.25   -9999.25   10.96720   11.14130   11.35040    7.61500   98.84610 -125.38810   -9999.25   -9999.25   -9999.25   68.35960  118.24210
 8104.00000    0.05410    0.15410    2.79520    2.61480    0.02890   -9999.25   -9999.25   10.75260   10.92330   11.12830    7.60810   97.62780 -126.50950   -9999.25   -9999.25   -9999.25   68.82370  119.59560
 8104.50000    0.06300    0.15440    2.78720    2.59890    0.01520   -9999.25   -9999.25   10.80710   10.96590   11.15620    7.60120   97.35190 -126.07010   -9999.25   -9999.25   -9999.25   69.27730  121.28990
 8105.00000    0.06650    0.16400    2.80000    2.60380    0.01100   -9999.25   -9999.25   10.79630   10.95470   11.14470    7.59430   99.74100 -125.53760   -9999.25   -9999.25   -9999.25   69.46830  123.74760
 8105.50000    0.05470    0.16760    2.82860    2.61710    0.01610   -9999.25   -9999.25   10.74510   10.90280   11.09190    7.58740  102.83880 -125.00510   -9999.25   -9999.25   -9999.25   69.47660  124.09480
 8106.00000    0.04760    0.16720    2.84990    2.62870    0.02810   -9999.25   -9999.25   10.69420   10.85110   11.03930    7.58050  106.37040 -124.47250   -9999.25   -9999.25   -9999.25   69.41430  124.10150
 8106.50000    0.05280    0.16620    2.89270    2.61970    0.03210   -9999.25   -9999.25   10.64350   10.79970   10.98700    7.57360  109.16060 -123.98640   -9999.25   -9999.25   -9999.25   69.18560  123.99400
 8107.00000    0.04460    0.17500    2.93350    2.63360    0.04020   -9999.25   -9999.25   10.59300   10.74850   10.93500    7.56370  112.44140 -123.59300   -9999.25   -9999.25   -9999.25   68.82560  123.91870
 8107.50000    0.04360    0.18250    2.96970    2.63540    0.03890   -9999.25   -9999.25   10.54280   10.69760   10.88320    7.55020  115.07130 -124.01670   -9999.25   -9999.25   -9999.25   68.59820  123.81900
 8108.00000    0.03700    0.18030    2.95110    2.64670    0.03620   -9999.25   -9999.25   10.49290   10.64690   10.83160    7.55500  114.68610 -124.55490   -9999.25   -9999.25   -9999.25   68.36520  123.71930
 8108.50000    0.03420    0.17230    2.92230    2.65160    0.03420   -9999.25   -9999.25   10.50900   10.66720   10.85690    7.56250  109.43810 -125.20000   -9999.25   -9999.25   -9999.25   68.30670  123.54710
 8109.00000    0.03070    0.16280    2.91160    2.65750    0.03410   -9999.25   -9999.25   10.63170   10.79180   10.98370    7.55610  104.08090 -125.66500   -9999.25   -9999.25   -9999.25   68.32080  123.22350
 8109.50000    0.01940    0.16020    2.91740    2.67710    0.04720   -9999.25   -9999.25   10.75580   10.91770   11.11200    7.55610  100.51080 -125.73980   -9999.25   -9999.25   -9999.25   68.41140  122.73800
 8110.00000    0.03410    0.16140    2.91840    2.65190    0.04190   -9999.25   -9999.25   10.88130   11.04520   11.24180    7.55690  101.95570 -125.81000   -9999.25   -9999.25   -9999.25   68.41050  122.47640
 8110.50000    0.05060    0.16210    2.91990    2.62670    0.03060   -9999.25   -9999.25   11.02170   11.19540   11.40400    7.56030  106.41590 -126.06590   -9999.25   -9999.25   -9999.25   68.40440  122.27730
 8111.00000    0.06230    0.16280    2.93140    2.60480    0.01960   -9999.25   -9999.25   11.22850   11.40540   11.61800    7.56100  110.69950 -126.36280   -9999.25   -9999.25   -9999.25   68.11500  122.07830
 8111.50000    0.05150    0.16080    2.97600    2.62200    0.03230   -9999.25   -9999.25   11.49210   11.71350   11.98000    7.56530  110.83450 -126.55450   -9999.25   -9999.25   -9999.25   67.79230  121.87770
 8112.00000    0.03950    0.15750    2.98340    2.64290    0.05240   -9999.25   -9999.25   11.95020   12.18080   12.45760    7.57440  107.18430 -126.45120   -9999.25   -9999.25   -9999.25   68.02890  121.96380
 8112.50000    0.03370    0.15590    2.93740    2.65240    0.06070   -9999.25   -9999.25   11.93350   12.14140   12.37930    7.58350  104.83160 -127.08840   -9999.25   -9999.25   -9999.25   68.46700  122.35780
 8113.00000    0.03900    0.16210    2.89130    2.64250    0.04440   -9999.25   -9999.25   11.47210   11.69420   11.96190    7.59260  105.53280 -128.11220   -9999.25   -9999.25   -9999.25   68.77810  122.39000
