~Version ---------------------------------------------------
VERS.   2.0 : CWLS log ASCII Standard -VERSION 2.0
WRAP.    NO : One line per depth step
DLM . SPACE : Column Data Section Delimiter
~Well ------------------------------------------------------
STRT .F                 411.0 : START DEPTH
STOP .F                9424.0 : STOP DEPTH
STEP .F                   0.5 : STEP
NULL .               -9999.25 : NULL VALUE
COMP .                        : COMPANY
WELL .                        : WELL
FLD  .                        : FIELD
LOC  .                        : LOCATION
PROV .                        : PROVINCE
CNTY .                        : COUNTY
STAT .                        : STATE
CTRY .                        : COUNTRY
SRVC .                        : SERVICE COMPANY
DATE .                        : DATE
UWI  .                        : UNIQUE WELL ID
API  .                        : API NUMBER
SLAT .WGS84 5.407728042412799 : SURFACE LATITUDE
SLON .WGS84 2.504718022797306 : SURFACE LONGITUDE
DATUM.F               1273.61 : DEPTH DATUM ELEV
~Curve Information -----------------------------------------
DEPT     .F     : 1 MEASURED DEPTH
DPHZ_LS  .DEC   : HGRD STANDARD RESOLUTION DENSITY POROSITY
NPHI_LS  .DEC   : NEUTRON POROSITY LIMESTONE
PEFZ     .B/E   : HRDD STANDARD RESOLUTION FORMATION PHOTOELECTRIC FACTOR
RHOZ     .G/C3  : HRDD STANDARD RESOLUTION FORMATION DENSITY
HDRA     .G/C3  : HRDD SPINE AND RIBS DENSITY CORRECTION
DTSM_FAST.US/F  : SHEAR SLOWNESS OF FAST SHEAR WAVES
DTSM_SLOW.US/F  : SHEAR SLOWNESS OF SLOW SHEAR WAVES
AHT20    .OHMM  : ARRAY INDUCTION TWO FOOT RESISTIVITY A20
AHT30    .OHMM  : ARRAY INDUCTION TWO FOOT RESISTIVITY A30
AHT60    .OHMM  : ARRAY INDUCTION TWO FOOT RESISTIVITY A60
CALR     .IN    : CALIPER FROM RESISTIVITY LOG
GRR      .GAPI  : GAMMA RAY FROM RESISTIVITY LOG
SPR      .MV    : SPONTANEOUS POTENTIAL FROM RESISTIVITY LOG
AHF20    .OHMM  : ARRAY INDUCTION FOUR FOOT RESISTIVITY A20
AHF60    .OHMM  : ARRAY INDUCTION FOUR FOOT RESISTIVITY A60
AHFCO60  .MMHO  : ARRAY INDUCTION FOUR FOOT CONDUCTIVITY A60
DTCO     .US/F  : DELTA-T COMPRESSIONAL
DTSM     .US/F  : DELTA-T SHEAR
~Params ----------------------------------------------------
~Other -----------------------------------------------------
~ASCII -----------------------------------------------------
# ...
 9244.50000    0.08730    0.08670    3.04990    2.56070    0.06070  105.59240  114.83480   18.21060   17.09900   16.19250    7.65680   78.21820 -491.25730   -9999.25   -9999.25   -9999.25   60.32760   93.85010
 9245.00000    0.08300    0.07230    3.12250    2.56740    0.06210  106.90300  114.14240   21.62320   20.23890   19.18880    7.66040   72.25010 -490.39290   -9999.25   -9999.25   -9999.25   60.15940  100.48000
 9245.50000    0.06510    0.06300    3.15500    2.60630    0.06880  108.07850  115.29980   24.05170   23.32760   22.07290    7.67210   67.35910 -490.16530   -9999.25   -9999.25   -9999.25   60.36780  107.90070
 9246.00000    0.04910    0.06160    3.12730    2.63180    0.07030  110.80370  116.83770   24.07300   22.79700   20.95750    7.70810   67.66000 -489.31050   -9999.25   -9999.25   -9999.25   61.22390  114.28870
 9246.50000    0.04160    0.07170    3.01050    2.63770    0.06790  111.93730  119.83080   20.35860   19.16750   18.03430    7.73390   71.29770 -488.34270   -9999.25   -9999.25   -9999.25   62.53150  119.13770
 9247.00000    0.04500    0.08270    2.91770    2.63150    0.05970  112.61030  123.10940   17.21730   16.23210   15.69100    7.73650   75.91260 -487.30400   -9999.25   -9999.25   -9999.25   63.32660  121.67730
 9247.50000    0.04910    0.09050    2.90010    2.62530    0.06550  113.04340  126.08340   15.59090   15.90860   14.98830    7.72440   81.31960 -486.29670   -9999.25   -9999.25   -9999.25   63.56000  121.94580
 9248.00000    0.05960    0.09830    2.93640    2.60950    0.08150  114.09910  127.94040   15.54780   15.79850   15.11870    7.72340   89.11720 -485.28860   -9999.25   -9999.25   -9999.25   63.59510  121.45670
 9248.50000    0.05870    0.10530    2.97600    2.60980    0.09440  116.25690  127.98280   15.88680   15.87760   15.41240    7.72610   97.10560 -484.88380   -9999.25   -9999.25   -9999.25   63.34640  121.02390
 9249.00000    0.06110    0.10960    2.97060    2.61240    0.10240  117.55040  128.30400   16.23320   15.70120   15.43290    7.74470  103.73240 -484.46820   -9999.25   -9999.25   -9999.25   63.04500  120.65840
 9249.50000    0.04900    0.10930    2.96170    2.62590    0.10440  119.35700  128.06960   15.93770   15.50680   15.23650    7.75060  106.64600 -484.19140   -9999.25   -9999.25   -9999.25   63.18020  120.29300
 9250.00000    0.05320    0.10590    2.95620    2.62630    0.10240  117.86640  127.03870   15.64390   15.27250   15.04260    7.74940  105.75120 -484.24510   -9999.25   -9999.25   -9999.25   63.67650  120.02730
 9250.50000    0.04900    0.10200    2.95120    2.62040    0.10030  119.63270  126.59130   15.35560   15.04180   14.85120    7.75770  102.14760 -484.30610   -9999.25   -9999.25   -9999.25   64.29160  119.88300
 9251.00000    0.05750    0.10180    2.97010    2.61210    0.09830  121.62090  127.58960   15.07250   14.81450   14.64630    7.74280   99.43950 -484.21300   -9999.25   -9999.25   -9999.25   65.16820  119.88610
 9251.50000    0.05280    0.11330    3.01900    2.62070    0.11030  123.37380  127.89510   14.79470   14.59070   14.34910    7.74810  102.02980 -483.89990   -9999.25   -9999.25   -9999.25   66.76660  122.10280
 9252.00000    0.05750    0.13950    3.09950    2.61340    0.12570  123.66190  128.66260   14.53430   14.37910   14.05800    7.77260  110.51950 -483.58690   -9999.25   -9999.25   -9999.25   67.28460  123.14860
 9252.50000    0.05190    0.16010    3.17220    2.62340    0.15010  122.61150  128.32410   14.28850   14.17280   13.31120    8.09870  118.76260 -483.41840   -9999.25   -9999.25   -9999.25   66.99020  123.75890
 9253.00000    0.04370    0.15940    3.34690    2.63960    0.17470  122.07670  129.19880   15.10470   14.63070   14.04170    8.49400  118.87710 -483.38560   -9999.25   -9999.25   -9999.25   66.23230  123.68660
 9253.50000    0.03020    0.15050    3.53690    2.66160    0.21350  118.81690  128.17220   18.17660   17.78510   17.11060    8.07400  111.86210 -483.43090   -9999.25   -9999.25   -9999.25   65.88620  123.49020
 9254.00000    0.02320    0.14000    3.60950    2.66910    0.24580  117.12030  127.10070   22.67350   20.95890   19.76720    7.87900  105.66160 -483.78970   -9999.25   -9999.25   -9999.25   65.79650  121.78540
 9254.50000    0.03410    0.13160    3.58090    2.65120    0.25010  114.06920  123.16090   21.05770   20.15870   19.25660    7.91290  102.48190 -484.35510   -9999.25   -9999.25   -9999.25   65.57860  119.15070
 9255.00000    0.03470    0.11630    3.44910    2.64880    0.23840  112.58840  120.55710   19.91080   19.17020   18.50270    7.92350  100.72350 -484.46960   -9999.25   -9999.25   -9999.25   65.10950  116.39770
 9255.50000    0.04020    0.09530    3.26670    2.63960    0.19070  111.35680  119.40920   19.00500   18.23010   17.77840    7.90140   96.17380 -484.92330   -9999.25   -9999.25   -9999.25   63.66060  114.11290
 9256.00000    0.04710    0.07490    3.14570    2.62840    0.13880  110.21160  118.18950   18.14040   17.59460   17.08240    7.86740   89.15920 -485.55770   -9999.25   -9999.25   -9999.25   62.62260  112.81180
 9256.50000    0.05490    0.06410    3.04330    2.61430    0.09540  109.26960  118.04940   17.31510   17.00240   16.53590    7.87630   80.39310 -486.49390   -9999.25   -9999.25   -9999.25   62.34350  112.43910
 9257.00000    0.05540    0.05950    2.97820    2.61850    0.08130  109.02850  118.13330   16.86530   16.70010   16.19750    7.84550   74.72100 -487.80240   -9999.25   -9999.25   -9999.25   62.62410  112.68570
 9257.50000    0.05040    0.05870    2.97990    2.62320    0.08740  108.32310  118.12940   17.97480   16.89280   16.31690    7.80730   75.63200 -488.07230   -9999.25   -9999.25   -9999.25   62.88990  113.17550
 9258.00000    0.05290    0.06630    3.01450    2.62310    0.10500  107.95050  118.17660   19.69770   17.00920   16.43720    7.79980   82.29690 -488.34210   -9999.25   -9999.25   -9999.25   63.20920  113.66530
 9258.50000    0.04480    0.07620    3.02930    2.63520    0.14190  108.07240  118.66480   19.53170   16.87390   16.55830    7.81330   89.19830 -488.78520   -9999.25   -9999.25   -9999.25   63.97410  114.13180
 9259.00000    0.04110    0.09130    2.99610    2.64130    0.15260  108.19430  119.30350   19.04790   16.73970   16.42100    7.83870   92.26260 -489.45740   -9999.25   -9999.25   -9999.25   63.97980  114.56420
 9259.50000    0.04200    0.09510    2.91210    2.63670    0.13660  109.48240  119.21930   18.57610   16.60650   16.07140    7.86360   90.00260 -489.87700   -9999.25   -9999.25   -9999.25   63.48190  114.53460
 9260.00000    0.05850    0.09060    2.80870    2.60920    0.09150  111.01070  119.47030   18.11600   16.32300   15.72930    7.78710   86.89650 -490.09740   -9999.25   -9999.25   -9999.25   63.03880  114.63000
 9260.50000    0.05880    0.08410    2.75700    2.61180    0.07240  112.08340  120.27700   17.66720   15.97020   15.39440    7.72470   85.31620 -490.35820   -9999.25   -9999.25   -9999.25   63.20580  115.11410
 9261.00000    0.05150    0.08150    2.77830    2.62420    0.07930  112.77690  120.71100   17.30540   15.77020   15.34380    7.72390   85.29470 -490.61900   -9999.25   -9999.25   -9999.25   64.47650  115.59820
 9261.50000    0.04640    0.08560    2.87000    2.62700    0.11070  114.15120  122.07510   16.87660   16.00880   15.74340    7.74930   86.02700 -490.83850   -9999.25   -9999.25   -9999.25   65.25670  116.38180
 9262.00000    0.05550    0.10010    2.98310    2.61600    0.15850  115.18890  122.04470   16.45850   16.05220   15.45710    7.76710   91.78050 -491.26100   -9999.25   -9999.25   -9999.25   65.35670  116.73040
 9262.50000    0.05710    0.11940    3.03500    2.61050    0.20280  115.22880  121.26910   15.79290   15.09160   14.57730    7.79300   98.28700 -492.05880   -9999.25   -9999.25   -9999.25   65.71870  116.62930
 9263.00000    0.05850    0.13090    3.01140    2.61400    0.19890  114.69230  120.49350   14.74060   14.18840   13.74760    7.88070  104.47650 -492.45350   -9999.25   -9999.25   -9999.25   66.50730  115.85490
 9263.50000    0.04960    0.12360    2.98490    2.62080    0.17490  115.00070  119.71790   14.36610   13.78360   13.62570    7.88300  101.46820 -492.85780   -9999.25   -9999.25   -9999.25   67.21330  115.06640
