~Version ---------------------------------------------------
VERS.   2.0 : CWLS log ASCII Standard -VERSION 2.0
WRAP.    NO : One line per depth step
DLM . SPACE : Column Data Section Delimiter
~Well ------------------------------------------------------
STRT .F                 411.0 : START DEPTH
STOP .F                9424.0 : STOP DEPTH
STEP .F                   0.5 : STEP
NULL .               -9999.25 : NULL VALUE
COMP .                        : COMPANY
WELL .                        : WELL
FLD  .                        : FIELD
LOC  .                        : LOCATION
PROV .                        : PROVINCE
CNTY .                        : COUNTY
STAT .                        : STATE
CTRY .                        : COUNTRY
SRVC .                        : SERVICE COMPANY
DATE .                        : DATE
UWI  .                        : UNIQUE WELL ID
API  .                        : API NUMBER
SLAT .WGS84 5.407728042412799 : SURFACE LATITUDE
SLON .WGS84 2.504718022797306 : SURFACE LONGITUDE
DATUM.F               1273.61 : DEPTH DATUM ELEV
~Curve Information -----------------------------------------
DEPT     .F     : 1 MEASURED DEPTH
DPHZ_LS  .DEC   : HGRD STANDARD RESOLUTION DENSITY POROSITY
NPHI_LS  .DEC   : NEUTRON POROSITY LIMESTONE
PEFZ     .B/E   : HRDD STANDARD RESOLUTION FORMATION PHOTOELECTRIC FACTOR
RHOZ     .G/C3  : HRDD STANDARD RESOLUTION FORMATION DENSITY
HDRA     .G/C3  : HRDD SPINE AND RIBS DENSITY CORRECTION
DTSM_FAST.US/F  : SHEAR SLOWNESS OF FAST SHEAR WAVES
DTSM_SLOW.US/F  : SHEAR SLOWNESS OF SLOW SHEAR WAVES
AHT20    .OHMM  : ARRAY INDUCTION TWO FOOT RESISTIVITY A20
AHT30    .OHMM  : ARRAY INDUCTION TWO FOOT RESISTIVITY A30
AHT60    .OHMM  : ARRAY INDUCTION TWO FOOT RESISTIVITY A60
CALR     .IN    : CALIPER FROM RESISTIVITY LOG
GRR      .GAPI  : GAMMA RAY FROM RESISTIVITY LOG
SPR      .MV    : SPONTANEOUS POTENTIAL FROM RESISTIVITY LOG
AHF20    .OHMM  : ARRAY INDUCTION FOUR FOOT RESISTIVITY A20
AHF60    .OHMM  : ARRAY INDUCTION FOUR FOOT RESISTIVITY A60
AHFCO60  .MMHO  : ARRAY INDUCTION FOUR FOOT CONDUCTIVITY A60
DTCO     .US/F  : DELTA-T COMPRESSIONAL
DTSM     .US/F  : DELTA-T SHEAR
~Params ----------------------------------------------------
~Other -----------------------------------------------------
~ASCII -----------------------------------------------------
# ...
 8913.00000    0.02610    0.16460    3.31260    2.66490    0.00690  123.45090  124.70840   21.18220   21.11740   21.98930    7.77790  104.85990 -477.75670   -9999.25   -9999.25   -9999.25   66.60360  123.04950
 8913.50000    0.03050    0.17320    3.29310    2.65660    0.00510  123.89460  127.64280   20.78640   20.30110   20.86070    7.76210  111.58090 -477.75330   -9999.25   -9999.25   -9999.25   68.08020  127.15910
 8914.00000    0.03070    0.18310    3.23880    2.65820    0.00700  128.49780  131.44660   20.23070   19.51630   19.66140    7.74560  119.86930 -477.79020   -9999.25   -9999.25   -9999.25   69.89630  132.07960
 8914.50000    0.02790    0.19110    3.18440    2.66290    0.01010  133.62220  135.41750   19.68980   18.76180   18.53110    7.72880  124.15250 -477.98490   -9999.25   -9999.25   -9999.25   71.50460  137.62310
 8915.00000    0.02840    0.18120    3.19370    2.66090    0.01120  138.74650  140.53680   19.16340   18.01490   17.46570    7.71920  120.35350 -478.18610   -9999.25   -9999.25   -9999.25   72.61980  142.53800
 8915.50000    0.02900    0.16800    3.21450    2.66110    0.01200  143.68390  145.66080   17.85610   17.05840   16.46160    7.73500  114.75570 -478.50330   -9999.25   -9999.25   -9999.25   73.24360  145.07730
 8916.00000    0.02270    0.16250    3.24310    2.67330    0.02540  147.89670  149.60950   16.26250   15.53560   15.03130    7.75580  113.67120 -478.86020   -9999.25   -9999.25   -9999.25   74.26170  147.17400
 8916.50000    0.02460    0.17190    3.24130    2.66390    0.05800  151.41540  152.91430   14.81120   14.14880   13.67190    7.75950  114.46170 -479.32330   -9999.25   -9999.25   -9999.25   75.44080  149.91690
 8917.00000    0.04990    0.18430    3.23340    2.61590    0.10060  154.71940  156.21910   13.95320   12.88580   12.45180    7.73020  118.07300 -479.72630   -9999.25   -9999.25   -9999.25   76.71740  152.32470
 8917.50000    0.08770    0.20970    3.23170    2.55500    0.15790  155.87900  157.13950   13.31550   11.89340   11.46750    7.70730  125.89150 -479.96250   -9999.25   -9999.25   -9999.25   77.54930  153.91070
 8918.00000    0.10680    0.23770    3.22850    2.52930    0.20820  156.51820  157.77870   12.81650   11.05180   10.56100    7.72610  134.87140 -480.16130   -9999.25   -9999.25   -9999.25   77.92000  154.69460
 8918.50000    0.10980    0.26740    3.21890    2.51940    0.25050  157.15730  158.86820   11.52330   10.26970    9.72620    7.79580  139.35700 -480.11130   -9999.25   -9999.25   -9999.25   77.84690  155.43440
 8919.00000    0.10180    0.27950    3.14730    2.53680    0.25030  156.45320  158.75840   10.19690    9.58270    9.10430    7.91350  139.81520 -479.66510   -9999.25   -9999.25   -9999.25   77.04140  155.87760
 8919.50000    0.11760    0.28400    3.10230    2.51130    0.25020  154.63620  157.06440    9.33690    8.97320    8.52440    8.35600  138.11270 -478.78450   -9999.25   -9999.25   -9999.25   77.24240  156.50310
 8920.00000    0.11100    0.29080    3.06260    2.52310    0.25010  152.78180  155.56030    8.74380    8.63740    8.60630    8.62000  137.58560 -478.05030   -9999.25   -9999.25   -9999.25   77.88730  157.36950
 8920.50000    0.09860    0.29970    3.06590    2.54030    0.25000  154.41060  157.46850    8.64370    8.79360    8.96580    8.20560  139.14460 -477.59820   -9999.25   -9999.25   -9999.25   78.44460  158.08870
 8921.00000    0.08150    0.29970    3.19860    2.56730    0.24990  156.26840  159.38420    8.77480    8.90300    9.18410    8.16390  142.00110 -477.79980   -9999.25   -9999.25   -9999.25   78.86030  158.25490
 8921.50000    0.09240    0.29970    3.27470    2.54890    0.24980  158.12630  161.37010    8.58390    8.73470    8.97830    8.23770  143.93600 -478.00140   -9999.25   -9999.25   -9999.25   79.34730  157.91980
 8922.00000    0.16580    0.29970    3.24830    2.42250    0.24930  159.98410  163.35610    8.32170    8.46790    8.76940    8.31010  144.75940 -478.20300   -9999.25   -9999.25   -9999.25   79.44850  157.66940
 8922.50000    0.21100    0.29970    3.16080    2.34860    0.23630  161.84200  165.22980    8.07190    8.31540    8.56540    8.37730  144.87720 -478.48190   -9999.25   -9999.25   -9999.25   79.54210  157.64250
 8923.00000    0.18060    0.29970    3.14390    2.40020    0.24480  162.27350  165.74270    8.22080    8.36340    8.57820    8.41720  143.01920 -478.48360   -9999.25   -9999.25   -9999.25   79.27190  158.01810
 8923.50000    0.12090    0.29540    3.19470    2.50090    0.25050  161.89790  165.59950    8.41240    8.55580    8.77110    7.95330  139.81740 -478.33970   -9999.25   -9999.25   -9999.25   79.04440  158.93330
 8924.00000    0.09770    0.28300    3.22040    2.54430   -9999.25  161.52240  166.26720    8.60860    8.75260    8.96830    8.16450  137.48920 -478.10920   -9999.25   -9999.25   -9999.25   78.80400  159.65110
 8924.50000    0.13530    0.29030    3.21840    2.49020   -9999.25  161.14680  166.29480    8.80930    8.96500    9.17000    8.37500  138.77040 -477.86910   -9999.25   -9999.25   -9999.25   78.30430  159.72880
 8925.00000    0.14740    0.29810    3.23250    2.45720   -9999.25  161.65940  164.57470    9.01460    9.20710    9.37590    8.40850  142.62820 -477.51250   -9999.25   -9999.25   -9999.25   77.94510  159.75080
 8925.50000    0.11860    0.29520    3.27550    2.50020   -9999.25  159.75340  162.85450    8.91600    9.13650    9.28820    8.45060  147.26690 -476.75860   -9999.25   -9999.25   -9999.25   77.83810  159.06540
 8926.00000    0.07710    0.28460    3.39960    2.55890   -9999.25  157.84750  160.99550    8.41560    8.58170    8.89650    8.49700  148.02450 -476.26430   -9999.25   -9999.25   -9999.25   77.61470  158.00280
 8926.50000    0.06420    0.28270    3.48950    2.59930   -9999.25  155.94150  159.11450    8.32570    8.50050    8.84320    8.46830  144.90530 -476.27260   -9999.25   -9999.25   -9999.25   76.48760  156.58820
 8927.00000    0.06660    0.28970    3.48150    2.59780   -9999.25  154.03550  157.23360    8.73100    8.91350    9.15050    8.41520  137.38300 -476.43010   -9999.25   -9999.25   -9999.25   75.47610  154.83080
 8927.50000    0.07600    0.29880    3.45860    2.58390   -9999.25  152.15980  155.35260    9.08500    9.21770    9.45840    8.33150  134.11690 -475.96500   -9999.25   -9999.25   -9999.25   75.26580  152.81380
 8928.00000    0.07290    0.30040    3.44400    2.58620   -9999.25  152.20620  154.48660    8.89390    9.05720    9.30090    8.29040  136.44140 -475.49980   -9999.25   -9999.25   -9999.25   75.66680  151.56510
 8928.50000    0.07310    0.30060    3.40820    2.58490    0.24970  154.15840  155.93900    8.58690    8.74430    8.95150    8.35850  140.79780 -475.54080   -9999.25   -9999.25   -9999.25   76.12280  150.95140
 8929.00000    0.08220    0.30000    3.38280    2.56580    0.21990  156.00070  157.98220    8.30070    8.44220    8.62510    8.45720  140.36160 -475.84680   -9999.25   -9999.25   -9999.25   77.13090  151.43610
 8929.50000    0.09670    0.29370    3.32730    2.54390    0.17200  157.69940  160.03830    8.45280    8.66910    9.14370    8.46810  137.15810 -476.12810   -9999.25   -9999.25   -9999.25   77.72650  153.18070
 8930.00000    0.08420    0.27550    3.32190    2.56510    0.14830  159.39800  162.09440    9.30050   10.07010   10.55060    8.11420  136.56510 -476.42220   -9999.25   -9999.25   -9999.25   77.90750  155.15500
 8930.50000    0.06800    0.26780    3.35900    2.59430    0.15680  161.09670  163.89080   10.21320   10.54920   10.91370    7.83350  137.20600 -477.18370   -9999.25   -9999.25   -9999.25   78.03160  156.72770
 8931.00000    0.06880    0.27060    3.39600    2.59430    0.18370  162.79540  165.50500    9.59590    9.78980   10.11040    7.89510  136.86320 -477.94510   -9999.25   -9999.25   -9999.25   78.05780  158.03170
 8931.50000    0.09050    0.27860    3.36100    2.55030    0.19240  162.88350  165.11330    9.01600    9.22700    9.48590    7.97470  134.73580 -478.48480   -9999.25   -9999.25   -9999.25   77.69090  158.38680
 8932.00000    0.12510    0.28650    3.29950    2.49340    0.18570  160.82320  163.87510    8.79120    8.93130    9.09940    8.03070  132.73710 -478.50730   -9999.25   -9999.25   -9999.25   77.06850  158.18250
