~Version ---------------------------------------------------
VERS.   2.0 : CWLS log ASCII Standard -VERSION 2.0
WRAP.    NO : One line per depth step
DLM . SPACE : Column Data Section Delimiter
~Well ------------------------------------------------------
STRT .F                   4.0 : START DEPTH
STOP .F                4056.0 : STOP DEPTH
STEP .F                   0.5 : STEP
NULL .               -9999.25 : NULL VALUE
COMP .                        : COMPANY
WELL .                        : WELL
FLD  .                        : FIELD
LOC  .                        : LOCATION
PROV .                        : PROVINCE
CNTY .                        : COUNTY
STAT .                        : STATE
CTRY .                        : COUNTRY
SRVC .                        : SERVICE COMPANY
DATE .                        : DATE
UWI  .                        : UNIQUE WELL ID
API  .                        : API NUMBER
SLAT .WGS84 2.911140464936402 : SURFACE LATITUDE
SLON .WGS84 6.374855159901998 : SURFACE LONGITUDE
DATUM.F               2906.72 : DEPTH DATUM ELEV
~Curve Information -----------------------------------------
DEPT.F     : 
DTSM.US/F  : DELTA-T SHEAR
DTCO.US/F  : DELTA-T COMPRESSIONAL
DTL .US/F  : DELTA-T LONG SPACING
NPHI.DEC   : NEUTRON POROSITY
GRD .GAPI  : GAMMA RAY FROM DENSITY LOG
~Params ----------------------------------------------------
~Other -----------------------------------------------------
~ASCII -----------------------------------------------------
# ...
 3484.00000   88.69980   47.76740   54.08720    0.02110   22.14130
 3484.50000   89.26230   48.30500   51.68760    0.02360   22.65310
 3485.00000   90.78450   49.11210   50.23350    0.02520   23.24100
 3485.50000   92.22660   50.09880   51.65130    0.02630   22.93070
 3486.00000   93.64930   50.90580   51.57170    0.01930   20.52460
 3486.50000   95.78130   51.89260   57.20420    0.00980   16.32210
 3487.00000   97.61320   52.78940   62.17350    0.01160   13.76390
 3487.50000   99.89510   53.68630   60.36500    0.01920   20.93850
 3488.00000  103.11650   54.58320   57.11060    0.02570   27.66390
 3488.50000  106.61730   55.39100   55.57320    0.02990   26.75470
 3489.00000  110.09950   56.03450   55.84290    0.03100   24.04900
 3489.50000  109.80260   56.66930   56.02230    0.02690   20.44520
 3490.00000  107.40680   57.00310   55.65950    0.02030   17.73950
 3490.50000  105.01090   57.00160   54.93530    0.01850   15.48300
 3491.00000  102.91490   56.98060   54.39180    0.02030   14.12460
 3491.50000  101.71850   56.54500   58.63750    0.02330   13.66450
 3492.00000  100.52200   55.60970   56.34300    0.02450   17.24620
 3492.50000   98.42600   53.83460   54.56860    0.02150   21.27710
 3493.00000   96.03020   51.70150   56.58020    0.01850   23.06250
 3493.50000   93.63430   49.78640   58.18040    0.01850   22.00160
 3494.00000   91.83820   47.66170   53.40920    0.01910   21.24220
 3494.50000   90.34190   47.47400   49.59340    0.02090   21.83000
 3495.00000   90.64470   47.75000   51.95340    0.02390   23.16630
 3495.50000   91.86730   48.18550   53.04480    0.02700   23.90360
 3496.00000   93.06950   48.72310   53.68670    0.03490   23.21800
 3496.50000   94.31140   49.35050   52.60180    0.04610   22.30880
 3497.00000   95.53410   49.88820   53.08080    0.05730   21.62410
 3497.50000   96.75660   50.42580   58.82010    0.06390   22.28670
 3498.00000   97.97920   50.96340   60.24520    0.07000   23.62290
 3498.50000   99.13150   51.59080   58.83900    0.06470   24.06100
 3499.00000   99.36390   51.69480   55.84970    0.04840   22.92720
 3499.50000   96.99860   51.22890   54.17720    0.03700   21.41840
 3500.00000   95.27250   50.77840   54.60840    0.03590   20.20960
 3500.50000   94.16590   50.32030   50.66110    0.04110   19.45010
 3501.00000   94.63850   50.04160   49.57540    0.05450   19.58860
 3501.50000   96.60100   49.67330   49.21270    0.06050   21.22410
 3502.00000   98.90250   49.41020   49.30170    0.07250   23.75640
 3502.50000  100.58470   50.59880   50.20400    0.07130   25.54170
 3503.00000  101.80710   51.59400   51.01590    0.06890   25.97980
 3503.50000  102.04990   52.51850   51.91820    0.06350   25.07060
 3504.00000  100.29440   53.34140   52.73010    0.04680   22.07640
 3504.50000   98.49830   52.72380   52.15740    0.02950   19.45500
 3505.00000   97.00200   51.42940   50.23930    0.02250   18.54800
 3505.50000   95.50570   50.37040   48.77320    0.01990   17.64110
 3506.00000   94.30920   49.65880   47.40430    0.02060   16.20950
 3506.50000   92.81290   48.91910   46.46070    0.02400   15.60180
 3507.00000   91.61650   48.26950   45.81360    0.03380   18.73620
 3507.50000   90.42000   47.85550   45.90140    0.04620   27.26010
 3508.00000   91.92220   48.26350   47.26880    0.05780   33.98730
 3508.50000   94.32400   49.61080   50.15040    0.06580   40.71500
 3509.00000   97.92510   53.56290   53.40160    0.07180   42.95180
 3509.50000  102.72570   57.51500   55.96600    0.07380   41.59570
 3510.00000  107.22640   58.14370   58.58140    0.06550   38.89240
 3510.50000  110.52770   58.32340   61.03050    0.05230   35.29080
 3511.00000  106.83250   58.50300   61.64000    0.04210   29.89280
 3511.50000  105.07620   58.23130   58.41090    0.02950   25.39300
 3512.00000  104.53950   57.58100   55.14790    0.02000   22.53840
 3512.50000  105.49230   56.84140   53.97190    0.02120   22.38010
 3513.00000  105.74480   56.13480   53.60910    0.02660   24.01830
 3513.50000  105.14810   55.80840   53.42710    0.03690   26.47850
 3514.00000  106.99120   56.81440   53.85680    0.05590   28.93990
 3514.50000  112.35030   58.04230   61.45210    0.07430   31.40120
 3515.00000  115.95150   59.31880   63.04660    0.09060   33.63790
 3515.50000  112.10730   60.28590   63.25750    0.10290   35.42560
 3516.00000  108.04170   59.74230   62.18190    0.09840   33.69510
 3516.50000  104.94670   56.88620   59.56680    0.06730   29.49460
 3517.00000  102.51120   54.55090   55.02470    0.05580   26.94070
 3517.50000  100.67470   53.56290   52.21470    0.03750   25.28360
 3518.00000   98.85860   52.93410   49.98870    0.02890   25.72390
 3518.50000   98.11200   52.57490   48.90290    0.02220   25.71520
 3519.00000   99.72390   52.75450   50.77440    0.02230   25.70640
 3519.50000  102.75500   53.38320   52.39910    0.02910   25.24860
 3520.00000  104.76770   54.55090   53.75280    0.04170   24.79070
 3520.50000  106.21280   55.92440   54.92570    0.07280   25.68020
 3521.00000  106.74100   56.64820   55.37580    0.08060   27.01870
 3521.50000  104.67740   57.08160   55.55470    0.07940   26.85870
 3522.00000  102.94490   57.24550   55.55840    0.06150   25.80190
 3522.50000  101.31910   56.13790   54.55720    0.04530   24.59570
 3523.00000   99.90410   54.56400   53.34900    0.03810   23.83850
 3523.50000   98.68370   53.10990   51.85570    0.03270   24.50270
 3524.00000   97.89500   52.18570   50.28950    0.03410   26.06580
 3524.50000   97.12440   51.53510   49.07460    0.03830   28.30250
 3525.00000   97.57140   51.31740   49.19410    0.04000   28.74290
 3525.50000   98.77660   51.49700   50.52590    0.03980   27.68570
 3526.00000   99.21440   52.48500   51.69580    0.03940   26.03040
 3526.50000   98.73450   53.11380   52.46480    0.04060   23.32700
 3527.00000   97.70860   52.48500   51.30350    0.04810   21.37200
 3527.50000   96.50620   51.85630   50.56040    0.05620   23.30770
 3528.00000   95.30390   51.49700   50.09880    0.06000   25.54440
 3528.50000   95.30090   51.49700   49.65570    0.06430   25.98480
 3529.00000   95.59780   51.50140   49.44300    0.07500   27.32330
 3529.50000   96.49440   51.67660   50.37500    0.09210   28.21280
 3530.00000   97.69090   51.79640   51.45760    0.10110   29.10220
 3530.50000   98.88730   52.20660   52.72090    0.10270   28.19530
 3531.00000  100.08380   53.15120   53.62280    0.08980   27.28830
 3531.50000  100.68050   53.89370   54.16320    0.05920   25.03230
 3532.00000  100.07780   54.10180   53.98070    0.04070   22.17910
 3532.50000   97.67610   52.86650   52.59860    0.03770   18.57750
 3533.00000   95.27430   51.85030   50.50200    0.04610   18.26910
 3533.50000   94.37180   51.53520   49.23020    0.05160   22.07770
 3534.00000   94.69300   51.67660   49.00380    0.06960   24.08990
 3534.50000   96.20660   51.85630   50.76130    0.09580   25.20380
 3535.00000   97.78140   52.75450   53.01350    0.10060   25.86810
 3535.50000   99.57420   53.11380   53.84800    0.09970   26.90700
 3536.00000  101.34910   53.38320   52.89390    0.09710   28.69470
 3536.50000  102.92080   54.10180   52.00480    0.10430   31.53000
 3537.00000  104.44380   54.91020   52.87100    0.12640   36.61000
 3537.50000  106.34260   55.28470   54.45070    0.13800   40.19410
 3538.00000  108.77320   56.29280   59.47070    0.14180   39.28710
 3538.50000  111.99030   58.27610   60.19190    0.13020   36.58370
 3539.00000  113.52970   58.92060   60.82260    0.10080   32.08400
 3539.50000  110.76210   59.24630   62.98950    0.05100   23.09320
 3540.00000  106.56670   58.77230   63.16870    0.03780   18.59340
 3540.50000  102.25150   55.14310   62.44380    0.03310   15.44090
 3541.00000   97.85940   52.60160   60.45410    0.03190   13.33470
 3541.50000   94.63560   51.58390   56.92830    0.03310   12.27820
 3542.00000   92.35410   51.40720   55.74570    0.03970   13.91670
 3542.50000   91.34940   51.67660   53.85850    0.04990   17.87370
 3543.00000   93.16330   51.76650   50.63880    0.06300   19.21230
 3543.50000   94.61110   51.76650   48.61070    0.07090   19.20360
