~Version ---------------------------------------------------
VERS.   2.0 : CWLS log ASCII Standard -VERSION 2.0
WRAP.    NO : One line per depth step
DLM . SPACE : Column Data Section Delimiter
~Well ------------------------------------------------------
STRT .F                   4.0 : START DEPTH
STOP .F                4056.0 : STOP DEPTH
STEP .F                   0.5 : STEP
NULL .               -9999.25 : NULL VALUE
COMP .                        : COMPANY
WELL .                        : WELL
FLD  .                        : FIELD
LOC  .                        : LOCATION
PROV .                        : PROVINCE
CNTY .                        : COUNTY
STAT .                        : STATE
CTRY .                        : COUNTRY
SRVC .                        : SERVICE COMPANY
DATE .                        : DATE
UWI  .                        : UNIQUE WELL ID
API  .                        : API NUMBER
SLAT .WGS84 2.911140464936402 : SURFACE LATITUDE
SLON .WGS84 6.374855159901998 : SURFACE LONGITUDE
DATUM.F               2906.72 : DEPTH DATUM ELEV
~Curve Information -----------------------------------------
DEPT.F     : 
DTSM.US/F  : DELTA-T SHEAR
DTCO.US/F  : DELTA-T COMPRESSIONAL
DTL .US/F  : DELTA-T LONG SPACING
NPHI.DEC   : NEUTRON POROSITY
GRD .GAPI  : GAMMA RAY FROM DENSITY LOG
~Params ----------------------------------------------------
~Other -----------------------------------------------------
~ASCII -----------------------------------------------------
# ...
 2764.00000  126.74100   55.17960   56.40600    0.51830   54.29890
 2764.50000  127.64350   55.89820   56.40780    0.49080   57.12350
 2765.00000  127.94630   55.98800   56.40960    0.42010   59.64840
 2765.50000  125.25060   55.89820   56.41140    0.37340   60.82600
 2766.00000  116.85780   55.71860   56.41330    0.33710   60.65470
 2766.50000  107.26550   55.71720   56.37780    0.29440   57.49110
 2767.00000   93.77520   55.98800   56.21330    0.25560   54.10300
 2767.50000   88.68070   55.98130   56.12050    0.19350   51.61310
 2768.00000   86.88460   55.89820   56.05870    0.16470   51.14410
 2768.50000   86.89050   55.91300   56.18680    0.20790   52.24690
 2769.00000   88.11190   55.98800   56.32300    0.30750   52.45160
 2769.50000   89.65360   55.96510   56.46990    0.40350   52.72930
 2770.00000   91.81450   55.78150   56.56620    0.40890   53.75720
 2770.50000   95.09160   55.38420   56.61020    0.36050   56.13260
 2771.00000  102.92680   54.78530   56.70270    0.28430   55.36460
 2771.50000  119.55400   60.78530   56.79490    0.21110   52.50060
 2772.00000  139.52970   78.79510   56.79660    0.18230   50.98000
 2772.50000  146.99740   79.11920   56.79840    0.15360   50.51110
 2773.00000  148.38340   75.37760   56.80020    0.14380   50.49120
 2773.50000  139.15280   73.95210   56.89230    0.12590   49.12400
 2774.00000  130.51850   73.23350   56.98440    0.11810   47.30770
 2774.50000  123.48170   71.88620   57.07650    0.09990   45.94050
 2775.00000  120.43490   70.98800   57.16870    0.09140   43.67510
 2775.50000  122.18850   70.17960   57.16220    0.09300   41.85890
 2776.00000  134.55780   69.82040   56.89280    0.13120   40.49170
 2776.50000  150.22430   73.77250   56.52890    0.15220   40.47180
 2777.00000  151.70620   76.28740   56.25540    0.16460   42.24830
 2777.50000  151.01900   76.64670   56.16260    0.16710   44.47400
 2778.00000  143.31690   77.55390   56.09490    0.15010   45.80140
 2778.50000  131.32590   77.90420   56.09700    0.11870   41.88550
 2779.00000  121.73360   75.69000   56.06510    0.11150   38.72220
 2779.50000  115.13990   73.36400   56.01020    0.12170   37.05570
 2780.00000  110.64510   71.58110   56.05420    0.19290   36.88630
 2780.50000  104.95090   70.38510   56.10420    0.21810   37.16580
 2781.00000   98.35710   69.02070   56.10600    0.21990   36.47060
 2781.50000   93.26260   67.18290   56.10820    0.18400   35.55250
 2782.00000   90.26710   62.48480   56.47140    0.13550   32.61340
 2782.50000   88.17110   57.24170   58.19000    0.04690   23.61150
 2783.00000   86.37490   53.06180   60.08940    0.00620   16.63060
 2783.50000   89.37640   52.55090   60.90440    0.00020   11.89510
 2784.00000   93.57720   53.55210   59.82180   -0.00280    9.85430
 2784.50000   97.81570   52.75450   58.01640   -0.00280    9.45840
 2785.00000  101.40900   53.83230   56.57230   -0.00160    9.88760
 2785.50000  101.98190   54.91020   56.46200    0.00090   10.76590
 2786.00000  101.28270   55.17960   59.41370    0.00400   11.94360
 2786.50000  100.01410   54.91020   61.57440    0.00700   13.72010
 2787.00000   98.18080   55.35930   60.39190    0.01010   16.24200
 2787.50000   96.10930   55.89820   58.10290    0.01410   17.57280
 2788.00000   93.98490   55.80840   57.37710    0.02220   24.73850
 2788.50000   91.86060   55.08980   57.90420    0.03490   43.42870
 2789.00000   89.64520   54.36860   59.95690    0.09910   49.09730
 2789.50000   86.91160   53.99720   62.20740    0.14040   51.17260
 2790.00000   84.17760   53.63480   62.82530    0.17520   51.45230
 2790.50000   81.32490   53.46000   61.76060    0.21990   53.82770
 2791.00000   80.68370   53.49010   59.71590    0.23750   56.05140
 2791.50000   82.04360   53.69490   58.28380    0.22110   56.25610
 2792.00000   84.46910   54.03710   57.23600    0.23670   55.33800
 2792.50000   87.06150   54.10180   56.41900    0.26330   54.64440
 2793.00000   89.16740   54.19160   56.14940    0.27120   55.29820
 2793.50000   91.16500   54.31870   56.15140    0.27840   56.85020
 2794.00000   93.63770   54.76470   56.15320    0.28130   58.62670
 2794.50000   95.43980   55.18050   56.24530    0.28010   56.95890
 2795.00000   93.34380   55.44910   56.33750    0.26460   51.84940
 2795.50000   88.84900   55.26950   56.42960    0.22320   48.23640
 2796.00000   85.85340   54.73050   56.34100    0.16700   47.61730
 2796.50000   84.35720   54.55090   56.34280    0.09930   48.49560
 2797.00000   85.25970   54.73050   56.34460    0.06880   49.07140
 2797.50000   87.96130   54.82040   56.34640    0.05680   47.25510
 2798.00000  103.85630   54.55090   56.34820    0.05800   45.43880
 2798.50000  111.05560   55.53890   56.35000    0.06400   43.17340
 2799.00000  117.35540   63.53290   56.37350    0.06880   41.35710
 2799.50000  117.36780   65.68860   56.53430    0.07240   40.43900
 2800.00000  117.06150   65.14970   56.53610    0.07310   39.97010
 2800.50000  116.45530   63.44310   56.53760    0.07370   40.39930
 2801.00000  115.81110   63.39370   56.62650    0.07500   42.17580
 2801.50000  114.31480   63.62420   56.62650    0.08330   45.74870
 2802.00000  112.72360   64.04500   56.48680    0.12120   48.87260
 2802.50000  110.09860   64.52100   56.35540    0.15900   49.75090
 2803.00000  103.91730   62.99400   56.26510    0.19470   50.62920
 2803.50000   95.86430   59.58080   56.08430    0.20370   51.20500
 2804.00000   83.72610   52.30540   55.90360    0.19950   53.28110
 2804.50000   84.27580   48.26350   56.26510    0.20260   56.70450
 2805.00000   85.89190   49.43110   56.71690    0.22110   62.07390
 2805.50000   87.93140   51.13770   56.71690    0.23190   66.69450
 2806.00000   91.20820   52.77900   56.71690    0.23910   67.34630
 2806.50000   96.49750   54.27470   55.86690    0.20800   65.75450
 2807.00000  100.50970   55.76770   52.40680    0.17570   63.48720
 2807.50000  105.44980   60.20920   48.52990    0.13550   58.96580
 2808.00000  118.93410   64.86810   47.22890    0.10660   54.44440
 2808.50000  121.14900   69.10180   54.09910    0.08110   49.92300
 2809.00000  120.37190   67.25120   56.83380    0.06500   44.72960
 2809.50000  118.31840   64.77380   56.92890    0.05900   43.36040
 2810.00000  109.02600   62.40930   57.02410    0.06440   41.99110
 2810.50000   98.23440   60.83830   57.39040    0.07710   38.82540
 2811.00000   94.33930   61.28740   56.84590    0.08960   39.02790
 2811.50000   93.74200   63.08380   52.67890    0.10440   42.89590
 2812.00000   97.60890   67.30540   48.31330    0.13320   44.82040
 2812.50000  107.33990   73.41320   48.76510    0.19490   44.79840
 2813.00000  117.03340   79.61080   54.09640    0.26870   44.77640
 2813.50000  129.64970   84.37130   57.53010    0.32430   46.40070
 2814.00000  144.87690   88.14370   59.33730    0.35020   50.56700
 2814.50000  156.67370   91.14160   58.88550    0.37240   53.68870
 2815.00000  162.20400   93.49560   57.80120    0.38060   57.25960
 2815.50000  163.33130   94.41730   57.16870    0.35560   59.93220
 2816.00000  163.33430   96.40720   56.61920    0.35270   57.66470
 2816.50000  163.33790   96.94610   56.35540    0.34970   54.94810
 2817.00000  163.04050   96.56740   56.35540    0.33890   50.88420
 2817.50000  162.44420   94.42010   56.44580    0.32010   49.06570
 2818.00000  161.54760   91.20390   56.55910    0.29990   48.59460
 2818.50000  159.45160   88.28930   56.70960    0.28030   49.61700
 2819.00000  155.55650   86.49990   57.61010    0.29410   50.49320
 2819.50000  150.76180   85.44910   59.64820    0.32720   51.81850
 2820.00000  142.96860   85.71860   65.22770    0.35270   52.24560
 2820.50000  130.37780   91.55690   69.71900    0.35580   53.57090
 2821.00000  121.93120   96.40720   73.74650    0.35400   53.84640
 2821.50000  119.26600   96.66810   79.12650    0.35710   53.59980
 2822.00000  118.54030   91.01800   85.18070    0.33280   51.55690
 2822.50000  113.60610   79.97010   90.96390    0.27690   48.84030
 2823.00000  103.53620   72.90980  100.00000    0.14630   45.45010
 2823.50000  100.08530   69.06120  101.08430    0.09370   44.15370
