~Version ---------------------------------------------------
VERS.   2.0 : CWLS log ASCII Standard -VERSION 2.0
WRAP.    NO : One line per depth step
DLM . SPACE : Column Data Section Delimiter
~Well ------------------------------------------------------
STRT .F                   4.0 : START DEPTH
STOP .F                4056.0 : STOP DEPTH
STEP .F                   0.5 : STEP
NULL .               -9999.25 : NULL VALUE
COMP .                        : COMPANY
WELL .                        : WELL
FLD  .                        : FIELD
LOC  .                        : LOCATION
PROV .                        : PROVINCE
CNTY .                        : COUNTY
STAT .                        : STATE
CTRY .                        : COUNTRY
SRVC .                        : SERVICE COMPANY
DATE .                        : DATE
UWI  .                        : UNIQUE WELL ID
API  .                        : API NUMBER
SLAT .WGS84 2.911140464936402 : SURFACE LATITUDE
SLON .WGS84 6.374855159901998 : SURFACE LONGITUDE
DATUM.F               2906.72 : DEPTH DATUM ELEV
~Curve Information -----------------------------------------
DEPT.F     : 
DTSM.US/F  : DELTA-T SHEAR
DTCO.US/F  : DELTA-T COMPRESSIONAL
DTL .US/F  : DELTA-T LONG SPACING
NPHI.DEC   : NEUTRON POROSITY
GRD .GAPI  : GAMMA RAY FROM DENSITY LOG
~Params ----------------------------------------------------
~Other -----------------------------------------------------
~ASCII -----------------------------------------------------
# ...
 3364.00000  126.14100   73.13660   59.61200    0.12190   41.83740
 3364.50000  122.84560   72.06010   60.77690    0.11890   40.02780
 3365.00000  121.04950   71.16320   61.90350    0.11960   40.46370
 3365.50000  119.83280   70.35610   61.05420    0.11900   40.45060
 3366.00000  118.93650   69.34780   60.91080    0.10760   36.48400
 3366.50000  118.32970   68.45580   67.10840    0.09740   32.34040
 3367.00000  117.38350   68.29420   68.99990    0.08660   26.93810
 3367.50000  116.11680   68.38530   68.37350    0.07880   24.67940
 3368.00000  113.93110   67.55380   67.83130    0.06810   24.81380
 3368.50000  111.56530   65.75670   65.48190    0.05460   24.50110
 3369.00000  109.05910   62.96450   65.86210    0.03410   23.14060
 3369.50000  107.10350   60.52790   67.19880    0.02530   21.47980
 3370.00000  105.28740   58.68530   63.16860    0.02500   19.89480
 3370.50000  103.66090   56.93240   60.96390    0.02930   18.98340
 3371.00000  101.17510   56.53860   66.73320    0.03670   18.29660
 3371.50000   98.68960   56.54020   69.29780    0.04460   18.50800
 3372.00000   99.96200   56.00260   69.72890    0.05730   19.46670
 3372.50000   99.20540   54.92610   67.50590    0.06600   20.50160
 3373.00000   98.76860   55.28670   65.54090    0.06980   20.93750
 3373.50000  100.45060   56.00650   62.67480    0.06290   20.92440
 3374.00000  101.91360   56.18750   60.70710    0.05670   20.90900
 3374.50000  101.91660   54.21280   57.43980    0.05620   21.34490
 3375.00000  101.02000   53.13620   56.08430    0.06530   23.12820
 3375.50000  100.72260   52.40000   56.98800    0.08010   26.25880
 3376.00000  103.12480   52.15080   61.68670    0.09690   28.94020
 3376.50000  106.42610   54.33270   68.91570    0.11300   30.27440
 3377.00000  109.42760   56.36020   69.85190    0.11900   30.71030
 3377.50000  112.12920   59.13100   67.10840    0.12740   30.69710
 3378.00000  113.93120   61.00500   65.66270    0.12860   30.08290
 3378.50000  114.23400   63.09150   65.75300    0.12020   29.32130
 3379.00000  112.43790   64.78430   65.77830    0.11960   28.70930
 3379.50000  110.34190   66.16150   66.64610    0.11960   28.24700
 3380.00000  107.94600   66.10200   69.54970    0.11840   28.38260
 3380.50000  105.51070   64.06840   75.44840    0.11230   28.81850
 3381.00000  103.07450   61.41610   76.71450    0.10380   27.90720
 3381.50000  101.29810   59.35150   76.54950    0.09520   26.99580
 3382.00000  100.12170   56.83790   73.24460    0.09090   28.55450
 3382.50000   99.86480   54.59370   69.11990    0.09380   31.45910
 3383.00000   99.86810   53.51720   65.44560    0.09830   33.99080
 3383.50000  100.45090   53.87780   61.95580    0.10310   37.12130
 3384.00000  103.59120   53.97970   63.67470    0.11650   41.15010
 3384.50000  108.78220   52.62290   71.80720    0.14130   46.22500
 3385.00000  114.57220   53.25990   73.97590    0.17230   48.90640
 3385.50000  121.04190   56.52690   73.16270    0.20610   51.58790
 3386.00000  120.69540   57.76230   71.26510    0.23130   51.57470
 3386.50000  117.65990   57.72770   69.45780    0.21890   49.76520
 3387.00000  113.50530   57.40460   68.01200    0.20540   49.75200
 3387.50000  110.53970   56.73270   66.74700    0.20170   49.73880
 3388.00000  115.89010   56.04530   65.15340    0.19690   49.72570
 3388.50000  120.67040   61.42840   62.68390    0.17720   47.91360
 3389.00000  116.09650   71.84480   62.22890    0.15680   44.90600
 3389.50000  111.30190   70.67240   64.35160    0.09690   38.90500
 3390.00000  106.50720   66.65000   65.32530    0.05920   33.20300
 3390.50000  109.20880   63.86680   64.17340    0.04960   26.52790
 3391.00000  110.41120   61.26340   61.83540    0.06280   23.37110
 3391.50000  109.21470   59.46830   60.29380    0.06820   25.60330
 3392.00000  108.61770   59.43600   60.67460    0.07240   26.03940
 3392.50000  110.42000   60.09960   62.09640    0.07600   25.12800
 3393.00000  111.62240   60.37040   62.35660    0.07340   24.14080
 3393.50000  111.32550   60.73100   61.32530    0.06660   22.93010
 3394.00000  109.22950   61.55000   60.94330    0.06060   22.61730
 3394.50000  107.43330   61.99110   62.50000    0.05690   23.50020
 3395.00000  109.53520   61.21400   61.50600    0.06160   23.48700
 3395.50000  111.65740   60.45020   60.06020    0.06940   22.57570
 3396.00000  112.23980   60.28850   63.31330    0.07060   21.66430
 3396.50000  110.65430   60.37980   64.33990    0.07000   20.75300
 3397.00000  108.82780   60.38110   62.39780    0.07360   21.18890
 3397.50000  107.40130   60.38250   60.36700    0.08270   22.52310
 3398.00000  107.15410   60.05800   59.42770    0.09100   22.06080
 3398.50000  107.22740   57.68230   59.72050    0.09890   21.14940
 3399.00000  107.46030   55.62220   59.24700    0.09060   20.68500
 3399.50000  107.46330   56.43600   59.87580    0.04910   20.22270
 3400.00000  107.06660   57.96430   61.68650    0.04010   20.35940
 3400.50000  106.34970   57.60630   63.57230    0.04070   20.79530
 3401.00000  105.31350   56.97890   65.03730    0.04250   21.97860
 3401.50000  105.42660   56.71070   65.66270    0.04430   21.96540
 3402.00000  107.01850   56.53240   65.14460    0.04610   21.50320
 3402.50000  107.78110   55.90500   63.22290    0.04370   20.81630
 3403.00000  108.24390   55.99610   60.60240    0.03890   20.27830
 3403.50000  108.38680   57.57140   59.33730    0.03830   20.56440
 3404.00000  106.89110   58.51370   58.43370    0.04250   21.29970
 3404.50000  106.89410   54.29150   56.62650    0.04800   22.18470
 3405.00000  108.39630   52.87550   53.28310    0.04920   23.21740
 3405.50000  110.79800   51.37520   54.54820    0.05060   24.10240
 3406.00000  111.70050   50.29760   63.85540    0.05650   24.98750
 3406.50000  110.80390   50.27500   63.55010    0.06230   24.52520
 3407.00000  109.30760   51.47810   60.56980    0.06020   23.61380
 3407.50000  107.51150   55.06960   55.34860    0.05870   22.25340
 3408.00000  106.91470   59.75590   48.80020    0.06070   24.93480
 3408.50000  106.91770   60.46870   46.65100    0.06670   28.06540
 3409.00000  107.52030   60.73450   54.21200    0.07690   28.50130
 3409.50000  108.12300   60.91660   60.23390    0.08030   25.94060
 3410.00000  109.02550   61.09880   67.11760    0.07790   22.93350
 3410.50000  109.95840   61.28090   67.98000    0.07490   21.12420
 3411.00000  111.47030   61.46320   65.81950    0.07280   22.83160
 3411.50000  112.99280   61.76490   60.45790    0.07190   27.75860
 3412.00000  114.63420   62.28720   55.96120    0.08150   31.78730
 3412.50000  118.83600   63.34970   60.38760    0.10040   33.57060
 3413.00000  124.81540   64.63680   60.92860    0.11040   34.23110
 3413.50000  127.93670   65.65290   61.28850    0.12200   33.46850
 3414.00000  126.12060   66.34540   64.54020    0.10030   32.25780
 3414.50000  123.68530   67.90220   64.60170    0.08120   30.42550
 3415.00000  120.74910   67.26470   63.45320    0.06300   28.51180
 3415.50000  117.31470   64.65860   61.82540    0.05370   26.59820
 3416.00000  115.71800   62.59140   59.92650    0.05570   25.68900
 3416.50000  114.50180   61.87160   60.64800    0.06410   23.88150
 3417.00000  112.84590   61.87020   65.26970    0.07170   22.52320
 3417.50000  111.16940   61.50960   63.45800    0.05970   21.16480
 3418.00000  109.03340   60.16100   61.81870    0.03900   19.35740
 3418.50000  106.42810   58.00400   63.80540    0.03180   18.29650
 3419.00000  103.68270   56.74520   62.94610    0.02950   18.13600
 3419.50000  102.18640   55.29440   61.09710    0.03420   19.17290
 3420.00000  102.78860   54.58690   58.86130    0.04920   22.30590
 3420.50000  104.60080   57.49730   57.63470    0.07140   26.18700
 3421.00000  105.51330   61.29940   58.56230    0.09110   28.71950
 3421.50000  105.79610   63.65480   62.52040    0.10190   30.05570
 3422.00000  105.45900   61.35010   62.89330    0.09530   29.82020
 3422.50000  104.50310   59.35560   60.98710    0.07260   29.13550
 3423.00000  103.16650   57.34150   59.17990    0.06300   28.45080
 3423.50000  100.73050   55.51230   57.97480    0.05940   27.54150
