~Version ---------------------------------------------------
VERS.   2.0 : CWLS log ASCII Standard -VERSION 2.0
WRAP.    NO : One line per depth step
DLM . SPACE : Column Data Section Delimiter
~Well ------------------------------------------------------
STRT .F                   4.0 : START DEPTH
STOP .F                4056.0 : STOP DEPTH
STEP .F                   0.5 : STEP
NULL .               -9999.25 : NULL VALUE
COMP .                        : COMPANY
WELL .                        : WELL
FLD  .                        : FIELD
LOC  .                        : LOCATION
PROV .                        : PROVINCE
CNTY .                        : COUNTY
STAT .                        : STATE
CTRY .                        : COUNTRY
SRVC .                        : SERVICE COMPANY
DATE .                        : DATE
UWI  .                        : UNIQUE WELL ID
API  .                        : API NUMBER
SLAT .WGS84 2.911140464936402 : SURFACE LATITUDE
SLON .WGS84 6.374855159901998 : SURFACE LONGITUDE
DATUM.F               2906.72 : DEPTH DATUM ELEV
~Curve Information -----------------------------------------
DEPT.F     : 
DTSM.US/F  : DELTA-T SHEAR
DTCO.US/F  : DELTA-T COMPRESSIONAL
DTL .US/F  : DELTA-T LONG SPACING
NPHI.DEC   : NEUTRON POROSITY
GRD .GAPI  : GAMMA RAY FROM DENSITY LOG
~Params ----------------------------------------------------
~Other -----------------------------------------------------
~ASCII -----------------------------------------------------
# ...
 3544.00000   95.50770   52.03590   50.45440    0.07320   18.29660
 3544.50000   96.40430   52.12570   57.69190    0.06890   17.38970
 3545.00000   96.40140   52.12570   59.35570    0.06590   16.70650
 3545.50000   96.69860   51.76650   59.83370    0.06360   16.24870
 3546.00000   96.99550   51.49400   60.36030    0.06230   16.23990
 3546.50000   96.99220   51.31740   59.51860    0.06190   16.67880
 3547.00000   96.38950   51.33080   55.28350    0.06190   17.11910
 3547.50000   95.48700   51.71400   52.20320    0.06220   18.00860
 3548.00000   94.58450   52.08380   50.30810    0.06370   19.79620
 3548.50000   93.08230   52.00910   49.98070    0.06740   22.03300
 3549.00000   91.58010   51.58680   51.84070    0.07390   25.16790
 3549.50000   89.77810   51.63700   51.20640    0.09370   27.85380
 3550.00000   87.97600   51.36220   50.66250    0.09610   29.64140
 3550.50000   86.77360   51.41770   50.02820    0.09610   27.83450
 3551.00000   86.78840   52.84430   49.93610    0.09370   25.13110
 3551.50000   88.07510   52.93190   51.10900    0.09430   23.77540
 3552.00000   92.13680   52.30540   52.10120    0.10030   26.46210
 3552.50000  102.93760   52.39520   52.18980    0.10390   34.76020
 3553.00000  110.19590   52.93410   52.48490    0.14950   41.93700
 3553.50000  118.80720   54.19160   53.32120    0.16270   47.54200
 3554.00000  123.09420   57.24550   55.36440    0.17040   48.20700
 3554.50000  123.93140   61.12130   58.30600    0.16640   45.87750
 3555.00000  120.39080   61.93120   60.78320    0.15800   41.97660
 3555.50000  115.93680   62.09580   61.48650    0.13130   32.38760
 3556.00000  111.17300   60.89210   59.00470    0.09810   24.89360
 3556.50000  107.02530   58.35800   56.73280    0.09440   19.19390
 3557.00000  103.62190   55.21070   54.37140    0.11560   17.38870
 3557.50000  101.45440   52.90050   52.26170    0.13530   17.38000
 3558.00000  100.67760   52.88320   50.99490    0.15450   17.82030
 3558.50000  100.37180   52.97830   49.90880    0.16220   16.91340
 3559.00000  100.83970   53.11380   49.63590    0.16790   16.45550
 3559.50000  101.28330   53.11380   50.17630    0.17410   17.79410
 3560.00000  101.70910   53.11380   50.71680    0.17830   17.78530
 3560.50000  102.30580   53.11380   51.16680    0.18130   16.72710
 3561.00000  102.90200   53.29340   51.16500    0.18670   16.26920
 3561.50000  103.49880   53.65270   51.35000    0.20170   16.56010
 3562.00000  103.49580   54.46110   51.91070    0.23520   18.19720
 3562.50000  103.19300   55.26950   52.65070    0.24480   19.31120
 3563.00000  102.29050   55.63030   53.23630    0.23830   18.40420
 3563.50000  101.38800   55.71860   52.92190    0.21100   16.37450
 3564.00000  100.18570   55.82040   52.36870    0.15160   16.14130
 3564.50000   98.98330   56.02240   51.57540    0.10930   16.65560
 3565.00000   97.78100   56.16770   50.43520    0.08580   16.79660
 3565.50000   96.57860   54.86800   49.76580    0.07960   16.33880
 3566.00000   95.07640   53.46420   49.25170    0.07930   14.98120
 3566.50000   94.77360   53.07560   53.11700    0.07570   14.52340
 3567.00000   95.07640   52.80090   58.46230    0.06710   14.06550
 3567.50000   95.69690   52.66470   58.27980    0.05590   14.05680
 3568.00000   96.28790   53.11380   56.01900    0.05480   14.04800
 3568.50000   96.56090   53.11380   54.39070    0.05720   14.03930
 3569.00000   96.17410   53.11380   57.09980    0.06000   14.47960
 3569.50000   94.95320   53.11380   59.17640    0.05690   14.92000
 3570.00000   94.03290   53.20360   58.90350    0.04800   15.50860
 3570.50000   92.88160   53.20360   55.82950    0.04200   15.79920
 3571.00000   92.64770   53.02400   52.93360    0.03540   15.79040
 3571.50000   92.73160   52.57260   54.29670    0.03120   15.78100
 3572.00000   93.03750   52.01780   69.46880    0.02820   15.77220
 3572.50000   93.53870   51.48570   65.51340    0.02880   15.76340
 3573.00000   93.12140   51.30090   59.25430    0.03240   15.97920
 3573.50000   92.63270   51.22750   57.44540    0.03850   16.41950
 3574.00000   91.89820   51.22750   66.20950    0.04400   17.83220
 3574.50000   91.28630   51.00910   63.58980    0.05030   20.21840
 3575.00000   91.27440   50.08980   59.11870    0.05830   22.60500
 3575.50000   91.73890   49.83760   58.69320    0.06330   23.34340
 3576.00000   92.48570   49.88020   63.03880    0.06060   23.33470
 3576.50000   93.26840   50.14970   59.52450    0.05150   23.32590
 3577.00000   94.11040   49.97010   55.71530    0.04420   24.66450
 3577.50000   94.40730   49.61080   53.36420    0.03840   25.10480
 3578.00000   93.80460   49.16170   52.54920    0.03530   24.19790
 3578.50000   92.60230   48.44310   56.88470    0.03310   23.29090
 3579.00000   90.50040   47.63470   58.69020    0.03070   22.83310
 3579.50000   88.99820   46.64670   56.70050    0.02960   21.92460
 3580.00000   86.89630   46.19760   53.80720    0.03560   22.66460
 3580.50000   85.69390   46.01800   52.35960    0.04340   25.05110
 3581.00000   85.09120   46.12870   50.78570    0.07270   26.53920
 3581.50000   86.88740   46.51420   49.16150    0.08290   27.27810
 3582.00000   90.18280   47.13210   49.10130    0.08530   28.16750
 3582.50000   96.17680   48.29330   50.17980    0.08710   31.07790
 3583.00000  100.97150   50.32060   50.97070    0.08950   35.33570
 3583.50000  103.97290   52.88850   51.78600    0.09190   41.16390
 3584.00000  104.87550   54.17960   52.71220    0.07080   44.14970
 3584.50000  104.81850   55.00900   53.06840    0.05320   41.74620
 3585.00000  103.29820   55.46410   52.98500    0.04610   37.99480
 3585.50000  102.03910   55.35930   52.29550    0.04520   36.18790
 3586.00000  100.55730   54.37130   51.45730    0.05460   34.83180
 3586.50000   99.03790   52.93410   50.16890    0.06440   33.92490
 3587.00000   97.94930   52.57490   49.62500    0.07090   33.46700
 3587.50000   98.99540   53.02400   50.88830    0.07620   31.66190
 3588.00000  100.50940   53.20360   51.97090    0.08060   30.30580
 3588.50000  101.72430   53.20360   52.33060    0.08300   31.64430
 3589.00000  102.74050   53.11380   52.41920    0.08550   32.53380
 3589.50000  103.96420   53.11380   52.41740    0.09200   34.02070
 3590.00000  105.06740   53.00900   52.32530    0.09800   34.91010
 3590.50000  105.98210   53.19470   52.41880    0.10340   34.90110
 3591.00000  107.05860   54.79110   53.26960    0.10760   32.04750
 3591.50000  107.81090   56.95210   54.66720    0.11780   28.89500
 3592.00000  108.11390   58.01800   56.17940    0.12080   25.74250
 3592.50000  106.71650   58.03530   57.45790    0.09570   22.81470
 3593.00000  104.58740   56.55840   57.04400    0.06450   20.78490
 3593.50000  101.50770   54.59840   55.45010    0.04470   19.42810
 3594.00000   99.40580   52.75450   53.80930    0.03680   18.67100
 3594.50000   97.30390   52.03590   52.43630    0.03220   18.51240
 3595.00000   95.50180   51.67660   51.59030    0.03630   18.95130
 3595.50000   96.09850   51.13770   50.88900    0.05520   26.57730
 3596.00000   97.89470   50.77840   50.10360    0.06920   32.40680
 3596.50000   99.39100   50.59880   50.49430    0.08030   36.88910
 3597.00000   99.98770   53.20360   52.75150    0.08560   36.43120
 3597.50000  100.28460   53.47680   53.38230    0.07660   34.62610
 3598.00000  100.28170   53.65270   53.10950    0.07740   31.92270
 3598.50000  100.27870   53.66700   52.83660    0.08200   29.66840
 3599.00000  100.57560   53.74250   52.65410    0.08890   32.35310
 3599.50000  100.87250   53.74250   52.47160    0.10420   34.44010
 3600.00000  102.66870   54.19110   52.83130    0.11140   36.07790
 3600.50000  104.79130   55.80450   53.58530    0.11500   36.81680
 3601.00000  105.96110   56.42820   55.08950    0.11560   35.90990
 3601.50000  105.60410   56.79780   56.80950    0.10360   31.97450
 3602.00000  104.45580   56.96400   57.63190    0.08870   27.61830
 3602.50000  103.50830   55.98800   57.24690    0.07730   23.26210
 3603.00000  102.89670   54.91020   56.53170    0.07190   22.34620
 3603.50000  101.98490   54.19160   56.25270    0.06950   20.98130
