~Version ---------------------------------------------------
VERS.   2.0 : CWLS log ASCII Standard -VERSION 2.0
WRAP.    NO : One line per depth step
DLM . SPACE : Column Data Section Delimiter
~Well ------------------------------------------------------
STRT .F                   4.0 : START DEPTH
STOP .F                4056.0 : STOP DEPTH
STEP .F                   0.5 : STEP
NULL .               -9999.25 : NULL VALUE
COMP .                        : COMPANY
WELL .                        : WELL
FLD  .                        : FIELD
LOC  .                        : LOCATION
PROV .                        : PROVINCE
CNTY .                        : COUNTY
STAT .                        : STATE
CTRY .                        : COUNTRY
SRVC .                        : SERVICE COMPANY
DATE .                        : DATE
UWI  .                        : UNIQUE WELL ID
API  .                        : API NUMBER
SLAT .WGS84 2.911140464936402 : SURFACE LATITUDE
SLON .WGS84 6.374855159901998 : SURFACE LONGITUDE
DATUM.F               2906.72 : DEPTH DATUM ELEV
~Curve Information -----------------------------------------
DEPT.F     : 
DTSM.US/F  : DELTA-T SHEAR
DTCO.US/F  : DELTA-T COMPRESSIONAL
DTL .US/F  : DELTA-T LONG SPACING
NPHI.DEC   : NEUTRON POROSITY
GRD .GAPI  : GAMMA RAY FROM DENSITY LOG
~Params ----------------------------------------------------
~Other -----------------------------------------------------
~ASCII -----------------------------------------------------
# ...
 3124.00000  143.73640   76.90180  134.29400    0.09110   43.93850
 3124.50000  144.94170   76.25390  133.96120    0.09760   45.26600
 3125.00000  146.14690   75.41180  129.03510    0.08920   46.59350
 3125.50000  147.35220   73.65960  121.84100    0.07600   48.37010
 3126.00000  139.11310   72.13230  111.14310    0.06560   49.24840
 3126.50000  130.15310   70.51510   97.87390    0.06760   49.22860
 3127.00000  124.90110   68.53860   98.32480    0.07730   48.75970
 3127.50000  121.90940   68.16470   97.68760    0.08590   47.84160
 3128.00000  119.84400   69.25630   96.21450    0.09330   46.92360
 3128.50000  117.70890   70.15400   94.50430    0.10110   45.10740
 3129.00000  115.87410   70.69250   93.34360    0.10310   41.64060
 3129.50000  114.16520   69.40010   92.80060    0.07830   43.11910
 3130.00000  112.66390   67.93410   99.26810    0.04600   46.69150
 3130.50000  110.66850   66.38800  100.60390    0.02900   47.86920
 3131.00000  109.13340   65.26330   94.52330    0.02230   47.54970
 3131.50000  107.24550   64.17730   87.47300    0.02210   46.10620
 3132.00000  105.75210   64.67780   85.72570    0.02520   44.96370
 3132.50000  105.57730   66.14740   90.99540    0.02830   43.59650
 3133.00000  106.36360   66.63080   98.22340    0.03070   42.45390
 3133.50000  105.17000   66.48750  100.72820    0.03250   41.76050
 3134.00000  104.87560   65.24340  106.67040    0.03200   43.53690
 3134.50000  105.48160   63.15070  110.51000    0.03020   46.65890
 3135.00000  106.08720   61.16610  106.41960    0.03010   49.33370
 3135.50000  107.29240   62.06380  102.34190    0.03080   51.11060
 3136.00000  107.29830   62.71740   99.93520    0.03200   51.24050
 3136.50000  106.66090   62.15280   99.57280    0.03500   50.61850
 3137.00000  105.47530   61.61340  100.03860    0.04160   50.14960
 3137.50000  104.91710   61.25370  100.98630    0.05360   51.47710
 3138.00000  109.03210   61.15690  102.82290    0.11230   53.25360
 3138.50000  114.24840   62.42050  107.14090    0.12800   54.58110
 3139.00000  120.15650   65.26250  114.07810    0.13700   55.45950
 3139.50000  128.05110   74.12430  117.63930    0.13410   54.09240
 3140.00000  137.93120   77.67670  118.72270    0.10280   51.37790
 3140.50000  137.40100   80.38280  118.17970    0.06450   47.76530
 3141.00000  134.50520   73.31090  117.18480    0.04720   41.90710
 3141.50000  129.62020   71.00100  116.37070    0.04470   38.74360
 3142.00000  128.41160   69.80950  116.91200    0.06000   40.06860
 3142.50000  130.16600   70.89820  120.88700    0.08490   47.83300
 3143.00000  132.57060   72.51500  126.94030    0.09370   52.75270
 3143.50000  133.77590   73.95210  133.17440    0.08220   52.13370
 3144.00000  133.78180   73.59280  134.80000    0.04880   49.71860
 3144.50000  133.78760   72.96410  132.04390    0.03180   45.13160
 3145.00000  134.09330   72.51500  129.79910    0.03660   39.94710
 3145.50000  135.59840   73.23350  122.80290    0.04430   36.10990
 3146.00000  139.80220   74.31140  116.51340    0.06610   37.43740
 3146.50000  142.51300   75.42140  112.99580    0.13610   42.58220
 3147.00000  144.04370   77.76750  111.84290    0.15020   47.27800
 3147.50000  144.61740   80.21270  114.68870    0.14490   51.97180
 3148.00000  142.60440   80.32930  116.08810    0.11130   50.60520
 3148.50000  139.12520   77.28970  114.39290    0.07120   46.54380
 3149.00000  134.98040   75.01150  113.18690    0.01610   40.08700
 3149.50000  131.31810   72.79320  112.48590    0.00540   35.42610
 3150.00000  128.45600   70.59920  111.74700    0.00240   30.76180
 3150.50000  128.16080   69.57300  114.07240    0.00240   28.94560
 3151.00000  132.61730   69.79170  119.73550    0.00540   28.02760
 3151.50000  135.07050   71.14150  122.67780    0.01140   28.90590
 3152.00000  135.07650   72.70050  122.31550    0.03420   32.02980
 3152.50000  134.14270   74.75590  121.23030    0.08230   39.64470
 3153.00000  132.99060   77.27550  120.59690    0.12960   50.40330
 3153.50000  131.79710   79.43110  120.05380    0.15500   56.22180
 3154.00000  131.50220   80.83600  120.59520    0.16000   58.44750
 3154.50000  131.20840   77.99400  120.14240    0.14690   58.87680
 3155.00000  131.51480   75.20960  117.97290    0.12030   56.00890
 3155.50000  131.82050   72.24550   92.76110    0.08330   50.30000
 3156.00000  131.52620   70.00000   87.60960    0.03470   41.89700
 3156.50000  129.73330   70.53890   92.25980    0.02650   37.38680
 3157.00000  129.13160   72.15570   97.72750    0.04760   36.46900
 3157.50000  130.97510   73.68260   99.89600    0.05870   38.99230
 3158.00000  132.74960   75.03920  101.34090    0.06130   43.46360
 3158.50000  131.06620   75.56890  102.96650    0.05980   46.81200
 3159.00000  126.83480   74.02970  100.43550    0.05800   48.81310
 3159.50000  120.18070   71.23180   79.02620    0.05890   49.91600
 3160.00000  115.20220   66.42430   65.22120    0.06600   50.79440
 3160.50000  112.38890   63.98900   60.58350    0.08350   52.49430
 3161.00000  114.56800   62.90420   59.38520    0.10690   54.72000
 3161.50000  121.06160   64.96430   64.08720    0.11940   56.49650
 3162.00000  125.02960   67.67420   68.48740    0.13440   56.62680
 3162.50000  122.15890   69.12430   70.97140    0.12600   52.11630
 3163.00000  118.96080   68.80560   70.45100    0.09130   45.50580
 3163.50000  116.02520   67.61760   69.61400    0.04460   40.99500
 3164.00000  115.92210   66.56990   72.14320    0.01950   37.83140
 3164.50000  117.23630   65.88890   71.32910    0.00690   36.01520
 3165.00000  119.34110   66.04790   62.65350    0.00810   33.74980
 3165.50000  122.64530   66.94610   56.50800    0.01530   32.38270
 3166.00000  126.84910   69.37130   50.00110    0.02850   35.50660
 3166.50000  130.15330   72.96410   49.16430    0.05970   36.83410
 3167.00000  132.85780   75.29940   55.78250    0.09270   37.71240
 3167.50000  133.46340   75.41610   62.92020    0.09860   39.48900
 3168.00000  134.06900   74.49100   65.44940    0.10100   43.35860
 3168.50000  134.05700   73.50300   63.80300    0.12050   48.12910
 3169.00000  133.11740   74.31140   63.00790    0.13490   49.90540
 3169.50000  131.41140   75.39790   68.61860    0.11980   48.53790
 3170.00000  126.95410   74.76750   73.21690    0.07060   45.37410
 3170.50000  121.51460   71.81900   72.40280    0.03800   40.71230
 3171.00000  115.00850   65.53010   81.43870    0.02620   38.67160
 3171.50000  113.12040   61.16880   92.29560    0.03430   39.32550
 3172.00000  119.12330   59.31140   95.80390    0.05050   41.10200
 3172.50000  116.81110   61.28740   96.07400    0.06190   41.98030
 3173.00000  114.50640   61.01800   95.58340    0.06240   41.73600
 3173.50000  112.21400   61.54320   95.65400    0.02940   39.99310
 3174.00000  114.95410   63.08010   99.53690    0.00800   36.38080
 3174.50000  116.75670   63.76130  100.90080   -0.00050   29.77420
 3175.00000  117.06240   63.71260  113.93900   -0.00270   26.61040
 3175.50000  117.66800   64.13630  120.45470   -0.00120   24.94370
 3176.00000  118.87330   65.67680  115.85530    0.00240   24.77070
 3176.50000  123.67670   67.93410  108.09400    0.00600   27.44550
 3177.00000  138.97490   69.82040   95.19690    0.01680   30.56940
 3177.50000  141.97930   71.70660   87.09270    0.02940   35.48970
 3178.00000  143.78430   73.95210   88.06690    0.05820   40.85910
 3178.50000  144.09000   75.38920   93.35910    0.07490   42.18660
 3179.00000  144.39570   77.63470   99.85720    0.05520   39.47210
 3179.50000  141.39360   76.91620  107.80810    0.03360   34.96130
 3180.00000  132.13560   72.15570  110.78920    0.02230   31.34860
 3180.50000  123.15490   67.57490  109.95530    0.01690   29.08330
 3181.00000  120.09190   66.39460  105.54540    0.01510   29.80920
 3181.50000  118.63790   65.23950   99.24660    0.02030   34.57960
 3182.00000  123.21520   66.17410   80.60480    0.06080   37.55370
 3182.50000  127.21630   71.39190   76.54520    0.07880   39.47980
 3183.00000  132.11710   72.94100   83.53860    0.08640   39.30990
 3183.50000  135.26840   73.97340   98.76460    0.05400   35.47130
