~Version ---------------------------------------------------
VERS.   2.0 : CWLS log ASCII Standard -VERSION 2.0
WRAP.    NO : One line per depth step
DLM . SPACE : Column Data Section Delimiter
~Well ------------------------------------------------------
STRT .F                   4.0 : START DEPTH
STOP .F                4056.0 : STOP DEPTH
STEP .F                   0.5 : STEP
NULL .               -9999.25 : NULL VALUE
COMP .                        : COMPANY
WELL .                        : WELL
FLD  .                        : FIELD
LOC  .                        : LOCATION
PROV .                        : PROVINCE
CNTY .                        : COUNTY
STAT .                        : STATE
CTRY .                        : COUNTRY
SRVC .                        : SERVICE COMPANY
DATE .                        : DATE
UWI  .                        : UNIQUE WELL ID
API  .                        : API NUMBER
SLAT .WGS84 2.911140464936402 : SURFACE LATITUDE
SLON .WGS84 6.374855159901998 : SURFACE LONGITUDE
DATUM.F               2906.72 : DEPTH DATUM ELEV
~Curve Information -----------------------------------------
DEPT.F     : 
DTSM.US/F  : DELTA-T SHEAR
DTCO.US/F  : DELTA-T COMPRESSIONAL
DTL .US/F  : DELTA-T LONG SPACING
NPHI.DEC   : NEUTRON POROSITY
GRD .GAPI  : GAMMA RAY FROM DENSITY LOG
~Params ----------------------------------------------------
~Other -----------------------------------------------------
~ASCII -----------------------------------------------------
# ...
 3304.00000  115.28640   57.83010   69.79790    0.06230   22.34770
 3304.50000  115.28940   59.58930   67.28920    0.08160   24.13090
 3305.00000  115.29240   60.00740   68.26520    0.10090   25.91420
 3305.50000  114.58030   60.41960   68.55420    0.12220   27.69740
 3306.00000  113.42120   61.03440   67.33880    0.13480   28.58030
 3306.50000  111.59380   61.93390   65.57600    0.14320   29.01620
 3307.00000  109.46570   62.92320   63.27950    0.15150   28.40420
 3307.50000  107.33900   63.12220   61.34920    0.14200   26.96780
 3308.00000  105.81140   61.57850   60.53020    0.11860   25.38280
 3308.50000  103.91960   61.22060   62.82390    0.10410   24.24700
 3309.00000  103.02300   59.69490   64.03610    0.09820   25.80560
 3309.50000  102.12640   57.61740   64.21320    0.09760   28.26260
 3310.00000  101.22980   55.46310   62.22890    0.09180   28.92190
 3310.50000  100.33320   52.51680   60.24100    0.07320   27.86110
 3311.00000   99.43660   51.14860   60.96390    0.06170   26.79990
 3311.50000  100.85800   50.45000   61.00260    0.07870   28.13380
 3312.00000  103.90000   53.16750   59.24700    0.10050   30.21440
 3312.50000  106.04200   54.64430   57.89160    0.10970   30.65040
 3313.00000  108.18440   55.31890   56.17470    0.10000   28.39170
 3313.50000  109.00640   55.61480   59.81500    0.07190   25.68390
 3314.00000  104.25250   54.11650   61.41570    0.06000   24.32350
 3314.50000  100.35740   51.19240   57.78310    0.05840   26.55580
 3315.00000   97.06200   49.74130   55.48200    0.05440   27.44090
 3315.50000   98.26430   51.53900   54.04210    0.04740   23.38580
 3316.00000  101.86550   53.06730   57.89250    0.03840   18.43000
 3316.50000  103.06780   53.15840   65.21990    0.03000   16.92010
 3317.00000  102.17120   53.15970   67.83130    0.02410   16.00870
 3317.50000  101.57450   53.07120   66.21120    0.02170   15.69630
 3318.00000  106.37500   53.25220   64.67450    0.02530   17.02930
 3318.50000  109.07660   54.96000   68.91570    0.03120   19.48630
 3319.00000  110.57880   55.95910   70.28450    0.03600   20.82040
 3319.50000  109.98210   56.60820   68.82530    0.03900   20.35820
 3320.00000  108.18590   57.55100   72.16870    0.04080   19.44680
 3320.50000  105.73950   58.37850   75.42170    0.03290   18.60940
 3321.00000  103.01450   57.42100   78.49400    0.02500   17.24890
 3321.50000  100.93830   55.44450   78.79050    0.01970   16.93620
 3322.00000   99.80190   53.10350   73.01890    0.01870   17.22230
 3322.50000  100.15480   52.09630   66.28820    0.02550   20.50050
 3323.00000  101.12740   52.75910   63.85540    0.04660   24.97830
 3323.50000  102.34990   52.86100   67.10840    0.07380   29.00710
 3324.00000  104.25210   52.63950   67.23980    0.10390   33.03580
 3324.50000  105.99390   54.52740   67.80230    0.14670   36.16640
 3325.00000  108.01580   55.33700   69.18670    0.18510   36.15320
 3325.50000  110.75790   55.51800   69.49280    0.19620   34.79280
 3326.00000  112.89890   55.96840   68.05920    0.16480   32.98320
 3326.50000  115.34120   57.76610   64.54130    0.16110   33.86640
 3327.00000  118.50270   58.75550   61.60180    0.17290   36.84710
 3327.50000  121.87410   59.47530   58.61450    0.17330   37.88170
 3328.00000  121.76700   64.59640   57.71080    0.15410   37.71870
 3328.50000  113.22530   61.20630   57.43980    0.13970   36.95610
 3329.00000  106.14150   54.11290   57.43980    0.13910   36.26920
 3329.50000  110.04250   52.80770   57.53010    0.13190   36.03160
 3330.00000  114.84310   56.51660   57.80120    0.11510   36.46750
 3330.50000  119.04390   61.79720   57.71080    0.08880   36.90240
 3331.00000  121.14580   61.55780   57.53010    0.09000   37.48780
 3331.50000  122.64800   61.10260   57.71330    0.10500   38.52270
 3332.00000  122.95080   61.27450   57.98920    0.14210   39.55750
 3332.50000  122.65370   64.45260   58.16270    0.16010   39.99130
 3333.00000  122.65690   65.65550   58.07230    0.16010   39.97810
 3333.50000  123.55940   66.85810   58.18430    0.16010   40.41400
 3334.00000  126.56080   68.83440   58.46020    0.16230   43.54460
 3334.50000  132.86060   71.44050   58.85780    0.18490   46.22610
 3335.00000  141.25940   74.85500   59.15660    0.21700   47.56020
 3335.50000  147.91840   78.17960   59.03370    0.22090   48.44530
 3336.00000  149.66110   79.97740   58.56740    0.22180   48.88120
 3336.50000  145.28570   79.88880   58.07230    0.21760   49.76630
 3337.00000  140.99210   79.44110   58.52410    0.23170   49.60110
 3337.50000  137.87600   78.72380   58.61450    0.25110   48.53990
 3338.00000  137.01940   77.78890   58.52410    0.25470   46.73040
 3338.50000  136.34280   76.29560   58.43370    0.22730   46.34200
 3339.00000  134.96700   74.57060   58.43370    0.22070   49.47260
 3339.50000  131.84130   73.07770   58.52410    0.22720   50.80670
 3340.00000  130.39480   72.44290   58.43370    0.23320   49.67090
 3340.50000  129.67830   72.80350   58.16270    0.23200   47.86130
 3341.00000  127.14280   71.78500   58.07230    0.20080   45.60190
 3341.50000  122.95720   69.95990   58.07230    0.16730   43.64250
 3342.00000  121.79110   68.01830   58.17590    0.15410   41.68310
 3342.50000  123.76310   66.86910   58.45180    0.15160   41.37040
 3343.00000  126.07500   66.68100   58.72770    0.16370   44.19940
 3343.50000  129.26600   67.78210   58.97590    0.17630   44.63540
 3344.00000  132.91810   69.57980   58.54950    0.18590   44.62220
 3344.50000  135.02000   71.73680   58.21560    0.19320   45.05820
 3345.00000  133.22390   73.53460   58.07230    0.19790   45.04500
 3345.50000  126.93000   74.70350   58.07230    0.19080   43.68460
 3346.00000  117.93740   68.32760   58.82180    0.15530   36.48580
 3346.50000  115.24170   62.58040   59.06630    0.08640   31.08340
 3347.00000  114.94480   60.23930   59.06630    0.07630   27.92400
 3347.50000  114.64790   59.14610   58.88550    0.08120   25.81550
 3348.00000  114.95070   58.22990   58.61450    0.08230   26.55070
 3348.50000  116.15310   58.60960   58.43370    0.07590   25.93870
 3349.00000  120.95360   61.37780   58.16270    0.07660   25.40060
 3349.50000  130.85160   64.55820   58.16270    0.09110   28.75570
 3350.00000  136.55170   67.43970   58.43370    0.13620   39.52100
 3350.50000  139.59370   70.97530   58.79520    0.21460   47.14250
 3351.00000  141.71520   73.58690   58.79520    0.23760   49.37490
 3351.50000  143.21700   75.16370   58.76630    0.25120   49.80970
 3352.00000  142.54120   76.40360   58.50480    0.24100   49.04820
 3352.50000  137.16670   76.24950   58.36150    0.21650   48.13680
 3353.00000  129.37230   74.45440   58.04340    0.18180   46.47710
 3353.50000  123.41910   71.94080   57.76740    0.15360   44.81480
 3354.00000  119.08400   69.51690   57.49160    0.10450   41.65790
 3354.50000  116.42900   67.09310   57.48310    0.08480   38.05200
 3355.00000  114.19310   65.11840   57.66870    0.08360   36.24240
 3355.50000  112.15720   63.86220   57.71080    0.08360   36.22920
 3356.00000  109.84120   62.78560   57.53010    0.08420   37.11430
 3356.50000  111.24390   61.97130   57.16870    0.08290   37.10110
 3357.00000  116.42370   61.89010   56.80720    0.07880   36.18980
 3357.50000  122.95350   62.65790   56.62650    0.08540   35.87510
 3358.00000  127.82490   63.39730   56.26510    0.11620   38.25760
 3358.50000  130.38590   64.40230   55.99400    0.14000   42.58560
 3359.00000  132.70820   66.41100   55.90360    0.15240   45.56640
 3359.50000  134.21040   69.58510   55.99640    0.15680   47.12370
 3360.00000  135.41280   72.19170   56.27100    0.15720   47.33510
 3360.50000  136.91500   73.46110   56.35540    0.15580   47.32190
 3361.00000  139.61660   74.29860   56.37110    0.15280   47.75790
 3361.50000  143.81740   74.98730   56.62650    0.14540   48.41840
 3362.00000  145.01980   75.73620   56.88330    0.14020   50.12550
 3362.50000  144.12320   75.88690   57.65080    0.20100   50.41200
 3363.00000  141.42750   75.02020   59.49940    0.20700   50.09950
 3363.50000  132.13510   74.30300   60.82620    0.16860   47.68880
