~Version ---------------------------------------------------
VERS.   2.0 : CWLS log ASCII Standard -VERSION 2.0
WRAP.    NO : One line per depth step
DLM . SPACE : Column Data Section Delimiter
~Well ------------------------------------------------------
STRT .F                   4.0 : START DEPTH
STOP .F                4056.0 : STOP DEPTH
STEP .F                   0.5 : STEP
NULL .               -9999.25 : NULL VALUE
COMP .                        : COMPANY
WELL .                        : WELL
FLD  .                        : FIELD
LOC  .                        : LOCATION
PROV .                        : PROVINCE
CNTY .                        : COUNTY
STAT .                        : STATE
CTRY .                        : COUNTRY
SRVC .                        : SERVICE COMPANY
DATE .                        : DATE
UWI  .                        : UNIQUE WELL ID
API  .                        : API NUMBER
SLAT .WGS84 2.911140464936402 : SURFACE LATITUDE
SLON .WGS84 6.374855159901998 : SURFACE LONGITUDE
DATUM.F               2906.72 : DEPTH DATUM ELEV
~Curve Information -----------------------------------------
DEPT.F     : 
DTSM.US/F  : DELTA-T SHEAR
DTCO.US/F  : DELTA-T COMPRESSIONAL
DTL .US/F  : DELTA-T LONG SPACING
NPHI.DEC   : NEUTRON POROSITY
GRD .GAPI  : GAMMA RAY FROM DENSITY LOG
~Params ----------------------------------------------------
~Other -----------------------------------------------------
~ASCII -----------------------------------------------------
# ...
 2944.00000  120.09570   67.16890   67.98290    0.07680   31.65380
 2944.50000  126.38960   69.92000   84.06590    0.09890   34.77980
 2945.00000  128.18570   71.71550   93.01030    0.10190   38.35490
 2945.50000  128.48270   73.42120   94.18370    0.10020   41.77790
 2946.00000  128.17990   73.33050   88.30890    0.08640   44.30440
 2946.50000  128.17690   72.34160   78.18700    0.08520   40.69360
 2947.00000  128.19610   71.35270   68.42670    0.09720   37.08340
 2947.50000  129.14050   70.44920   62.46150    0.10740   36.91690
 2948.00000  132.68030   69.37490   60.11080    0.12360   41.98880
 2948.50000  141.96240   71.64530   66.61540    0.12480   45.63680
 2949.00000  143.82800   74.65040   75.01770    0.11150   47.86470
 2949.50000  143.40300   76.91710   92.63690    0.08530   47.39790
 2950.00000  139.95140   74.08690   97.06320    0.06740   45.13480
 2950.50000  132.53310   71.74440   94.42920    0.05360   43.54520
 2951.00000  127.99350   69.92280   94.07870    0.04900   41.28200
 2951.50000  124.45330   68.48520   93.68950    0.04610   39.46790
 2952.00000  122.59470   67.29700   91.44950    0.04310   37.80210
 2952.50000  122.44380   65.98720   89.64690    0.03990   36.43720
 2953.00000  122.14030   64.86220   88.01880    0.03710   37.91600
 2953.50000  121.53770   63.92600   87.21040    0.03460   40.89220
 2954.00000  119.43580   63.10550   86.63060    0.03310   44.01850
 2954.50000  116.43440   62.19490   85.39460    0.03280   42.80360
 2955.00000  116.43140   61.59730   83.70650    0.03580   41.13610
 2955.50000  116.72840   61.32110   82.48220    0.04100   42.01660
 2956.00000  116.72540   61.22760   81.75790    0.04430   41.54980
 2956.50000  114.32370   61.37960   81.20520    0.04540   41.08310
 2957.00000  111.62210   61.54410   80.78520    0.04480   40.16720
 2957.50000  110.71960   61.81270   80.50680    0.04480   41.04770
 2958.00000  111.62390   61.90170   86.73920    0.04550   43.27550
 2958.50000  112.51280   61.99060   99.69160    0.04730   43.70690
 2959.00000  111.87600   61.98970  102.91230    0.05210   42.34190
 2959.50000  111.16660   62.07860   86.46520    0.05450   41.42610
 2960.00000  110.10490   62.52690   81.40360    0.05930   43.65390
 2960.50000  110.10200   63.96310   78.51070    0.08090   46.77990
 2961.00000  111.85590   64.32150   80.00940    0.08990   49.00770
 2961.50000  113.89190   64.50030   81.21890    0.09760   48.98710
 2962.00000  114.89110   64.67900   80.67540    0.09640   48.37050
 2962.50000  114.03780   65.03740   82.34570    0.07820   47.00550
 2963.00000  112.94770   65.21620   83.92530    0.04110   45.49070
 2963.50000  112.48280   64.66850   85.55090    0.02570   39.33450
 2964.00000  113.27170   63.94720   80.21960    0.02270   33.03000
 2964.50000  114.98340   63.58140   66.51990    0.02410   29.56810
 2965.00000  119.06990   63.32640   57.29380    0.03930   28.20310
 2965.50000  124.46430   67.29200   56.81060    0.06220   31.10460
 2966.00000  132.55730   71.39650   59.73690    0.08520   36.92520
 2966.50000  140.65030   75.62910   60.93730    0.10400   40.72490
 2967.00000  138.84830   75.06990   58.71000    0.09750   42.27910
 2967.50000  136.74640   73.45130   56.71460    0.09240   42.48600
 2968.00000  132.84540   69.76930   57.00210    0.09500   40.97000
 2968.50000  127.14530   67.87050   58.34730    0.09810   38.67550
 2969.00000  129.84100   68.51190   61.49940    0.09190   35.54570
 2969.50000  134.03600   72.14000   64.38970    0.07380   29.09110
 2970.00000  133.11370   74.73400   65.38230    0.06880   24.43230
 2970.50000  132.79760   75.80780   65.47150    0.06500   21.71680
 2971.00000  132.22790   75.21830   65.19890    0.05900   19.90270
 2971.50000  132.16600   73.97790   64.56510    0.02970   18.98680
 2972.00000  123.96720   71.76060   62.93720    0.01470   17.62180
 2972.50000  109.13550   66.07760   61.49010    0.00760   17.15500
 2973.00000  106.03650   57.20400   60.40440    0.00280   15.79000
 2973.50000  103.58380   54.68820   59.49950    0.00100   14.87420
 2974.00000  101.37740   52.53160   67.45000    0.00220   14.40740
 2974.50000  100.14870   52.14630   70.24980    0.00460   13.94060
 2975.00000  100.41940   52.26040   70.51960    0.00580   13.92290
 2975.50000  101.77920   52.43920   69.69010    0.00530   14.35430
 2976.00000  102.38890   51.89930   69.04700    0.00230   15.68390
 2976.50000  101.60960   50.46130   68.41900   -0.00010   17.46270
 2977.00000   99.20790   49.38260   68.25520   -0.00010   20.58600
 2977.50000   96.80620   47.76490   70.45240    0.00210   23.86190
 2978.00000   97.40290   46.77600   74.97590    0.00970   27.88640
 2978.50000  100.09870   48.75120   77.57340    0.01260   33.55690
 2979.00000  102.79440   51.44900   77.73780    0.01390   34.73650
 2979.50000  102.82460   55.21040   75.18830    0.01500   34.41950
 2980.00000  102.78850   59.68270   73.57850    0.01540   35.74760
 2980.50000  103.98500   61.29450   76.60650    0.02270   39.09820
 2981.00000  105.19940   61.41140   80.64160    0.04120   41.55060
 2981.50000  107.05390   60.33270   83.88490    0.05520   43.77840
 2982.00000  110.22720   62.74510   87.62100    0.06760   45.55710
 2982.50000  114.58590   66.30300   90.01680    0.07210   46.88670
 2983.00000  121.17760   69.18280   91.99190    0.05950   46.86900
 2983.50000  121.35870   70.29920   92.43280    0.05070   47.14920
 2984.00000  119.98790   68.00620   90.91660    0.04640   47.58060
 2984.50000  117.96600   65.68650   90.64420    0.04220   48.76040
 2985.00000  114.77220   62.85610   90.52260    0.03610   49.64100
 2985.50000  110.90550   61.28450   93.80420    0.03310   50.67130
 2986.00000  112.29140   59.52360   96.69440    0.03370   50.95320
 2986.50000  113.84240   58.24610   97.14500    0.03610   49.43550
 2987.00000  114.14090   59.97420   95.24590    0.03970   47.62140
 2987.50000  113.01370   62.12950   91.90120    0.04330   46.25640
 2988.00000  110.83600   63.97830   88.19510    0.04990   48.03510
 2988.50000  110.13490   63.28400   79.42870    0.05830   49.36470
 2989.00000  113.82870   62.56450   79.87920    0.06490   50.24520
 2989.50000  115.02510   63.82110   76.53450    0.06850   49.77850
 2990.00000  114.72230   66.15560   74.63550    0.06920   48.86260
 2990.50000  114.11970   67.14270   74.73980    0.06800   48.84490
 2991.00000  113.81690   66.15380   76.11520    0.06740   49.72540
 2991.50000  112.91440   65.70380   76.89060    0.06870   50.60590
 2992.00000  112.31180   65.70290   74.04070    0.07060   50.13910
 2992.50000  111.40420   65.70200   67.33910    0.07570   49.22330
 2993.00000  110.78870   66.15030   60.64050    0.08430   50.25120
 2993.50000  116.02540   66.50860   57.08090    0.12440   60.26360
 2994.00000  120.14820   67.31610   56.19110    0.15440   66.53240
 2994.50000  127.24300   68.21350   56.39750    0.17450   63.96960
 2995.00000  136.20240   69.30180   56.45960    0.19740   60.35910
 2995.50000  143.62140   71.12870   56.33450    0.22180   59.89330
 2996.00000  147.93510   73.74250   56.14940    0.23680   65.48720
 2996.50000  152.10950   76.75280   56.09380    0.24730   69.28690
 2997.00000  154.62670   78.33340   56.09250    0.22790   69.94290
 2997.50000  155.45730   79.66720   56.00080    0.19070   66.55700
 2998.00000  152.17160   80.96180   55.99940    0.14660   61.37460
 2998.50000  145.44700   80.42200   55.94680    0.09500   55.74310
 2999.00000  139.66480   80.05740   55.90610    0.06220   51.90810
 2999.50000  133.85550   76.75320   55.99530    0.05030   49.71850
 3000.00000  129.05500   72.45530   56.08410    0.04430   47.60510
 3000.50000  124.85410   71.40350   56.08280    0.04010   44.44370
 3001.00000  120.05360   71.05890   56.08340    0.04000   42.18050
 3001.50000  116.75230   69.95860   56.17330    0.05050   40.66570
 3002.00000  113.45100   63.09010   56.17290    0.07000   40.19860
 3002.50000  111.64900   60.21280   56.35310    0.08940   43.02240
 3003.00000  109.84700   58.66040   56.35270    0.10900   44.80110
 3003.50000  108.94450   57.33220   56.35230    0.12370   47.47810
