~Version ---------------------------------------------------
VERS.   2.0 : CWLS log ASCII Standard -VERSION 2.0
WRAP.    NO : One line per depth step
DLM . SPACE : Column Data Section Delimiter
~Well ------------------------------------------------------
STRT .F                   4.0 : START DEPTH
STOP .F                4056.0 : STOP DEPTH
STEP .F                   0.5 : STEP
NULL .               -9999.25 : NULL VALUE
COMP .                        : COMPANY
WELL .                        : WELL
FLD  .                        : FIELD
LOC  .                        : LOCATION
PROV .                        : PROVINCE
CNTY .                        : COUNTY
STAT .                        : STATE
CTRY .                        : COUNTRY
SRVC .                        : SERVICE COMPANY
DATE .                        : DATE
UWI  .                        : UNIQUE WELL ID
API  .                        : API NUMBER
SLAT .WGS84 2.911140464936402 : SURFACE LATITUDE
SLON .WGS84 6.374855159901998 : SURFACE LONGITUDE
DATUM.F               2906.72 : DEPTH DATUM ELEV
~Curve Information -----------------------------------------
DEPT.F     : 
DTSM.US/F  : DELTA-T SHEAR
DTCO.US/F  : DELTA-T COMPRESSIONAL
DTL .US/F  : DELTA-T LONG SPACING
NPHI.DEC   : NEUTRON POROSITY
GRD .GAPI  : GAMMA RAY FROM DENSITY LOG
~Params ----------------------------------------------------
~Other -----------------------------------------------------
~ASCII -----------------------------------------------------
# ...
 3844.00000  124.62970   63.97100   64.23850    0.27480   24.27850
 3844.50000  123.54510   65.58030   65.39290    0.27740   25.62360
 3845.00000  122.76880   66.00740   65.75450    0.33410   25.84580
 3845.50000  122.01200   66.09690   65.16170    0.34630   25.09520
 3846.00000  119.48370   65.37780   63.44530    0.33060   24.19480
 3846.50000  114.68320   64.11990   61.27700    0.30960   24.34210
 3847.00000  109.28290   61.78410   59.74130    0.28650   25.98650
 3847.50000  106.88120   60.43630   58.11530    0.24460   28.52900
 3848.00000  107.47800   59.62750   57.21210    0.24300   28.07770
 3848.50000  108.97430   58.72890   57.57400    0.30690   27.17730
 3849.00000  110.17080   58.27930   58.65880    0.31110   25.82780
 3849.50000  110.76750   58.90760   59.74350    0.32540   25.82560
 3850.00000  110.76460   59.71560   60.46690    0.33260   25.82340
 3850.50000  110.14780   60.35100   59.44620    0.32210   26.71940
 3851.00000  109.23150   60.71720   58.38160    0.30610   27.61530
 3851.50000  108.61470   60.97170   58.29950    0.30840   28.06220
 3852.00000  107.99790   60.64440   58.30000    0.32420   28.50910
 3852.50000  107.45130   59.91120   58.30050    0.32850   28.95600
 3853.00000  107.83210   59.28890   58.21050    0.31060   28.50430
 3853.50000  108.74260   58.82860   58.32880    0.29060   27.75340
 3854.00000  110.06480   58.63420   58.54510    0.24770   25.20610
 3854.50000  112.39200   59.45660   59.23660    0.25150   22.95900
 3855.00000  116.07160   61.16650   62.04440    0.31480   25.80120
 3855.50000  119.90540   64.07560   66.91420    0.31460   28.71770
 3856.00000  123.09510   66.51880   70.18070    0.30590   28.49100
 3856.50000  124.51870   67.75750   68.83050    0.29710   27.81510
 3857.00000  123.31580   68.28180   67.43110    0.27980   26.91470
 3857.50000  121.81370   67.07400   66.61830    0.32500   26.01430
 3858.00000  121.51090   66.26520   65.44400    0.32560   25.11390
 3858.50000  123.30700   67.25280   64.87850    0.33040   23.68950
 3859.00000  124.80340   68.42000   65.53530    0.33640   22.78900
 3859.50000  124.86880   68.68900   66.43930    0.34660   22.18790
 3860.00000  122.99840   68.32930   66.80120    0.34600   21.73660
 3860.50000  120.89650   67.34080   66.34990    0.32930   21.28530
 3861.00000  119.37000   66.08290   65.71780    0.31270   24.42640
 3861.50000  117.18130   64.73520   64.45320    0.29600   27.56790
 3862.00000  114.78260   63.20780   62.42950    0.27110   28.46390
 3862.50000  113.23910   61.86000   60.13950    0.22060   28.01260
 3863.00000  111.75830   61.03320   58.98710    0.21240   27.56130
 3863.50000  110.82770   60.21340   58.38540    0.20690   27.55910
 3864.00000  109.78110   59.56990   58.31080    0.19940   27.55690
 3864.50000  109.88410   58.85110   59.01880    0.19280   28.90200
 3865.00000  111.69520   58.35480   61.74480    0.18740   29.34890
 3865.50000  117.90860   60.28000   64.64840    0.18980   28.44850
 3866.00000  123.25400   61.46880   66.13310    0.21260   27.54810
 3866.50000  124.45880   62.42050   66.70400    0.27540   26.94660
 3867.00000  124.28000   63.36510   66.20830    0.29160   26.64510
 3867.50000  120.55420   64.01130   62.57480    0.29270   26.64290
 3868.00000  116.65320   60.24970   59.15980    0.25990   27.23960
 3868.50000  112.45240   57.33830   56.14630    0.20960   28.13560
 3869.00000  108.85120   56.05190   55.06240    0.19940   28.43250
 3869.50000  106.14970   55.18560   54.15930    0.19760   28.43040
 3870.00000  104.04780   54.39810   53.61750    0.20720   28.42820
 3870.50000  102.54560   53.85880   53.25650    0.21880   27.75230
 3871.00000  101.34330   53.49900   52.98590    0.23090   27.30090
 3871.50000  100.44080   53.31900   52.89590    0.24050   25.95140
 3872.00000  101.05330   53.49810   53.43860    0.24520   24.22770
 3872.50000  101.66410   54.03660   53.98120    0.24820   22.42910
 3873.00000  101.97510   54.57510   54.34310    0.24980   21.07960
 3873.50000  102.22820   54.93400   54.70830    0.24270   20.02940
 3874.00000  101.92500   55.20300   54.79580    0.22540   21.67350
 3874.50000  101.62220   54.93310   54.70580    0.21510   23.31820
 3875.00000  101.31930   54.30390   54.42020    0.21810   23.46540
 3875.50000  101.31630   53.75730   54.21710    0.22450   23.46320
 3876.00000  100.71360   53.49460   53.96150    0.23190   23.01190
 3876.50000  100.71060   53.31450   53.77720    0.23350   22.56060
 3877.00000  100.70760   53.22430   53.68340    0.22990   22.55840
 3877.50000  100.53490   53.24170   53.62420    0.22470   22.10710
 3878.00000  101.90050   53.57900   53.62470    0.21990   22.10480
 3878.50000  103.99650   54.19650   54.06080    0.21430   22.55170
 3879.00000  105.79270   54.74580   55.16880    0.20440   23.44770
 3879.50000  106.38940   55.38490   55.71460    0.19360   23.89460
 3880.00000  106.68670   55.80840   56.06640    0.18470   22.99420
 3880.50000  106.08370   56.13490   56.24750    0.18170   22.39270
 3881.00000  105.18130   56.40750   56.42870    0.20030   22.54030
 3881.50000  103.97890   56.63690   56.51950    0.20750   23.13700
 3882.00000  102.77660   56.62220   56.33920    0.20690   23.58390
 3882.50000  101.86390   55.73420   55.79750    0.20210   23.73120
 3883.00000  101.27140   54.92540   54.89430    0.20690   23.20500
 3883.50000  100.93070   54.02670   54.26220    0.21890   22.30460
 3884.00000  100.66570   53.48740   54.08190    0.25480   21.85330
 3884.50000  100.66270   53.30730   54.08240    0.25720   20.95290
 3885.00000  100.73970   53.21700   54.08590    0.25300   20.05250
 3885.50000  101.25680   53.21660   54.17360    0.25310   19.60120
 3886.00000  101.66120   53.30600   54.04020    0.25740   19.07500
 3886.50000  102.69370   53.48520   52.26850    0.26280   18.92290
 3887.00000  103.91790   53.84400   49.39570    0.26620   18.92070
 3887.50000  105.59220   54.20280   47.21800    0.25600   19.66690
 3888.00000  107.56640   54.75570   45.34230    0.23160   20.86220
 3888.50000  109.03390   55.47390   44.47630    0.20780   22.95560
 3889.00000  109.63070   56.01950   43.96590    0.19460   22.50430
 3889.50000  109.92800   56.37110   51.13730    0.18570   22.05300
 3890.00000  109.92460   56.44620   53.46060    0.18050   22.49990
 3890.50000  108.72230   56.35580   52.29590    0.17600   23.84500
 3891.00000  106.92030   56.12550   47.98720    0.17470   24.29190
 3891.50000  105.11830   55.75860   44.96230    0.17680   23.84060
 3892.00000  103.91590   55.42390   47.04100    0.17830   23.83840
 3892.50000  102.71360   55.11450   53.72820    0.17230   25.63260
 3893.00000  102.10310   54.87700   48.93950    0.16080   28.77410
 3893.50000  101.17260   54.60340   42.79540    0.14690   31.01740
 3894.00000  100.27380   54.46290   39.63320    0.13340   32.06280
 3894.50000   99.40330   54.37620   47.13360    0.13160   32.65920
 3895.00000   99.04060   54.55530   50.47740    0.13760   31.15990
 3895.50000   99.54530   54.91410   46.14050    0.15320   28.91220
 3896.00000  101.06920   55.63230   43.24940    0.18320   27.11360
 3896.50000  102.29390   56.17070   49.54410    0.21730   25.38990
 3897.00000  103.21860   56.52960   54.50500    0.22510   24.48950
 3897.50000  104.14320   56.52910   52.73210    0.22630   24.48730
 3898.00000  105.21100   56.79820   45.52370    0.22990   25.60780
 3898.50000  106.29180   57.15700   42.16730    0.24310   27.40210
 3899.00000  107.34440   57.87510   45.59770    0.25990   29.19630
 3899.50000  108.36830   58.50340   47.94200    0.27420   31.43910
 3900.00000  108.96500   58.95210   49.03610    0.26530   30.83860
 3900.50000  108.66220   59.22110   49.46620    0.24540   28.59080
 3901.00000  107.75980   58.81790   48.95230    0.23830   26.19360
 3901.50000  106.85730   57.62840   45.86330    0.24290   23.79610
 3902.00000  105.95480   56.85580   42.20370    0.25830   20.20040
 3902.50000  105.65200   56.66850   40.17400    0.27030   18.85090
 3903.00000  105.04940   56.41290   43.43650    0.28160   19.74690
 3903.50000  104.74660   56.29390   42.71410    0.29000   21.09200
