~Version ---------------------------------------------------
VERS.   2.0 : CWLS log ASCII Standard -VERSION 2.0
WRAP.    NO : One line per depth step
DLM . SPACE : Column Data Section Delimiter
~Well ------------------------------------------------------
STRT .F                   4.0 : START DEPTH
STOP .F                4056.0 : STOP DEPTH
STEP .F                   0.5 : STEP
NULL .               -9999.25 : NULL VALUE
COMP .                        : COMPANY
WELL .                        : WELL
FLD  .                        : FIELD
LOC  .                        : LOCATION
PROV .                        : PROVINCE
CNTY .                        : COUNTY
STAT .                        : STATE
CTRY .                        : COUNTRY
SRVC .                        : SERVICE COMPANY
DATE .                        : DATE
UWI  .                        : UNIQUE WELL ID
API  .                        : API NUMBER
SLAT .WGS84 2.911140464936402 : SURFACE LATITUDE
SLON .WGS84 6.374855159901998 : SURFACE LONGITUDE
DATUM.F               2906.72 : DEPTH DATUM ELEV
~Curve Information -----------------------------------------
DEPT.F     : 
DTSM.US/F  : DELTA-T SHEAR
DTCO.US/F  : DELTA-T COMPRESSIONAL
DTL .US/F  : DELTA-T LONG SPACING
NPHI.DEC   : NEUTRON POROSITY
GRD .GAPI  : GAMMA RAY FROM DENSITY LOG
~Params ----------------------------------------------------
~Other -----------------------------------------------------
~ASCII -----------------------------------------------------
# ...
 3664.00000  104.04820   54.68020   52.46090    0.05720   16.56420
 3664.50000  100.62330   53.95990   51.84320    0.05000   16.09740
 3665.00000   98.18100   53.41920   51.81490    0.04350   16.52590
 3665.50000   96.55170   52.78560   51.06850    0.03690   16.95740
 3666.00000   96.16730   52.42160   50.46810    0.03890   17.53860
 3666.50000   97.62930   52.15630   50.39200    0.04870   18.41920
 3667.00000   98.99580   52.17840   50.47970    0.07910   19.29970
 3667.50000  100.53190   52.57190   51.59930    0.10980   20.25350
 3668.00000  101.76920   53.48020   53.93340    0.11880   21.35860
 3668.50000  103.13050   54.38860   54.91090    0.12020   23.13740
 3669.00000  104.88210   55.27310   55.33570    0.11890   26.71260
 3669.50000  106.38430   55.79220   55.70250    0.11840   32.75780
 3670.00000  107.88650   56.06580   55.97880    0.11920   37.00660
 3670.50000  110.58810   56.39640   56.39100    0.11970   38.56070
 3671.00000  114.18920   56.77490   57.08100    0.11740   40.86160
 3671.50000  118.09020   57.45260   58.20500    0.11720   49.52550
 3672.00000  120.19210   59.47780   61.85280    0.13210   59.53850
 3672.50000  120.25950   63.45210   63.83940    0.16670   62.51560
 3673.00000  117.19950   65.67190   64.23980    0.17780   60.40260
 3673.50000  113.30440   63.93150   60.85480    0.16090   49.90250
 3674.00000  108.49310   59.13500   57.23900    0.13530   35.06450
 3674.50000  104.53400   56.97750   56.24370    0.12630   26.51390
 3675.00000  101.51900   56.70630   55.79060    0.11740   23.80170
 3675.50000   99.78650   56.61470   55.15670    0.10720   21.98760
 3676.00000   99.13030   55.80460   54.61320    0.07850   20.62260
 3676.50000   98.51080   54.72490   54.16010    0.06230   19.70680
 3677.00000   97.36250   54.18430   53.25510    0.05510   18.79090
 3677.50000   96.45430   54.00280   52.98270    0.05570   18.77330
 3678.00000   94.66460   53.91130   52.88120    0.07070   21.89930
 3678.50000   90.79720   53.81970   52.52820    0.08390   28.16910
 3679.00000   86.78260   53.72810   53.52520    0.08930   33.09160
 3679.50000   85.45430   53.45690   58.81410    0.07680   33.81910
 3680.00000   86.17640   53.09580   62.80730    0.05280   29.45990
 3680.50000   88.31650   51.96580   64.08420    0.03900   25.10100
 3681.00000   91.21300   49.84070   63.31370    0.03300   22.38910
 3681.50000   92.53710   49.48860   57.63660    0.03000   20.72480
 3682.00000   91.76670   49.38190   52.85070    0.02830   19.28360
 3682.50000   90.57020   49.01490   49.20990    0.02840   16.79590
 3683.00000   89.67360   48.68380   47.92190    0.02980   14.98180
 3683.50000   90.27630   48.59240   47.73320    0.03220   13.84140
 3684.00000   90.87890   48.90770   47.76630    0.03530   14.49740
 3684.50000   92.68090   49.36100   57.91200    0.04020   18.29710
 3685.00000   94.48300   49.84430   62.36940    0.05490   20.89750
 3685.50000   96.28500   50.63580   63.71370    0.07250   21.62860
 3686.00000   97.78720   51.70910   62.26660    0.07990   22.06000
 3686.50000   98.68970   52.77910   57.29540    0.08600   22.49150
 3687.00000   98.99250   53.11260   54.67360    0.07790   22.47380
 3687.50000   98.65790   53.33830   53.67830    0.06230   22.45620
 3688.00000   97.42670   53.19280   56.11670    0.05500   22.88470
 3688.50000   96.19620   52.31090   58.73590    0.05020   22.41790
 3689.00000   94.71290   51.26670   59.54780    0.04580   22.40030
 3689.50000   93.19330   50.90570   54.84770    0.04350   21.93350
 3690.00000   91.67440   50.81410   52.04510    0.04230   21.01770
 3690.50000   90.07330   51.35120   51.41130    0.04710   22.79640
 3691.00000   89.12100   52.24770   51.50030    0.08720   25.47340
 3691.50000   93.75320   53.05430   51.02350    0.09740   28.15030
 3692.00000   96.73980   53.41180   50.02270    0.10340   30.82730
 3692.50000   96.24460   53.67950   49.23730    0.09380   30.80960
 3693.00000   94.57500   53.76750   51.84900    0.06150   29.44470
 3693.50000   92.73460   53.85560   52.66840    0.05700   27.32810
 3694.00000   94.42270   53.76400   50.35100    0.07890   25.06460
 3694.50000   96.25910   53.67240   47.72870    0.09930   21.60390
 3695.00000   98.14150   53.22160   46.12190    0.11370   19.49090
 3695.50000   99.94350   52.48910   50.80910    0.11240   20.37170
 3696.00000  101.74560   51.09820   55.04370    0.10560   23.94690
 3696.50000  102.94790   50.25220   56.09830    0.09580   25.72390
 3697.00000  101.75150   51.01060   56.03100    0.08520   25.70620
 3697.50000   99.95530   52.64370   54.30750    0.06730   25.23950
 3698.00000   98.45900   53.12110   51.16700    0.04530   24.77270
 3698.50000   96.66280   52.58620   47.61320    0.03510   24.08140
 3699.00000   95.46640   51.85380   45.60490    0.02910   24.28830
 3699.50000   95.16940   51.44490   45.42280    0.02440   27.11320
 3700.00000   96.37180   51.13770   46.32510    0.01980   29.79020
 3700.50000   97.90890   50.92330   48.22130    0.01610   30.52130
 3701.00000   99.72210   50.82880   50.29830    0.01500   31.25200
 3701.50000  101.21280   50.92880   52.19460    0.02320   32.13260
 3702.00000  102.42680   52.30420   53.00650    0.03050   33.16000
 3702.50000  103.09830   53.64370   53.36660    0.03630   34.04050
 3703.00000  103.28600   54.28260   53.18460    0.03900   33.12470
 3703.50000  101.84830   54.87070   53.00250    0.04050   29.51420
 3704.00000   99.71830   55.25470   52.99760    0.04200   25.00550
 3704.50000   97.58740   52.64820   52.45770    0.04380   22.74230
 3705.00000   96.17180   51.83800   50.99560    0.04680   20.92830
 3705.50000   96.31060   51.47700   50.09300    0.05040   20.91060
 3706.00000   98.62090   51.92430   49.89460    0.06250   25.38400
 3706.50000  100.60630   52.21320   49.85700    0.07720   29.85740
 3707.00000  102.29350   51.83100   50.81360    0.08740   32.08520
 3707.50000  103.44070   51.55970   52.56020    0.09340   34.76220
 3708.00000  101.21800   52.27650   55.90360    0.07630   37.58630
 3708.50000   97.62270   54.52030   60.42170    0.07120   42.35960
 3709.00000   95.61920   53.71010   65.93370    0.09980   52.82110
 3709.50000   95.82950   49.84610   70.18070    0.12960   62.68300
 3710.00000   97.63150   48.67660   70.72290    0.15080   62.96410
 3710.50000   99.13370   48.58500   67.74100    0.14740   56.41340
 3711.00000   99.18360   49.57450   61.50600    0.11090   37.22480
 3711.50000   97.64040   51.28770   53.91570    0.08230   30.67870
 3712.00000   95.84420   52.38450   48.85540    0.07340   25.72460
 3712.50000   94.34790   50.73730   48.13250    0.07610   25.56130
 3713.00000   93.45130   50.01460   48.32840    0.08080   25.69790
 3713.50000   93.47580   49.86810   48.79910    0.07820   25.23560
 3714.00000   94.40040   49.99820   49.35260    0.07240   23.42620
 3714.50000   95.65940   50.58340   49.81550    0.07180   22.06320
 3715.00000   97.49660   51.31580   50.34630    0.08250   24.29550
 3715.50000   99.27610   51.95850   50.83200    0.11550   27.87510
 3716.00000  100.13400   52.74000   51.50590    0.14120   31.45470
 3716.50000  100.82790   53.27850   52.24390    0.15620   33.68700
 3717.00000  101.36240   53.36800   52.72590    0.16160   35.47020
 3717.50000  101.67660   53.45730   53.09490    0.16400   34.10970
 3718.00000  101.99080   53.45680   53.28310    0.16340   29.60550
 3718.50000  102.17990   53.45640   53.28310    0.16220   25.10130
 3719.00000  102.18290   53.72540   53.33580    0.16280   23.29170
 3719.50000  101.88610   54.26390   54.00600    0.16660   21.47980
 3720.00000  101.42930   54.71260   55.36140    0.17270   21.91570
 3720.50000  100.34950   55.16120   55.65890    0.17910   21.90250
 3721.00000   99.19700   54.88660   55.36140    0.17630   21.29040
 3721.50000   98.89960   54.15300   54.45780    0.14620   19.92990
 3722.00000   98.71500   53.60780   53.55420    0.11460   18.49350
 3722.50000  100.70510   53.36300   52.92170    0.10360   18.92950
 3723.00000  101.90740   53.46800   52.10840    0.10230   21.61090
 3723.50000  103.10970   53.66990   51.38550    0.11250   26.53780
