~Version ---------------------------------------------------
VERS.   2.0 : CWLS log ASCII Standard -VERSION 2.0
WRAP.    NO : One line per depth step
DLM . SPACE : Column Data Section Delimiter
~Well ------------------------------------------------------
STRT .F                   4.0 : START DEPTH
STOP .F                4056.0 : STOP DEPTH
STEP .F                   0.5 : STEP
NULL .               -9999.25 : NULL VALUE
COMP .                        : COMPANY
WELL .                        : WELL
FLD  .                        : FIELD
LOC  .                        : LOCATION
PROV .                        : PROVINCE
CNTY .                        : COUNTY
STAT .                        : STATE
CTRY .                        : COUNTRY
SRVC .                        : SERVICE COMPANY
DATE .                        : DATE
UWI  .                        : UNIQUE WELL ID
API  .                        : API NUMBER
SLAT .WGS84 2.911140464936402 : SURFACE LATITUDE
SLON .WGS84 6.374855159901998 : SURFACE LONGITUDE
DATUM.F               2906.72 : DEPTH DATUM ELEV
~Curve Information -----------------------------------------
DEPT.F     : 
DTSM.US/F  : DELTA-T SHEAR
DTCO.US/F  : DELTA-T COMPRESSIONAL
DTL .US/F  : DELTA-T LONG SPACING
NPHI.DEC   : NEUTRON POROSITY
GRD .GAPI  : GAMMA RAY FROM DENSITY LOG
~Params ----------------------------------------------------
~Other -----------------------------------------------------
~ASCII -----------------------------------------------------
# ...
 3184.00000  133.80070   72.85610  108.97470    0.02120   32.98150
 3184.50000  129.34070   70.16130  121.30540    0.00910   30.26700
 3185.00000  124.07910   68.05370  123.70180    0.00390   28.00160
 3185.50000  121.08650   68.21260  115.65340    0.00130   26.41000
 3186.00000  118.69360   69.02040  102.94720    0.00030   25.04280
 3186.50000  116.30060   68.38430   90.08840    0.00380   24.04840
 3187.00000  116.11420   67.74730   77.92750    0.01080   23.42970
 3187.50000  119.91050   67.43270   69.99240    0.03520   27.45120
 3188.00000  131.91040   68.56290   71.10720    0.07320   32.82050
 3188.50000  139.41250   71.52690   75.34060    0.18820   36.99270
 3189.00000  146.91460   74.49100   77.11340    0.19840   36.37100
 3189.50000  142.86020   75.74850   77.65070    0.09080   33.65660
 3190.00000  128.41440   75.82020   77.51810    0.04770   29.14570
 3190.50000  123.40780   70.89820   76.05980    0.00820   25.98220
 3191.00000  121.00690   66.67660   73.90210   -0.00080   24.16590
 3191.50000  119.95740   64.79040   70.91880   -0.00380   22.79880
 3192.00000  119.96400   65.05990   68.02640   -0.00260   22.32990
 3192.50000  119.97000   67.84430   66.76040   -0.00020   22.31000
 3193.00000  120.99140   66.91390   70.37400    0.00700   22.29020
 3193.50000  127.08590   66.04790   71.99960    0.02200   22.27040
 3194.00000  136.69620   66.88510   72.90230    0.04540   28.08620
 3194.50000  140.52970   69.54940   75.97370    0.06150   31.35930
 3195.00000  139.15020   72.76660   83.38250    0.05680   32.38710
 3195.50000  135.87990   74.96850   98.20090    0.02850   30.27130
 3196.00000  129.90810   76.10780  100.84990    0.00860   27.40710
 3196.50000  123.91700   73.88750   94.36600    0.00090   24.16740
 3197.00000  119.42510   71.84670   93.04760   -0.00190   21.67750
 3197.50000  115.83280   70.79480   93.13710   -0.00250   20.08580
 3198.00000  113.43980   69.91250   90.72430   -0.00180   19.61690
 3198.50000  111.64660   69.44800   83.95230   -0.00050   20.49530
 3199.00000  110.45300   69.10180   81.11640    0.00090   21.14910
 3199.50000  112.25800   69.55090   82.47090    0.00330   20.82830
 3200.00000  116.46180   71.07780   81.02480    0.00700   19.91030
 3200.50000  114.62740   72.51500   74.40460    0.01390   19.74060
 3201.00000  112.87530   70.89820   70.23900    0.02180   21.66670
 3201.50000  116.00010   69.64070   69.24790    0.02890   22.84470
 3202.00000  121.73190   68.65270   68.46020    0.03290   21.92340
 3202.50000  124.95760   71.79640   79.72970    0.02360   21.45440
 3203.00000  125.49240   72.24550   96.79240    0.01030   20.08730
 3203.50000  123.81030   72.15570  101.07800   -0.00020   19.61840
 3204.00000  119.43680   70.08390  101.07710   -0.00410   20.94580
 3204.50000  116.68970   69.27120   92.14190   -0.00470   22.72240
 3205.00000  116.22190   69.69440   89.89290   -0.00410   22.25350
 3205.50000  115.92800   70.87290   89.22950   -0.00410   21.78460
 3206.00000  115.93400   71.65030   90.77230   -0.00400   21.76470
 3206.50000  115.94120   71.31300   92.24750   -0.00340   22.64310
 3207.00000  116.54670   70.30200   93.31580   -0.00340   23.81750
 3207.50000  118.35170   69.73050   92.21520   -0.00280   22.74960
 3208.00000  121.35610   70.39890   73.14800   -0.00160   21.53230
 3208.50000  122.56130   70.91700   69.44230    0.00310   20.91390
 3209.00000  120.16840   70.39760   68.26680    0.01090   23.43950
 3209.50000  119.24030   69.06320   67.72370    0.01980   26.78560
 3210.00000  122.27910   68.10180   67.45170    0.02340   27.66400
 3210.50000  126.78270   67.89670   67.63160    0.03000   28.54240
 3211.00000  128.60390   68.32580   67.99210    0.03000   28.52250
 3211.50000  129.79310   68.68910   68.71410    0.02940   28.50270
 3212.00000  129.79910   69.40000   68.80360    0.02880   29.38110
 3212.50000  129.35510   69.91020   69.08900    0.02940   30.18310
 3213.00000  127.02900   71.19310   71.41510    0.02940   29.71410
 3213.50000  123.80810   72.45150   72.91260    0.02460   28.64630
 3214.00000  122.84260   72.80610   73.72490    0.01440   28.17740
 3214.50000  122.85010   71.74400   74.13050    0.01270   28.15750
 3215.00000  123.77790   71.29310   73.70050    0.01330   28.13440
 3215.50000  127.65430   70.84220   74.30530    0.01700   28.11460
 3216.00000  132.59370   70.93030   80.39180    0.03140   26.74740
 3216.50000  134.55170   72.90460   84.25840    0.05280   24.61300
 3217.00000  132.90020   74.78900   84.53990    0.06180   22.47850
 3217.50000  124.18110   73.61960   82.62250    0.03830   20.34410
 3218.00000  101.66540   72.71960   80.22350    0.02160   18.53890
 3218.50000   93.07600   69.30470   78.15200    0.00300   15.83540
 3219.00000   88.79450   65.17120   80.92180   -0.00240   13.58110
 3219.50000   86.78420   58.88200   81.35030   -0.00550   12.67410
 3220.00000   85.87700   55.28740   74.21070   -0.00560   18.50360
 3220.50000   85.13950   53.12990   67.97490   -0.00320   21.18940
 3221.00000   83.63980   53.53530   65.44390    0.00340   22.67620
 3221.50000   78.33510   54.29410   64.53940    0.01990   23.41570
 3222.00000   71.56830   51.09280   67.97220    0.03670   23.40690
 3222.50000   71.01950   46.11740   73.84480    0.05400   22.49960
 3223.00000   72.22250   44.80360   76.37410    0.03910   20.24530
 3223.50000   77.02300   44.29580   77.36710    0.02710   17.09230
 3224.00000   88.42030   44.22520   78.08920    0.01990   15.96080
 3224.50000   98.01840   44.36700   67.84910    0.02230   17.97290
 3225.00000  104.01840   44.70060   59.95430    0.02590   19.31140
 3225.50000  107.91930   45.86370   57.41590    0.02610   17.95520
 3226.00000  110.92080   47.72020   56.53440    0.02290   16.59910
 3226.50000  113.32260   51.42550   56.30760    0.02470   15.01840
 3227.00000  115.42440   56.48380   56.62280    0.02950   16.28120
 3227.50000  117.22650   60.87430   56.75770    0.03370   18.06880
 3228.00000  118.42880   65.92940   56.21450    0.02630   18.80860
 3228.50000  119.03150   68.52020   55.37780    0.01990   18.50050
 3229.00000  119.94290   69.71580   54.36010    0.02150   18.34190
 3229.50000  119.46040   69.62420   53.15460    0.03110   20.12800
 3230.00000  113.28180   67.91590   55.21690    0.04370   21.91560
 3230.50000  106.20780   64.59080   58.55140    0.05050   22.80500
 3231.00000  103.25060   61.89440   61.38200    0.04230   21.89790
 3231.50000  101.35800   59.37760   63.34650    0.02290   20.09270
 3232.00000  101.80490   56.32200   65.33360    0.01190   17.83840
 3232.50000  102.34630   54.16450   67.59170    0.01040   15.58410
 3233.00000  102.08100   52.81550   67.86190    0.01800   13.77880
 3233.50000  100.05620   52.00530   68.22250    0.02710   14.66820
 3234.00000   97.39060   53.26100   70.11920    0.04680   28.13240
 3234.50000   93.55850   59.90600   70.53610    0.13420   44.29130
 3235.00000   88.79950   63.76650   67.22590    0.20430   50.26940
 3235.50000   82.06460   63.00760   66.58880    0.24270   52.50580
 3236.00000   81.00750   59.54720   69.03130    0.23430   50.69970
 3236.50000   83.62980   54.52700   70.75110    0.18580   46.34990
 3237.00000   86.68350   51.86140   70.83680    0.06430   41.55020
 3237.50000   91.49980   49.70050   69.74090    0.03680   22.45480
 3238.00000   96.00050   48.39660   65.91030    0.00260   15.70940
 3238.50000  100.20130   50.45760   63.41310    0.00020   13.23050
 3239.00000  101.10390   52.45860   61.07390   -0.00040   12.09890
 3239.50000   98.70800   52.23540   59.97390    0.00020   11.19190
 3240.00000   96.31210   51.53300   59.32540    0.00260   10.50940
 3240.50000   94.81580   51.26200   58.65420    0.00920   11.54760
 3241.00000   93.61940   51.61950   57.81010    0.02000   14.38290
 3241.50000   95.12160   51.61740   57.26680    0.03500   20.36160
 3242.00000   98.72270   51.83110   59.26140    0.06100   30.53200
 3242.50000  106.52180   52.60180   62.60030    0.08190   41.15210
 3243.00000  128.76340   54.62400   65.33600    0.16310   47.72970
 3243.50000  137.21990   58.37310   68.20440    0.18840   51.31370
