~Version ---------------------------------------------------
VERS.   2.0 : CWLS log ASCII Standard -VERSION 2.0
WRAP.    NO : One line per depth step
DLM . SPACE : Column Data Section Delimiter
~Well ------------------------------------------------------
STRT .F                   4.0 : START DEPTH
STOP .F                4056.0 : STOP DEPTH
STEP .F                   0.5 : STEP
NULL .               -9999.25 : NULL VALUE
COMP .                        : COMPANY
WELL .                        : WELL
FLD  .                        : FIELD
LOC  .                        : LOCATION
PROV .                        : PROVINCE
CNTY .                        : COUNTY
STAT .                        : STATE
CTRY .                        : COUNTRY
SRVC .                        : SERVICE COMPANY
DATE .                        : DATE
UWI  .                        : UNIQUE WELL ID
API  .                        : API NUMBER
SLAT .WGS84 2.911140464936402 : SURFACE LATITUDE
SLON .WGS84 6.374855159901998 : SURFACE LONGITUDE
DATUM.F               2906.72 : DEPTH DATUM ELEV
~Curve Information -----------------------------------------
DEPT.F     : 
DTSM.US/F  : DELTA-T SHEAR
DTCO.US/F  : DELTA-T COMPRESSIONAL
DTL .US/F  : DELTA-T LONG SPACING
NPHI.DEC   : NEUTRON POROSITY
GRD .GAPI  : GAMMA RAY FROM DENSITY LOG
~Params ----------------------------------------------------
~Other -----------------------------------------------------
~ASCII -----------------------------------------------------
# ...
 2824.00000   98.61420   67.97590  107.95180    0.05240   47.72420
 2824.50000   98.50730   67.05710  111.02410    0.05050   49.94800
 2825.00000   98.02100   66.09310  111.92770    0.05780   50.22560
 2825.50000   98.16340   65.95810  107.38440    0.07820   49.00610
 2826.00000   98.62670   67.39520  101.39190    0.10420   46.43530
 2826.50000   94.33980   60.49560  101.82370    0.21060   44.61690
 2827.00000   85.43980   54.84130  105.24100    0.31700   49.53500
 2827.50000   78.84610   52.99390   80.75300    0.42220   52.20760
 2828.00000   83.04690   55.53890   78.81620    0.48660   53.53290
 2828.50000   82.75000   57.78440   88.73600    0.42090   49.01990
 2829.00000   82.15320   58.14370   98.19280    0.26320   42.71050
 2829.50000   81.85610   58.32340   88.70510    0.10470   31.46100
 2830.00000   82.45890   56.97600   80.68110    0.07040   18.86410
 2830.50000   85.16050   54.73050   79.39760   -0.00090   13.74850
 2831.00000   92.06000   54.01200   84.81930   -0.00310   12.97810
 2831.50000   96.30140   53.47310   80.03780   -0.00290   13.40520
 2832.00000   97.81940   53.85050   67.51350   -0.00030   13.83230
 2832.50000   99.34990   54.61850   61.05890    0.00520   14.55900
 2833.00000  101.23840   55.90740   66.00260    0.01320   16.25650
 2833.50000  103.52660   57.12790   63.45940    0.02370   19.60280
 2834.00000  106.98680   58.53890   58.88550    0.04120   25.64370
 2834.50000  110.37330   60.37700   67.65060    0.06310   31.68460
 2835.00000  111.91920   62.52250   73.43370    0.08440   46.25840
 2835.50000  113.16520   64.05380   70.81330    0.08910   50.50080
 2836.00000  114.71060   65.53310   67.46990    0.09340   52.72430
 2836.50000  117.03180   67.03590   66.82960    0.10130   54.64850
 2837.00000  119.77390   68.74250   67.92170    0.10790   55.37520
 2837.50000  122.38440   69.82040   65.03010    0.11030   55.05390
 2838.00000  123.88650   69.37130   60.87770    0.09000   53.53110
 2838.50000  125.08890   67.84430   58.52410    0.07320   50.36540
 2839.00000  126.59100   67.12570   64.45320    0.05710   45.85240
 2839.50000  127.49350   66.67660   69.09640    0.05290   41.33940
 2840.00000  128.39600   66.31740   62.55480    0.05530   35.47900
 2840.50000  129.29850   69.90960   59.19940    0.08230   33.66060
 2841.00000  128.10200   75.33950   58.00490    0.12570   43.51890
 2841.50000  125.08990   78.56320   57.55670    0.15410   50.23340
 2842.00000  122.00320   81.44290   58.63650    0.15960   52.90600
 2842.50000  118.65350   82.03590   60.48780    0.11930   53.17960
 2843.00000  116.37280   80.04170   62.03570    0.09580   52.85830
 2843.50000  116.12260   77.17490   63.22290    0.07370   52.38720
 2844.00000  117.32530   74.04820   62.86140    0.06420   51.76630
 2844.50000  117.62770   71.36740   58.88550    0.05650   50.99590
 2845.00000  116.31200   70.14970   57.07830    0.04920   50.52300
 2845.50000  114.09680   69.28140   56.62650    0.04520   50.05190
 2846.00000  112.43750   68.29340   56.71690    0.04180   50.02990
 2846.50000  110.74980   67.12570   56.80720    0.03940   50.45700
 2847.00000  108.75890   65.59880   56.98800    0.03820   52.45600
 2847.50000  106.55230   61.91620   57.08430    0.04240   51.90840
 2848.00000  103.85660   59.40120   58.62240    0.05140   50.23980
 2848.50000  100.86100   58.59280   64.48800    0.07300   48.72070
 2849.00000  102.36320   59.06900   61.96250    0.09160   48.39900
 2849.50000  103.86540   60.31690   65.40860    0.10780   49.12550
 2850.00000  105.36760   63.56310   99.81740    0.14730   52.54310
 2850.50000  109.26850   68.79670  109.37930    0.17550   54.31750
 2851.00000  117.36740   72.39400  106.92030    0.19580   54.29550
 2851.50000  141.65820   75.73130   80.21080    0.20540   53.82440
 2852.00000  145.55920   80.02390   61.68670    0.18120   53.35330
 2852.50000  141.60430   81.29510   58.43370    0.12570   52.43310
 2853.00000  130.91460   77.28590   57.88560    0.10800   51.51290
 2853.50000  120.95690   71.56820   58.24090    0.10030   50.14360
 2854.00000  110.83060   66.04790   84.82210    0.09410   47.42700
 2854.50000  104.55340   64.43110   99.16570    0.09240   42.01120
 2855.00000  102.33380   67.66470  109.12650    0.12480   36.45070
 2855.50000   94.81550   67.03590  108.04220    0.17060   39.42420
 2856.00000   81.79410   61.28740  100.72290    0.18780   47.78500
 2856.50000   71.63910   55.62870   68.12330    0.19260   52.25370
 2857.00000   74.23090   50.86830   60.23260    0.19480   54.92420
 2857.50000   74.36030   50.05990   56.68620    0.19970   56.02490
 2858.00000   74.53130   50.42820   54.18670    0.22830   57.12580
 2858.50000   74.83410   50.61310   54.44570    0.24760   58.22650
 2859.00000   75.43670   50.77840   55.72290    0.25480   59.10280
 2859.50000   75.73950   50.77840   56.26510    0.26980   60.50100
 2860.00000   76.64200   50.98790   56.53610    0.33570   61.37720
 2860.50000   79.64340   53.13740   56.53610    0.35730   62.70250
 2861.00000   85.04360   54.58240   56.44580    0.36930   62.23170
 2861.50000   91.04360   55.22670   56.26510    0.35250   60.11400
 2862.00000   94.04500   55.44910   56.44580    0.33820   57.84250
 2862.50000   95.32110   55.38180   63.76510    0.32620   57.37140
 2863.00000   99.66440   56.16770   91.82300    0.28660   57.34940
 2863.50000  105.77970   57.69460  105.06020    0.24620   56.42920
 2864.00000  112.12110   61.73650  105.65150    0.19080   55.05990
 2864.50000  120.86840   67.30540  100.36140    0.17930   54.58880
 2865.00000  130.68080   69.37130  101.26510    0.18050   55.01590
 2865.50000  139.23270   72.78440  104.96990    0.18930   56.34120
 2866.00000  150.75080   73.14370  100.25780    0.19940   58.56470
 2866.50000  154.81280   72.87430   99.05570    0.20060   58.53870
 2867.00000  159.24290   73.57470  103.05000    0.18980   56.42100
 2867.50000  159.37040   75.57680  118.44610    0.15870   54.00370
 2868.00000  151.94490   76.91620  147.34940    0.12040   51.28710
 2868.50000  145.35890   76.53010  142.61660    0.10670   47.52250
 2869.00000  141.46370   75.79050  140.10980    0.10660   44.95420
 2869.50000  139.66760   75.13020  135.43840    0.13060   44.25860
 2870.00000  139.16050   74.62570  126.41500    0.15160   46.03300
 2870.50000  143.27160   77.76850  120.61980    0.17020   47.35820
 2871.00000  146.27310   80.05990  101.84370    0.16660   47.78540
 2871.50000  149.27450   81.31740   98.55420    0.13180   47.23770
 2872.00000  149.31350   80.50900   99.78390    0.09480   46.16770
 2872.50000  139.05100   76.64670  102.20540    0.06210   45.39730
 2873.00000  129.22040   73.32340  121.42910    0.04970   44.32730
 2873.50000  120.53440   68.65270  121.39670    0.04220   43.10780
 2874.00000  112.10790   64.97010  113.45990    0.04500   41.13590
 2874.50000  105.26910   64.43110  106.59640    0.05390   39.76660
 2875.00000  100.71980   64.24400   90.51200    0.06030   38.84640
 2875.50000   98.26570   64.02100   71.80720    0.06200   41.06990
 2876.00000   97.12690   63.35330   70.27200    0.05630   42.84430
 2876.50000  100.59500   62.34210   76.14460    0.04870   42.82230
 2877.00000  107.22220   62.27540   78.67470    0.04470   41.00390
 2877.50000  118.07800   62.63470   78.31330    0.07640   38.28730
 2878.00000  126.02090   63.80240   75.42170    0.14670   36.01980
 2878.50000  131.41500   65.50900   72.63040    0.23190   39.88650
 2879.00000  135.82660   69.19160   64.90540    0.31710   41.51110
 2879.50000  138.52820   80.23950   55.20660    0.31740   40.59060
 2880.00000  141.82950   84.19160   51.00570    0.19120   36.97550
 2880.50000  135.53560   82.95050   58.62350    0.06490   32.01340
 2881.00000  131.04070   79.86110   74.44640    0.01750   27.34940
 2881.50000  127.14560   75.76200   78.76140    0.00070   25.08190
 2882.00000  123.55030   72.24750   76.60730   -0.00150   25.50900
 2882.50000  120.85460   68.88870   70.63770   -0.00240   26.16060
 2883.00000  119.95800   66.33060   65.68060    0.00080   25.01590
 2883.50000  121.20360   66.96850   72.66840    0.01780   23.79460
