~Version ---------------------------------------------------
VERS.   2.0 : CWLS log ASCII Standard -VERSION 2.0
WRAP.    NO : One line per depth step
DLM . SPACE : Column Data Section Delimiter
~Well ------------------------------------------------------
STRT .F                   4.0 : START DEPTH
STOP .F                4056.0 : STOP DEPTH
STEP .F                   0.5 : STEP
NULL .               -9999.25 : NULL VALUE
COMP .                        : COMPANY
WELL .                        : WELL
FLD  .                        : FIELD
LOC  .                        : LOCATION
PROV .                        : PROVINCE
CNTY .                        : COUNTY
STAT .                        : STATE
CTRY .                        : COUNTRY
SRVC .                        : SERVICE COMPANY
DATE .                        : DATE
UWI  .                        : UNIQUE WELL ID
API  .                        : API NUMBER
SLAT .WGS84 2.911140464936402 : SURFACE LATITUDE
SLON .WGS84 6.374855159901998 : SURFACE LONGITUDE
DATUM.F               2906.72 : DEPTH DATUM ELEV
~Curve Information -----------------------------------------
DEPT.F     : 
DTSM.US/F  : DELTA-T SHEAR
DTCO.US/F  : DELTA-T COMPRESSIONAL
DTL .US/F  : DELTA-T LONG SPACING
NPHI.DEC   : NEUTRON POROSITY
GRD .GAPI  : GAMMA RAY FROM DENSITY LOG
~Params ----------------------------------------------------
~Other -----------------------------------------------------
~ASCII -----------------------------------------------------
# ...
 3904.00000  104.74360   56.04550   41.72060    0.29530   21.98800
 3904.50000  104.76640   55.91930   42.80530    0.26990   23.33310
 3905.00000  105.07740   55.62430   48.58890    0.22610   23.78000
 3905.50000  105.68810   55.44420   54.37250    0.21260   24.67600
 3906.00000  105.99900   55.53000   58.89100    0.20980   25.12290
 3906.50000  106.22830   55.85300   60.60830    0.20710   26.01890
 3907.00000  106.12910   56.26190   59.25330    0.20480   26.91490
 3907.50000  105.70220   56.16080   57.62730    0.20960   28.40940
 3908.00000  104.47160   55.35200   56.17030    0.22220   28.70650
 3908.50000  103.67910   54.63300   55.14420    0.23010   26.97990
 3909.00000  102.76250   53.91400   53.95250    0.20900   22.85080
 3909.50000  102.31180   53.46450   53.06860    0.19590   19.39680
 3910.00000  102.00840   53.28440   52.93070    0.19110   18.48760
 3910.50000  101.70560   53.40700   53.98870    0.19290   17.72820
 3911.00000  101.70270   53.29340   55.30780    0.19650   17.26810
 3911.50000  101.39990   53.29340   56.18500    0.19960   17.25630
 3912.00000  101.09710   53.29340   54.89880    0.20970   17.91890
 3912.50000  101.91890   53.29340   53.86680    0.21920   18.35700
 3913.00000  102.48620   52.93410   53.21910    0.21920   19.01970
 3913.50000  102.49070   52.57490   52.79740    0.22000   19.45780
 3914.00000  102.79500   52.48500   52.52350    0.22500   18.99680
 3914.50000  102.79940   52.75850   52.39260    0.23710   19.43500
 3915.00000  103.40350   53.30680   52.71700    0.24580   20.17240
 3915.50000  103.70780   53.86280   53.45310    0.24410   20.61050
 3916.00000  104.61180   54.59400   54.18920    0.24140   21.19670
 3916.50000  105.51580   55.33900   55.01570    0.24140   21.63480
 3917.00000  106.73160   56.43250   55.89490    0.23870   22.97110
 3917.50000  108.55370   57.32650   56.89760    0.22990   25.65480
 3918.00000  110.09830   57.94410   57.71080    0.21510   28.78750
 3918.50000  111.59670   58.49270   58.34340    0.20850   30.57290
 3919.00000  112.81850   59.04100   58.97590    0.21090   31.90930
 3919.50000  114.04020   59.34410   59.42770    0.22830   33.24560
 3920.00000  114.90260   59.58080   59.51810    0.25400   34.58190
 3920.50000  115.21580   59.67070   59.60840    0.28320   33.82050
 3921.00000  115.45130   59.62840   59.42770    0.31240   31.41420
 3921.50000  114.98180   59.44560   59.24700    0.33850   28.10970
 3922.00000  114.06930   59.22160   58.88550    0.32610   25.32870
 3922.50000  113.15580   58.99020   58.43370    0.31080   25.31770
 3923.00000  112.05700   59.04190   58.16270    0.29580   26.20500
 3923.50000  111.82160   59.22160   58.07230    0.29180   26.19400
 3924.00000  113.34340   59.40120   58.06390    0.29420   25.28480
 3924.50000  114.12440   59.49100   57.98190    0.28220   24.15020
 3925.00000  114.13770   59.49100   57.98190    0.27770   24.43850
 3925.50000  113.83360   59.49100   57.98190    0.27070   25.77480
 3926.00000  113.06150   59.40120   58.00370    0.24440   26.36280
 3926.50000  112.32520   59.22160   58.09730    0.23380   25.90090
 3927.00000  111.90790   58.86230   58.28130    0.23640   24.99170
 3927.50000  111.91230   57.96410   58.37500    0.24940   24.98070
 3928.00000  112.21660   57.24550   58.52410    0.27130   24.52070
 3928.50000  112.52090   56.61680   58.39550    0.28570   24.50970
 3929.00000  113.12500   56.99210   58.07950    0.29960   24.49870
 3929.50000  114.02900   58.16720   57.84660    0.29840   24.93690
 3930.00000  114.93300   58.88930   57.93980    0.27140   25.37500
 3930.50000  115.83700   59.33550   58.17530    0.26010   24.91490
 3931.00000  115.54150   59.59610   58.43370    0.25530   24.90210
 3931.50000  114.64640   59.76050   58.52410    0.26010   24.59190
 3932.00000  113.75130   59.62760   58.34340    0.26130   25.03000
 3932.50000  112.55630   59.09800   57.98190    0.25410   26.96520
 3933.00000  111.36140   58.21200   57.71080    0.23550   28.67470
 3933.50000  110.46330   57.87430   57.43980    0.20730   28.66370
 3934.00000  109.87100   58.15640   57.25900    0.20620   27.75450
 3934.50000  111.11660   58.70450   57.43980    0.22840   27.96810
 3935.00000  112.33900   58.94320   57.80120    0.24230   30.42720
 3935.50000  113.48280   59.22160   57.62050    0.25030   34.23230
 3936.00000  113.78710   59.31140   57.80120    0.24630   35.56900
 3936.50000  113.79160   58.98220   58.16530    0.22670   34.95940
 3937.00000  113.79610   58.57670   58.61450    0.22140   33.60110
 3937.50000  113.80060   58.32340   58.43370    0.21860   31.94150
 3938.00000  113.80510   58.59280   58.62530    0.21900   30.58320
 3938.50000  113.50910   59.04190   58.91390    0.22400   29.22490
 3939.00000  113.51430   59.31140   58.97590    0.23530   28.31570
 3939.50000  113.29700   59.33250   58.26030    0.24570   28.30480
 3940.00000  112.50380   58.77250   57.66270    0.24280   28.29380
 3940.50000  111.47060   58.14370   57.23160    0.19960   28.73190
 3941.00000  109.95810   57.51500   57.07830    0.16490   28.72090
 3941.50000  108.59820   56.79640   57.11230    0.15530   28.10930
 3942.00000  107.23260   56.16770   57.22170    0.15290   27.34990
 3942.50000  106.64920   55.80840   56.65370    0.15000   26.74000
 3943.00000  106.95350   56.16940   55.81810    0.14820   26.27990
 3943.50000  106.95890   56.53500   54.90120    0.14580   24.62140
 3944.00000  106.66270   56.79640   54.40730    0.14400   22.81400
 3944.50000  106.66790   56.50620   54.29450    0.16030   23.02760
 3945.00000  106.97220   56.30690   55.27110    0.19730   26.16040
 3945.50000  107.57630   55.95480   56.44580    0.19820   26.14940
 3946.00000  108.18040   56.06720   57.34940    0.21350   25.16450
 3946.50000  108.78460   56.91100   57.98190    0.22720   23.95600
 3947.00000  108.78900   57.88840   58.00180    0.24210   22.89710
 3947.50000  108.19370   58.32340   57.25900    0.24820   23.03560
 3948.00000  107.59850   57.83480   56.35540    0.23710   24.96900
 3948.50000  106.70330   56.94270   55.63250    0.22730   26.75450
 3949.00000  105.50840   55.83350   54.90960    0.22230   27.64170
 3949.50000  104.31340   55.14420   54.36750    0.21840   27.63070
 3950.00000  103.11840   54.50590   54.00600    0.21050   27.61980
 3950.50000  102.21450   54.00580   53.73160    0.20170   27.15970
 3951.00000  101.59260   53.69130   53.64460    0.19690   26.25050
 3951.50000  101.03280   53.47310   53.64460    0.18830   25.79040
 3952.00000  101.63720   53.47310   53.64460    0.18120   25.33040
 3952.50000  101.68660   53.47310   53.64460    0.18470   27.11430
 3953.00000  101.94600   53.47310   53.66440    0.19250   28.45030
 3953.50000  101.65020   53.47310   53.75810    0.19850   27.99030
 3954.00000  101.51130   53.47310   53.82530    0.20450   27.38040
 3954.50000  101.05940   53.47310   53.94550    0.20750   27.06910
 3955.00000  100.76400   53.47310   54.00600    0.20870   27.28270
 3955.50000  100.76910   53.47310   54.04240    0.20630   27.72090
 3956.00000  100.77360   53.47310   54.13610    0.20150   28.15900
 3956.50000  101.31190   53.47310   54.18670    0.20790   28.82170
 3957.00000  102.10800   53.47310   54.32350    0.21640   28.80980
 3957.50000  103.02090   53.47310   54.36750    0.22330   26.70340
 3958.00000  103.33440   53.47310   54.31450    0.22370   23.84800
 3958.50000  103.49480   53.47310   54.27710    0.22190   20.84310
 3959.00000  103.03740   53.47310   54.18670    0.22290   17.98570
 3959.50000  102.56230   53.47310   54.09640    0.22640   18.42380
 3960.00000  101.71000   53.47310   54.09640    0.23230   20.65830
 3960.50000  101.11480   53.47310   54.00600    0.23630   21.99460
 3961.00000  100.81930   53.56290   53.82530    0.23270   22.43280
 3961.50000  100.82380   53.56290   53.82530    0.21450   23.76910
 3962.00000  100.52770   53.56290   53.73490    0.20290   26.90190
 3962.50000  100.53280   53.52920   53.73490    0.19260   29.13640
 3963.00000  100.83710   53.47310   53.64460    0.19800   31.06980
 3963.50000  101.74110   53.47310   53.64460    0.20820   30.75930
