~Version ---------------------------------------------------
VERS.   2.0 : CWLS log ASCII Standard -VERSION 2.0
WRAP.    NO : One line per depth step
DLM . SPACE : Column Data Section Delimiter
~Well ------------------------------------------------------
STRT .F                   4.0 : START DEPTH
STOP .F                4056.0 : STOP DEPTH
STEP .F                   0.5 : STEP
NULL .               -9999.25 : NULL VALUE
COMP .                        : COMPANY
WELL .                        : WELL
FLD  .                        : FIELD
LOC  .                        : LOCATION
PROV .                        : PROVINCE
CNTY .                        : COUNTY
STAT .                        : STATE
CTRY .                        : COUNTRY
SRVC .                        : SERVICE COMPANY
DATE .                        : DATE
UWI  .                        : UNIQUE WELL ID
API  .                        : API NUMBER
SLAT .WGS84 2.911140464936402 : SURFACE LATITUDE
SLON .WGS84 6.374855159901998 : SURFACE LONGITUDE
DATUM.F               2906.72 : DEPTH DATUM ELEV
~Curve Information -----------------------------------------
DEPT.F     : 
DTSM.US/F  : DELTA-T SHEAR
DTCO.US/F  : DELTA-T COMPRESSIONAL
DTL .US/F  : DELTA-T LONG SPACING
NPHI.DEC   : NEUTRON POROSITY
GRD .GAPI  : GAMMA RAY FROM DENSITY LOG
~Params ----------------------------------------------------
~Other -----------------------------------------------------
~ASCII -----------------------------------------------------
# ...
 4024.00000  106.01500   55.62870   54.72890    0.20510   23.67090
 4024.50000  106.32830   55.26950   54.72890    0.20790   24.56030
 4025.00000  106.34180   55.08980   54.72890    0.20730   26.04720
 4025.50000  106.19640   55.17960   54.72890    0.19790   24.69110
 4026.00000  105.90100   55.35930   54.67710    0.19140   22.88590
 4026.50000  105.90550   55.71860   54.54820    0.18760   19.73350
 4027.00000  105.31030   55.98800   54.36750    0.19070   17.47920
 4027.50000  105.01500   55.44910   54.18670    0.20880   18.36860
 4028.00000  104.71960   54.91020   54.00600    0.24200   20.60540
 4028.50000  104.12510   53.92220   53.91570    0.25640   22.39300
 4029.00000  103.82970   53.20360   53.82530    0.26360   23.28100
 4029.50000  103.53370   53.67010   54.00600    0.23970   23.27220
 4030.00000  102.93850   54.21840   54.36750    0.22830   23.11370
 4030.50000  102.34370   54.76690   54.54820    0.22560   22.80560
 4031.00000  102.64800   55.17960   54.63860    0.23490   23.02060
 4031.50000  103.55200   54.06240   54.36750    0.24210   24.58370
 4032.00000  104.45590   53.29340   53.55070    0.24870   29.06600
 4032.50000  105.06010   53.20360   53.00750    0.24990   34.67110
 4033.00000  105.36440   53.20360   52.92170    0.24510   39.52630
 4033.50000  105.97140   53.35540   53.21520    0.23010   44.90680
 4034.00000  106.58490   53.87910   53.80730    0.22090   44.74910
 4034.50000  107.19800   54.55770   54.72750    0.21330   35.90960
 4035.00000  107.84120   55.47150   55.53640    0.21210   29.90950
 4035.50000  108.72420   56.16230   56.27240    0.21160   29.00250
 4036.00000  109.33720   56.75330   56.62650    0.21140   28.99370
 4036.50000  109.89350   57.02590   56.71690    0.21020   28.98500
 4037.00000  109.40020   57.15570   56.71690    0.21100   29.42530
 4037.50000  108.40270   57.24550   56.75450    0.21820   30.31470
 4038.00000  110.15940   57.42510   56.89760    0.22440   31.20420
 4038.50000  111.59650   57.51500   57.03230    0.22480   31.64450
 4039.00000  113.31630   57.78440   57.30660    0.22540   29.53830
 4039.50000  114.22940   57.96410   57.86360    0.22820   26.83490
 4040.00000  114.84260   58.23350   58.52410    0.23320   26.52710
 4040.50000  115.32680   58.68260   58.70480    0.23800   28.31480
 4041.00000  114.89360   59.22160   58.70480    0.23200   29.80210
 4041.50000  114.14240   59.58080   58.52410    0.22180   30.01780
 4042.00000  113.08550   59.76050   58.52410    0.21870   29.78460
 4042.50000   -9999.25   -9999.25   -9999.25    0.22360   29.77580
 4043.00000   -9999.25   -9999.25   -9999.25    0.23020   31.11330
 4043.50000   -9999.25   -9999.25   -9999.25    0.23380   34.09850
 4044.00000   -9999.25   -9999.25   -9999.25    0.23200   37.68250
 4044.50000   -9999.25   -9999.25   -9999.25    0.22720   39.02140
 4045.00000   -9999.25   -9999.25   -9999.25    0.22480   36.91540
 4045.50000   -9999.25   -9999.25   -9999.25    0.22620   35.11030
 4046.00000   -9999.25   -9999.25   -9999.25    0.23270   33.75420
 4046.50000   -9999.25   -9999.25   -9999.25    0.24310   32.84720
 4047.00000   -9999.25   -9999.25   -9999.25    0.25200   31.94030
 4047.50000   -9999.25   -9999.25   -9999.25    0.25720   31.93150
 4048.00000   -9999.25   -9999.25   -9999.25    0.26130   31.92270
 4048.50000   -9999.25   -9999.25   -9999.25    0.26440   -9999.25
 4049.00000   -9999.25   -9999.25   -9999.25    0.25230   -9999.25
 4049.50000   -9999.25   -9999.25   -9999.25    0.23500   -9999.25
 4050.00000   -9999.25   -9999.25   -9999.25    0.22220   -9999.25
 4050.50000   -9999.25   -9999.25   -9999.25    0.20840   -9999.25
 4051.00000   -9999.25   -9999.25   -9999.25    0.19340   -9999.25
 4051.50000   -9999.25   -9999.25   -9999.25    0.18410   -9999.25
 4052.00000   -9999.25   -9999.25   -9999.25    0.18060   -9999.25
 4052.50000   -9999.25   -9999.25   -9999.25    0.18120   -9999.25
 4053.00000   -9999.25   -9999.25   -9999.25    0.18360   -9999.25
 4053.50000   -9999.25   -9999.25   -9999.25    0.18590   -9999.25
 4054.00000   -9999.25   -9999.25   -9999.25    0.18890   -9999.25
 4054.50000   -9999.25   -9999.25   -9999.25    0.18480   -9999.25
 4055.00000   -9999.25   -9999.25   -9999.25    0.18110   -9999.25
 4055.50000   -9999.25   -9999.25   -9999.25    0.18300   -9999.25
 4056.00000   -9999.25   -9999.25   -9999.25    0.18060   -9999.25
