~Version ---------------------------------------------------
VERS.   2.0 : CWLS log ASCII Standard -VERSION 2.0
WRAP.    NO : One line per depth step
DLM . SPACE : Column Data Section Delimiter
~Well ------------------------------------------------------
STRT .F                   4.0 : START DEPTH
STOP .F                4056.0 : STOP DEPTH
STEP .F                   0.5 : STEP
NULL .               -9999.25 : NULL VALUE
COMP .                        : COMPANY
WELL .                        : WELL
FLD  .                        : FIELD
LOC  .                        : LOCATION
PROV .                        : PROVINCE
CNTY .                        : COUNTY
STAT .                        : STATE
CTRY .                        : COUNTRY
SRVC .                        : SERVICE COMPANY
DATE .                        : DATE
UWI  .                        : UNIQUE WELL ID
API  .                        : API NUMBER
SLAT .WGS84 2.911140464936402 : SURFACE LATITUDE
SLON .WGS84 6.374855159901998 : SURFACE LONGITUDE
DATUM.F               2906.72 : DEPTH DATUM ELEV
~Curve Information -----------------------------------------
DEPT.F     : 
DTSM.US/F  : DELTA-T SHEAR
DTCO.US/F  : DELTA-T COMPRESSIONAL
DTL .US/F  : DELTA-T LONG SPACING
NPHI.DEC   : NEUTRON POROSITY
GRD .GAPI  : GAMMA RAY FROM DENSITY LOG
~Params ----------------------------------------------------
~Other -----------------------------------------------------
~ASCII -----------------------------------------------------
# ...
 2644.00000   -9999.25   -9999.25   -9999.25    0.11210   47.17550
 2644.50000   -9999.25   -9999.25   -9999.25    0.09390   45.35570
 2645.00000   -9999.25   -9999.25   -9999.25    0.06910   42.79110
 2645.50000   -9999.25   -9999.25   -9999.25    0.05770   41.72350
 2646.00000   90.42470   -9999.25   -9999.25    0.04350   42.15280
 2646.50000   90.95350   -9999.25   -9999.25    0.02790   42.13300
 2647.00000   90.86350   55.18090   56.17340    0.02110   40.53970
 2647.50000   90.35930   55.18040   56.34640    0.02300   37.15160
 2648.00000   90.36280   55.17980   56.34820    0.02900   33.08990
 2648.50000   90.36580   55.08980   56.31520    0.04280   31.94730
 2649.00000   90.79950   55.08980   56.17090    0.07570   33.49940
 2649.50000   91.11190   55.08980   56.17290    0.13860   40.96160
 2650.00000   91.27440   55.35930   56.17470    0.17630   48.42760
 2650.50000   91.57720   55.58780   56.17650    0.20690   47.80980
 2651.00000   91.41120   55.91440   56.35900    0.14100   44.34700
 2651.50000   90.38440   56.07780   56.36080    0.09320   42.08170
 2652.00000   90.98710   55.80840   56.40960    0.07520   36.96830
 2652.50000   92.18940   55.89820   56.45480    0.07400   32.90660
 2653.00000   92.19240   55.98800   56.45700    0.07660   33.78500
 2653.50000   92.19530   56.00460   56.45870    0.07960   34.66340
 2654.00000   91.29870   55.80840   56.36990    0.08270   35.09270
 2654.50000   90.10230   55.98800   56.37190    0.08660   35.07290
 2655.00000   88.90580   56.16770   56.28330    0.09330   35.50220
 2655.50000   87.40950   54.10180   56.37540    0.11250   38.62610
 2656.00000   86.51290   52.48500   56.37720    0.16180   41.75000
 2656.50000   87.71530   55.21980   56.37900    0.19680   47.56850
 2657.00000   91.01660   57.84270   56.47110    0.25330   51.43780
 2657.50000   87.72120   58.59280   56.56330    0.28680   52.31590
 2658.00000   84.12590   57.16750   56.56510    0.29530   50.64910
 2658.50000   85.06250   55.06050   56.56690    0.22210   47.78490
 2659.00000   86.95570   53.84470   56.47820    0.15570   45.66940
 2659.50000   97.24230   56.12980   56.46020    0.11740   42.95370
 2660.00000  147.98730   67.69840   56.39130    0.08380   40.01460
 2660.50000  147.66150   76.43870   56.18440    0.07010   36.40200
 2661.00000  142.74120   74.85930   56.03340    0.05690   32.78940
 2661.50000  138.54020   73.15410   55.81810    0.04620   29.17680
 2662.00000  134.57860   70.99190   55.67590    0.03720   26.68550
 2662.50000  129.92980   68.56290   55.81330    0.02160   22.32480
 2663.00000  125.05980   66.40720   56.04100    0.00790   19.60980
 2663.50000  118.22410   61.64670   56.04310    0.00250   19.14090
 2664.00000  101.65190   59.76050   56.04490    0.00510   19.42030
 2664.50000   93.90670   59.77810   56.04670    0.00820   18.94810
 2665.00000   89.71580   59.04190   56.04840    0.01000   17.58100
 2665.50000   84.65910   56.43710   56.05020    0.01090   16.21390
 2666.00000   81.01340   51.13770   56.05200    0.01160   14.84680
 2666.50000   79.18940   48.44310   56.05370    0.01220   13.92880
 2667.00000   77.36450   47.07170   56.05550    0.01380   13.01070
 2667.50000   77.88660   45.82490   56.05730    0.01870   12.99090
 2668.00000   85.68570   46.46310   56.05900    0.05210   14.31840
 2668.50000   88.68710   52.78220   56.06620    0.14360   18.34050
 2669.00000   92.28830   53.92220   56.15300    0.34280   24.60810
 2669.50000   96.18930   53.24760   56.06430    0.39310   36.86210
 2670.00000   98.89090   54.11020   56.04820    0.38230   52.86040
 2670.50000  102.49210   57.62740   55.79680    0.34960   61.67100
 2671.00000  105.79340   60.93470   55.70820    0.31630   59.25560
 2671.50000  100.69890   63.76740   55.74100    0.29260   54.59530
 2672.00000   99.80210   62.82910   55.98280    0.28600   53.22690
 2672.50000  101.90420   61.63300   55.89460    0.28420   53.88070
 2673.00000  110.30290   63.44050   55.80600    0.23870   53.63630
 2673.50000  122.59970   69.46110   55.80780    0.16810   51.82010
 2674.00000  134.36250   74.58080   55.80960    0.15850   49.55470
 2674.50000  140.64310   76.73650   55.81180    0.19080   49.68280
 2675.00000  141.49910   79.52100   55.81350    0.23750   52.50710
 2675.50000  139.53090   80.32930   55.81530    0.28190   54.73310
 2676.00000  136.10020   79.61080   55.81710    0.26960   54.56380
 2676.50000  130.72470   77.36530   55.81880    0.20580   53.34640
 2677.00000  123.83610   73.95210   55.82060    0.13450   52.12550
 2677.50000  114.63150   71.16770   55.82240    0.09290   50.30930
 2678.00000  112.05010   68.27900   55.82410    0.08920   48.04400
 2678.50000  111.26090   67.39520   55.82590    0.10590   45.77870
 2679.00000  107.53090   68.29340   55.82770    0.13120   43.06420
 2679.50000   98.34940   63.28170   55.82170    0.15440   42.59530
 2680.00000   86.23770   56.43570   55.74080    0.17250   50.21020
 2680.50000   79.03390   52.71440   55.74280    0.31810   53.78320
 2681.00000   80.59950   51.94610   55.83490    0.33070   56.00890
 2681.50000   84.25770   53.47380   55.95180    0.32350   57.33640
 2682.00000   87.00040   54.72160   56.01930    0.30560   58.21150
 2682.50000   88.80580   55.05160   55.98800    0.28780   56.99390
 2683.00000   89.67320   54.73590   55.80480    0.27000   54.42900
 2683.50000   86.67820   54.41480   55.62160    0.25220   50.51680
 2684.00000   83.98250   54.58320   55.66620    0.19120   45.10770
 2684.50000   81.88650   55.08980   55.89760    0.06440   38.12580
 2685.00000   80.39020   55.08980   56.12080    0.05130   33.83940
 2685.50000   78.89390   55.17960   56.48400    0.05340   31.12500
 2686.00000   82.19520   56.70660   56.84730    0.06530   29.53340
 2686.50000   84.59700   56.97600   57.21050    0.08100   30.86090
 2687.00000   85.49950   56.97600   57.66400    0.10230   35.55440
 2687.50000   85.80230   57.06590   57.84650    0.16610   40.92380
 2688.00000   85.80520   57.24550   57.21580    0.21540   44.64660
 2688.50000   86.10800   56.97600   56.85610    0.25180   48.36940
 2689.00000   86.71070   56.25310   56.67710    0.26670   50.74490
 2689.50000   87.91490   55.33960   56.58850    0.27570   52.06940
 2690.00000   90.05450   55.48500   56.49990    0.28110   52.49870
 2690.50000   91.85590   55.71860   56.50180    0.28590   52.02980
 2691.00000   92.44870   55.52190   56.50360    0.33550   51.11180
 2691.50000   93.02250   55.35930   56.39640    0.39010   50.19370
 2692.00000   93.37320   56.03840   56.32630    0.44710   49.27570
 2692.50000   93.98540   56.16770   56.23770    0.47340   48.80680
 2693.00000   94.89750   56.16770   56.23980    0.45710   50.58340
 2693.50000   95.43330   56.20490   56.24160    0.38890   53.25820
 2694.00000   95.26420   56.16770   56.20360    0.32460   54.13660
 2694.50000   93.85780   55.67220   56.15480    0.25640   53.36480
 2695.00000   91.42400   55.17070   56.15660    0.17470   51.99760
 2695.50000   88.57620   54.37130   56.10600    0.09690   50.33120
 2696.00000   85.78110   53.83230   55.97950    0.07830   49.26340
 2696.50000   85.75710   53.29340   55.89130    0.08200   47.44720
 2697.00000   91.51420   52.75450   55.89300    0.08820   45.92890
 2697.50000   94.72050   52.57490   55.89480    0.09690   44.33720
 2698.00000   96.84580   52.66470   55.89650    0.10740   43.41920
 2698.50000   98.20510   53.11380   55.98870    0.11870   44.97130
 2699.00000   99.66480   53.92220   56.17120    0.12130   46.07420
 2699.50000  100.86710   54.91020   56.17290    0.08680   46.72640
 2700.00000  101.46980   55.53890   56.17470    0.07010   46.40730
 2700.50000  102.37230   55.80840   56.26690    0.04070   45.04020
 2701.00000  102.97490   55.43290   56.26870    0.03300   42.43120
 2701.50000  103.27770   55.08980   56.36080    0.04560   37.43880
 2702.00000  103.58050   54.91020   56.37950    0.06450   32.44640
 2702.50000  103.28360   55.13020   56.54520    0.08540   28.64310
 2703.00000  103.28660   55.74980   56.54700    0.10630   26.37770
 2703.50000  103.28950   56.52190   56.54880    0.12730   32.04370
