~Version ---------------------------------------------------
VERS.   2.0 : CWLS log ASCII Standard -VERSION 2.0
WRAP.    NO : One line per depth step
DLM . SPACE : Column Data Section Delimiter
~Well ------------------------------------------------------
STRT .F                   4.0 : START DEPTH
STOP .F                4056.0 : STOP DEPTH
STEP .F                   0.5 : STEP
NULL .               -9999.25 : NULL VALUE
COMP .                        : COMPANY
WELL .                        : WELL
FLD  .                        : FIELD
LOC  .                        : LOCATION
PROV .                        : PROVINCE
CNTY .                        : COUNTY
STAT .                        : STATE
CTRY .                        : COUNTRY
SRVC .                        : SERVICE COMPANY
DATE .                        : DATE
UWI  .                        : UNIQUE WELL ID
API  .                        : API NUMBER
SLAT .WGS84 2.911140464936402 : SURFACE LATITUDE
SLON .WGS84 6.374855159901998 : SURFACE LONGITUDE
DATUM.F               2906.72 : DEPTH DATUM ELEV
~Curve Information -----------------------------------------
DEPT.F     : 
DTSM.US/F  : DELTA-T SHEAR
DTCO.US/F  : DELTA-T COMPRESSIONAL
DTL .US/F  : DELTA-T LONG SPACING
NPHI.DEC   : NEUTRON POROSITY
GRD .GAPI  : GAMMA RAY FROM DENSITY LOG
~Params ----------------------------------------------------
~Other -----------------------------------------------------
~ASCII -----------------------------------------------------
# ...
 3004.00000  118.26090   57.99640   56.45170    0.13480   51.50230
 3004.50000  124.85760   60.04610   56.98560    0.11680   52.38280
 3005.00000  122.75860   65.04950   63.55230    0.09480   52.36510
 3005.50000  114.96250   67.20010   69.00110    0.06380   49.40480
 3006.00000  112.86360   65.79720   68.45840    0.04010   44.27150
 3006.50000  110.75290   63.10320   73.48960    0.02530   41.56150
 3007.00000  109.21770   62.01950   76.95160    0.02200   38.40240
 3007.50000  107.76610   61.94910   75.61510    0.02250   44.22540
 3008.00000  110.49260   62.98110   75.28430    0.02900   46.45550
 3008.50000  110.76460   63.61510   78.15410    0.04310   48.23650
 3009.00000  110.76460   63.79420   85.77180    0.05580   51.36490
 3009.50000  111.16890   64.15310   96.83600    0.06900   53.59500
 3010.00000  112.38380   65.14070   99.35840    0.07320   55.52330
 3010.50000  113.89910   66.48750   99.80970    0.07320   57.00500
 3011.00000  115.33840   66.93620   99.71890    0.06900   57.58820
 3011.50000  116.46180   66.84590   98.36310    0.05460   56.82410
 3012.00000  115.51810   65.40840   97.00720    0.03970   53.96340
 3012.50000  111.26440   64.77920   96.55490    0.03130   49.45710
 3013.00000  109.04940   64.77790   96.19310    0.02820   44.05250
 3013.50000  108.66570   64.38560   95.83120    0.02710   40.21970
 3014.00000  108.66570   62.14080   95.37530    0.02730   38.85700
 3014.50000  108.36580   60.33240   94.80520    0.03000   38.46600
 3015.00000  108.06600   59.11830   94.65520    0.03770   38.89980
 3015.50000  108.36190   60.17820   95.79870    0.05080   40.23170
 3016.00000  109.88940   60.28510   96.83480    0.10190   42.76110
 3016.50000  112.32020   60.19480   98.86630    0.12310   46.18650
 3017.00000  114.57880   61.47290   99.65120    0.12820   47.06930
 3017.50000  117.66120   63.22980  101.84110    0.10250   48.40120
 3018.00000  120.35980   65.29910  107.62040    0.08210   50.18230
 3018.50000  121.85910   66.81580  108.79770    0.07330   51.96330
 3019.00000  122.75860   66.87240  108.47620    0.07210   52.39700
 3019.50000  123.65820   66.29980  108.15540    0.07390   51.48350
 3020.00000  125.15740   65.76040  108.20470    0.07990   51.01900
 3020.50000  128.45580   65.40070  105.13200    0.09370   54.14730
 3021.00000  144.64770   65.57990   79.68520    0.14220   58.62100
 3021.50000  149.44530   70.87890   76.21550    0.22000   62.79700
 3022.00000  151.24440   73.48320   78.47780    0.24890   63.38000
 3022.50000  152.74360   72.58460   85.37840    0.26430   61.56790
 3023.00000  153.64320   76.58350   88.56430    0.19140   56.53670
 3023.50000  153.34330   78.61880   87.87020    0.12820   51.35670
 3024.00000  145.54720   78.97360   86.42400    0.08040   47.29940
 3024.50000  129.65520   78.76490   79.91760    0.05740   44.58930
 3025.00000  121.55920   74.13220   71.51350    0.05320   44.57400
 3025.50000  115.50610   69.82090   59.58530    0.05240   47.40120
 3026.00000  111.03310   65.05130   55.42830    0.05640   52.32590
 3026.50000  111.13670   62.50170   56.33150    0.06470   56.05320
 3027.00000  113.25970   62.29220   57.59610    0.08830   59.48080
 3027.50000  114.66270   62.70270   57.05350    0.12490   63.80470
 3028.00000  112.86360   62.87900   55.66500    0.14580   66.03480
 3028.50000  114.51100   62.15990   54.10520    0.16140   66.01940
 3029.00000  123.07560   63.41700   53.52800    0.20270   64.20760
 3029.50000  131.35760   67.63810   57.48000    0.26200   64.64140
 3030.00000  135.77150   71.67960   57.77410    0.28360   65.97330
 3030.50000  139.42620   75.90070   57.12960    0.29080   66.40700
 3031.00000  140.04170   76.25960   56.47920    0.27760   65.49350
 3031.50000  140.44980   80.66030   55.82870    0.22780   62.78350
 3032.00000  140.74960   84.70180   55.59030    0.16600   58.12440
 3032.50000  136.84940   83.48870   55.91720    0.04670   54.51620
 3033.00000  126.96450   80.08010   56.05450    0.03450   50.90800
 3033.50000  108.89330   72.34730   56.14440    0.02810   46.40130
 3034.00000   97.19890   61.52380   56.14390    0.02460   43.39140
 3034.50000   93.53360   52.09480   56.14350    0.02300   43.82510
 3035.00000   96.71150   56.86220   56.14300    0.02200   42.91150
 3035.50000   98.97450   60.26920   56.14260    0.02310   41.32430
 3036.00000  101.14910   61.07550   56.14210    0.02620   39.96160
 3036.50000  105.06750   60.63710   56.14170    0.03210   38.82230
 3037.00000  108.36580   60.48980   56.14120    0.03940   39.10620
 3037.50000  111.36430   60.90960   56.14080    0.04300   39.53990
 3038.00000  112.26390   61.11020   56.14040    0.04660   40.42270
 3038.50000  111.36430   60.35460   56.32060    0.04900   41.45280
 3039.00000  109.56520   59.00680   56.41980    0.06690   41.88650
 3039.50000  108.36580   57.83870   56.68120    0.07710   43.21850
 3040.00000  109.26540   56.94010   56.40960    0.08730   45.89770
 3040.50000  111.06450   58.64620   56.31880    0.12440   49.47510
 3041.00000  109.26540   60.71170   56.31840    0.14770   53.05260
 3041.50000  100.86960   61.78910   56.34910    0.17170   55.73180
 3042.00000   99.67020   60.51230   56.40790    0.20460   59.30930
 3042.50000   99.37030   56.46260   56.49770    0.24310   61.98850
 3043.00000   99.97000   55.44090   56.36270    0.25500   63.76950
 3043.50000  102.06900   54.64800   56.31610    0.26100   57.91260
 3044.00000  125.16740   54.24200   56.31570    0.25330   54.00550
 3044.50000  150.68110   56.93950   56.40560    0.22970   52.94240
 3045.00000  151.24440   77.42860   56.67610    0.18820   52.92700
 3045.50000  147.96400   81.27660   56.67570    0.13660   52.91040
 3046.00000  141.89000   79.18350   56.67530    0.08740   52.67040
 3046.50000  135.81270   76.89460   56.67480    0.07300   52.20600
 3047.00000  129.73570   75.65110   56.40330    0.06760   51.06780
 3047.50000  124.37840   74.87050   56.13180    0.06340   49.25610
 3048.00000  120.02020   73.81910   56.04100    0.06050   46.54510
 3048.50000  116.38200   71.39350   55.95020    0.06040   45.63130
 3049.00000  114.27890   68.60860   55.94340    0.06290   45.46610
 3049.50000  113.37150   67.26090   55.84820    0.07010   46.49840
 3050.00000  112.86360   66.45210   55.76810    0.11200   48.72630
 3050.50000  113.48770   64.29590   55.74820    0.13900   50.95640
 3051.00000  116.60600   63.48710   55.97170    0.18860   53.18650
 3051.50000  127.42990   63.75610   56.24670    0.21240   55.41670
 3052.00000  141.75730   68.52020   56.55420    0.22580   56.74860
 3052.50000  154.22340   73.92420   56.66950    0.21970   58.08050
 3053.00000  160.98740   77.71610   56.58650    0.17650   58.96340
 3053.50000  157.76960   81.02840   56.44220    0.12820   58.04980
 3054.00000  148.78580   82.79590   56.34700    0.07680   46.35780
 3054.50000  138.68630   81.70990   56.39640    0.05380   43.34560
 3055.00000  124.85760   79.87120   56.39600    0.03820   41.08470
 3055.50000  118.86060   76.71960   55.40160    0.03130   38.97360
 3056.00000  114.06300   71.77330   53.50360    0.02880   38.20990
 3056.50000  110.46480   66.30130   54.22600    0.02820   38.19330
 3057.00000  109.26540   64.13010   56.30390    0.02880   38.17780
 3057.50000  109.86510   63.21170   56.30340    0.03180   38.16250
 3058.00000  110.76460   62.13350   56.12230    0.03660   38.14710
 3058.50000  111.96400   61.86360   56.12180    0.04020   38.13180
 3059.00000  113.16340   62.58170   56.21500    0.05040   38.11510
 3059.50000  114.06300   64.37770   56.30170    0.06010   38.09970
 3060.00000  111.96400   66.08380   56.07240    0.07870   39.13210
 3060.50000  108.36580   66.08340   54.67420    0.10090   41.21240
 3061.00000  105.36730   66.17280   53.40880    0.14220   47.03310
 3061.50000  103.26840   66.80900   55.67770    0.17650   50.61050
 3062.00000  102.36880   67.33950   56.23850    0.18800   52.39150
 3062.50000   99.97000   66.51930   56.42320    0.15860   50.13070
 3063.00000   94.82440   64.84480   56.47920    0.09460   47.86980
 3063.50000   91.84200   62.74710   56.34580    0.08730   45.60890
