~Version ---------------------------------------------------
VERS.   2.0 : CWLS log ASCII Standard -VERSION 2.0
WRAP.    NO : One line per depth step
DLM . SPACE : Column Data Section Delimiter
~Well ------------------------------------------------------
STRT .F                   4.0 : START DEPTH
STOP .F                4056.0 : STOP DEPTH
STEP .F                   0.5 : STEP
NULL .               -9999.25 : NULL VALUE
COMP .                        : COMPANY
WELL .                        : WELL
FLD  .                        : FIELD
LOC  .                        : LOCATION
PROV .                        : PROVINCE
CNTY .                        : COUNTY
STAT .                        : STATE
CTRY .                        : COUNTRY
SRVC .                        : SERVICE COMPANY
DATE .                        : DATE
UWI  .                        : UNIQUE WELL ID
API  .                        : API NUMBER
SLAT .WGS84 2.911140464936402 : SURFACE LATITUDE
SLON .WGS84 6.374855159901998 : SURFACE LONGITUDE
DATUM.F               2906.72 : DEPTH DATUM ELEV
~Curve Information -----------------------------------------
DEPT.F     : 
DTSM.US/F  : DELTA-T SHEAR
DTCO.US/F  : DELTA-T COMPRESSIONAL
DTL .US/F  : DELTA-T LONG SPACING
NPHI.DEC   : NEUTRON POROSITY
GRD .GAPI  : GAMMA RAY FROM DENSITY LOG
~Params ----------------------------------------------------
~Other -----------------------------------------------------
~ASCII -----------------------------------------------------
# ...
 3724.00000  103.41250   54.26100   53.55420    0.12320   29.66830
 3724.50000  102.81580   55.14680   55.36140    0.13050   32.12370
 3725.00000  102.51870   55.24710   55.06010    0.12530   33.60760
 3725.50000  101.92210   54.18060   54.32210    0.09270   34.64240
 3726.00000  101.32530   53.55510   53.49400    0.07290   34.77900
 3726.50000  101.32830   54.08510   55.03390    0.07590   33.26900
 3727.00000  101.65210   56.17830   57.82350    0.08670   31.60660
 3727.50000  101.93400   58.34060   58.39610    0.11780   28.89880
 3728.00000  101.24960   56.44810   56.86770    0.15970   24.84370
 3728.50000   99.37480   54.70490   54.00610    0.17830   20.78860
 3729.00000   97.61110   53.98590   53.07980    0.18310   20.32630
 3729.50000   96.77010   53.53630   52.83130    0.15790   21.66040
 3730.00000   96.55130   53.26640   54.00600    0.13280   21.64710
 3730.50000   96.55470   53.26600   55.25610    0.09870   21.18480
 3731.00000   96.67060   53.35530   54.57090    0.08190   20.27340
 3731.50000   98.55750   53.35490   55.90360    0.09530   20.26020
 3732.00000  101.30520   53.44430   57.71080    0.11870   22.04150
 3732.50000  104.49990   53.80310   67.56020    0.16590   24.72290
 3733.00000  107.85960   54.52130   70.09040    0.18880   28.00320
 3733.50000  111.08860   56.43050   71.80720    0.22000   28.88760
 3734.00000  115.46680   59.75890   75.33130    0.24560   27.67690
 3734.50000  113.37080   60.55470   77.40960    0.25410   26.01600
 3735.00000  110.67510   60.62730   79.03610    0.25360   24.88010
 3735.50000  110.97790   60.05670   79.93980    0.22790   23.96870
 3736.00000  110.98090   59.67070   79.03610    0.21300   23.28170
 3736.50000  110.08430   59.34570   74.96520    0.20580   24.39130
 3737.00000  108.88780   59.27820   71.18260    0.20560   26.84670
 3737.50000  108.85320   59.78670   69.54820    0.21060   28.03130
 3738.00000  109.79320   60.33240   70.99400    0.21530   28.91630
 3738.50000  110.99560   60.44450   69.88700    0.22070   29.05290
 3739.00000  112.19790   60.44400   68.71220    0.22490   28.59060
 3739.50000  112.81720   60.44360   67.64690    0.21650   28.12610
 3740.00000  113.72320   60.39520   65.36170    0.20990   27.21470
 3740.50000  114.00600   60.26300   61.56280    0.20450   26.30330
 3741.00000  113.66610   60.17270   55.03110    0.20030   25.39190
 3741.50000  111.77590   60.17220   51.47230    0.19670   24.03130
 3742.00000  107.41800   59.99210   49.89460    0.19560   23.11990
 3742.50000  109.97470   59.72220   52.15380    0.19700   21.75940
 3743.00000  111.02250   59.36250   51.83000    0.20140   20.39890
 3743.50000  110.02560   59.36210   50.66270    0.20780   19.48750
 3744.00000  108.59380   59.36160   51.38550    0.21110   18.12700
 3744.50000  107.18620   59.36120   59.33730    0.19930   18.11160
 3745.00000  105.96710   58.37270   62.00340    0.18710   18.09840
 3745.50000  105.04730   57.02500   58.88550    0.17930   18.08520
 3746.00000  105.20150   56.21500   63.40360    0.17160   17.47300
 3746.50000  107.09250   55.94140   63.61740    0.16800   16.56160
 3747.00000  110.74720   56.33280   59.69880    0.17150   16.47250
 3747.50000  114.04850   58.86160   58.16270    0.18000   17.58210
 3748.00000  117.64970   61.05640   60.06020    0.19490   19.81440
 3748.50000  121.25080   63.21860   64.73720    0.23920   22.27130
 3749.00000  123.35270   65.21940   72.83000    0.26080   24.72810
 3749.50000  125.45460   66.13500   80.53780    0.27100   27.10880
 3750.00000  126.65690   66.75150   83.11740    0.27570   29.04180
 3750.50000  125.46050   67.36070   84.35240    0.27340   28.87910
 3751.00000  123.06460   67.70870   84.90960    0.25300   26.92000
 3751.50000  121.86810   67.18610   82.59020    0.23980   24.21220
 3752.00000  120.97150   66.49700   75.96560    0.21890   21.05270
 3752.50000  120.97450   66.03670   69.57100    0.22400   21.93770
 3753.00000  121.27740   65.85900   67.04050    0.23780   23.27180
 3753.50000  120.95010   65.64050   67.23260    0.24720   24.15680
 3754.00000  119.31610   65.46040   67.33430    0.25670   23.24540
 3754.50000  116.16720   64.56180   66.02770    0.26270   22.78310
 3755.00000  112.01010   62.58530   63.96800    0.24680   21.42260
 3755.50000  106.05250   58.99200   59.24700    0.22050   20.51120
 3756.00000   97.71460   56.47660   54.72890    0.18660   18.25250
 3756.50000   93.41600   54.85940   52.56020    0.14770   16.89200
 3757.00000   89.29530   53.42180   51.74700    0.12680   15.97830
 3757.50000   90.97610   52.16390   51.74700    0.11700   15.96510
 3758.00000   93.98910   51.53470   51.47590    0.09970   16.10170
 3758.50000   94.62370   51.08170   50.66270    0.07630   17.13650
 3759.00000   94.92650   50.71580   49.75900    0.07150   17.87170
 3759.50000   95.09800   50.63520   52.19880    0.07070   18.15670
 3760.00000   97.33190   51.13180   55.72290    0.09070   19.04170
 3760.50000  103.33190   52.31700   58.38900    0.12660   21.72310
 3761.00000  107.53270   54.21940   59.96990    0.14690   25.52720
 3761.50000  108.43520   55.93510   58.62590    0.16370   28.20860
 3762.00000  108.73800   57.40030   57.87650    0.17150   28.56870
 3762.50000  108.74090   58.44690   57.67320    0.17630   27.20820
 3763.00000  109.04370   59.01890   57.30420    0.18830   27.34450
 3763.50000  109.34650   59.03760   56.89760    0.20780   28.52880
 3764.00000  109.34950   58.72340   59.36780    0.21890   29.26430
 3764.50000  109.35240   58.82600   60.86210    0.22000   27.90160
 3765.00000  110.55470   59.53440   61.91280    0.21740   25.19370
 3765.50000  112.98950   60.30520   63.15150    0.21700   22.48590
 3766.00000  116.34710   60.77900   64.21690    0.22740   21.57450
 3766.50000  118.08950   61.13780   64.85690    0.25920   23.35770
 3767.00000  119.04490   61.58650   65.12050    0.27790   26.03910
 3767.50000  120.26940   63.11300   65.21080    0.27520   27.37320
 3768.00000  121.49500   65.17840   65.57230    0.26820   27.80910
 3768.50000  122.72090   65.98630   66.74700    0.26840   28.24500
 3769.00000  123.17240   66.34520   67.74100    0.27150   29.57910
 3769.50000  121.68500   66.88370   68.01200    0.26780   31.21060
 3770.00000  117.91060   65.89520   65.48190    0.24390   32.24510
 3770.50000  114.18530   63.73910   62.68070    0.22410   30.58500
 3771.00000  116.18670   62.92550   61.50600    0.21450   28.92510
 3771.50000  118.82310   62.10690   60.69280    0.21390   27.56460
 3772.00000  120.20380   61.45860   60.60240    0.22470   26.12830
 3772.50000  120.79460   61.65350   64.06280    0.23490   25.21690
 3773.00000  120.79820   62.73690   64.87210    0.24210   24.97910
 3773.50000  120.80110   63.72320   65.21080    0.24870   24.74140
 3774.00000  120.20440   64.36470   64.47290    0.25400   24.27910
 3774.50000  118.70810   63.43520   63.18150    0.25580   23.29180
 3775.00000  116.01240   61.78890   61.79960    0.24620   22.38030
 3775.50000  112.71700   60.38950   60.44420    0.24420   21.91800
 3776.00000  110.02120   59.14730   59.21660    0.23520   21.00660
 3776.50000  108.22510   58.40200   58.11730    0.22330   20.84360
 3777.00000  107.02860   58.03020   57.89160    0.21760   21.72640
 3777.50000  106.43180   57.93640   57.93300    0.21340   23.50960
 3778.00000  106.13500   57.84250   57.98190    0.21150   24.39460
 3778.50000  106.13790   57.53420   57.84260    0.21490   23.93230
 3779.00000  105.82410   56.99480   57.37210    0.21980   23.47000
 3779.50000  104.85870   56.27580   56.53610    0.21990   24.35500
 3780.00000  103.36880   55.55680   55.90360    0.20470   26.13820
 3780.50000  102.20050   55.01750   55.18070    0.19660   27.02320
 3781.00000  101.65490   54.38830   54.63860    0.18930   25.21350
 3781.50000  101.95800   53.31000   53.91570    0.19050   23.85300
 3782.00000  101.96100   53.75870   54.00600    0.19710   22.49030
 3782.50000  101.66370   54.47680   54.09640    0.19780   21.87820
 3783.00000  101.55830   54.65600   54.00600    0.18150   20.96680
 3783.50000  101.06990   54.47360   53.82530    0.17670   20.65430
