~Version ---------------------------------------------------
VERS.   2.0 : CWLS log ASCII Standard -VERSION 2.0
WRAP.    NO : One line per depth step
DLM . SPACE : Column Data Section Delimiter
~Well ------------------------------------------------------
STRT .F                   3.0 : START DEPTH
STOP .F                5396.0 : STOP DEPTH
STEP .F                   0.5 : STEP
NULL .               -9999.25 : NULL VALUE
COMP .                        : COMPANY
WELL .                        : WELL
FLD  .                        : FIELD
LOC  .                        : LOCATION
PROV .                        : PROVINCE
CNTY .                        : COUNTY
STAT .                        : STATE
CTRY .                        : COUNTRY
SRVC .                        : SERVICE COMPANY
DATE .                        : DATE
UWI  .                        : UNIQUE WELL ID
API  .                        : API NUMBER
SLAT .WGS84   3.3841950012431 : SURFACE LATITUDE
SLON .WGS84 7.320318109225013 : SURFACE LONGITUDE
DATUM.F                3587.8 : DEPTH DATUM ELEV
~Curve Information -----------------------------------------
DEPT   .F     : 1 MEASURED DEPTH
DTCO   .US/F  : DELTA-T COMPRESSIONAL
DTST   .US/F  : DELTA-T STONELEY - MONOPOLE STONELEY
DTSM   .US/F  : DELTA-T SHEAR
GRD    .GAPI  : GAMMA RAY FROM DENSITY LOG
NPHI_LS.DEC   : NEUTRON POROSITY LIMESTONE
~Params ----------------------------------------------------
~Other -----------------------------------------------------
~ASCII -----------------------------------------------------
# ...
 4923.00000   52.28390  198.22440  100.59310   16.84110   -0.00020
 4923.50000   52.14580  196.27770  100.92880   17.80750   -0.00100
 4924.00000   52.02660  195.96470   99.62760   17.94380   -0.00010
 4924.50000   51.90740  196.86270   98.09470   16.66910    0.00100
 4925.00000   51.78820  199.04020   96.81150   14.58050    0.00140
 4925.50000   51.71600  202.44280   95.81000   12.62410    0.00010
 4926.00000   51.72030  209.07050   94.80850   12.59920   -0.00160
 4926.50000   51.72470  219.11990   94.09030   13.05910   -0.00220
 4927.00000   51.71900  227.65320   94.03990   13.90310   -0.00100
 4927.50000   51.71290  232.01850   93.98950   14.34720   -0.00050
 4928.00000   51.73090  221.64350   93.79990   14.86090   -0.00060
 4928.50000   51.85950  208.08820   93.52490   15.84970    0.00030
 4929.00000   52.10180  200.27960   93.25000   18.23470    0.00120
 4929.50000   52.34400  198.98070   93.86040   21.00240    0.00340
 4930.00000   52.58630  198.83780   97.84390   23.78540    0.00770
 4930.50000   52.71990  198.38140  102.98120   25.94960    0.01180
 4931.00000   52.71990  197.25200  107.84600   26.72270    0.01530
 4931.50000   52.01680  197.65570  107.43380   28.02380    0.01960
 4932.00000   51.85180  198.63120  102.60340   30.26660    0.02260
 4932.50000   51.74950  200.82080   99.10030   33.40780    0.02670
 4933.00000   51.74950  203.26290   98.82810   35.17630    0.03210
 4933.50000   51.74950  204.67320   97.88230   35.97050    0.04510
 4934.00000   51.74480  208.14960   98.32870   35.86400    0.06830
 4934.50000   51.73520  210.51300   99.55480   35.01100    0.08400
 4935.00000   51.45070  209.35530  100.67770   33.68650    0.07560
 4935.50000   49.99600  206.46560  100.51350   31.20530    0.06060
 4936.00000   47.99220  202.47250   95.94060   28.82620    0.04260
 4936.50000   48.29550  198.89060   90.34170   27.01460    0.02780
 4937.00000   49.89510  196.87610   90.10290   26.42890    0.02570
 4937.50000   50.63180  196.97180   90.15840   25.02120    0.02480
 4938.00000   50.82320  197.97730   90.30790   22.39490    0.02100
 4938.50000   50.86370  198.30070   90.89850   22.02370    0.01650
 4939.00000   50.90430  197.68860   92.51430   23.86230    0.01400
 4939.50000   51.35920  197.50350   94.52860   25.53820    0.01330
 4940.00000   51.87710  199.89570   97.53740   27.34680    0.01560
 4940.50000   52.23280  200.60840   99.05430   29.61600    0.01940
 4941.00000   52.57640  200.46380   99.98460   32.62620    0.02870
 4941.50000   52.92000  199.94650  102.96130   35.08550    0.04820
 4942.00000   54.67260  199.65760  108.24920   34.29080    0.06680
 4942.50000   55.60960  199.78260  110.37190   27.84030    0.06810
 4943.00000   53.19990  199.33890  107.35430   22.47710    0.04840
 4943.50000   50.29470  198.64920  100.79190   18.42790    0.02730
 4944.00000   48.82320  198.79760   97.33570   14.64370    0.00810
 4944.50000   50.47750  201.95230   94.26060   12.12610    0.00100
 4945.00000   51.49280  203.39160   91.83030   11.56380   -0.00080
 4945.50000   51.82090  203.31980   88.97370   12.24150   -0.00090
 4946.00000   52.17590  201.25350   85.56690   13.78810   -0.00090
 4946.50000   52.24370  198.10870   82.11840   15.35010   -0.00080
 4947.00000   50.97620  194.67970   80.45480   16.36230   -0.00000
 4947.50000   49.39560  194.12480   82.64180   18.04590    0.00100
 4948.00000   50.13130  193.92780   88.32250   22.54910    0.00330
 4948.50000   50.63010  193.73070   98.45620   27.13760    0.01020
 4949.00000   50.16560  193.53370  104.82600   27.14640    0.01410
 4949.50000   50.17870  195.39690  113.35550   23.34310    0.01430
 4950.00000   52.81590  197.82510  124.36900   18.44550    0.00860
 4950.50000   55.47640  200.14160  124.19170   14.64350    0.00220
 4951.00000   55.35160  200.84010  122.29600   15.22780   -0.00000
 4951.50000   53.48190  198.97160  115.56310   20.26620   -0.00000
 4952.00000   52.90950  196.99080  110.56680   27.64950    0.00590
 4952.50000   53.56470  196.30550  109.90950   35.64390    0.01800
 4953.00000   54.05860  197.69080  108.29110   38.40780    0.02930
 4953.50000   53.50460  200.47150  105.66880   33.77960    0.03330
 4954.00000   52.83300  203.10730  102.43160   26.80490    0.02660
 4954.50000   52.32010  204.03650  100.38030   21.38400    0.01420
 4955.00000   52.13690  203.94280  100.27310   21.66700    0.00770
 4955.50000   51.98440  203.62990  100.77730   23.69900    0.00680
 4956.00000   51.83200  203.49100  102.64810   25.09520    0.00810
 4956.50000   51.77140  203.24980  104.36530   22.84910    0.00960
 4957.00000   51.77140  201.59080  105.68460   17.88140    0.00820
 4957.50000   51.77140  199.53540  107.39290   14.25460    0.00240
 4958.00000   51.77140  198.24070  109.26060   13.43410    0.00260
 4958.50000   51.79060  200.15100  111.00630   13.48010   -0.00310
 4959.00000   51.81180  202.06120  112.22280   13.64910   -0.00300
 4959.50000   51.79560  203.16790  113.64890   14.71970   -0.00270
 4960.00000   51.77200  203.02790  115.32950   18.97960    0.00080
 4960.50000   51.75280  202.74980  116.99410   24.83850    0.01260
 4961.00000   51.74780  202.07310  116.93060   29.01080    0.02070
 4961.50000   51.74290  200.81170  114.52790   30.28490    0.03490
 4962.00000   51.71800  200.25670  110.83930   27.60020    0.04760
 4962.50000   51.87100  201.57600  106.00380   23.47790    0.04670
 4963.00000   52.27380  201.18830  103.29460   19.61080    0.03550
 4963.50000   52.62530  200.48450  100.99970   17.15510    0.02150
 4964.00000   53.12560  199.78070   99.80450   15.67830    0.00750
 4964.50000   53.70470  199.57620   99.32110   14.74210    0.00110
 4965.00000   54.25180  200.44560   98.90150   13.52820   -0.00060
 4965.50000   55.01710  201.31500   97.86520   12.17360   -0.00060
 4966.00000   55.78710  201.76170   96.96220   12.32880   -0.00050
 4966.50000   56.21960  201.92930   96.08440   14.69530   -0.00050
 4967.00000   56.09800  200.57470   95.27710   18.96360   -0.00030
 4967.50000   55.81430  198.91740   94.46990   23.46110    0.00430
 4968.00000   55.54030  197.63090   93.66260   28.75920    0.01190
 4968.50000   55.37240  197.06680   93.19370   29.34920    0.02220
 4969.00000   55.20440  196.96640   93.56790   27.47540    0.02770
 4969.50000   54.49090  197.81540   93.95800   25.15140    0.02610
 4970.00000   52.81390  198.71820   93.18580   24.71140    0.01780
 4970.50000   51.74170  202.24110   92.00940   24.60000    0.01010
 4971.00000   51.28140  209.80370   91.05580   24.31450    0.00750
 4971.50000   50.93730  209.01140   90.86940   22.42610    0.00680
 4972.00000   50.89460  206.19050   91.36030   21.45130    0.00770
 4972.50000   50.94980  200.68490   92.06320   21.30340    0.00960
 4973.00000   50.98470  197.05000   93.15250   21.42090    0.01380
 4973.50000   51.00830  196.03080   94.24170   21.45770    0.01690
 4974.00000   51.02430  196.29430   96.14900   22.46260    0.01790
 4974.50000   51.01200  196.94610  100.14690   25.18580    0.01860
 4975.00000   50.96660  197.61080  100.83960   26.24870    0.01740
 4975.50000   50.30750  200.39750  101.38730   24.07910    0.01500
 4976.00000   49.33250  201.91850  101.07690   19.74570    0.01070
 4976.50000   48.16450  201.14460   99.36790   16.41070    0.00480
 4977.00000   48.04720  198.89310   98.18950   15.84150    0.00250
 4977.50000   48.08760  197.84260   98.43860   15.54770    0.00080
 4978.00000   48.23030  197.61350   99.11540   15.20060    0.00060
 4978.50000   48.50190  197.78670  100.11550   14.88790    0.00070
 4979.00000   48.95390  197.39510  101.17780   14.46330    0.00080
 4979.50000   50.04530  197.00350  102.24010   14.05200    0.00100
 4980.00000   50.81110  196.61200  102.48710   14.22380    0.00090
 4980.50000   50.56730  195.65410  101.73470   15.68610    0.00080
 4981.00000   49.69700  194.34360  100.96060   19.11260    0.00120
 4981.50000   48.82370  194.55910  100.18660   23.71380    0.00320
 4982.00000   48.32380  197.73810   99.41250   28.54920    0.00700
 4982.50000   48.23840  197.50880   99.72250   30.69870    0.01380
