~Version ---------------------------------------------------
VERS.   2.0 : CWLS log ASCII Standard -VERSION 2.0
WRAP.    NO : One line per depth step
DLM . SPACE : Column Data Section Delimiter
~Well ------------------------------------------------------
STRT .F                   3.0 : START DEPTH
STOP .F                5396.0 : STOP DEPTH
STEP .F                   0.5 : STEP
NULL .               -9999.25 : NULL VALUE
COMP .                        : COMPANY
WELL .                        : WELL
FLD  .                        : FIELD
LOC  .                        : LOCATION
PROV .                        : PROVINCE
CNTY .                        : COUNTY
STAT .                        : STATE
CTRY .                        : COUNTRY
SRVC .                        : SERVICE COMPANY
DATE .                        : DATE
UWI  .                        : UNIQUE WELL ID
API  .                        : API NUMBER
SLAT .WGS84   3.3841950012431 : SURFACE LATITUDE
SLON .WGS84 7.320318109225013 : SURFACE LONGITUDE
DATUM.F                3587.8 : DEPTH DATUM ELEV
~Curve Information -----------------------------------------
DEPT   .F     : 1 MEASURED DEPTH
DTCO   .US/F  : DELTA-T COMPRESSIONAL
DTST   .US/F  : DELTA-T STONELEY - MONOPOLE STONELEY
DTSM   .US/F  : DELTA-T SHEAR
GRD    .GAPI  : GAMMA RAY FROM DENSITY LOG
NPHI_LS.DEC   : NEUTRON POROSITY LIMESTONE
~Params ----------------------------------------------------
~Other -----------------------------------------------------
~ASCII -----------------------------------------------------
# ...
 4743.00000   47.62160  224.69250   79.51850   11.17780    0.00030
 4743.50000   46.52160  223.21950   78.52910   10.95840   -0.00140
 4744.00000   45.14280  221.74640   77.99780   11.01780   -0.00280
 4744.50000   47.34710  221.15940   78.63490   11.36670   -0.00330
 4745.00000   51.16350  219.27310   84.40020   12.05620   -0.00400
 4745.50000   52.99190  217.44810   87.89410   12.54670   -0.00440
 4746.00000   53.35000  217.89810   91.52610   12.71620   -0.00350
 4746.50000   53.34100  220.02400   95.63490   13.11020   -0.00120
 4747.00000   53.32560  218.88370   98.60350   15.36840    0.00170
 4747.50000   52.96610  215.99540  101.88190   21.15390    0.00400
 4748.00000   52.33260  210.48860   99.98800   31.86100    0.00760
 4748.50000   52.07300  204.57910   96.08290   40.95510    0.02180
 4749.00000   52.17960  204.02670   93.59560   46.82090    0.03870
 4749.50000   52.16080  204.04290   90.70760   43.84390    0.06750
 4750.00000   51.81690  206.48150   91.11660   37.20800    0.07230
 4750.50000   50.72660  209.92750   91.52560   28.97270    0.06230
 4751.00000   49.07810  212.32140   92.44850   26.16220    0.04730
 4751.50000   47.79890  215.40420   92.40980   26.27410    0.03830
 4752.00000   46.71580  221.57020   90.70760   28.75460    0.03640
 4752.50000   45.96460  224.33770   88.79360   32.58820    0.03770
 4753.00000   45.69890  225.30850   88.00470   33.18870    0.03960
 4753.50000   45.74030  224.49340   88.06360   31.16160    0.03870
 4754.00000   45.91790  223.43570   88.08390   28.49990    0.03610
 4754.50000   46.13090  222.36440   88.88590   25.71960    0.03390
 4755.00000   46.34390  220.40390   89.21400   25.66740    0.03490
 4755.50000   46.55680  218.23070   89.05120   26.11420    0.04110
 4756.00000   46.76980  211.94910   88.63040   26.11450    0.04650
 4756.50000   46.98900  208.31480   88.17230   24.87660    0.05060
 4757.00000   47.56310  207.36800   88.07010   23.14780    0.05030
 4757.50000   47.96480  206.96690   88.31260   22.21060    0.04870
 4758.00000   48.57370  207.81290   91.02080   26.86620    0.04540
 4758.50000   49.75610  209.31530   95.54980   36.99420    0.04160
 4759.00000   50.01920  210.94300   95.63690   43.80940    0.03950
 4759.50000   50.28220  214.96720   94.06540   47.38480    0.03820
 4760.00000   52.55340  217.62450   92.23980   44.23400    0.03570
 4760.50000   54.75200  217.58830   90.27670   39.73440    0.03790
 4761.00000   52.60400  217.16520   84.41030   34.97980    0.03890
 4761.50000   49.76300  217.67570   81.26830   31.08350    0.03950
 4762.00000   48.09430  217.69150   80.02880   27.83770    0.03690
 4762.50000   47.88150  217.55880   87.59550   26.31700    0.03260
 4763.00000   48.14710  218.17930   94.45700   26.10350    0.02820
 4763.50000   48.74210  220.50310   95.66520   25.89040    0.02670
 4764.00000   50.84540  219.83230   96.29660   25.47350    0.02650
 4764.50000   52.17410  218.29290   97.64710   26.09340    0.02770
 4765.00000   51.84650  217.11870   98.40980   28.14650    0.02940
 4765.50000   49.27820  215.94450   94.12260   30.14960    0.03100
 4766.00000   46.81310  216.48370   89.57150   29.30760    0.03150
 4766.50000   48.07040  217.46640   89.90980   28.17290    0.03100
 4767.00000   51.42810  218.44910   94.63260   27.59910    0.03230
 4767.50000   54.64790  219.43180   99.06590   27.08290    0.03980
 4768.00000   57.86770  224.07230  104.55350   26.51190    0.04970
 4768.50000   62.06000  226.07300  110.86120   25.87770    0.05400
 4769.00000   65.06370  226.42650  114.29390   25.52170    0.04760
 4769.50000   66.43700  226.37530  115.84850   26.20250    0.03790
 4770.00000   64.47720  226.19590  114.16890   29.98590    0.03110
 4770.50000   60.41870  226.01650  106.91280   34.14380    0.02980
 4771.00000   56.00470  225.83710  101.87440   37.82840    0.03400
 4771.50000   55.59520  225.64610   99.34100   38.64020    0.05330
 4772.00000   55.90100  227.28780   97.39600   37.10850    0.07580
 4772.50000   56.42270  227.53350   95.21880   33.45080    0.08180
 4773.00000   57.38790  227.48920   95.23970   30.02600    0.06320
 4773.50000   64.02200  229.30660  108.01750   28.31250    0.03440
 4774.00000   69.84720  229.24710  117.57140   27.62740    0.02280
 4774.50000   69.34080  228.61500  121.52430   26.57520    0.02060
 4775.00000   66.45140  228.25950  121.10720   23.72760    0.01840
 4775.50000   60.14960  228.24650  120.48020   20.51590    0.01390
 4776.00000   56.68430  228.74930  119.85310   18.97750    0.00800
 4776.50000   55.48710  229.14580  118.97560   17.94520    0.00540
 4777.00000   55.06420  230.29240  115.05030   18.60380    0.00510
 4777.50000   54.85130  232.20210  111.40640   19.38920    0.00510
 4778.00000   53.62010  231.83780  106.61890   19.01980    0.00460
 4778.50000   52.00800  229.71460  105.40850   17.94270    0.00410
 4779.00000   51.88080  227.59140  105.43010   17.07110    0.00220
 4779.50000   51.85580  227.39920  105.45160   16.46890    0.00140
 4780.00000   52.04300  227.93790  105.47320   16.75360    0.00150
 4780.50000   52.29340  228.64270  105.45630   17.52140    0.00160
 4781.00000   52.38990  228.13520  105.43020   18.96500    0.00180
 4781.50000   52.62690  227.96060  105.39800   20.83050    0.00380
 4782.00000   52.69430  228.81950  105.36080   22.68950    0.00520
 4782.50000   52.78110  230.13260  105.32370   20.68640    0.00610
 4783.00000   53.05100  231.41140  105.28650   17.54500    0.00480
 4783.50000   53.24940  231.59760  105.24930   14.96210    0.00170
 4784.00000   53.54970  231.70520  105.21210   15.49490   -0.00100
 4784.50000   54.06220  232.51950  105.17500   18.64090   -0.00280
 4785.00000   54.27920  233.37960  105.13780   21.61240   -0.00030
 4785.50000   53.55130  233.21700  105.10060   22.93690    0.00190
 4786.00000   52.80140  231.72210  105.06340   19.85440    0.00360
 4786.50000   52.87370  231.04220  105.02630   16.98530    0.00330
 4787.00000   52.94600  230.88370  104.98910   15.61300    0.00170
 4787.50000   53.01840  230.51470  104.95190   17.24240    0.00210
 4788.00000   53.09070  227.65160  104.95240   19.90400    0.00260
 4788.50000   53.14370  227.65500  104.96530   22.75390    0.00840
 4789.00000   53.05680  228.03700  104.97810   22.80620    0.01550
 4789.50000   52.96980  228.96880  104.99100   22.05670    0.02110
 4790.00000   52.88280  230.38920  105.00390   19.45670    0.02070
 4790.50000   52.63160  231.80960  105.01680   16.07690    0.01360
 4791.00000   52.33640  230.66020  105.02960   14.81430    0.00530
 4791.50000   52.36190  229.28100  105.04250   14.66320    0.00110
 4792.00000   52.76080  231.09390  105.05540   15.49520   -0.00120
 4792.50000   53.03440  234.42950  105.06820   16.81440   -0.00270
 4793.00000   52.83840  232.48120  105.08110   17.77350   -0.00250
 4793.50000   52.56980  229.61950  105.09400   20.23480   -0.00110
 4794.00000   52.37010  226.70880  105.10680   24.80010    0.00290
 4794.50000   52.18120  227.03100  105.11970   30.69720    0.01230
 4795.00000   52.01930  229.85140  105.13260   34.90400    0.02300
 4795.50000   51.85740  228.82720  105.14550   35.15900    0.03450
 4796.00000   51.72600  228.68960  104.86920   32.13910    0.03890
 4796.50000   53.78510  230.45110  104.29880   26.13580    0.03190
 4797.00000   56.20590  233.63950  103.33940   20.13080    0.02110
 4797.50000   58.66170  234.29520  102.41960   15.90530    0.01110
 4798.00000   61.00610  234.60980  101.93880   14.17000    0.00460
 4798.50000   63.35040  234.88240  101.76970   12.89520    0.00090
 4799.00000   64.30540  234.60260  102.72320   12.45840   -0.00070
 4799.50000   61.44840  234.45020  100.26060   12.46240    0.00000
 4800.00000   54.68770  234.29770   94.14910   13.85620    0.00080
 4800.50000   50.68080  234.07400   93.64750   16.33730    0.00160
 4801.00000   51.95260  231.96950   98.38430   19.86560    0.00280
 4801.50000   52.46210  228.39300  102.19120   23.99210    0.00580
 4802.00000   52.35040  224.52560  102.06120   29.47700    0.01210
 4802.50000   51.03730  220.54310  100.77010   32.89670    0.02790
