~Version ---------------------------------------------------
VERS.   2.0 : CWLS log ASCII Standard -VERSION 2.0
WRAP.    NO : One line per depth step
DLM . SPACE : Column Data Section Delimiter
~Well ------------------------------------------------------
STRT .F                   3.0 : START DEPTH
STOP .F                5396.0 : STOP DEPTH
STEP .F                   0.5 : STEP
NULL .               -9999.25 : NULL VALUE
COMP .                        : COMPANY
WELL .                        : WELL
FLD  .                        : FIELD
LOC  .                        : LOCATION
PROV .                        : PROVINCE
CNTY .                        : COUNTY
STAT .                        : STATE
CTRY .                        : COUNTRY
SRVC .                        : SERVICE COMPANY
DATE .                        : DATE
UWI  .                        : UNIQUE WELL ID
API  .                        : API NUMBER
SLAT .WGS84   3.3841950012431 : SURFACE LATITUDE
SLON .WGS84 7.320318109225013 : SURFACE LONGITUDE
DATUM.F                3587.8 : DEPTH DATUM ELEV
~Curve Information -----------------------------------------
DEPT   .F     : 1 MEASURED DEPTH
DTCO   .US/F  : DELTA-T COMPRESSIONAL
DTST   .US/F  : DELTA-T STONELEY - MONOPOLE STONELEY
DTSM   .US/F  : DELTA-T SHEAR
GRD    .GAPI  : GAMMA RAY FROM DENSITY LOG
NPHI_LS.DEC   : NEUTRON POROSITY LIMESTONE
~Params ----------------------------------------------------
~Other -----------------------------------------------------
~ASCII -----------------------------------------------------
# ...
 5223.00000   50.88300  195.90870   96.29510   49.32070    0.04810
 5223.50000   51.17010  196.34280   96.44740   51.56930    0.06350
 5224.00000   51.09870  193.90000   94.06160   47.74260    0.08310
 5224.50000   50.51790  191.52330   93.13090   40.25530    0.08640
 5225.00000   49.70770  191.47770   92.47360   32.81540    0.07860
 5225.50000   48.84100  193.89380   92.13500   29.06750    0.06490
 5226.00000   47.97420  196.30040   91.53740   32.29500    0.05150
 5226.50000   47.51470  196.94070   91.09970   38.21630    0.04530
 5227.00000   47.36220  197.58100   90.94630   41.98240    0.04720
 5227.50000   47.20970  198.22130   89.96910   39.15530    0.05120
 5228.00000   47.05710  198.54220   88.84380   31.45970    0.04830
 5228.50000   46.97800  198.03980   87.26490   25.20930    0.04010
 5229.00000   47.04920  197.84790   85.81090   24.54270    0.03610
 5229.50000   47.38360  197.82080   85.51440   25.24440    0.03630
 5230.00000   47.90990  198.09830   89.70440   27.12780    0.03960
 5230.50000   48.14170  198.59290   91.55270   30.24980    0.04630
 5231.00000   48.00140  200.75890   91.36100   33.54400    0.05360
 5231.50000   47.86300  205.69190   89.54110   36.37430    0.06670
 5232.00000   47.92940  213.56720   83.12640   36.79550    0.07310
 5232.50000   47.98300  223.44820   79.23570   36.01500    0.06930
 5233.00000   48.03660  228.80500   75.34500   35.50260    0.06110
 5233.50000   48.09010  230.54200   74.79110   36.03610    0.05630
 5234.00000   47.92610  232.04870   74.24110   35.26630    0.05350
 5234.50000   47.76200  232.28060   74.10600   30.99250    0.04500
 5235.00000   48.79980  230.94020   74.57840   24.36440    0.02870
 5235.50000   50.02940  229.35000   75.05080   19.90450    0.01620
 5236.00000   51.25890  229.19690   75.52310   18.80600    0.00560
 5236.50000   51.98050  233.04530   75.86720   19.47730    0.00230
 5237.00000   52.02230  226.22100   76.31090   20.90660    0.00390
 5237.50000   52.04900  213.57040   76.33310   22.20290    0.00600
 5238.00000   52.07560  203.82890   76.10020   21.13110    0.00860
 5238.50000   52.07080  203.26740   75.79270   18.40720    0.00960
 5239.00000   51.90200  204.41250   75.48510   15.61290    0.00690
 5239.50000   51.23110  205.92030   75.17760   14.82930    0.00430
 5240.00000   50.36900  207.96610   75.13050   14.97970    0.00280
 5240.50000   49.49770  209.05330   75.64900   15.97150    0.00140
 5241.00000   48.62630  207.58700   76.53100   18.03250    0.00410
 5241.50000   48.37500  205.41130   76.84660   20.54930    0.00850
 5242.00000   48.89950  203.44660   77.02830   24.13990    0.01550
 5242.50000   49.55250  203.21280   76.99360   27.87530    0.02440
 5243.00000   48.69000  203.14780   76.95900   28.61820    0.03050
 5243.50000   48.05050  202.19180   76.92430   25.41120    0.03490
 5244.00000   48.04540  200.99270   76.88960   20.67070    0.03600
 5244.50000   48.16910  200.19410   76.85500   16.28740    0.03690
 5245.00000   48.24110  202.10560   76.82030   15.86910    0.04160
 5245.50000   48.78390  204.62040   77.19640   16.55280    0.05170
 5246.00000   49.57680  210.82150   78.38070   18.21970    0.07000
 5246.50000   50.36970  219.17470   79.33730   20.06660    0.08660
 5247.00000   50.69230  226.43200   79.50370   20.81890    0.09130
 5247.50000   50.80520  229.60570   79.36680   19.42960    0.09200
 5248.00000   50.86990  228.83510   78.88680   17.79220    0.09230
 5248.50000   50.93470  228.08260   78.40680   16.81240    0.09320
 5249.00000   50.99950  227.87980   77.92680   16.98400    0.09540
 5249.50000   51.06420  227.87460   77.44680   17.76950    0.09560
 5250.00000   51.12900  227.72020   77.96350   17.90300    0.09160
 5250.50000   51.20270  227.42420   80.31190   17.68390    0.08740
 5251.00000   51.30410  226.97710   83.24790   17.55370    0.08570
 5251.50000   51.41160  226.19300   87.64970   17.50840    0.08960
 5252.00000   51.51910  215.47310   92.05170   17.79400    0.09720
 5252.50000   51.62660  201.75030   96.45350   18.33150    0.09850
 5253.00000   51.73410  194.25980   98.17400   19.09540    0.09600
 5253.50000   51.84160  195.12650   98.09090   19.96950    0.09260
 5254.00000   51.71380  194.82260   98.48310   20.85980    0.09090
 5254.50000   51.56800  191.58040  100.92160   22.01350    0.09040
 5255.00000   51.56450  192.54000  105.16920   23.01520    0.09020
 5255.50000   51.56090  193.55710  108.17590   23.32510    0.09020
 5256.00000   51.55740  200.01450  104.72330   23.80950    0.09070
 5256.50000   51.44780  205.36510  100.63300   24.97060    0.09280
 5257.00000   50.40000  210.11820   94.52360   26.21220    0.09640
 5257.50000   49.21420  215.38610   88.43020   27.00470    0.09830
 5258.00000   48.53100  220.65400   81.44320   26.85120    0.09140
 5258.50000   48.34760  226.05170   77.02100   26.37660    0.07840
 5259.00000   48.16950  229.43770   75.59910   25.94140    0.06910
 5259.50000   48.13850  231.71500   74.94420   25.88220    0.06660
 5260.00000   48.02950  232.06170   74.66740   26.22910    0.06580
 5260.50000   47.88900  231.78130   74.39690   26.34450    0.06370
 5261.00000   47.80950  231.04550   74.12120   25.86040    0.05930
 5261.50000   47.67250  230.22760   73.82600   24.66320    0.05240
 5262.00000   47.43470  229.40980   73.53090   23.59560    0.04180
 5262.50000   47.26870  228.59200   73.23570   22.37900    0.03100
 5263.00000   47.21410  227.77410   72.94060   21.53850    0.02750
 5263.50000   47.21130  227.19370   72.64540   21.33680    0.02730
 5264.00000   47.65160  227.40320   72.35030   21.87800    0.03100
 5264.50000   47.93650  228.10990   72.10830   22.83010    0.03820
 5265.00000   48.04510  228.38830   72.55990   22.96620    0.04310
 5265.50000   48.06370  227.94000   75.70720   22.46970    0.04600
 5266.00000   48.06270  227.91360   78.38430   21.90710    0.05020
 5266.50000   48.06680  227.88720   78.19740   21.46740    0.05460
 5267.00000   48.07080  227.87080   77.40170   21.36080    0.05650
 5267.50000   48.05160  227.81340   75.75900   21.34660    0.05700
 5268.00000   47.96640  227.43540   75.16440   21.25970    0.05860
 5268.50000   47.98270  227.92390   74.83020   21.31770    0.06260
 5269.00000   48.40070  228.55330   74.49590   21.61190    0.06640
 5269.50000   49.51010  229.62900   75.32130   23.38780    0.06750
 5270.00000   50.26750  230.70480   80.77040   30.58710    0.06720
 5270.50000   50.33520  231.66870   86.93590   37.57350    0.06700
 5271.00000   50.57940  232.03680   91.69330   39.64750    0.06670
 5271.50000   50.88280  232.20280   94.67770   35.52930    0.05840
 5272.00000   51.18620  231.92670  103.82500   30.21450    0.04100
 5272.50000   52.12640  230.88470  110.90410   24.97560    0.02290
 5273.00000   52.32730  222.75270  114.66960   25.06510    0.00990
 5273.50000   51.28900  207.84710  115.26870   25.24320    0.01300
 5274.00000   51.92970  199.75690  112.98050   24.28580    0.01910
 5274.50000   52.72010  204.73860  110.24520   22.82610    0.03630
 5275.00000   52.94730  213.36870  107.61540   22.72480    0.04910
 5275.50000   52.79040  224.81030  103.48430   23.01450    0.06360
 5276.00000   52.47560  229.03180   97.77820   23.61530    0.07180
 5276.50000   52.18020  226.10980   96.20260   24.44290    0.07280
 5277.00000   52.77790  206.05390   97.08210   25.71500    0.07390
 5277.50000   53.68560  198.58690   98.62540   28.41170    0.08590
 5278.00000   55.13910  197.79470  100.86280   30.64150    0.11500
 5278.50000   56.70260  196.90390  102.76030   30.39930    0.14380
 5279.00000   56.90240  194.51430  103.45380   28.80470    0.16070
 5279.50000   57.01010  191.85140  103.79120   27.64050    0.16590
 5280.00000   56.65920  192.68440  103.81070   29.99080    0.16560
 5280.50000   56.38980  193.57260  104.17050   33.24570    0.16590
 5281.00000   56.57570  194.54770  105.28040   36.11420    0.17350
 5281.50000   56.93960  195.59380  105.74680   37.10480    0.18020
 5282.00000   57.01540  197.08030  105.63600   35.21460    0.18200
 5282.50000   56.87990  199.04340  105.27240   32.06760    0.18330
