~Version ---------------------------------------------------
VERS.   2.0 : CWLS log ASCII Standard -VERSION 2.0
WRAP.    NO : One line per depth step
DLM . SPACE : Column Data Section Delimiter
~Well ------------------------------------------------------
STRT .F                   3.0 : START DEPTH
STOP .F                5396.0 : STOP DEPTH
STEP .F                   0.5 : STEP
NULL .               -9999.25 : NULL VALUE
COMP .                        : COMPANY
WELL .                        : WELL
FLD  .                        : FIELD
LOC  .                        : LOCATION
PROV .                        : PROVINCE
CNTY .                        : COUNTY
STAT .                        : STATE
CTRY .                        : COUNTRY
SRVC .                        : SERVICE COMPANY
DATE .                        : DATE
UWI  .                        : UNIQUE WELL ID
API  .                        : API NUMBER
SLAT .WGS84   3.3841950012431 : SURFACE LATITUDE
SLON .WGS84 7.320318109225013 : SURFACE LONGITUDE
DATUM.F                3587.8 : DEPTH DATUM ELEV
~Curve Information -----------------------------------------
DEPT   .F     : 1 MEASURED DEPTH
DTCO   .US/F  : DELTA-T COMPRESSIONAL
DTST   .US/F  : DELTA-T STONELEY - MONOPOLE STONELEY
DTSM   .US/F  : DELTA-T SHEAR
GRD    .GAPI  : GAMMA RAY FROM DENSITY LOG
NPHI_LS.DEC   : NEUTRON POROSITY LIMESTONE
~Params ----------------------------------------------------
~Other -----------------------------------------------------
~ASCII -----------------------------------------------------
# ...
 5343.00000   49.06210  201.53310   93.26990   32.09980    0.11090
 5343.50000   48.29160  199.42410   90.71830   30.55360    0.10320
 5344.00000   49.02670  197.12250   90.63650   29.14590    0.09660
 5344.50000   50.66610  194.43010  101.07050   27.49780    0.09310
 5345.00000   51.79080  191.82030  107.54640   25.90350    0.09510
 5345.50000   51.56780  192.30730  108.70230   24.46160    0.10050
 5346.00000   50.86070  194.06970  107.75430   24.22060    0.11020
 5346.50000   50.14780  199.93540  103.55130   24.56810    0.12690
 5347.00000   49.33250  206.30870   99.72670   24.65350    0.13380
 5347.50000   48.44090  213.94390   99.54980   24.59550    0.13370
 5348.00000   48.37050  221.66330  100.04840   25.54980    0.13000
 5348.50000   50.09270  227.64640  100.96910   29.06090    0.11620
 5349.00000   51.02540  227.74290  102.24090   33.33940    0.11220
 5349.50000   51.16870  225.87120  102.46190   37.80650    0.11460
 5350.00000   50.48730  223.68700   99.18710   37.28950    0.11940
 5350.50000   49.43460  222.27100   97.31880   33.00980    0.11690
 5351.00000   50.06180  221.61800   97.80550   28.98790    0.10580
 5351.50000   50.85030  219.37920   97.89650   26.71690    0.09510
 5352.00000   51.06410  216.65960   97.86760   24.96350    0.08870
 5352.50000   51.20890  214.42180   97.93970   26.26840    0.08470
 5353.00000   51.25070  214.22310   97.96110   28.59230    0.08300
 5353.50000   51.29250  216.82880   97.97130   31.01880    0.08400
 5354.00000   51.31630  223.24420   97.98160   32.06690    0.09340
 5354.50000   51.36550  227.35430   97.98920   30.96300    0.10670
 5355.00000   51.60230  228.95460   97.99330   29.03480    0.11800
 5355.50000   51.85170  229.00090   97.99750   28.45290    0.11840
 5356.00000   52.40790  228.19960   98.83630   28.49810    0.11370
 5356.50000   53.30190  228.44340  100.65130   28.03240    0.10980
 5357.00000   54.17400  231.30160  102.69820   27.17440    0.12180
 5357.50000   56.27110  238.69590  105.73990   26.05090    0.14920
 5358.00000   58.84050  239.81910  107.69450   25.26450    0.18690
 5358.50000   60.67200  239.89230  109.01660   24.92260    0.22470
 5359.00000   61.27770  239.96550  110.29090   25.73180    0.24070
 5359.50000   59.33100  240.03870  110.94320   26.73520    0.24980
 5360.00000   55.43700  224.94710  111.30690   25.32650    0.24660
 5360.50000   51.38790  209.56310  110.99570   23.39110    0.23610
 5361.00000   49.12430  206.91550  109.07380   21.81120    0.22570
 5361.50000   50.18550  208.77710  107.13820   22.11390    0.21640
 5362.00000   52.37180  211.21990  105.14320   24.53780    0.18870
 5362.50000   54.49300  213.15520  103.55580   27.62660    0.15060
 5363.00000   54.57920  215.31310  102.77490   28.42520    0.13110
 5363.50000   54.39930  218.19820  103.52360   27.56600    0.13950
 5364.00000   54.96850  219.05300  104.60460   24.56090    0.16270
 5364.50000   56.33860  219.20570  105.48350   21.78290    0.18700
 5365.00000   57.64900  218.78110  106.69920   21.76440    0.19860
 5365.50000   57.88400  216.51120  107.54330   22.99340    0.19940
 5366.00000   57.15580  205.15870  107.86050   26.00810    0.19730
 5366.50000   55.57210  195.94970  108.05670   30.33450    0.19480
 5367.00000   55.34250  194.36100  108.25280   33.31640    0.19570
 5367.50000   56.67700  194.47360  108.31760   37.07590    0.20490
 5368.00000   58.09780  194.83480  108.47760   36.94830    0.21580
 5368.50000   58.36000  195.16060  108.61670   34.29760    0.21600
 5369.00000   57.24560  195.48650  108.56190   31.28880    0.20360
 5369.50000   55.13550  194.19000  108.48290   28.70610    0.19460
 5370.00000   52.69250  192.66820  108.40400   28.32760    0.19370
 5370.50000   51.81850  192.06890  108.33490   28.40300    0.19490
 5371.00000   52.71330  192.08590  107.97100   28.42880    0.19030
 5371.50000   56.06500  192.15650  107.36350   27.98440    0.17910
 5372.00000   58.27120  192.39630  107.78050   26.80030    0.17080
 5372.50000   58.19720  193.12140  107.83600   25.54760    0.16800
 5373.00000   57.99620  194.83840  107.89140   26.07030    0.16810
 5373.50000   57.68590  198.11670  107.94680   28.23130    0.17080
 5374.00000   57.48820  203.98180  108.12380   29.96810    0.17750
 5374.50000   56.75260  209.47250  107.37920   29.31580    0.18840
 5375.00000   56.08690  213.33180  106.08730   27.33700    0.19180
 5375.50000   55.51590  216.20360  102.95610   26.58490    0.19870
 5376.00000   53.71450  217.38670  100.23660   26.52870    0.20870
 5376.50000   50.71690  211.74660   97.39640   26.01620    0.20100
 5377.00000   49.22070  210.68170   94.92570   22.97350    0.17280
 5377.50000   49.95040  218.51170   94.00570   19.77540    0.12030
 5378.00000   51.15230  227.67860   94.38650   19.27400    0.08600
 5378.50000   51.95050  230.75960   95.50480   20.98310    0.07360
 5379.00000   52.40860  230.00610   97.91050   24.31410    0.08500
 5379.50000   54.06720  229.35640  101.45120   27.15950    0.10670
 5380.00000   56.24250  229.42630  101.74070   27.34650    0.12430
 5380.50000   56.80700  230.19180  101.91640   27.62160    0.13910
 5381.00000   56.88920  231.19450  101.91150   28.07470    0.13960
 5381.50000   56.95000  231.55670  101.92470   29.71150    0.14050
 5382.00000   56.97520  231.63280  101.93870   29.93880    0.14630
 5382.50000   -9999.25   -9999.25   -9999.25   -9999.25    0.15800
 5383.00000   -9999.25   -9999.25   -9999.25   -9999.25    0.17070
 5383.50000   -9999.25   -9999.25   -9999.25   -9999.25    0.17990
 5384.00000   -9999.25   -9999.25   -9999.25   -9999.25    0.17380
 5384.50000   -9999.25   -9999.25   -9999.25   -9999.25    0.14050
 5385.00000   -9999.25   -9999.25   -9999.25   -9999.25    0.13020
 5385.50000   -9999.25   -9999.25   -9999.25   -9999.25    0.12010
 5386.00000   -9999.25   -9999.25   -9999.25   -9999.25    0.11830
 5386.50000   -9999.25   -9999.25   -9999.25   -9999.25    0.12350
 5387.00000   -9999.25   -9999.25   -9999.25   -9999.25    0.13710
 5387.50000   -9999.25   -9999.25   -9999.25   -9999.25    0.15820
 5388.00000   -9999.25   -9999.25   -9999.25   -9999.25    0.17600
 5388.50000   -9999.25   -9999.25   -9999.25   -9999.25    0.16990
 5389.00000   -9999.25   -9999.25   -9999.25   -9999.25    0.16040
 5389.50000   -9999.25   -9999.25   -9999.25   -9999.25    0.14900
 5390.00000   -9999.25   -9999.25   -9999.25   -9999.25    0.12750
 5390.50000   -9999.25   -9999.25   -9999.25   -9999.25    0.10850
 5391.00000   -9999.25   -9999.25   -9999.25   -9999.25    0.09870
 5391.50000   -9999.25   -9999.25   -9999.25   -9999.25    0.09370
 5392.00000   -9999.25   -9999.25   -9999.25   -9999.25    0.09730
 5392.50000   -9999.25   -9999.25   -9999.25   -9999.25    0.10630
 5393.00000   -9999.25   -9999.25   -9999.25   -9999.25    0.11100
 5393.50000   -9999.25   -9999.25   -9999.25   -9999.25    0.11340
 5394.00000   -9999.25   -9999.25   -9999.25   -9999.25    0.11540
 5394.50000   -9999.25   -9999.25   -9999.25   -9999.25    0.11670
 5395.00000   -9999.25   -9999.25   -9999.25   -9999.25    0.11700
 5395.50000   -9999.25   -9999.25   -9999.25   -9999.25    0.11690
 5396.00000   -9999.25   -9999.25   -9999.25   -9999.25    0.11690
