~Version ---------------------------------------------------
VERS.   2.0 : CWLS log ASCII Standard -VERSION 2.0
WRAP.    NO : One line per depth step
DLM . SPACE : Column Data Section Delimiter
~Well ------------------------------------------------------
STRT .F                   3.0 : START DEPTH
STOP .F                5396.0 : STOP DEPTH
STEP .F                   0.5 : STEP
NULL .               -9999.25 : NULL VALUE
COMP .                        : COMPANY
WELL .                        : WELL
FLD  .                        : FIELD
LOC  .                        : LOCATION
PROV .                        : PROVINCE
CNTY .                        : COUNTY
STAT .                        : STATE
CTRY .                        : COUNTRY
SRVC .                        : SERVICE COMPANY
DATE .                        : DATE
UWI  .                        : UNIQUE WELL ID
API  .                        : API NUMBER
SLAT .WGS84   3.3841950012431 : SURFACE LATITUDE
SLON .WGS84 7.320318109225013 : SURFACE LONGITUDE
DATUM.F                3587.8 : DEPTH DATUM ELEV
~Curve Information -----------------------------------------
DEPT   .F     : 1 MEASURED DEPTH
DTCO   .US/F  : DELTA-T COMPRESSIONAL
DTST   .US/F  : DELTA-T STONELEY - MONOPOLE STONELEY
DTSM   .US/F  : DELTA-T SHEAR
GRD    .GAPI  : GAMMA RAY FROM DENSITY LOG
NPHI_LS.DEC   : NEUTRON POROSITY LIMESTONE
~Params ----------------------------------------------------
~Other -----------------------------------------------------
~ASCII -----------------------------------------------------
# ...
 4983.00000   48.35390  195.66370  101.00790   30.11090    0.01880
 4983.50000   48.61460  194.87370  102.29330   28.04930    0.01970
 4984.00000   50.76780  196.52190  103.31880   25.11560    0.01920
 4984.50000   50.89440  197.92760  102.66150   24.61920    0.01710
 4985.00000   49.89900  198.74160   98.03810   27.42570    0.01520
 4985.50000   48.61240  199.41370   93.82420   31.18640    0.01560
 4986.00000   47.32580  198.59570   88.94970   32.13640    0.01660
 4986.50000   46.38510  198.08380   84.31920   29.58970    0.01700
 4987.00000   47.14210  197.96050   81.76860   26.69490    0.01590
 4987.50000   47.77000  198.29260   80.02810   26.26760    0.01590
 4988.00000   48.74610  199.21740   79.75310   27.84170    0.01890
 4988.50000   50.43170  199.15420   81.52810   29.06900    0.02690
 4989.00000   50.57440  197.76450   83.47800   28.75410    0.04140
 4989.50000   50.71710  196.86390   85.76760   26.90180    0.05330
 4990.00000   51.17590  197.13690   88.76010   25.16280    0.06130
 4990.50000   51.82870  197.72010   92.53300   24.17390    0.06740
 4991.00000   52.45630  197.84400   94.38750   24.60110    0.07650
 4991.50000   52.52460  197.85970   95.90830   25.12600    0.09430
 4992.00000   52.22140  197.86200   97.30570   25.48420    0.10020
 4992.50000   52.04790  197.86420   98.32600   25.78730    0.07940
 4993.00000   51.79830  197.86650   99.34640   26.54100    0.04910
 4993.50000   51.40150  197.86880  100.26120   27.26370    0.03250
 4994.00000   51.03180  198.06370  100.42630   27.87730    0.02630
 4994.50000   50.66210  199.18620  100.18320   28.05190    0.02750
 4995.00000   49.81790  199.60820   99.94010   27.96100    0.03010
 4995.50000   49.25580  199.14590   99.84580   27.50700    0.03150
 4996.00000   48.34470  198.23180   97.94220   26.29210    0.03610
 4996.50000   46.87000  197.89260   94.19900   24.06220    0.04660
 4997.00000   46.91000  197.86490   92.15960   22.69900    0.05570
 4997.50000   47.41600  197.62060   90.09010   21.81360    0.06020
 4998.00000   47.51010  197.31520   87.65920   24.62160    0.06340
 4998.50000   47.42990  197.41670   85.13550   31.36080    0.06980
 4999.00000   47.68540  197.46770   87.31920   37.52070    0.08030
 4999.50000   48.59580  196.77990   94.56540   44.99080    0.10620
 5000.00000   49.59270  195.51900  104.17010   45.03610    0.13320
 5000.50000   50.46760  194.31350  112.15440   41.96470    0.12940
 5001.00000   50.84040  193.88660  112.17900   36.95420    0.11390
 5001.50000   51.21320  194.50760  111.55630   32.03260    0.08620
 5002.00000   52.20630  195.45620  110.93360   34.53240    0.05660
 5002.50000   53.49060  195.86500  110.31090   41.15080    0.05710
 5003.00000   53.17590  195.62680  107.46250   44.86510    0.07310
 5003.50000   52.40710  195.79650  103.66700   45.77310    0.09450
 5004.00000   52.25270  196.40360  101.25150   43.74650    0.10950
 5004.50000   52.17800  196.83450  100.60930   39.65720    0.10060
 5005.00000   52.52580  197.03710  101.56540   36.03800    0.08830
 5005.50000   52.85710  197.35550  102.61960   33.45520    0.05760
 5006.00000   52.86640  197.31440  102.60430   31.56590    0.03660
 5006.50000   52.65670  197.52920  101.16060   30.00040    0.02370
 5007.00000   52.39180  197.74390  100.18160   27.03560    0.02070
 5007.50000   52.19580  197.95860   99.33620   23.08680    0.01810
 5008.00000   52.14250  199.60300   98.77400   18.01450    0.01180
 5008.50000   52.13350  203.06360   99.27900   15.41560    0.00290
 5009.00000   52.13350  206.95490  101.31740   15.10020   -0.00110
 5009.50000   52.12960  211.56550  104.05460   15.77600   -0.00330
 5010.00000   52.08410  220.05970  108.03490   18.03550   -0.00380
 5010.50000   51.99500  225.27300  111.77720   20.70690   -0.00260
 5011.00000   52.06150  229.08850  114.21310   21.61600   -0.00080
 5011.50000   52.03970  231.74740  116.38390   22.74350    0.00110
 5012.00000   52.10320  231.33150  117.65040   25.45880    0.00390
 5012.50000   52.13420  215.47850  118.88820   28.58690    0.00620
 5013.00000   52.15160  211.49150  115.96100   29.48320    0.00900
 5013.50000   52.23030  209.89630  112.19290   29.18170    0.01180
 5014.00000   52.40640  208.52910  108.73190   26.59840    0.01510
 5014.50000   52.89780  207.16190  105.06170   21.20390    0.01530
 5015.00000   52.89880  205.87540  101.83430   18.18560    0.01080
 5015.50000   52.61980  204.90370  100.17340   17.29500    0.00560
 5016.00000   51.92020  203.85090  100.69400   16.64620    0.00230
 5016.50000   52.05430  201.71990  100.08640   15.22890   -0.00070
 5017.00000   52.93360  199.23700   99.23660   13.50810   -0.00170
 5017.50000   53.92000  198.26040   98.38670   12.74600   -0.00320
 5018.00000   53.73850  197.95700   98.27090   12.24050   -0.00370
 5018.50000   53.13100  200.84960   98.20620   11.95830   -0.00430
 5019.00000   52.52350  204.81460   97.68660   12.16260   -0.00370
 5019.50000   52.11880  212.05050   97.27110   12.57810   -0.00350
 5020.00000   51.96630  220.19910   96.11360   13.60670   -0.00380
 5020.50000   51.81380  227.15280   94.65860   14.67420   -0.00430
 5021.00000   51.66120  227.72770   93.61300   17.24670   -0.00360
 5021.50000   51.38100  228.09610   92.56740   21.71080   -0.00040
 5022.00000   49.50300  227.99860   92.15250   25.04820    0.00310
 5022.50000   47.62500  227.77570   91.91390   25.60180    0.00860
 5023.00000   45.92300  227.39960   92.15680   23.77500    0.01170
 5023.50000   46.43970  227.73800   93.03120   22.80230    0.01320
 5024.00000   47.37820  228.05410   94.67830   24.97910    0.01520
 5024.50000   48.01400  228.32290   95.74280   27.08710    0.01760
 5025.00000   48.15460  226.74820   96.51040   27.14390    0.01900
 5025.50000   48.09850  220.07160   97.27790   25.25460    0.01810
 5026.00000   48.01620  212.87430   98.05620   22.71030    0.01240
 5026.50000   48.06430  207.13450   98.57290   20.51290    0.00660
 5027.00000   48.70520  203.60070   98.47420   18.39340    0.00160
 5027.50000   49.10930  200.51010   98.89530   16.19780   -0.00010
 5028.00000   49.51330  197.88120   98.27090   15.96660   -0.00090
 5028.50000   49.91730  196.97750   97.09130   17.20350   -0.00150
 5029.00000   50.61380  197.69920   96.85550   19.70860    0.00120
 5029.50000   51.45760  199.53400   95.40060   21.59440    0.00560
 5030.00000   51.19360  202.42540   93.72190   23.26440    0.01240
 5030.50000   50.23970  203.71880   94.29510   24.01550    0.01740
 5031.00000   49.39590  204.65890   94.13570   23.69050    0.01970
 5031.50000   48.55210  207.19330   92.29860   22.42010    0.02180
 5032.00000   47.96220  213.53220   92.01210   20.79540    0.02520
 5032.50000   47.62240  219.20700   91.97740   18.93100    0.02920
 5033.00000   47.21740  224.59230   92.06660   17.35220    0.02930
 5033.50000   47.18550  230.50360   92.48590   16.76750    0.02700
 5034.00000   47.55540  234.14920   92.81470   17.44050    0.02800
 5034.50000   48.95520  230.50360   92.83420   18.84980    0.03160
 5035.00000   50.39090  220.88160   92.78900   20.55690    0.04130
 5035.50000   51.65260  213.37250   92.56190   21.63540    0.05760
 5036.00000   51.30650  209.87000   92.00900   21.55650    0.08010
 5036.50000   50.23480  206.37500   90.89800   21.37610    0.09260
 5037.00000   49.06560  203.94760   89.07820   21.36830    0.08930
 5037.50000   48.01220  202.17890   88.53570   21.99110    0.06520
 5038.00000   47.91380  202.06120   88.09910   22.83570    0.04140
 5038.50000   48.14340  201.25160   88.03620   23.54550    0.02150
 5039.00000   48.39790  199.44340   88.62650   23.70100    0.02110
 5039.50000   49.20970  198.52010   89.42200   23.96480    0.02490
 5040.00000   50.31690  199.00590   92.27500   24.59500    0.03170
 5040.50000   50.72150  202.14000   93.77050   25.03700    0.03990
 5041.00000   51.10180  205.36250   94.73350   24.55930    0.04760
 5041.50000   50.95720  205.77420   94.72150   23.36060    0.05740
 5042.00000   50.88810  204.77220   94.69770   21.62770    0.05540
 5042.50000   50.86020  202.46000   95.97280   19.02850    0.03990
