~Version ---------------------------------------------------
VERS.   2.0 : CWLS log ASCII Standard -VERSION 2.0
WRAP.    NO : One line per depth step
DLM . SPACE : Column Data Section Delimiter
~Well ------------------------------------------------------
STRT .F                   3.0 : START DEPTH
STOP .F                5396.0 : STOP DEPTH
STEP .F                   0.5 : STEP
NULL .               -9999.25 : NULL VALUE
COMP .                        : COMPANY
WELL .                        : WELL
FLD  .                        : FIELD
LOC  .                        : LOCATION
PROV .                        : PROVINCE
CNTY .                        : COUNTY
STAT .                        : STATE
CTRY .                        : COUNTRY
SRVC .                        : SERVICE COMPANY
DATE .                        : DATE
UWI  .                        : UNIQUE WELL ID
API  .                        : API NUMBER
SLAT .WGS84   3.3841950012431 : SURFACE LATITUDE
SLON .WGS84 7.320318109225013 : SURFACE LONGITUDE
DATUM.F                3587.8 : DEPTH DATUM ELEV
~Curve Information -----------------------------------------
DEPT   .F     : 1 MEASURED DEPTH
DTCO   .US/F  : DELTA-T COMPRESSIONAL
DTST   .US/F  : DELTA-T STONELEY - MONOPOLE STONELEY
DTSM   .US/F  : DELTA-T SHEAR
GRD    .GAPI  : GAMMA RAY FROM DENSITY LOG
NPHI_LS.DEC   : NEUTRON POROSITY LIMESTONE
~Params ----------------------------------------------------
~Other -----------------------------------------------------
~ASCII -----------------------------------------------------
# ...
 4683.00000   48.68320  202.30880   73.98930   39.91340    0.18680
 4683.50000   48.67460  200.56720   73.56300   36.73110    0.14600
 4684.00000   48.66600  200.57140   73.30790   36.01850    0.07330
 4684.50000   48.65740  207.10830   72.97910   38.15240    0.03360
 4685.00000   48.64880  211.85910   72.65030   40.82500    0.02610
 4685.50000   48.66970  215.06970   72.32160   44.36500    0.03200
 4686.00000   49.46730  217.02430   73.61900   48.13220    0.05080
 4686.50000   52.22470  217.02930   75.58330   52.25360    0.07330
 4687.00000   54.98210  214.88910   78.33930   55.41650    0.09980
 4687.50000   55.29210  211.39330   79.00120   57.03790    0.13780
 4688.00000   53.72410  207.23160   78.23640   55.81920    0.18300
 4688.50000   51.42850  207.91530   77.32340   52.92690    0.20300
 4689.00000   50.42710  210.24290   75.83830   51.40070    0.18270
 4689.50000   49.36580  209.35910   74.25830   50.75550    0.15200
 4690.00000   48.79970  207.62810   73.15840   49.36870    0.12120
 4690.50000   48.48210  206.15750   73.92220   47.99750    0.09050
 4691.00000   48.16460  206.73350   77.14160   47.57820    0.07880
 4691.50000   47.83680  209.55570   80.36100   47.10060    0.06460
 4692.00000   47.42540  210.30090   84.88600   45.80720    0.05320
 4692.50000   47.01400  205.11100   89.37100   43.87510    0.04270
 4693.00000   47.05950  202.96870   94.28440   42.91410    0.03540
 4693.50000   47.78730  202.13570  101.33720   42.07040    0.03160
 4694.00000   48.53530  200.64340  102.71940   41.72890    0.03030
 4694.50000   48.98280  196.58660  103.38420   42.61430    0.03000
 4695.00000   48.98040  192.46040   98.29250   44.54050    0.03170
 4695.50000   48.97840  192.03510   87.73910   47.54250    0.03640
 4696.00000   48.97660  192.27010   82.25940   51.04710    0.04860
 4696.50000   48.97660  196.63080   73.55460   54.26160    0.06110
 4697.00000   48.84580  203.05730   72.93810   55.71350    0.07290
 4697.50000   47.80960  211.36430   74.04660   55.73630    0.08420
 4698.00000   46.54170  212.79460   74.99470   55.00520    0.08740
 4698.50000   46.87360  213.36590   75.63010   54.15720    0.08630
 4699.00000   48.18380  213.72050   75.04720   53.80820    0.08710
 4699.50000   48.94140  214.84600   74.85120   53.34050    0.09100
 4700.00000   48.94890  215.97150   75.16050   52.74660    0.09510
 4700.50000   48.63280  217.07710   75.34910   52.58020    0.09670
 4701.00000   47.73010  217.56770   74.86850   52.88150    0.09320
 4701.50000   46.73610  217.57340   74.68490   52.58560    0.09020
 4702.00000   46.10810  217.40190   75.27180   51.65870    0.09110
 4702.50000   45.48010  217.02150   75.81640   52.58660    0.09630
 4703.00000   44.86680  216.96980   76.36100   55.63700    0.10770
 4703.50000   45.18770  216.76410   77.53940   60.50720    0.13750
 4704.00000   45.82070  216.34510   80.37290   64.26450    0.18210
 4704.50000   46.59730  216.09970   81.95700   65.55880    0.22850
 4705.00000   46.70570  216.09510   81.13540   64.25930    0.25440
 4705.50000   48.16530  216.47380   79.43220   62.19090    0.27260
 4706.00000   51.90650  214.22080   80.35820   60.74170    0.27310
 4706.50000   55.34400  207.17490   82.59560   58.98290    0.25480
 4707.00000   53.29250  201.04750   80.73170   57.00970    0.23300
 4707.50000   50.55710  201.85060   79.93960   53.96680    0.21390
 4708.00000   50.17330  203.43870   79.07230   50.20740    0.17550
 4708.50000   49.87160  204.17560   77.97120   47.14400    0.12510
 4709.00000   49.56990  200.77790   76.87000   47.20600    0.09930
 4709.50000   49.26830  202.05780   76.24590   47.85620    0.10180
 4710.00000   49.04240  204.74320   76.09240   47.72830    0.11480
 4710.50000   49.26550  204.84340   75.59820   46.48800    0.12720
 4711.00000   50.23000  204.76580   74.77780   45.22440    0.12840
 4711.50000   50.44590  204.68820   74.34620   44.13280    0.11850
 4712.00000   48.53100  204.61280   73.91460   41.73480    0.08890
 4712.50000   46.90880  204.59200   73.61150   37.92410    0.05870
 4713.00000   46.71090  204.89580   73.97690   34.02070    0.04040
 4713.50000   47.80160  205.14920   74.41320   30.58090    0.02700
 4714.00000   48.78590  204.63380   74.75340   29.41130    0.01970
 4714.50000   48.90960  203.65410   74.96170   30.82670    0.02250
 4715.00000   48.84740  204.39170   75.16990   34.04550    0.02680
 4715.50000   48.38630  206.12790   74.72230   37.00030    0.03120
 4716.00000   47.23090  206.31600   72.60310   38.63560    0.03550
 4716.50000   46.69820  203.67700   72.35390   40.60400    0.03850
 4717.00000   46.90240  200.81560   72.13290   42.64550    0.04180
 4717.50000   47.08010  196.83890   72.56150   44.92770    0.04620
 4718.00000   47.73720  194.64030   72.73520   46.86940    0.05370
 4718.50000   48.81550  197.52400   73.35780   48.92580    0.06570
 4719.00000   49.23270  202.06110   74.77740   51.60450    0.07450
 4719.50000   49.54820  205.75510   76.15010   54.45140    0.08400
 4720.00000   49.43180  205.96830   76.75400   56.71170    0.09810
 4720.50000   49.26850  205.11780   76.61240   56.38340    0.10810
 4721.00000   49.17960  204.26740   75.14650   53.98020    0.11110
 4721.50000   49.09800  203.39480   73.36920   49.11670    0.10500
 4722.00000   49.06460  202.76790   73.43210   45.54490    0.08990
 4722.50000   49.03710  201.81950   73.25220   42.48100    0.07610
 4723.00000   49.00950  200.73080   73.12090   42.60860    0.07660
 4723.50000   49.01330  201.11590   73.04150   44.14590    0.08420
 4724.00000   49.09990  203.27140   72.54490   45.50450    0.09740
 4724.50000   49.18650  203.81430   71.43360   47.15110    0.10540
 4725.00000   49.27310  202.20350   70.32230   46.51070    0.09960
 4725.50000   49.78880  200.21070   69.59490   42.87500    0.08220
 4726.00000   51.34910  198.65650   76.35640   38.21820    0.06100
 4726.50000   53.23390  199.16270   85.84730   37.48500    0.03900
 4727.00000   54.70240  201.35000   89.76880   39.50780    0.04540
 4727.50000   54.77500  202.21830   91.75720   43.34660    0.08100
 4728.00000   50.34690  202.64410   87.03940   47.97350    0.13180
 4728.50000   46.27230  203.03610   79.03940   52.99680    0.18260
 4729.00000   46.07670  203.99010   77.46410   54.65580    0.19480
 4729.50000   48.03490  205.99070   74.75940   53.83820    0.18660
 4730.00000   48.77470  207.51700   73.99890   50.86220    0.17580
 4730.50000   47.82380  205.75580   73.66340   45.40350    0.16380
 4731.00000   47.02110  201.09520   73.81640   41.33930    0.13190
 4731.50000   47.02110  197.61400   74.12440   36.46750    0.09500
 4732.00000   47.77790  198.10570   74.43250   31.38600    0.05160
 4732.50000   49.36840  200.26080   74.71660   29.59790    0.01980
 4733.00000   50.06610  201.89140   74.84480   29.75360    0.01180
 4733.50000   49.77280  204.73440   74.98990   30.21800    0.00980
 4734.00000   51.47430  209.08620   77.72610   29.87780    0.00960
 4734.50000   53.24840  213.16700   79.64430   29.66220    0.01010
 4735.00000   51.86510  216.29790   77.10980   31.57790    0.01490
 4735.50000   50.71250  217.13290   74.65210   34.63640    0.02630
 4736.00000   52.90330  216.72090   76.62290   38.48930    0.05570
 4736.50000   56.66700  215.97780   80.04900   41.38000    0.08740
 4737.00000   57.20770  215.23470   80.35310   42.59560    0.11990
 4737.50000   56.32030  216.67800   80.63490   42.98780    0.13930
 4738.00000   53.76110  217.68080   79.75400   42.56810    0.14980
 4738.50000   51.10950  216.69380   78.50910   41.46420    0.14920
 4739.00000   48.93950  215.56170   76.46350   40.33000    0.13340
 4739.50000   50.09480  214.42960   77.97560   39.21060    0.12290
 4740.00000   56.97240  213.48200   84.57560   36.13370    0.12300
 4740.50000   61.10630  214.94520   93.07520   29.86410    0.12130
 4741.00000   58.24920  217.20980   92.89790   22.49080    0.09260
 4741.50000   54.00540  219.47450   89.37840   16.40760    0.05690
 4742.00000   49.65500  221.73610   84.25990   13.10480    0.01930
 4742.50000   47.93320  223.97580   81.05650   11.99960    0.00480
