~Version ---------------------------------------------------
VERS.   2.0 : CWLS log ASCII Standard -VERSION 2.0
WRAP.    NO : One line per depth step
DLM . SPACE : Column Data Section Delimiter
~Well ------------------------------------------------------
STRT .F                   3.0 : START DEPTH
STOP .F                5396.0 : STOP DEPTH
STEP .F                   0.5 : STEP
NULL .               -9999.25 : NULL VALUE
COMP .                        : COMPANY
WELL .                        : WELL
FLD  .                        : FIELD
LOC  .                        : LOCATION
PROV .                        : PROVINCE
CNTY .                        : COUNTY
STAT .                        : STATE
CTRY .                        : COUNTRY
SRVC .                        : SERVICE COMPANY
DATE .                        : DATE
UWI  .                        : UNIQUE WELL ID
API  .                        : API NUMBER
SLAT .WGS84   3.3841950012431 : SURFACE LATITUDE
SLON .WGS84 7.320318109225013 : SURFACE LONGITUDE
DATUM.F                3587.8 : DEPTH DATUM ELEV
~Curve Information -----------------------------------------
DEPT   .F     : 1 MEASURED DEPTH
DTCO   .US/F  : DELTA-T COMPRESSIONAL
DTST   .US/F  : DELTA-T STONELEY - MONOPOLE STONELEY
DTSM   .US/F  : DELTA-T SHEAR
GRD    .GAPI  : GAMMA RAY FROM DENSITY LOG
NPHI_LS.DEC   : NEUTRON POROSITY LIMESTONE
~Params ----------------------------------------------------
~Other -----------------------------------------------------
~ASCII -----------------------------------------------------
# ...
 5283.00000   56.19490  201.16650  104.90880   29.30070    0.18280
 5283.50000   55.36650  203.28970  104.53910   26.72840    0.17900
 5284.00000   55.35000  203.71440  104.02920   26.66170    0.17210
 5284.50000   55.29500  203.61780  103.67400   28.86460    0.16620
 5285.00000   55.11130  203.34280  104.63350   33.60700    0.16590
 5285.50000   53.92070  202.46660  105.91770   38.73580    0.16900
 5286.00000   52.76550  200.56680  106.36830   42.12250    0.16870
 5286.50000   52.25910  198.56350  103.02530   39.57400    0.16010
 5287.00000   52.58500  196.56030  100.08810   35.59680    0.14520
 5287.50000   52.89780  195.90970   99.20760   33.58650    0.13290
 5288.00000   52.92440  195.87370   99.52530   33.34600    0.13390
 5288.50000   52.91500  196.50010  100.71920   33.30830    0.13920
 5289.00000   52.81200  197.12670  101.91310   33.54660    0.14390
 5289.50000   52.43300  197.73490  101.83710   34.10530    0.14370
 5290.00000   52.41930  197.88350  100.45740   35.19790    0.13120
 5290.50000   52.19630  197.77690   98.95970   34.00760    0.11480
 5291.00000   51.96190  197.13050   97.46200   31.25120    0.09940
 5291.50000   51.82590  196.18170   96.40520   28.07250    0.09660
 5292.00000   51.72950  193.91280   90.79820   27.16910    0.10470
 5292.50000   51.53270  192.34090   84.53510   28.50380    0.11420
 5293.00000   50.62060  192.55600   79.35120   29.36720    0.12190
 5293.50000   49.85510  194.09610   78.24270   28.62430    0.12030
 5294.00000   49.91100  200.13530   83.05310   25.80460    0.11420
 5294.50000   50.81470  201.76300   92.79420   22.87370    0.10600
 5295.00000   51.21260  198.94350   97.45740   22.43520    0.10430
 5295.50000   51.19910  194.68630   99.34930   22.83470    0.10500
 5296.00000   51.37930  190.79300   99.75660   24.41300    0.10590
 5296.50000   51.59470  190.02350  100.16400   26.14730    0.10640
 5297.00000   51.81020  190.46660  100.57140   27.36080    0.10400
 5297.50000   52.38940  190.20590  101.31020   28.55390    0.10350
 5298.00000   52.91310  189.46170  105.04730   29.74700    0.10890
 5298.50000   53.50710  191.86130  112.43380   30.22370    0.11920
 5299.00000   52.81250  194.36370  110.20660   29.86700    0.13100
 5299.50000   50.50380  193.65310  105.43950   28.94430    0.14150
 5300.00000   49.41760  192.46870  100.84750   27.53310    0.14620
 5300.50000   49.91900  192.03400  100.31220   26.20030    0.14760
 5301.00000   50.95240  193.13430  100.96380   25.81770    0.14610
 5301.50000   51.98570  193.81930  102.43710   25.67130    0.13950
 5302.00000   52.14840  192.87150  103.49250   26.10330    0.13400
 5302.50000   51.51690  191.45660  104.54800   27.54000    0.13490
 5303.00000   51.72540  192.11930  104.29980   28.60600    0.14180
 5303.50000   53.21580  195.81550  104.43560   29.00390    0.14270
 5304.00000   55.40140  201.17530  106.14840   27.86040    0.13450
 5304.50000   56.48240  204.95730  105.76810   25.61330    0.12710
 5305.00000   54.67600  201.68100  104.17450   23.36500    0.12750
 5305.50000   52.76030  196.68340  102.98970   21.91510    0.13890
 5306.00000   51.98780  193.17250  101.29440   22.11670    0.15220
 5306.50000   51.33350  194.42920   99.77490   22.66210    0.15820
 5307.00000   51.08830  196.38770   98.25540   23.88300    0.15000
 5307.50000   51.03260  197.40220   96.73580   25.29020    0.13130
 5308.00000   50.31490  197.97630   95.17260   28.03840    0.11320
 5308.50000   48.16980  198.01260   92.97400   31.24290    0.10930
 5309.00000   47.30970  197.61020   90.86270   32.56100    0.11790
 5309.50000   47.00060  196.51130   89.14840   30.21800    0.12510
 5310.00000   48.55990  196.87270   90.22260   27.58130    0.11750
 5310.50000   51.01060  198.26030   92.53310   26.25210    0.10360
 5311.00000   52.57020  197.91180   95.17370   29.70830    0.09030
 5311.50000   52.07020  196.22020   97.83680   34.21360    0.09090
 5312.00000   50.32920  194.53340  100.12000   37.99260    0.11930
 5312.50000   49.55400  192.85030  101.27980   36.40420    0.13750
 5313.00000   50.26310  191.16710  101.56070   32.17500    0.15180
 5313.50000   51.09910  189.48400  101.16140   28.45670    0.14650
 5314.00000   51.93500  189.04120  100.62790   26.85800    0.13720
 5314.50000   52.29780  191.90290   99.91630   27.38800    0.13020
 5315.00000   52.00960  195.40560   99.20470   29.94810    0.13430
 5315.50000   51.72130  197.39760   99.45440   32.91170    0.13820
 5316.00000   51.51430  199.38960  100.14290   34.29240    0.13380
 5316.50000   51.59740  200.00280  100.82570   33.65160    0.12410
 5317.00000   51.68050  198.99010  101.56490   32.89110    0.12180
 5317.50000   51.69870  197.97730  102.61240   32.78440    0.12950
 5318.00000   52.06740  197.24990  104.79890   35.28690    0.14770
 5318.50000   52.61220  198.66560  107.13410   37.95620    0.15630
 5319.00000   53.33720  200.26550  107.62360   38.28760    0.15250
 5319.50000   54.10160  201.61000  107.33030   37.43540    0.14780
 5320.00000   54.84990  200.47430  106.67530   35.20130    0.15630
 5320.50000   54.94410  199.87730  105.69640   33.26370    0.16410
 5321.00000   54.92620  200.37320  104.71750   31.07250    0.16320
 5321.50000   54.57240  200.86910  103.94670   29.25220    0.15570
 5322.00000   53.86360  201.06200  104.28830   30.83690    0.14180
 5322.50000   53.74770  200.04110  105.94840   33.46730    0.13480
 5323.00000   54.42420  198.67810  107.60860   35.59900    0.13300
 5323.50000   56.32690  198.61890  108.73060   36.84760    0.13650
 5324.00000   58.81100  201.86350  109.88470   36.11930    0.15310
 5324.50000   59.98560  205.16660  113.90850   34.40070    0.18880
 5325.00000   59.91640  205.22010  115.94440   32.26670    0.21500
 5325.50000   56.87600  203.90790  112.23820   29.76810    0.20620
 5326.00000   54.45760  206.68370  109.36810   28.15830    0.18360
 5326.50000   53.61270  209.46260  106.25870   28.22390    0.18430
 5327.00000   52.60080  209.15510  104.22530   29.38550    0.18700
 5327.50000   50.43190  206.53010  101.28550   31.54840    0.19000
 5328.00000   50.24050  203.09280  103.09760   31.97410    0.18940
 5328.50000   50.76510  199.07600  106.57140   30.99070    0.19060
 5329.00000   51.08970  194.96300  106.28050   29.49530    0.19730
 5329.50000   51.68510  191.56570  105.69030   28.51030    0.20500
 5330.00000   52.69130  192.14050  105.24870   27.84220    0.19740
 5330.50000   53.30890  193.92640  105.44050   27.34880    0.18680
 5331.00000   53.45660  194.84970  106.98920   27.67600    0.17630
 5331.50000   51.91090  196.01070  102.57610   28.64870    0.17480
 5332.00000   50.28630  198.00290   98.52150   29.20450    0.17750
 5332.50000   50.38720  200.22480  100.34450   30.87750    0.17650
 5333.00000   51.70380  202.63920  102.35170   31.41650    0.16700
 5333.50000   53.12750  204.93400  102.74640   32.05410    0.15320
 5334.00000   54.55110  204.99220  102.75940   33.80480    0.14790
 5334.50000   55.70140  204.48680  102.77240   36.44910    0.14790
 5335.00000   55.90100  203.68780  102.35510   38.21940    0.14440
 5335.50000   55.89460  202.88890  102.11620   37.85140    0.13570
 5336.00000   55.65190  203.24950  102.81940   36.05660    0.12310
 5336.50000   55.37110  204.66950  104.33760   35.49180    0.11580
 5337.00000   54.96940  207.49830  105.85590   38.23930    0.11340
 5337.50000   54.59580  209.63730  107.92440   40.47660    0.11780
 5338.00000   54.57820  208.55960  107.29870   39.55390    0.12710
 5338.50000   54.30500  207.88950  106.67300   37.25710    0.13610
 5339.00000   53.53230  205.41520  106.04730   35.08500    0.13710
 5339.50000   52.72780  204.74810  105.42170   33.05230    0.13890
 5340.00000   52.21090  204.12520  105.65500   28.90110    0.14100
 5340.50000   51.82280  203.57440  105.81890   27.08590    0.13830
 5341.00000   50.93010  203.23610  104.75770   28.54200    0.12870
 5341.50000   49.34830  203.32230  101.12780   31.49560    0.12220
 5342.00000   48.24260  203.01970   98.11770   33.25010    0.11890
 5342.50000   49.46810  202.38750   95.31000   33.14230    0.11560
