~Version ---------------------------------------------------
VERS.   2.0 : CWLS log ASCII Standard -VERSION 2.0
WRAP.    NO : One line per depth step
DLM . SPACE : Column Data Section Delimiter
~Well ------------------------------------------------------
STRT .F                   3.0 : START DEPTH
STOP .F                5396.0 : STOP DEPTH
STEP .F                   0.5 : STEP
NULL .               -9999.25 : NULL VALUE
COMP .                        : COMPANY
WELL .                        : WELL
FLD  .                        : FIELD
LOC  .                        : LOCATION
PROV .                        : PROVINCE
CNTY .                        : COUNTY
STAT .                        : STATE
CTRY .                        : COUNTRY
SRVC .                        : SERVICE COMPANY
DATE .                        : DATE
UWI  .                        : UNIQUE WELL ID
API  .                        : API NUMBER
SLAT .WGS84   3.3841950012431 : SURFACE LATITUDE
SLON .WGS84 7.320318109225013 : SURFACE LONGITUDE
DATUM.F                3587.8 : DEPTH DATUM ELEV
~Curve Information -----------------------------------------
DEPT   .F     : 1 MEASURED DEPTH
DTCO   .US/F  : DELTA-T COMPRESSIONAL
DTST   .US/F  : DELTA-T STONELEY - MONOPOLE STONELEY
DTSM   .US/F  : DELTA-T SHEAR
GRD    .GAPI  : GAMMA RAY FROM DENSITY LOG
NPHI_LS.DEC   : NEUTRON POROSITY LIMESTONE
~Params ----------------------------------------------------
~Other -----------------------------------------------------
~ASCII -----------------------------------------------------
# ...
 4563.00000   47.44820  212.78930   98.13100   31.72150    0.13970
 4563.50000   49.82220  212.74650  108.61340   30.97500    0.14130
 4564.00000   50.73670  212.84740  113.49030   29.79160    0.12700
 4564.50000   51.92970  212.91550  115.39380   28.60830    0.10830
 4565.00000   53.80170  212.93100  118.53680   27.49660    0.10550
 4565.50000   53.84520  212.93560  115.58230   25.67640    0.10590
 4566.00000   50.20150  213.13160  100.25190   23.91100    0.09200
 4566.50000   46.22540  213.52440   79.48550   30.28600    0.06790
 4567.00000   45.60460  213.92300   75.98690   37.61200    0.05270
 4567.50000   46.48920  215.49490   77.54310   48.71940    0.07550
 4568.00000   52.29960  217.06690   82.91980   57.09570    0.13490
 4568.50000   58.21860  217.58730   89.70750   58.01250    0.17750
 4569.00000   58.27250  216.60440   86.66070   56.59570    0.21700
 4569.50000   55.16890  215.96660   82.58020   51.51810    0.23300
 4570.00000   51.95510  215.91730   79.11470   44.30120    0.24160
 4570.50000   50.35040  216.14510   78.10950   39.86330    0.21810
 4571.00000   50.76600  215.12930   77.16340   37.41130    0.18030
 4571.50000   50.69560  213.97670   76.06030   39.51770    0.14060
 4572.00000   49.77400  213.01180   73.72610   41.86610    0.12010
 4572.50000   48.93000  212.63560   71.96370   42.54640    0.10330
 4573.00000   48.22780  213.32130   70.79570   41.42890    0.08030
 4573.50000   48.01730  214.36970   70.66260   39.45170    0.05360
 4574.00000   48.36740  214.83470   71.12560   38.97910    0.03310
 4574.50000   48.64010  215.24760   71.79150   40.37710    0.02900
 4575.00000   48.73940  215.46500   72.35900   41.84220    0.03350
 4575.50000   48.83860  215.59610   72.03690   42.80210    0.04060
 4576.00000   48.93780  215.68550   72.11230   43.39820    0.05280
 4576.50000   49.03710  215.77210   72.27340   44.48420    0.06540
 4577.00000   49.11450  215.85870   72.43450   46.74880    0.07350
 4577.50000   49.03470  215.94530   72.59560   49.04430    0.07820
 4578.00000   48.95500  215.72150   72.75670   49.83620    0.08060
 4578.50000   48.92230  215.55190   72.85960   50.50850    0.08240
 4579.00000   48.67570  216.10240   73.00250   51.82610    0.08730
 4579.50000   48.64630  217.76370   75.92250   52.62680    0.09770
 4580.00000   52.36300  219.79610   81.20700   52.06350    0.11090
 4580.50000   54.65400  220.28820   85.80360   50.36020    0.13120
 4581.00000   52.72140  219.32740   83.70630   47.93610    0.16310
 4581.50000   51.41510  217.91470   81.03550   46.33100    0.19360
 4582.00000   50.15030  217.29490   78.54920   44.86190    0.17290
 4582.50000   49.19060  217.58200   76.74460   43.70300    0.12330
 4583.00000   49.59420  217.76390   75.73720   43.57410    0.08060
 4583.50000   51.26720  217.66430   74.72970   43.71870    0.07410
 4584.00000   52.67220  217.14860   75.14320   45.46930    0.09330
 4584.50000   51.80750  216.38200   76.72760   50.58670    0.11590
 4585.00000   50.75700  215.95390   76.72210   52.05570    0.12780
 4585.50000   50.28300  215.53460   76.71660   50.69680    0.12940
 4586.00000   50.79030  215.11530   76.71110   48.77580    0.11910
 4586.50000   50.96980  213.91520   76.26920   46.47010    0.10730
 4587.00000   50.36930  213.20270   74.61860   45.03810    0.10650
 4587.50000   49.68660  213.13960   72.96010   44.13980    0.11510
 4588.00000   49.16470  213.19010   71.30150   43.66920    0.11320
 4588.50000   49.13660  213.44470   71.22970   42.72900    0.09070
 4589.00000   49.10850  213.72100   71.60050   40.86130    0.06180
 4589.50000   49.11930  213.85740   72.34060   39.41540    0.02890
 4590.00000   49.08820  214.91580   72.57150   39.66910    0.03020
 4590.50000   49.05710  215.63870   72.53110   40.38820    0.03660
 4591.00000   49.02600  215.49800   72.78410   41.10730    0.04490
 4591.50000   48.99490  214.41620   73.94560   41.82650    0.05050
 4592.00000   48.96380  213.28530   78.57030   43.80620    0.05330
 4592.50000   48.93270  212.11630   87.85020   45.17230    0.05210
 4593.00000   48.90160  210.94730   90.89730   45.25790    0.04770
 4593.50000   48.89100  211.48850   90.84070   44.90670    0.04310
 4594.00000   48.91230  212.79020   86.65200   44.68120    0.03970
 4594.50000   48.93350  213.73230   79.72630   46.02680    0.04030
 4595.00000   48.95480  213.82930   75.78650   48.21220    0.05290
 4595.50000   48.97600  213.92630   73.33710   50.45330    0.07530
 4596.00000   48.99730  214.13820   72.90890   48.64440    0.10160
 4596.50000   49.01850  214.42850   72.02430   44.48250    0.10070
 4597.00000   49.03980  214.63600   71.14180   40.41460    0.07620
 4597.50000   49.06100  214.97990   70.48470   39.37960    0.05330
 4598.00000   49.08230  215.03010   72.14270   40.45590    0.03410
 4598.50000   49.10350  214.71560   73.32030   42.94190    0.03300
 4599.00000   49.21480  214.35110   74.21950   46.89140    0.04170
 4599.50000   50.90520  213.98650   75.42440   50.63010    0.08020
 4600.00000   51.91140  213.23790   75.93490   54.29210    0.10820
 4600.50000   50.79670  212.30820   75.06770   56.09850    0.12930
 4601.00000   49.06220  211.46430   74.30310   54.26520    0.13170
 4601.50000   48.91730  210.62300   74.21500   50.54860    0.11140
 4602.00000   49.06500  210.97960   79.44080   47.48370    0.07580
 4602.50000   49.46280  212.39930   87.75120   45.76610    0.04670
 4603.00000   51.47350  213.07550  100.43730   46.08760    0.03380
 4603.50000   56.23070  213.62060  112.77700   46.76740    0.02960
 4604.00000   60.56090  213.54160  121.38920   47.43480    0.02890
 4604.50000   64.72790  210.80940  123.58190   47.81010    0.02960
 4605.00000   68.70040  207.85580  125.36280   47.94950    0.03090
 4605.50000   72.42760  206.58450  125.95640   48.08880    0.03340
 4606.00000   76.15480  211.46800  127.47030   48.86130    0.03990
 4606.50000   77.34180  215.81740  126.40210   49.94310    0.05060
 4607.00000   68.86230  215.67760  112.80000   51.79560    0.06360
 4607.50000   56.36600  213.69320   87.40930   53.13010    0.08060
 4608.00000   49.53490  212.46460   71.72470   52.00500    0.10540
 4608.50000   49.33450  212.79150   70.67390   49.86270    0.13020
 4609.00000   50.84340  213.11850   77.70050   48.46590    0.14730
 4609.50000   57.37300  213.01610   93.47610   48.57010    0.12680
 4610.00000   65.82620  210.40060  118.70420   49.05020    0.10340
 4610.50000   68.93650  209.62620  122.75330   48.15590    0.08740
 4611.00000   66.27670  212.34590  115.96400   45.79100    0.08630
 4611.50000   63.58530  215.07360  108.90470   42.36710    0.08740
 4612.00000   60.92240  217.07190  102.80970   37.29900    0.08010
 4612.50000   58.26130  218.25470   99.60570   32.22150    0.05990
 4613.00000   55.41940  219.07440   99.33970   28.60610    0.03730
 4613.50000   53.43880  219.26140  103.92240   30.00370    0.01660
 4614.00000   51.78510  219.10600  108.97090   33.94880    0.01730
 4614.50000   48.67640  218.62600  108.51330   39.26110    0.03730
 4615.00000   47.21740  218.14600  103.32890   43.90340    0.04950
 4615.50000   48.44080  217.30140  106.68040   44.64920    0.05480
 4616.00000   48.94900  216.57690  109.00410   43.27920    0.04930
 4616.50000   49.10520  215.60690   99.17730   40.87070    0.04000
 4617.00000   49.06800  214.74820   88.21120   36.96420    0.03620
 4617.50000   49.03080  212.93830   76.78340   32.86850    0.03570
 4618.00000   49.69740  209.82990   74.74810   29.30910    0.03720
 4618.50000   50.58550  206.16540   76.70710   28.39590    0.04790
 4619.00000   50.57950  203.21910   79.42830   27.78300    0.08190
 4619.50000   49.96240  201.71640   81.39850   25.65060    0.11880
 4620.00000   49.23600  198.83760   85.19680   21.22250    0.10020
 4620.50000   48.77600  193.18060   90.23140   17.60030    0.06540
 4621.00000   48.55820  191.11370   93.34340   14.79370    0.03060
 4621.50000   48.75290  193.83430   96.09780   12.31020    0.01160
 4622.00000   48.85680  199.96360   96.17620   10.02860    0.00310
 4622.50000   48.95640  206.13870   94.57940    9.68770    0.00030
