~Version ---------------------------------------------------
VERS.   2.0 : CWLS log ASCII Standard -VERSION 2.0
WRAP.    NO : One line per depth step
DLM . SPACE : Column Data Section Delimiter
~Well ------------------------------------------------------
STRT .F                   3.0 : START DEPTH
STOP .F                5396.0 : STOP DEPTH
STEP .F                   0.5 : STEP
NULL .               -9999.25 : NULL VALUE
COMP .                        : COMPANY
WELL .                        : WELL
FLD  .                        : FIELD
LOC  .                        : LOCATION
PROV .                        : PROVINCE
CNTY .                        : COUNTY
STAT .                        : STATE
CTRY .                        : COUNTRY
SRVC .                        : SERVICE COMPANY
DATE .                        : DATE
UWI  .                        : UNIQUE WELL ID
API  .                        : API NUMBER
SLAT .WGS84   3.3841950012431 : SURFACE LATITUDE
SLON .WGS84 7.320318109225013 : SURFACE LONGITUDE
DATUM.F                3587.8 : DEPTH DATUM ELEV
~Curve Information -----------------------------------------
DEPT   .F     : 1 MEASURED DEPTH
DTCO   .US/F  : DELTA-T COMPRESSIONAL
DTST   .US/F  : DELTA-T STONELEY - MONOPOLE STONELEY
DTSM   .US/F  : DELTA-T SHEAR
GRD    .GAPI  : GAMMA RAY FROM DENSITY LOG
NPHI_LS.DEC   : NEUTRON POROSITY LIMESTONE
~Params ----------------------------------------------------
~Other -----------------------------------------------------
~ASCII -----------------------------------------------------
# ...
 4803.00000   49.82810  216.38110   98.50160   34.40970    0.04540
 4803.50000   49.06390  212.21350   97.39240   33.56530    0.06000
 4804.00000   49.39620  207.78670   99.36320   29.86390    0.06050
 4804.50000   50.00900  203.46310  100.28600   23.65960    0.04330
 4805.00000   49.87860  199.61500  100.15430   19.65930    0.02490
 4805.50000   49.15340  198.48690   99.50170   17.02960    0.01420
 4806.00000   48.62500  199.91510   98.84910   16.26100    0.00760
 4806.50000   49.92750  201.58020  101.95920   16.39820    0.00690
 4807.00000   51.41510  203.26570  105.74060   17.22850    0.00800
 4807.50000   52.26620  205.10460  108.12440   18.01460    0.00890
 4808.00000   52.13800  206.94640  108.16680   17.77820    0.00830
 4808.50000   51.86810  206.95370   97.18470   16.71100    0.00620
 4809.00000   52.30870  205.19150   91.61320   16.76590    0.00530
 4809.50000   53.00580  204.04990   85.70780   20.02540    0.00590
 4810.00000   52.18400  202.17650   81.42420   27.92790    0.01850
 4810.50000   50.38320  202.27170   80.11010   40.43870    0.04280
 4811.00000   48.69330  202.34290   79.92560   45.67070    0.08410
 4811.50000   47.91760  202.81820   80.78280   41.65530    0.12340
 4812.00000   47.80960  203.26100   84.37800   32.24780    0.10050
 4812.50000   47.93710  203.33900   89.54150   25.38310    0.05720
 4813.00000   48.09600  203.84480   91.12550   24.78950    0.03160
 4813.50000   48.57420  203.83650   89.90790   25.43280    0.02280
 4814.00000   49.74290  203.54920   88.30900   25.85640    0.02280
 4814.50000   50.69220  202.62480   85.49740   26.13380    0.02460
 4815.00000   50.56270  202.38410   82.84350   26.44630    0.02910
 4815.50000   50.37510  203.03090   80.34910   26.35830    0.03850
 4816.00000   50.88940  203.20780   77.85470   24.65240    0.05290
 4816.50000   51.60530  203.31630   75.59280   21.64950    0.06620
 4817.00000   52.14080  202.90840   75.42120   20.64140    0.06920
 4817.50000   53.07940  202.59050   86.23120   20.67140    0.06510
 4818.00000   53.53900  203.00460   96.64790   21.46820    0.06290
 4818.50000   53.71960  203.81940  100.56900   22.43600    0.06620
 4819.00000   53.61590  204.43590   99.41760   24.04110    0.07060
 4819.50000   53.30760  206.46730   99.63320   26.20840    0.07100
 4820.00000   54.05010  208.77650  101.02740   27.11730    0.06470
 4820.50000   55.07530  210.94530  106.01570   26.21400    0.05160
 4821.00000   54.85410  213.11400  107.50560   24.11580    0.03750
 4821.50000   53.96260  215.27370  106.41460   22.13720    0.02320
 4822.00000   53.71900  217.35940  105.18520   23.40120    0.01970
 4822.50000   55.29380  218.09460  109.69170   26.13740    0.01760
 4823.00000   56.28330  218.31510  113.34590   28.22250    0.02210
 4823.50000   55.82140  219.35980  111.42740   30.77570    0.02960
 4824.00000   53.90750  221.12130  107.31100   32.10500    0.03700
 4824.50000   52.07880  221.54590  108.73520   31.82930    0.03890
 4825.00000   52.28190  219.47690  111.70270   29.62750    0.03460
 4825.50000   52.84200  218.31870  114.62160   28.11540    0.02550
 4826.00000   54.07460  218.19070  117.16830   28.09170    0.01880
 4826.50000   54.94150  218.11760  117.09310   29.69330    0.01550
 4827.00000   55.55140  218.60180  116.40660   33.34840    0.01890
 4827.50000   55.98270  219.74180  115.71410   37.03420    0.02790
 4828.00000   55.41290  220.88170  115.02160   37.01000    0.04730
 4828.50000   53.69420  222.03640  113.38520   28.55790    0.05670
 4829.00000   52.06790  223.33750  107.39130   21.70810    0.04650
 4829.50000   50.44150  225.43830  100.81360   16.59560    0.02990
 4830.00000   49.85670  227.76310  100.07110   17.89070    0.01320
 4830.50000   50.84610  228.41770  100.20920   20.38360    0.00680
 4831.00000   51.55080  228.98830  101.71360   22.97430    0.01110
 4831.50000   51.49220  229.55890  103.16610   24.48540    0.01580
 4832.00000   51.78960  230.12950  104.21370   25.43950    0.02040
 4832.50000   52.65190  230.70010  105.21850   26.20530    0.02410
 4833.00000   53.33010  231.15740  106.31930   25.98720    0.02170
 4833.50000   53.92540  231.46120  107.45860   25.32710    0.01810
 4834.00000   53.39190  231.83740  105.74010   24.95010    0.01480
 4834.50000   52.42200  232.27210  105.25030   23.92450    0.01300
 4835.00000   52.27430  232.70670  110.15910   21.95950    0.01160
 4835.50000   52.30000  232.45220  116.26190   19.40410    0.00810
 4836.00000   52.43040  230.46030  118.28740   16.90890    0.00370
 4836.50000   52.80670  228.30340  116.71050   15.03830    0.00160
 4837.00000   53.56130  227.91870  113.20000   15.01310    0.00200
 4837.50000   54.28840  228.20670  107.61700   15.85090    0.00300
 4838.00000   54.54720  229.12550  104.92790   16.71980    0.00410
 4838.50000   54.58910  230.17060  104.23490   18.27950    0.00550
 4839.00000   54.23930  231.21560  104.83570   19.72000    0.00760
 4839.50000   53.92710  231.84660  104.96050   19.47920    0.01080
 4840.00000   54.19520  232.24530  104.95100   18.91370    0.01360
 4840.50000   54.22910  230.76220  104.96290   19.13100    0.01260
 4841.00000   53.78080  229.43260  105.00770   22.45120    0.01120
 4841.50000   53.18680  230.51690  105.05250   25.40060    0.01140
 4842.00000   52.56030  231.82460  105.09180   25.29410    0.01180
 4842.50000   52.08720  232.74700  105.13160   22.20550    0.01170
 4843.00000   52.08130  229.23060  105.19170   18.37230    0.00900
 4843.50000   52.26740  225.67910  105.33440   14.52750    0.00340
 4844.00000   52.45350  226.30100  108.23850   13.09660   -0.00110
 4844.50000   52.53430  229.73310  115.05850   13.16100   -0.00340
 4845.00000   52.39250  231.98290  119.93540   13.45400   -0.00380
 4845.50000   52.13060  230.22250  119.23180   13.30930   -0.00420
 4846.00000   51.84290  229.75070  117.24780   12.56890   -0.00440
 4846.50000   51.62240  230.93820  115.20090   11.00520   -0.00440
 4847.00000   51.72650  231.81610  112.73510   10.55560   -0.00390
 4847.50000   51.83070  231.99700  108.67500   11.00370   -0.00360
 4848.00000   51.93480  231.88140  105.41690   14.30530   -0.00220
 4848.50000   52.17570  231.03750  102.38650   19.47880    0.00040
 4849.00000   52.80380  229.61590  104.95290   25.44210    0.00470
 4849.50000   53.48070  228.24510  111.98170   30.31740    0.01270
 4850.00000   53.33740  225.91480  111.88930   30.63280    0.02340
 4850.50000   52.27350  224.05960  107.70830   27.82880    0.03080
 4851.00000   51.90330  223.28560  102.84230   24.50500    0.03020
 4851.50000   51.75510  223.43670  102.18390   21.91620    0.02470
 4852.00000   51.75160  223.53100  101.51790   20.73950    0.01800
 4852.50000   51.75160  223.62070   98.90490   19.70270    0.01180
 4853.00000   51.75160  224.03040   96.53720   18.66590    0.01080
 4853.50000   51.75160  225.66690   95.68440   17.59770    0.00980
 4854.00000   51.78880  227.41780   95.67840   16.39360    0.00880
 4854.50000   51.90950  226.80160   95.67240   16.87490    0.00810
 4855.00000   52.03020  226.03280   95.66640   18.19420    0.00890
 4855.50000   52.15100  225.23270   95.66040   19.93440    0.01110
 4856.00000   53.68590  223.66650   98.51250   21.36210    0.01420
 4856.50000   55.99440  222.04620  102.28720   22.70950    0.01820
 4857.00000   58.59130  219.77180  106.40310   24.13760    0.02210
 4857.50000   61.08440  218.52430  109.57930   25.53720    0.02550
 4858.00000   60.15040  217.46930  109.05950   27.13810    0.03110
 4858.50000   58.27720  216.98500  108.04680   29.06280    0.03720
 4859.00000   58.05100  217.86530  106.59730   30.20310    0.04730
 4859.50000   57.45230  218.40530   99.03280   30.25570    0.05560
 4860.00000   52.89690  220.05140   90.17850   27.91570    0.05560
 4860.50000   48.32980  222.23430   84.28370   23.04760    0.04010
 4861.00000   48.25910  224.36190   86.76070   18.11950    0.02310
 4861.50000   49.13000  226.54800   91.87430   15.91320    0.00810
 4862.00000   50.51040  228.77520  100.13730   15.48650    0.00010
 4862.50000   51.74850  231.00240  105.89170   15.34650   -0.00130
