~Version ---------------------------------------------------
VERS.   2.0 : CWLS log ASCII Standard -VERSION 2.0
WRAP.    NO : One line per depth step
DLM . SPACE : Column Data Section Delimiter
~Well ------------------------------------------------------
STRT .F                   3.0 : START DEPTH
STOP .F                5396.0 : STOP DEPTH
STEP .F                   0.5 : STEP
NULL .               -9999.25 : NULL VALUE
COMP .                        : COMPANY
WELL .                        : WELL
FLD  .                        : FIELD
LOC  .                        : LOCATION
PROV .                        : PROVINCE
CNTY .                        : COUNTY
STAT .                        : STATE
CTRY .                        : COUNTRY
SRVC .                        : SERVICE COMPANY
DATE .                        : DATE
UWI  .                        : UNIQUE WELL ID
API  .                        : API NUMBER
SLAT .WGS84   3.3841950012431 : SURFACE LATITUDE
SLON .WGS84 7.320318109225013 : SURFACE LONGITUDE
DATUM.F                3587.8 : DEPTH DATUM ELEV
~Curve Information -----------------------------------------
DEPT   .F     : 1 MEASURED DEPTH
DTCO   .US/F  : DELTA-T COMPRESSIONAL
DTST   .US/F  : DELTA-T STONELEY - MONOPOLE STONELEY
DTSM   .US/F  : DELTA-T SHEAR
GRD    .GAPI  : GAMMA RAY FROM DENSITY LOG
NPHI_LS.DEC   : NEUTRON POROSITY LIMESTONE
~Params ----------------------------------------------------
~Other -----------------------------------------------------
~ASCII -----------------------------------------------------
# ...
 4443.00000   49.06160  202.47170  112.59010   42.24220    0.02110
 4443.50000   49.04820  202.38010  112.29090   42.29070    0.02280
 4444.00000   48.09040  203.16390  110.95960   43.50150    0.02910
 4444.50000   46.56830  205.65210  108.21390   45.58070    0.03530
 4445.00000   46.15530  206.35330  105.60840   45.41730    0.03880
 4445.50000   46.18480  207.19340  105.52040   43.34740    0.03890
 4446.00000   46.21420  207.38210  105.43250   40.38060    0.03550
 4446.50000   46.24370  207.01900  105.34460   40.00170    0.03050
 4447.00000   46.27320  206.52100  105.25720   40.03610    0.02760
 4447.50000   46.46870  207.00830  105.33820   40.07040    0.02340
 4448.00000   47.28870  206.34940  111.82330   39.68210    0.02010
 4448.50000   48.46940  203.81110  111.90460   39.32240    0.01680
 4449.00000   49.30390  202.21510  110.73240   39.02220    0.01540
 4449.50000   49.10370  200.94310  106.33230   38.52860    0.01490
 4450.00000   48.45630  200.90830   99.24290   40.39250    0.01560
 4450.50000   48.01730  201.83210   89.96870   42.55960    0.01660
 4451.00000   48.47290  202.45470   85.37430   43.30190    0.01770
 4451.50000   49.01460  203.11970   81.29530   42.68080    0.02000
 4452.00000   49.00470  203.38430   75.14620   41.90620    0.02500
 4452.50000   48.99470  203.64680   73.15280   42.80260    0.03290
 4453.00000   48.31480  203.62290   72.96280   45.24840    0.04320
 4453.50000   47.35390  202.71860   73.32250   48.04170    0.05810
 4454.00000   47.53990  202.37490   74.15780   47.55140    0.07020
 4454.50000   48.51720  202.24710   74.67540   45.18970    0.08460
 4455.00000   49.17000  202.67040   75.10660   44.50250    0.08440
 4455.50000   49.82360  203.08330   75.05850   46.77180    0.08400
 4456.00000   49.95230  202.98350   74.79390   51.37330    0.08940
 4456.50000   49.12370  199.62500   74.48400   51.60050    0.11330
 4457.00000   48.35960  195.04240   74.17420   47.76440    0.13710
 4457.50000   47.73060  193.83840   73.86430   41.35810    0.12430
 4458.00000   47.21660  195.24510   73.95780   37.03470    0.08840
 4458.50000   46.80310  197.86910   75.17360   36.75580    0.05360
 4459.00000   47.07420  200.37250   78.00670   36.21470    0.04540
 4459.50000   47.98380  202.01080   80.91570   35.50620    0.04490
 4460.00000   48.65900  202.27040   84.24140   36.00720    0.04710
 4460.50000   48.80790  202.25550   87.56700   37.73460    0.04990
 4461.00000   48.78240  202.24060   89.99150   39.10350    0.05440
 4461.50000   48.75690  202.54310   92.25880   40.23640    0.06100
 4462.00000   48.73150  202.80180   94.88400   41.77690    0.06640
 4462.50000   48.45290  203.00900   97.45630   45.92820    0.07960
 4463.00000   48.05140  203.21610   98.14390   49.73380    0.09640
 4463.50000   47.46190  203.35140   98.83150   51.25840    0.12040
 4464.00000   47.35030  201.44310   99.51910   49.38310    0.12620
 4464.50000   47.41620  198.18270   99.82990   43.11130    0.10570
 4465.00000   48.71560  194.39880   99.40220   40.84030    0.05760
 4465.50000   52.39930  192.11330   99.82830   41.97760    0.02540
 4466.00000   55.98600  192.09810  100.50100   47.92710    0.02270
 4466.50000   58.22030  192.14590   97.68140   52.19770    0.02620
 4467.00000   57.31500  192.19370   90.59780   55.42640    0.03500
 4467.50000   52.55220  192.24160   80.07280   57.60160    0.05590
 4468.00000   48.34990  192.28940   73.05810   59.77670    0.08840
 4468.50000   48.13870  192.30480   73.27200   59.96490    0.11710
 4469.00000   48.11120  192.41430   73.48600   58.91420    0.13480
 4469.50000   47.65140  195.22480   73.69990   55.56330    0.12670
 4470.00000   46.47610  205.96150   73.79970   49.44320    0.09740
 4470.50000   46.25000  211.86260   72.91380   43.76520    0.06810
 4471.00000   46.39650  212.03700   72.83320   42.90840    0.03970
 4471.50000   47.74290  212.25440   74.59960   44.68630    0.02380
 4472.00000   48.09590  212.47180   76.40730   47.42900    0.02290
 4472.50000   48.32300  212.22520   78.21500   49.14440    0.02350
 4473.00000   48.55020  211.55620   82.41670   49.54070    0.02630
 4473.50000   51.00360  210.88720   87.08690   49.80930    0.02850
 4474.00000   57.71470  211.29370  104.30180   50.04420    0.03070
 4474.50000   65.76500  211.83660  123.70860   50.22990    0.03420
 4475.00000   70.38810  211.12480  129.60280   50.21930    0.03730
 4475.50000   67.12190  210.32980  121.55710   50.20860    0.03870
 4476.00000   59.76720  211.46470  108.62740   50.16770    0.03980
 4476.50000   51.65630  212.54250   90.33680   50.12680    0.04090
 4477.00000   50.13920  212.65530   75.12440   50.08600    0.04200
 4477.50000   49.22120  212.58960   73.20390   50.90130    0.04470
 4478.00000   49.06810  210.70290   72.36960   52.53330    0.04860
 4478.50000   48.96490  205.07250   71.55200   53.04430    0.05380
 4479.00000   48.68490  199.62170   70.86070   53.14730    0.05540
 4479.50000   47.95380  195.61530   71.45910   54.70780    0.05960
 4480.00000   47.58880  193.62720   73.37860   58.79110    0.07250
 4480.50000   47.86800  197.32450   76.24170   59.47320    0.09010
 4481.00000   48.26310  201.94740   78.92400   59.59540    0.10790
 4481.50000   48.50070  206.56380   80.89040   60.73010    0.13060
 4482.00000   48.73830  208.32670   80.98600   63.64520    0.16520
 4482.50000   48.97590  209.66110   80.20150   62.82580    0.20270
 4483.00000   49.21360  210.49720   79.09720   59.42740    0.23280
 4483.50000   49.45120  211.45380   77.93140   54.44570    0.21290
 4484.00000   49.45570  212.38650   75.32270   50.91950    0.17860
 4484.50000   48.69940  212.30410   73.27620   49.57880    0.15000
 4485.00000   47.91870  211.14390   72.40390   49.03580    0.15150
 4485.50000   48.51190  209.98360   73.55070   48.86130    0.15590
 4486.00000   48.55230  209.65940   77.34030   49.44670    0.13030
 4486.50000   48.11150  209.28680   81.33640   51.02990    0.08690
 4487.00000   47.15600  209.02440   85.40810   51.79950    0.06980
 4487.50000   46.77110  208.97500   86.58340   49.21530    0.07520
 4488.00000   47.43420  208.31080   89.42370   41.25780    0.08000
 4488.50000   47.73790  207.36280   91.19770   35.24170    0.07500
 4489.00000   47.18370  207.11600   88.42590   36.53260    0.05120
 4489.50000   47.03240  206.93730   85.57690   41.94400    0.03600
 4490.00000   47.60080  207.47100   83.23390   47.61080    0.04100
 4490.50000   48.15950  208.22700   80.61600   54.68610    0.06280
 4491.00000   48.72410  208.98300   80.67120   58.68270    0.09890
 4491.50000   50.96690  209.63490   81.46600   62.56210    0.14500
 4492.00000   54.20010  209.00290   81.31990   64.02720    0.20450
 4492.50000   53.93660  208.12220   79.40870   62.63560    0.23940
 4493.00000   51.82320  207.99470   74.30050   59.43370    0.23210
 4493.50000   51.09440  207.86720   74.63830   57.31620    0.21260
 4494.00000   54.97470  207.73970   77.80380   57.19990    0.19120
 4494.50000   55.05150  207.61210   81.62660   56.65950    0.18120
 4495.00000   52.22350  206.89220   78.19400   54.67650    0.18190
 4495.50000   48.93070  203.86380   76.31220   48.91210    0.17580
 4496.00000   48.75300  201.41810   78.86000   42.94070    0.13020
 4496.50000   48.77580  202.89050   87.71340   39.85000    0.07780
 4497.00000   48.71480  204.33720   89.57910   39.72910    0.03500
 4497.50000   48.65380  205.09650   89.55420   41.42760    0.02400
 4498.00000   48.59870  205.85590   88.20350   43.74340    0.02590
 4498.50000   50.63040  206.19470   89.48310   46.79280    0.03880
 4499.00000   52.77440  206.03890   95.10760   49.89610    0.05210
 4499.50000   52.35070  205.88820   91.08350   50.19310    0.05550
 4500.00000   50.41550  206.09180   86.97580   49.68530    0.04770
 4500.50000   48.87870  206.48700   83.80110   49.17740    0.03820
 4501.00000   49.12780  207.19670   82.33570   48.28530    0.03080
 4501.50000   49.17950  207.44340   81.16380   47.08830    0.02600
 4502.00000   49.25290  207.64030   80.05010   45.93790    0.02150
 4502.50000   49.87670  207.70110   78.93640   45.62730    0.01590
