~Version ---------------------------------------------------
VERS.   2.0 : CWLS log ASCII Standard -VERSION 2.0
WRAP.    NO : One line per depth step
DLM . SPACE : Column Data Section Delimiter
~Well ------------------------------------------------------
STRT .F                   3.0 : START DEPTH
STOP .F                5396.0 : STOP DEPTH
STEP .F                   0.5 : STEP
NULL .               -9999.25 : NULL VALUE
COMP .                        : COMPANY
WELL .                        : WELL
FLD  .                        : FIELD
LOC  .                        : LOCATION
PROV .                        : PROVINCE
CNTY .                        : COUNTY
STAT .                        : STATE
CTRY .                        : COUNTRY
SRVC .                        : SERVICE COMPANY
DATE .                        : DATE
UWI  .                        : UNIQUE WELL ID
API  .                        : API NUMBER
SLAT .WGS84   3.3841950012431 : SURFACE LATITUDE
SLON .WGS84 7.320318109225013 : SURFACE LONGITUDE
DATUM.F                3587.8 : DEPTH DATUM ELEV
~Curve Information -----------------------------------------
DEPT   .F     : 1 MEASURED DEPTH
DTCO   .US/F  : DELTA-T COMPRESSIONAL
DTST   .US/F  : DELTA-T STONELEY - MONOPOLE STONELEY
DTSM   .US/F  : DELTA-T SHEAR
GRD    .GAPI  : GAMMA RAY FROM DENSITY LOG
NPHI_LS.DEC   : NEUTRON POROSITY LIMESTONE
~Params ----------------------------------------------------
~Other -----------------------------------------------------
~ASCII -----------------------------------------------------
# ...
 5043.00000   50.77120  200.75350   98.61450   16.13750    0.02370
 5043.50000   50.28350  202.02610  102.07550   14.16540    0.00870
 5044.00000   49.79570  202.67710  105.40660   16.82120    0.00360
 5044.50000   49.36990  200.41960  109.57500   21.76380    0.00360
 5045.00000   50.06550  201.01210  112.44070   24.87810    0.00830
 5045.50000   51.04390  201.56990  115.45100   25.96740    0.01340
 5046.00000   52.01910  200.63240  113.08690   25.89390    0.01770
 5046.50000   52.65320  197.74130  110.65670   24.27200    0.01810
 5047.00000   52.85320  197.57110  109.66650   21.98830    0.01640
 5047.50000   53.05320  198.73280  108.55110   19.23400    0.01150
 5048.00000   53.64200  200.17680  111.11450   17.62870    0.00560
 5048.50000   54.41410  201.03450  114.31290   17.05220    0.00180
 5049.00000   55.16220  200.02050  112.31350   17.64270    0.00060
 5049.50000   55.51630  198.54900  106.10040   20.00780    0.00100
 5050.00000   54.83200  197.07750   98.27020   26.42440    0.00570
 5050.50000   53.40460  196.21790   92.34220   33.15490    0.01860
 5051.00000   52.24400  198.46620   92.01440   36.26490    0.03620
 5051.50000   52.05230  200.98540   92.35150   36.69380    0.05050
 5052.00000   51.95610  200.46050   92.69020   36.63890    0.04690
 5052.50000   52.00110  199.06510   92.82660   41.84690    0.03410
 5053.00000   52.38010  198.53860   92.79260   61.23980    0.02430
 5053.50000   52.16500  200.07900   92.75850  126.80260    0.02150
 5054.00000   52.39970  202.10870   92.63590  192.57640    0.02130
 5054.50000   52.75880  203.60240   93.32060  195.17370    0.02110
 5055.00000   52.66230  203.22270   94.02410  195.10490    0.02200
 5055.50000   52.56570  200.74840   93.01010  173.27500    0.02350
 5056.00000   52.46920  198.11330   92.81780   99.47280    0.03000
 5056.50000   52.31780  198.51220   93.58490   51.48640    0.04570
 5057.00000   52.15550  198.57690   94.57120   40.07100    0.05870
 5057.50000   52.04760  197.04780   95.20960   36.95070    0.06650
 5058.00000   51.95340  193.67650   95.84790   32.39290    0.05630
 5058.50000   51.86950  191.81880   96.73390   25.98700    0.03540
 5059.00000   51.77620  192.16870   97.61160   23.59300    0.01880
 5059.50000   51.87710  192.79210   98.29180   21.31350    0.01090
 5060.00000   52.30840  195.36360   97.92420   17.17190    0.00140
 5060.50000   52.98180  198.52190   97.42680   14.04700   -0.00340
 5061.00000   53.96950  200.36450   96.92940   12.57420   -0.00410
 5061.50000   54.98900  201.58280   96.74750   12.48810   -0.00480
 5062.00000   56.00850  201.69620   96.39980   13.52540   -0.00470
 5062.50000   56.78870  200.90610   95.13750   15.04700   -0.00440
 5063.00000   56.72600  199.83640   92.65470   16.04820   -0.00370
 5063.50000   55.79020  199.30700   89.53220   16.44650   -0.00180
 5064.00000   54.43240  202.05490   86.39620   17.63940    0.00000
 5064.50000   52.96420  203.40940   82.40060   19.23220    0.00170
 5065.00000   51.86470  203.56110   82.03240   20.58940    0.00270
 5065.50000   52.93660  204.15440   87.98610   19.51590    0.00480
 5066.00000   54.49800  207.43880   97.19660   17.64790    0.00500
 5066.50000   53.18180  212.10260   99.75850   16.38160    0.00430
 5067.00000   51.16760  217.41010   98.98030   17.54300    0.00450
 5067.50000   50.80050  221.94720   98.15190   19.38580    0.00560
 5068.00000   50.99730  222.09510   96.86330   21.42370    0.00870
 5068.50000   51.22360  220.20660   95.58940   23.18150    0.01660
 5069.00000   50.92730  215.50310   93.92620   24.48650    0.02170
 5069.50000   50.63870  208.76420   91.99620   24.98800    0.02540
 5070.00000   50.97310  204.93120   89.85640   25.53380    0.02640
 5070.50000   51.50100  201.68300   88.93100   26.93210    0.02680
 5071.00000   51.72150  199.05100   87.98560   29.39030    0.02770
 5071.50000   51.71030  196.18410   86.26710   32.13570    0.03200
 5072.00000   51.63870  195.33180   84.28520   32.99950    0.03860
 5072.50000   51.55770  195.54970   82.36090   33.31120    0.04290
 5073.00000   51.42560  195.02110   80.52120   31.59720    0.03420
 5073.50000   51.17930  195.42710   78.33900   28.85280    0.02300
 5074.00000   50.18170  195.83310   75.01970   25.14340    0.01540
 5074.50000   48.34580  196.18100   71.25670   21.97300    0.01240
 5075.00000   48.28280  196.28320   71.37810   19.99790    0.01270
 5075.50000   49.90870  196.30140   74.56220   19.74610    0.01640
 5076.00000   51.39080  196.82600   77.80000   21.06920    0.02240
 5076.50000   51.41950  199.32130   80.16440   23.39140    0.03120
 5077.00000   51.44830  200.51070   82.58720   25.50940    0.04000
 5077.50000   51.43740  201.70020   85.59990   27.36370    0.05570
 5078.00000   51.95360  200.39040   89.04990   29.43630    0.06880
 5078.50000   52.84070  197.12760   92.49990   31.08040    0.07470
 5079.00000   53.72790  194.48230   97.07680   34.99720    0.07540
 5079.50000   54.41490  197.71620  101.82270   39.63770    0.08140
 5080.00000   53.22690  197.71950  101.84670   41.11670    0.08960
 5080.50000   51.89450  197.65970  100.40110   39.05690    0.09270
 5081.00000   51.27860  197.53130  100.61060   33.70670    0.08190
 5081.50000   50.83540  197.32360   98.55500   29.20810    0.06590
 5082.00000   50.76480  197.42650   96.60610   27.04090    0.05560
 5082.50000   50.69410  197.53320   95.40930   25.70230    0.05400
 5083.00000   50.62350  197.47020   95.22090   25.54310    0.05530
 5083.50000   50.55280  197.77920   95.12060   26.02280    0.05450
 5084.00000   50.19560  197.44790   93.46520   26.72670    0.05220
 5084.50000   49.02560  197.23050   90.99570   28.36510    0.05070
 5085.00000   48.00160  197.53680   89.38060   30.12300    0.04850
 5085.50000   47.91230  197.84790   88.82390   29.44840    0.04260
 5086.00000   47.89970  198.22400   88.44610   26.34400    0.03300
 5086.50000   47.94360  198.76830   88.25550   23.67120    0.02430
 5087.00000   47.99670  199.85550   88.44410   22.97950    0.02060
 5087.50000   48.04970  199.30980   89.11620   23.61790    0.02020
 5088.00000   48.24750  198.76400   89.61310   25.71430    0.02140
 5088.50000   48.96260  201.49520   90.06640   29.94890    0.02640
 5089.00000   50.96400  202.09800   90.51960   33.26220    0.03320
 5089.50000   51.97550  202.19340   91.41100   37.07070    0.04150
 5090.00000   51.81530  201.59130   92.31600   40.32540    0.05520
 5090.50000   51.70210  200.61470   92.75480   40.54270    0.07530
 5091.00000   51.56260  199.72340   92.41760   40.23060    0.08720
 5091.50000   51.42030  198.92990   92.55580   39.11980    0.08140
 5092.00000   51.27800  198.38440   92.69390   34.77140    0.06230
 5092.50000   50.72740  198.42230   92.88170   29.87120    0.03870
 5093.00000   49.52410  198.40240   93.23390   24.62550    0.02000
 5093.50000   48.62420  198.38250   93.93320   17.56990    0.01150
 5094.00000   48.18680  198.30520   93.55550   16.09800    0.00430
 5094.50000   47.74950  198.19180   91.69070   18.38050    0.00290
 5095.00000   47.40250  198.07840   89.78860   21.83130    0.00580
 5095.50000   47.22350  198.08670   87.55920   24.75550    0.01080
 5096.00000   47.14970  198.18370   85.22940   26.23630    0.01520
 5096.50000   47.30990  198.20560   85.24010   27.63000    0.01980
 5097.00000   47.76890  197.95200   86.58220   29.55550    0.02400
 5097.50000   47.95060  197.56060   88.75930   33.01800    0.02810
 5098.00000   47.97520  196.94430   90.89720   33.27810    0.02730
 5098.50000   48.05640  196.24710   92.26100   29.18620    0.02310
 5099.00000   48.07950  196.38170   93.03530   23.74220    0.01550
 5099.50000   48.10260  197.18270   93.76320   20.18920    0.00880
 5100.00000   48.12570  197.57490   93.29310   20.21780    0.00550
 5100.50000   48.14890  198.24470   92.29430   20.68490    0.00350
 5101.00000   48.17200  199.44420   90.61820   20.96810    0.00440
 5101.50000   48.00600  201.59950   90.03290   21.44250    0.00720
 5102.00000   47.59310  201.28540   88.98030   23.09340    0.01100
 5102.50000   47.08780  199.86840   87.82870   25.62220    0.01770
