~Version ---------------------------------------------------
VERS.   2.0 : CWLS log ASCII Standard -VERSION 2.0
WRAP.    NO : One line per depth step
DLM . SPACE : Column Data Section Delimiter
~Well ------------------------------------------------------
STRT .F                   3.0 : START DEPTH
STOP .F                5396.0 : STOP DEPTH
STEP .F                   0.5 : STEP
NULL .               -9999.25 : NULL VALUE
COMP .                        : COMPANY
WELL .                        : WELL
FLD  .                        : FIELD
LOC  .                        : LOCATION
PROV .                        : PROVINCE
CNTY .                        : COUNTY
STAT .                        : STATE
CTRY .                        : COUNTRY
SRVC .                        : SERVICE COMPANY
DATE .                        : DATE
UWI  .                        : UNIQUE WELL ID
API  .                        : API NUMBER
SLAT .WGS84   3.3841950012431 : SURFACE LATITUDE
SLON .WGS84 7.320318109225013 : SURFACE LONGITUDE
DATUM.F                3587.8 : DEPTH DATUM ELEV
~Curve Information -----------------------------------------
DEPT   .F     : 1 MEASURED DEPTH
DTCO   .US/F  : DELTA-T COMPRESSIONAL
DTST   .US/F  : DELTA-T STONELEY - MONOPOLE STONELEY
DTSM   .US/F  : DELTA-T SHEAR
GRD    .GAPI  : GAMMA RAY FROM DENSITY LOG
NPHI_LS.DEC   : NEUTRON POROSITY LIMESTONE
~Params ----------------------------------------------------
~Other -----------------------------------------------------
~ASCII -----------------------------------------------------
# ...
 4623.00000   49.21970  208.56960   94.20060   10.04410    0.00000
 4623.50000   50.31120  207.56320   94.92340   11.16080    0.00050
 4624.00000   51.23720  203.53060   95.85010   14.23730    0.00260
 4624.50000   51.02170  199.13410   96.45210   17.94990    0.00620
 4625.00000   49.98960  201.42910   95.27310   19.65320    0.01010
 4625.50000   49.85600  207.09960   94.09630   18.94270    0.01330
 4626.00000   49.77660  211.38430   93.33910   16.08590    0.01190
 4626.50000   49.07020  212.99460   94.13340   13.69440    0.00930
 4627.00000   48.85610  213.05010   95.17550   13.06830    0.00700
 4627.50000   50.80140  213.21970   97.05880   14.17870    0.00770
 4628.00000   51.06270  213.84290   94.88490   16.82380    0.01420
 4628.50000   49.95550  215.18670   92.88520   18.83210    0.02800
 4629.00000   50.86910  216.10060   92.49930   18.42600    0.04050
 4629.50000   52.94060  217.49230   89.93340   16.90790    0.04120
 4630.00000   51.84960  219.37210   83.53310   14.47730    0.02880
 4630.50000   49.37290  219.81360   75.46020   12.18020    0.01080
 4631.00000   49.52740  217.82900   74.98300   11.28170    0.00270
 4631.50000   50.10350  215.30350   74.73090   10.48890    0.00030
 4632.00000   49.11400  213.18030   74.47890   10.32050   -0.00040
 4632.50000   46.11250  212.10090   74.22680   10.46120   -0.00090
 4633.00000   46.51640  210.89770   74.11980   11.44240   -0.00080
 4633.50000   47.43400  209.66200   74.07820   12.33780   -0.00050
 4634.00000   48.09270  210.62020   74.03660   13.08430   -0.00020
 4634.50000   48.52390  216.55390   73.99490   12.62570    0.00010
 4635.00000   49.15480  219.68530   73.95330   12.48760    0.00100
 4635.50000   49.89980  222.06690   73.91170   12.65410    0.00340
 4636.00000   50.64070  222.43930   73.87000   15.12830    0.00930
 4636.50000   51.00190  222.32780   73.82840   17.89290    0.02070
 4637.00000   50.82740  222.08840   73.78680   19.91870    0.03120
 4637.50000   50.53360  222.38750   73.80460   21.40710    0.03820
 4638.00000   50.37000  222.82930   74.41100   22.50450    0.03340
 4638.50000   50.66240  222.42430   75.01750   23.63840    0.02630
 4639.00000   51.54640  220.07990   76.45420   25.08620    0.02370
 4639.50000   52.49840  217.58470   77.25810   28.01170    0.02420
 4640.00000   53.45050  216.45940   80.99210   33.74570    0.03050
 4640.50000   54.17440  215.63800   81.75720   39.75080    0.04590
 4641.00000   50.97330  213.21830   78.24670   46.78090    0.06780
 4641.50000   49.49540  210.81690   76.88510   53.27590    0.10410
 4642.00000   49.99060  213.04390   77.93980   55.77450    0.13580
 4642.50000   50.48590  215.66040   78.71240   56.12460    0.16570
 4643.00000   50.54670  216.21470   78.08610   55.71180    0.17040
 4643.50000   50.56660  215.64840   76.29540   55.07730    0.16790
 4644.00000   50.58660  214.25190   74.40830   53.36170    0.16440
 4644.50000   49.65850  211.63550   73.40120   49.70900    0.15470
 4645.00000   48.83990  210.47710   72.33240   45.16110    0.13490
 4645.50000   48.81770  210.62160   70.92520   42.10990    0.09750
 4646.00000   48.85600  211.09390   70.13680   42.80540    0.05660
 4646.50000   48.78620  211.80220   71.03260   45.82970    0.04070
 4647.00000   48.27890  210.71690   72.38610   48.40090    0.04230
 4647.50000   47.83720  210.47330   72.79530   50.19120    0.05510
 4648.00000   47.95310  211.73310   73.02540   49.75640    0.07180
 4648.50000   48.12580  212.26380   74.69800   47.41650    0.07270
 4649.00000   47.75840  212.72680   77.34920   44.66120    0.06480
 4649.50000   48.84910  213.18980   83.51230   43.19740    0.05000
 4650.00000   49.12210  215.97140   88.19650   44.06620    0.03990
 4650.50000   48.95780  216.78180   93.64690   46.71330    0.03890
 4651.00000   48.87260  216.34310   96.60030   49.25970    0.04300
 4651.50000   48.79940  216.28780   97.72770   50.06640    0.05230
 4652.00000   48.72620  216.37990   97.98160   49.05120    0.06120
 4652.50000   48.66390  216.50560   98.10260   46.91970    0.06830
 4653.00000   48.62320  217.30660   98.22370   44.68610    0.06830
 4653.50000   48.58250  217.59040   98.34470   43.25910    0.06590
 4654.00000   48.54180  217.76140   98.62180   45.20320    0.06310
 4654.50000   48.50120  218.06710   98.82160   48.69550    0.06220
 4655.00000   48.46050  217.98430   96.51410   51.45830    0.06400
 4655.50000   48.29220  217.68010   91.58760   51.74210    0.06830
 4656.00000   47.51800  217.36140   87.14550   49.01530    0.07370
 4656.50000   50.43950  217.91190   87.23830   44.72640    0.07550
 4657.00000   53.26300  219.66680   92.44960   42.53880    0.07510
 4657.50000   50.81260  221.38170   93.02980   41.20860    0.07960
 4658.00000   51.23250  219.70650   96.82820   39.25530    0.10120
 4658.50000   57.27440  217.88130  109.23840   35.90900    0.10040
 4659.00000   66.16670  217.65610  127.08870   32.49770    0.08200
 4659.50000   71.19670  217.38170  136.16470   30.01590    0.05390
 4660.00000   72.12950  216.27290  138.90230   28.13820    0.02530
 4660.50000   71.81730  214.84360  137.73080   26.71300    0.01750
 4661.00000   66.22740  213.61120  127.12170   25.85640    0.02070
 4661.50000   53.81330  212.66630  105.45320   24.69470    0.03670
 4662.00000   47.30350  212.09470   97.60850   21.75910    0.06830
 4662.50000   47.40350  211.86820   98.27780   18.77980    0.08720
 4663.00000   47.97880  211.59530  101.15430   16.34920    0.07050
 4663.50000   48.10860  211.14970  100.05910   14.88520    0.04510
 4664.00000   48.23850  209.19100   98.96400   14.27780    0.01970
 4664.50000   48.63840  209.12600   99.83410   15.43800    0.00590
 4665.00000   49.73600  209.36450  103.88300   17.89880    0.00710
 4665.50000   51.22250  210.45010  106.54190   20.55900    0.01150
 4666.00000   51.94320  211.17140  106.24050   23.80590    0.02390
 4666.50000   51.25550  211.27850  104.68140   26.20700    0.04620
 4667.00000   50.22810  211.38190  103.56430   26.88090    0.07450
 4667.50000   49.05950  211.48600  102.46950   26.23200    0.10060
 4668.00000   48.86420  211.84670  102.24730   23.71310    0.09000
 4668.50000   50.70070  212.29390  102.04050   21.05690    0.05910
 4669.00000   52.71070  212.52690   99.35960   21.47350    0.02590
 4669.50000   55.37550  212.89920   96.29630   24.68480    0.01470
 4670.00000   54.12210  213.46850   82.64360   32.67550    0.01930
 4670.50000   49.32150  213.44160   76.14340   38.41580    0.03460
 4671.00000   47.15740  212.78260   71.53640   41.32020    0.05020
 4671.50000   46.99970  212.12360   71.82440   39.98040    0.05220
 4672.00000   47.68810  211.93000   73.90650   39.15130    0.04150
 4672.50000   48.31690  211.97900   78.09280   40.05790    0.02810
 4673.00000   48.42100  212.02810   82.24810   41.95210    0.02700
 4673.50000   48.50630  212.07720   86.23810   43.28640    0.02740
 4674.00000   48.59170  212.12630   89.07940   43.29950    0.02990
 4674.50000   48.58990  212.17530   92.88770   42.88130    0.03180
 4675.00000   48.57650  212.20640   95.94320   42.93330    0.03350
 4675.50000   48.56310  212.22140   99.40740   43.19560    0.03610
 4676.00000   48.54970  213.58970  102.36830   43.46110    0.04010
 4676.50000   48.53630  215.01880  104.95740   43.94040    0.04530
 4677.00000   48.42990  215.96750  105.09700   44.95180    0.04900
 4677.50000   47.79050  215.85600  103.24010   45.74810    0.05340
 4678.00000   46.73320  215.64120   97.67820   44.39730    0.05860
 4678.50000   45.85090  214.67740   89.61110   41.21070    0.06330
 4679.00000   45.69710  211.57510   87.52860   38.23440    0.06290
 4679.50000   45.99710  207.43310   86.66130   36.21830    0.05760
 4680.00000   48.75430  205.80630   87.94700   39.01880    0.04710
 4680.50000   51.63270  207.30890   90.47170   42.71730    0.04010
 4681.00000   54.05740  209.68750   92.40950   46.34890    0.04920
 4681.50000   54.33300  210.94220   88.92570   49.66690    0.08800
 4682.00000   51.92070  208.08900   79.96280   48.57180    0.14180
 4682.50000   48.68910  204.05040   74.51770   44.31670    0.18720
