~Version ---------------------------------------------------
VERS.   2.0 : CWLS log ASCII Standard -VERSION 2.0
WRAP.    NO : One line per depth step
DLM . SPACE : Column Data Section Delimiter
~Well ------------------------------------------------------
STRT .F                   3.0 : START DEPTH
STOP .F                5396.0 : STOP DEPTH
STEP .F                   0.5 : STEP
NULL .               -9999.25 : NULL VALUE
COMP .                        : COMPANY
WELL .                        : WELL
FLD  .                        : FIELD
LOC  .                        : LOCATION
PROV .                        : PROVINCE
CNTY .                        : COUNTY
STAT .                        : STATE
CTRY .                        : COUNTRY
SRVC .                        : SERVICE COMPANY
DATE .                        : DATE
UWI  .                        : UNIQUE WELL ID
API  .                        : API NUMBER
SLAT .WGS84   3.3841950012431 : SURFACE LATITUDE
SLON .WGS84 7.320318109225013 : SURFACE LONGITUDE
DATUM.F                3587.8 : DEPTH DATUM ELEV
~Curve Information -----------------------------------------
DEPT   .F     : 1 MEASURED DEPTH
DTCO   .US/F  : DELTA-T COMPRESSIONAL
DTST   .US/F  : DELTA-T STONELEY - MONOPOLE STONELEY
DTSM   .US/F  : DELTA-T SHEAR
GRD    .GAPI  : GAMMA RAY FROM DENSITY LOG
NPHI_LS.DEC   : NEUTRON POROSITY LIMESTONE
~Params ----------------------------------------------------
~Other -----------------------------------------------------
~ASCII -----------------------------------------------------
# ...
 5103.00000   46.67290  198.46560   87.97820   27.48660    0.02500
 5103.50000   46.59310  197.06720   87.69270   27.39250    0.03340
 5104.00000   46.69770  197.14330   85.75070   26.34730    0.03960
 5104.50000   47.00470  199.62150   83.86430   23.81050    0.03800
 5105.00000   47.74390  202.23080   82.96100   23.01790    0.03120
 5105.50000   47.97010  204.41570   82.85620   23.57800    0.02620
 5106.00000   48.00520  205.28030   82.58730   28.17070    0.02430
 5106.50000   48.07860  204.19940   82.06040   33.61030    0.02890
 5107.00000   48.16930  203.20910   81.36590   36.58140    0.03930
 5107.50000   48.08680  202.18090   80.29840   36.16870    0.05060
 5108.00000   47.97950  200.01130   79.22350   34.46920    0.05080
 5108.50000   47.86530  197.86130   78.42310   33.71180    0.03760
 5109.00000   47.69220  197.81310   78.25780   34.30440    0.02890
 5109.50000   47.29820  198.13840   78.09250   34.45860    0.02640
 5110.00000   47.26540  198.13070   78.35930   32.09460    0.02800
 5110.50000   47.08720  198.05250   79.26970   27.74120    0.02900
 5111.00000   46.98980  198.14250   81.72730   24.22770    0.02820
 5111.50000   46.97870  198.77680   85.25070   23.97690    0.02670
 5112.00000   46.97370  201.83590   89.80480   25.20800    0.02660
 5112.50000   46.97370  201.58720   92.53790   26.31780    0.02850
 5113.00000   46.97370  200.47110   93.13740   27.04270    0.03250
 5113.50000   46.97370  200.90540   92.61940   27.59770    0.03640
 5114.00000   46.97820  201.93110   91.58640   28.46690    0.04390
 5114.50000   47.18020  202.04100   90.53300   29.08720    0.05050
 5115.00000   47.79670  200.56850   89.47960   28.50730    0.04910
 5115.50000   47.95930  199.38580   88.42620   25.31500    0.04020
 5116.00000   47.96970  198.61380   87.37280   21.16350    0.02400
 5116.50000   47.72750  197.92020   85.83400   17.81040    0.01000
 5117.00000   47.44250  197.44650   83.79270   16.11840    0.00430
 5117.50000   47.25370  197.27430   81.84170   16.35180    0.00160
 5118.00000   47.10950  197.46960   80.12470   18.93550    0.00230
 5118.50000   46.98190  197.82970   78.46690   23.60780    0.00490
 5119.00000   47.15320  197.83000   76.80920   26.98860    0.00780
 5119.50000   48.12240  197.18620   75.82620   30.02010    0.01130
 5120.00000   49.32900  196.08060   76.50940   35.21550    0.01690
 5120.50000   50.53570  195.92120   77.29690   43.04150    0.02390
 5121.00000   51.01040  196.49370   77.54940   52.07050    0.03790
 5121.50000   50.45730  197.65050   77.42730   57.64490    0.06370
 5122.00000   49.71590  200.01330   77.30530   57.17090    0.08710
 5122.50000   48.97450  202.72950   76.65140   47.19720    0.08480
 5123.00000   48.46520  207.26200   75.39010   35.86130    0.06120
 5123.50000   48.01360  212.08590   74.72380   27.80970    0.03690
 5124.00000   47.89730  218.51320   74.68690   24.22940    0.01330
 5124.50000   47.94770  227.55150   74.65010   23.43980    0.00550
 5125.00000   47.75770  232.42100   74.59470   22.72900    0.00310
 5125.50000   47.43760  234.29960   74.52180   21.12490    0.00170
 5126.00000   47.34510  235.13200   74.29220   18.87860    0.00140
 5126.50000   47.00120  233.99530   74.61360   17.76590    0.00140
 5127.00000   46.97560  232.83360   74.51430   21.15440    0.00140
 5127.50000   46.96670  233.72770   74.41500   25.65230    0.00330
 5128.00000   47.16440  233.10580   74.31570   30.02200    0.00680
 5128.50000   47.58920  222.52300   74.22150   29.54390    0.00960
 5129.00000   47.92990  206.76730   74.19010   28.09300    0.00980
 5129.50000   48.27060  198.37370   74.35050   26.24830    0.00830
 5130.00000   49.35470  199.03980   77.42450   22.90040    0.00520
 5130.50000   50.38210  199.60220   80.53480   19.57430    0.00260
 5131.00000   50.05410  199.54010   79.95610   16.83260    0.00050
 5131.50000   48.86320  199.47800   77.25860   14.68620    0.00060
 5132.00000   48.08550  199.32930   74.61580   15.76010    0.00080
 5132.50000   47.74390  198.97290   74.01370   20.76500    0.00090
 5133.00000   47.40240  198.61420   74.02400   25.61800    0.00360
 5133.50000   47.07160  198.29830   74.03870   29.56770    0.00930
 5134.00000   46.71770  198.00780   74.05340   28.89410    0.01390
 5134.50000   46.25370  197.77190   74.06820   25.74080    0.01420
 5135.00000   46.07170  197.60330   74.08290   23.10020    0.01090
 5135.50000   45.85400  197.81130   74.09760   21.70220    0.00460
 5136.00000   45.75590  197.64450   74.11240   25.38430   -0.00090
 5136.50000   46.59420  197.23860   74.12710   30.00500    0.00160
 5137.00000   47.28400  196.82710   74.14190   34.50680    0.00700
 5137.50000   47.46820  196.44530   74.71320   36.72010    0.01220
 5138.00000   47.02480  197.85510   77.51120   34.17640    0.01970
 5138.50000   46.13510  201.60830   85.88290   28.87930    0.02080
 5139.00000   46.40640  204.40730   87.50710   24.70140    0.01820
 5139.50000   46.10490  207.25400   88.05110   21.72660    0.01490
 5140.00000   46.00600  208.16940   88.68380   20.50150    0.01110
 5140.50000   45.98430  208.04780   88.71550   20.55730    0.00970
 5141.00000   46.03140  207.87050   88.43180   21.25430    0.01130
 5141.50000   46.31050  207.14080   87.89920   23.38180    0.01340
 5142.00000   46.76230  203.52460   87.58270   25.76100    0.01530
 5142.50000   46.93240  197.89060   87.38030   26.92360    0.01810
 5143.00000   46.84720  196.33250   87.61970   27.01300    0.01980
 5143.50000   46.70250  195.27530   87.85920   27.24180    0.02140
 5144.00000   46.66110  193.19380   88.02500   27.59050    0.02070
 5144.50000   46.83100  192.74300   87.72260   28.57420    0.02000
 5145.00000   46.76760  194.85680   87.76340   30.06080    0.02130
 5145.50000   46.36410  201.42620   87.93140   31.86600    0.02440
 5146.00000   46.09970  209.67700   88.09940   32.18340    0.02890
 5146.50000   46.04070  212.07130   88.19040   29.69280    0.03290
 5147.00000   46.32380  208.81330   87.97280   25.79820    0.02960
 5147.50000   46.48360  204.73110   87.65960   22.63480    0.02340
 5148.00000   46.67140  202.73420   88.59950   20.85180    0.01360
 5148.50000   46.96050  201.44990   90.36960   19.19210    0.01080
 5149.00000   47.42640  199.40000   92.32080   17.26500    0.00810
 5149.50000   47.58570  196.05800   94.20430   16.04000    0.00540
 5150.00000   47.36970  192.71590   93.97620   17.30460    0.00500
 5150.50000   47.10170  190.00110   92.96350   18.34780    0.00630
 5151.00000   46.97300  191.09850   89.68060   18.22050    0.00970
 5151.50000   46.90240  192.12860   87.18640   17.58170    0.01350
 5152.00000   46.60330  193.32230   85.41040   18.67210    0.01610
 5152.50000   46.19680  193.61120   83.52210   20.83030    0.01940
 5153.00000   46.02180  194.22240   81.10410   24.24610    0.02270
 5153.50000   46.03450  198.17900   79.18070   27.69510    0.02530
 5154.00000   46.28210  202.13560   77.45410   30.37160    0.02880
 5154.50000   46.81400  206.07100   75.81250   30.51630    0.03340
 5155.00000   47.48540  207.31200   74.53170   30.13970    0.03510
 5155.50000   47.71160  207.93600   73.64970   27.66530    0.03280
 5156.00000   47.71740  208.38320   72.72660   22.46340    0.02430
 5156.50000   47.64570  208.64680   73.58880   17.60930    0.01330
 5157.00000   47.28390  207.46620   75.20090   16.70800    0.00860
 5157.50000   47.04940  205.21120   75.12610   16.74520    0.00660
 5158.00000   46.53100  203.22610   74.06350   17.13280    0.00920
 5158.50000   46.05640  201.24090   74.82250   17.42720    0.01360
 5159.00000   45.96600  198.52270   77.49870   18.28800    0.01690
 5159.50000   45.87550  195.00970   79.46680   20.21130    0.01910
 5160.00000   45.89860  193.67920   79.89670   23.63730    0.02150
 5160.50000   45.89190  193.27730   79.26190   25.86670    0.02480
 5161.00000   45.53540  192.85640   79.07800   26.06670    0.02850
 5161.50000   45.44930  192.39900   79.36200   25.08080    0.03160
 5162.00000   45.38690  191.76880   82.75080   22.33330    0.03150
 5162.50000   45.64740  191.14510   86.17260   18.75580    0.02850
