~Version ---------------------------------------------------
VERS.   2.0 : CWLS log ASCII Standard -VERSION 2.0
WRAP.    NO : One line per depth step
DLM . SPACE : Column Data Section Delimiter
~Well ------------------------------------------------------
STRT .F                   3.0 : START DEPTH
STOP .F                5396.0 : STOP DEPTH
STEP .F                   0.5 : STEP
NULL .               -9999.25 : NULL VALUE
COMP .                        : COMPANY
WELL .                        : WELL
FLD  .                        : FIELD
LOC  .                        : LOCATION
PROV .                        : PROVINCE
CNTY .                        : COUNTY
STAT .                        : STATE
CTRY .                        : COUNTRY
SRVC .                        : SERVICE COMPANY
DATE .                        : DATE
UWI  .                        : UNIQUE WELL ID
API  .                        : API NUMBER
SLAT .WGS84   3.3841950012431 : SURFACE LATITUDE
SLON .WGS84 7.320318109225013 : SURFACE LONGITUDE
DATUM.F                3587.8 : DEPTH DATUM ELEV
~Curve Information -----------------------------------------
DEPT   .F     : 1 MEASURED DEPTH
DTCO   .US/F  : DELTA-T COMPRESSIONAL
DTST   .US/F  : DELTA-T STONELEY - MONOPOLE STONELEY
DTSM   .US/F  : DELTA-T SHEAR
GRD    .GAPI  : GAMMA RAY FROM DENSITY LOG
NPHI_LS.DEC   : NEUTRON POROSITY LIMESTONE
~Params ----------------------------------------------------
~Other -----------------------------------------------------
~ASCII -----------------------------------------------------
# ...
 4383.00000   -9999.25   -9999.25   -9999.25   46.37580    0.04460
 4383.50000   -9999.25   -9999.25   -9999.25   44.82330    0.04330
 4384.00000   -9999.25   -9999.25   -9999.25   39.05460    0.04230
 4384.50000   -9999.25   -9999.25   -9999.25   31.37660    0.03770
 4385.00000   -9999.25   -9999.25   -9999.25   27.06740    0.03470
 4385.50000   -9999.25   -9999.25   -9999.25   26.37610    0.03330
 4386.00000   -9999.25   -9999.25   -9999.25   27.64060    0.03580
 4386.50000   -9999.25   -9999.25   -9999.25   28.98640    0.04050
 4387.00000   -9999.25   -9999.25   -9999.25   29.41700    0.04470
 4387.50000   -9999.25   -9999.25   -9999.25   30.52030    0.04780
 4388.00000   -9999.25   -9999.25   -9999.25   35.84090    0.04830
 4388.50000   -9999.25   -9999.25   -9999.25   42.63300    0.04990
 4389.00000   -9999.25   -9999.25   -9999.25   47.64300    0.05420
 4389.50000   -9999.25   -9999.25   -9999.25   50.21670    0.05750
 4390.00000   -9999.25   -9999.25   -9999.25   50.22170    0.05740
 4390.50000   -9999.25   -9999.25   -9999.25   50.15670    0.05740
 4391.00000   -9999.25   -9999.25   -9999.25   51.24480    0.06140
 4391.50000   -9999.25   -9999.25   -9999.25   53.01080    0.07300
 4392.00000   -9999.25   -9999.25   -9999.25   57.68130    0.09090
 4392.50000   -9999.25   -9999.25   -9999.25   62.41470    0.11590
 4393.00000   -9999.25   -9999.25   -9999.25   65.86440    0.14270
 4393.50000   -9999.25   -9999.25   -9999.25   66.99180    0.16630
 4394.00000   -9999.25   -9999.25   -9999.25   60.48910    0.16750
 4394.50000   -9999.25   -9999.25   -9999.25   51.17110    0.13170
 4395.00000   44.21730  205.79450   73.46310   42.20220    0.08830
 4395.50000   46.13450  205.71920   73.38190   38.79310    0.04870
 4396.00000   48.05180  205.64380   73.24400   41.03310    0.03390
 4396.50000   48.90460  205.85740   73.10200   47.58260    0.03460
 4397.00000   48.94140  206.82890   73.40920   51.39940    0.04840
 4397.50000   48.94220  209.44270   75.50060   53.47950    0.07130
 4398.00000   48.94310  212.27910   76.72680   55.69630    0.10250
 4398.50000   48.92670  212.65660   77.02680   60.43190    0.13370
 4399.00000   48.49330  210.58090   76.69330   61.71810    0.16210
 4399.50000   47.64210  211.47880   76.35620   58.23580    0.15400
 4400.00000   46.96150  210.52000   76.01920   51.40360    0.11170
 4400.50000   47.74420  208.34480   76.88040   46.62390    0.07010
 4401.00000   47.70790  205.96650   77.31960   49.07690    0.04870
 4401.50000   46.71450  204.76930   77.67070   53.53630    0.04040
 4402.00000   47.39600  205.81940   81.96170   58.78460    0.04900
 4402.50000   51.37890  206.75590   86.80570   62.87770    0.07800
 4403.00000   52.72070  207.01140   88.15730   63.81830    0.11650
 4403.50000   50.97380  206.82360   86.79620   64.49340    0.15030
 4404.00000   49.68920  206.60870   86.18500   66.51110    0.18400
 4404.50000   49.72610  206.31170   85.35760   68.61380    0.21680
 4405.00000   49.24680  204.64160   84.17430   66.73330    0.22760
 4405.50000   48.02730  202.75230   83.37820   61.77450    0.22130
 4406.00000   47.26540  201.09970   86.18050   53.14580    0.19160
 4406.50000   48.12750  199.48530   90.56440   44.89140    0.14190
 4407.00000   48.78560  194.58180   95.97810   41.33510    0.06730
 4407.50000   49.05200  193.39120  100.15780   41.52900    0.03680
 4408.00000   48.86840  196.12370  103.27290   45.91120    0.02460
 4408.50000   48.20040  199.32800   98.03790   50.80070    0.04330
 4409.00000   47.12500  201.93230   87.40050   50.73300    0.07090
 4409.50000   46.83530  204.19460   78.19200   46.12440    0.09230
 4410.00000   47.51950  204.17400   73.28840   42.67550    0.09610
 4410.50000   48.67470  203.83200   72.96680   42.82040    0.07530
 4411.00000   49.12260  205.04880   72.77210   48.38710    0.03040
 4411.50000   49.57050  205.99890   73.81900   54.63370    0.03930
 4412.00000   49.95320  205.34510   75.94030   59.99650    0.07520
 4412.50000   49.61390  204.30910   76.33280   61.44270    0.11240
 4413.00000   48.84200  203.27310   75.75450   59.39970    0.14920
 4413.50000   47.98920  203.08300   73.22220   54.75160    0.15320
 4414.00000   46.88790  203.51620   69.99380   49.15120    0.12380
 4414.50000   46.60980  203.94940   74.68660   43.73480    0.08690
 4415.00000   47.90270  204.21730   83.41330   42.57060    0.04990
 4415.50000   48.61070  204.34520   89.57980   43.10520    0.03770
 4416.00000   49.21060  204.52410   91.76070   45.01690    0.03690
 4416.50000   50.81160  204.51820   92.94300   47.66240    0.05540
 4417.00000   52.62580  204.41210   92.89420   48.78270    0.07330
 4417.50000   53.03830  204.34730   88.44800   48.96090    0.07680
 4418.00000   50.72830  204.88870   79.92860   49.53860    0.07760
 4418.50000   48.96400  206.30440   74.13350   51.91790    0.08700
 4419.00000   48.61880  205.61770   73.06290   52.95530    0.11120
 4419.50000   48.90350  203.88120   72.55010   52.66780    0.13150
 4420.00000   48.99980  202.61320   72.34730   50.30510    0.12290
 4420.50000   48.99520  202.69540   72.51120   48.55040    0.10150
 4421.00000   48.99070  203.06620   72.67510   47.34040    0.09320
 4421.50000   48.98610  202.35560   72.83910   46.73940    0.10430
 4422.00000   48.98160  201.85240   72.91360   46.14760    0.11050
 4422.50000   48.97700  201.77190   70.63140   43.98130    0.08550
 4423.00000   48.97250  201.69140   69.37340   41.55970    0.06050
 4423.50000   48.97070  201.68590   69.09380   39.40620    0.03730
 4424.00000   48.97070  200.87310   69.35900   38.64370    0.02860
 4424.50000   48.97070  197.78080   69.67840   39.18630    0.02480
 4425.00000   48.87290  194.27210   69.76440   41.19380    0.02690
 4425.50000   47.92750  191.99520   70.21040   43.05360    0.03410
 4426.00000   47.13160  192.03960   71.72510   44.44260    0.04970
 4426.50000   47.94610  192.27540   72.12710   45.44340    0.06940
 4427.00000   48.96920  192.48230   72.48510   46.46570    0.07930
 4427.50000   48.89960  192.71830   72.84300   49.54400    0.08530
 4428.00000   48.83010  195.80750   77.31320   52.59860    0.10500
 4428.50000   48.76050  201.31070   85.20030   54.86620    0.12810
 4429.00000   48.69090  202.76600   97.23000   54.10480    0.14550
 4429.50000   48.03730  203.32040  105.44550   52.30470    0.12530
 4430.00000   46.67910  203.77320  105.19570   51.74160    0.08930
 4430.50000   46.16350  203.91770  103.81750   51.17060    0.05280
 4431.00000   46.63060  203.39460  106.09170   49.94950    0.04260
 4431.50000   47.87280  202.55350  107.37000   47.52680    0.03240
 4432.00000   48.60860  201.71250  108.29160   45.93790    0.02250
 4432.50000   48.71460  201.31680  109.28980   45.64310    0.01580
 4433.00000   48.77580  203.96760  110.35110   46.37680    0.01480
 4433.50000   48.83700  205.89310  111.40410   46.82100    0.01530
 4434.00000   48.89820  205.08380  108.94110   46.90600    0.01670
 4434.50000   48.94980  203.73720  102.39910   46.93970    0.01880
 4435.00000   48.98180  203.79930   95.40900   47.06800    0.02090
 4435.50000   49.01340  203.86150   93.56020   47.07300    0.02270
 4436.00000   49.01610  203.92370   93.56510   46.62320    0.02400
 4436.50000   48.96560  203.98580   95.76080   45.72320    0.02510
 4437.00000   48.91500  204.04800   97.02240   45.66420    0.02450
 4437.50000   48.86450  204.58800   99.31260   46.18520    0.02430
 4438.00000   48.81390  205.79170  102.62190   47.57030    0.02620
 4438.50000   48.76340  207.12390  106.02860   49.32530    0.02930
 4439.00000   48.72510  206.89130  109.14900   49.97350    0.03110
 4439.50000   48.25280  206.11930  109.72640   48.91860    0.03320
 4440.00000   47.45310  205.34740  108.58650   46.05630    0.03160
 4440.50000   47.03000  204.57540  107.32730   43.05080    0.02980
 4441.00000   48.02080  204.81740  110.02120   39.95640    0.02750
 4441.50000   49.10160  205.60900  112.93180   39.91070    0.02530
 4442.00000   49.08830  205.72690  113.18860   41.11580    0.02230
 4442.50000   49.07490  204.33460  112.88940   42.27260    0.02170
