~Version ---------------------------------------------------
VERS.   2.0 : CWLS log ASCII Standard -VERSION 2.0
WRAP.    NO : One line per depth step
DLM . SPACE : Column Data Section Delimiter
~Well ------------------------------------------------------
STRT .F                   3.0 : START DEPTH
STOP .F                5396.0 : STOP DEPTH
STEP .F                   0.5 : STEP
NULL .               -9999.25 : NULL VALUE
COMP .                        : COMPANY
WELL .                        : WELL
FLD  .                        : FIELD
LOC  .                        : LOCATION
PROV .                        : PROVINCE
CNTY .                        : COUNTY
STAT .                        : STATE
CTRY .                        : COUNTRY
SRVC .                        : SERVICE COMPANY
DATE .                        : DATE
UWI  .                        : UNIQUE WELL ID
API  .                        : API NUMBER
SLAT .WGS84   3.3841950012431 : SURFACE LATITUDE
SLON .WGS84 7.320318109225013 : SURFACE LONGITUDE
DATUM.F                3587.8 : DEPTH DATUM ELEV
~Curve Information -----------------------------------------
DEPT   .F     : 1 MEASURED DEPTH
DTCO   .US/F  : DELTA-T COMPRESSIONAL
DTST   .US/F  : DELTA-T STONELEY - MONOPOLE STONELEY
DTSM   .US/F  : DELTA-T SHEAR
GRD    .GAPI  : GAMMA RAY FROM DENSITY LOG
NPHI_LS.DEC   : NEUTRON POROSITY LIMESTONE
~Params ----------------------------------------------------
~Other -----------------------------------------------------
~ASCII -----------------------------------------------------
# ...
 4503.00000   50.06310  207.76180   77.85950   45.88150    0.01430
 4503.50000   49.92290  207.86520   76.25060   45.76820    0.01330
 4504.00000   49.39560  207.85290   74.44080   44.78890    0.01340
 4504.50000   49.07780  207.93790   74.22970   43.62530    0.01400
 4505.00000   49.25230  207.62070   75.20490   43.08100    0.01480
 4505.50000   54.93200  206.98150   84.06060   43.24230    0.01570
 4506.00000   68.84520  206.06110  104.05430   43.35930    0.01710
 4506.50000   81.48510  205.56690  122.83670   42.94920    0.02000
 4507.00000   84.88800  205.56710  125.73720   41.24710    0.02370
 4507.50000   81.69960  205.56020  121.94090   40.31210    0.02640
 4508.00000   68.55860  205.36410  101.14510   40.70090    0.02950
 4508.50000   55.01180  204.37560   81.51890   42.25010    0.03120
 4509.00000   49.68500  201.82650   70.78340   43.55720    0.03410
 4509.50000   48.98330  196.58820   71.51390   44.90060    0.04110
 4510.00000   48.80220  192.36710   72.32810   48.32740    0.06000
 4510.50000   48.69090  191.70340   72.99720   51.44690    0.08150
 4511.00000   48.59270  191.77510   73.66630   52.18390    0.10520
 4511.50000   48.60710  191.84690   74.34890   52.00930    0.12380
 4512.00000   49.38200  191.92910   75.99810   51.13060    0.12510
 4512.50000   51.04290  195.86900   78.45620   52.15220    0.11870
 4513.00000   53.85240  200.95730   80.89940   55.02590    0.11780
 4513.50000   54.58400  203.53230   81.70550   57.99980    0.13100
 4514.00000   54.26740  204.62570   81.00140   57.52260    0.16160
 4514.50000   53.39090  205.55910   80.09090   55.06740    0.16930
 4515.00000   52.04650  206.48450   77.52010   50.34910    0.15510
 4515.50000   49.91100  207.17100   74.55030   45.28950    0.12880
 4516.00000   48.19850  207.47050   74.19010   43.69640    0.10370
 4516.50000   47.10740  207.63920   82.38210   43.97990    0.07360
 4517.00000   47.10850  207.80360   91.02750   45.38050    0.04470
 4517.50000   50.25130  207.95960   99.15170   45.62660    0.02790
 4518.00000   55.03900  208.11550  108.54160   44.62330    0.02010
 4518.50000   57.00680  208.27150  115.20160   43.01330    0.02010
 4519.00000   55.61370  208.33860  112.93530   42.03980    0.02350
 4519.50000   53.11150  208.14650  113.07630   41.01550    0.02820
 4520.00000   52.33730  207.92250  113.74730   38.97850    0.03400
 4520.50000   51.10160  208.08090  112.11870   35.30800    0.03810
 4521.00000   50.35620  209.50920  110.36550   34.65280    0.03770
 4521.50000   49.77260  210.94320  106.46440   35.88620    0.03670
 4522.00000   49.19250  212.23980   93.87210   39.59110    0.04180
 4522.50000   48.74100  212.62860   84.62910   43.14700    0.04790
 4523.00000   48.58790  212.46320   77.60470   45.67270    0.05000
 4523.50000   48.68720  212.15840   74.21300   48.98370    0.05230
 4524.00000   48.78650  211.92380   73.35290   51.53920    0.05920
 4524.50000   48.88580  211.92380   72.49290   51.26830    0.07500
 4525.00000   48.89320  212.75140   71.96200   48.27640    0.08670
 4525.50000   48.62540  212.91310   72.64320   45.26510    0.08780
 4526.00000   48.52190  212.93210   73.06130   45.26240    0.07780
 4526.50000   48.62000  212.94470   72.98200   47.52950    0.06700
 4527.00000   48.62350  213.02630   72.90270   50.32920    0.06100
 4527.50000   48.61570  213.35820   72.78900   50.87310    0.05460
 4528.00000   48.32200  211.69850   72.76520   48.55130    0.05000
 4528.50000   47.84400  208.57030   72.88270   46.21390    0.05320
 4529.00000   48.20360  206.92750   72.20830   45.06420    0.06070
 4529.50000   48.62660  207.10650   70.96750   43.73540    0.06480
 4530.00000   48.90720  207.24030   69.94740   39.07400    0.06090
 4530.50000   49.04010  207.37410   71.15200   34.34310    0.05430
 4531.00000   48.94110  207.42730   72.84610   32.07820    0.05110
 4531.50000   48.79630  207.42520   73.23620   31.69090    0.05350
 4532.00000   47.71330  207.97630   73.34520   33.70100    0.07790
 4532.50000   46.54090  209.17300   78.90240   36.28460    0.11210
 4533.00000   47.66250  211.69250   89.97220   37.06450    0.12680
 4533.50000   48.49290  214.10530  101.57600   37.05280    0.09970
 4534.00000   49.43240  213.31440  106.17360   34.93600    0.07260
 4534.50000   50.39460  212.50660  110.77110   31.28250    0.07250
 4535.00000   51.78060  211.51230  116.82400   26.54860    0.11110
 4535.50000   54.47640  210.51790  123.40820   23.12990    0.14840
 4536.00000   57.97310  210.07220  126.32910   19.48600    0.12970
 4536.50000   59.37710  210.79000  123.45100   15.83150    0.08050
 4537.00000   55.78300  211.45990  112.36010   13.49270    0.03470
 4537.50000   50.93120  212.12980   99.47390   11.94550    0.00530
 4538.00000   47.60600  212.79970   91.41810   11.11720   -0.00340
 4538.50000   48.18860  212.71690   84.35530   10.95170   -0.00600
 4539.00000   48.79900  212.14380   82.28930   11.57730   -0.00610
 4539.50000   48.81910  211.57060   77.87320   12.63460   -0.00540
 4540.00000   48.82350  211.09720   75.07310   16.73240   -0.00220
 4540.50000   48.82790  211.70490   74.13300   25.58140    0.00350
 4541.00000   48.85340  212.50770   74.06960   35.88780    0.04370
 4541.50000   48.99390  214.06870   74.03960   42.12820    0.08740
 4542.00000   49.05960  215.63220   73.80460   42.48450    0.13260
 4542.50000   49.01890  216.04260   73.28880   40.46230    0.15250
 4543.00000   48.97820  216.21040   73.44060   37.63910    0.13030
 4543.50000   48.93750  216.29990   73.59240   33.96640    0.09510
 4544.00000   48.89680  216.59830   73.74420   29.98920    0.05070
 4544.50000   48.99250  217.55460   73.89600   28.06550    0.03800
 4545.00000   49.11750  220.03590   74.19650   28.29300    0.04680
 4545.50000   49.24250  222.14770   75.18970   29.58750    0.07310
 4546.00000   49.36740  221.03650   77.30350   31.45990    0.10530
 4546.50000   49.49240  219.09400   81.58490   32.98250    0.14300
 4547.00000   49.64490  216.87820   89.11110   31.71550    0.14380
 4547.50000   49.84250  210.19900   97.42780   29.13780    0.11540
 4548.00000   49.73400  204.76500  101.54320   26.41150    0.06580
 4548.50000   49.46300  201.21160   99.91170   25.94410    0.03620
 4549.00000   48.53150  199.51480   96.24020   27.13500    0.03260
 4549.50000   47.53380  198.91030   89.81080   28.88030    0.04750
 4550.00000   47.58880  198.74490   81.21430   30.76200    0.08460
 4550.50000   48.54210  200.94060   75.43910   32.64370    0.13030
 4551.00000   49.77490  204.03410   74.94070   33.68300    0.16280
 4551.50000   50.90080  206.25830   74.44240   33.48130    0.14960
 4552.00000   51.05950  203.51350   73.95810   32.83240    0.12300
 4552.50000   50.47340  203.95440   73.54300   32.11210    0.08700
 4553.00000   49.80900  204.61090   72.96970   30.62840    0.05940
 4553.50000   49.14460  205.16990   73.28670   28.69120    0.04300
 4554.00000   49.18350  206.58150   75.82770   27.89830    0.03390
 4554.50000   49.54610  209.39250   78.27480   28.32970    0.03950
 4555.00000   49.58400  211.45750   79.71200   29.12440    0.07000
 4555.50000   49.21320  208.96840   81.14930   28.48790    0.10260
 4556.00000   48.41050  201.52280   84.93140   24.77840    0.13320
 4556.50000   46.45580  193.98750   89.14410   19.42700    0.11860
 4557.00000   45.70170  193.73220   89.25490   15.86210    0.08020
 4557.50000   45.71890  193.01290   86.07680   14.41070    0.04180
 4558.00000   46.56520  192.19190   81.26280   15.94640    0.01170
 4558.50000   48.10270  194.61070   75.72760   19.17000    0.00130
 4559.00000   49.61320  199.92640   73.74610   22.46060    0.00520
 4559.50000   49.52730  205.14600   72.16580   25.37420    0.02850
 4560.00000   49.30080  209.25620   71.45260   26.50740    0.06280
 4560.50000   49.07430  211.90480   70.73930   26.84410    0.09640
 4561.00000   48.84780  212.58100   70.44810   27.29700    0.11880
 4561.50000   48.35250  212.89260   72.93740   29.00360    0.11980
 4562.00000   46.16590  212.90640   78.31210   31.35210    0.12010
 4562.50000   45.57710  212.84790   87.19420   32.08940    0.12770
