~Version ---------------------------------------------------
VERS.   2.0 : CWLS log ASCII Standard -VERSION 2.0
WRAP.    NO : One line per depth step
DLM . SPACE : Column Data Section Delimiter
~Well ------------------------------------------------------
STRT .F                   3.0 : START DEPTH
STOP .F                5396.0 : STOP DEPTH
STEP .F                   0.5 : STEP
NULL .               -9999.25 : NULL VALUE
COMP .                        : COMPANY
WELL .                        : WELL
FLD  .                        : FIELD
LOC  .                        : LOCATION
PROV .                        : PROVINCE
CNTY .                        : COUNTY
STAT .                        : STATE
CTRY .                        : COUNTRY
SRVC .                        : SERVICE COMPANY
DATE .                        : DATE
UWI  .                        : UNIQUE WELL ID
API  .                        : API NUMBER
SLAT .WGS84   3.3841950012431 : SURFACE LATITUDE
SLON .WGS84 7.320318109225013 : SURFACE LONGITUDE
DATUM.F                3587.8 : DEPTH DATUM ELEV
~Curve Information -----------------------------------------
DEPT   .F     : 1 MEASURED DEPTH
DTCO   .US/F  : DELTA-T COMPRESSIONAL
DTST   .US/F  : DELTA-T STONELEY - MONOPOLE STONELEY
DTSM   .US/F  : DELTA-T SHEAR
GRD    .GAPI  : GAMMA RAY FROM DENSITY LOG
NPHI_LS.DEC   : NEUTRON POROSITY LIMESTONE
~Params ----------------------------------------------------
~Other -----------------------------------------------------
~ASCII -----------------------------------------------------
# ...
 5163.00000   46.48250  190.31650   89.38620   18.46420    0.02520
 5163.50000   46.96070  189.25010   91.59080   19.89850    0.02430
 5164.00000   47.30730  190.48550   92.28380   24.64910    0.02510
 5164.50000   48.48480  192.75930   92.91240   30.55410    0.03070
 5165.00000   49.75280  192.67730   93.54520   32.77250    0.03880
 5165.50000   50.69930  193.35930   94.17810   32.17090    0.04430
 5166.00000   50.76970  194.02320   94.07830   29.88220    0.04590
 5166.50000   50.72200  194.92570   93.89560   28.07430    0.04460
 5167.00000   50.09910  198.04430   93.29010   25.89900    0.04270
 5167.50000   49.14810  200.74430   93.17920   23.78190    0.03950
 5168.00000   48.29290  204.91960   92.98800   23.81770    0.03290
 5168.50000   48.24050  205.74670   92.61150   26.24840    0.02840
 5169.00000   48.97910  205.02110   92.23510   28.73940    0.02950
 5169.50000   49.96270  203.99460   92.26510   28.79630    0.03360
 5170.00000   50.65520  202.60110   92.17430   27.56500    0.03590
 5170.50000   50.90330  201.85730   92.57350   25.46630    0.03710
 5171.00000   50.89580  201.96270   93.72130   25.50100    0.03450
 5171.50000   50.88840  201.83840   95.49570   27.44220    0.03080
 5172.00000   50.62600  201.80640   97.12900   31.47280    0.03140
 5172.50000   49.90830  201.94170   97.95410   35.67440    0.04150
 5173.00000   48.60310  201.53620   97.25080   37.06090    0.05740
 5173.50000   47.57590  200.07990   95.90290   37.19490    0.07340
 5174.00000   47.09210  197.94750   93.38130   33.42360    0.07360
 5174.50000   46.89930  195.15500   90.93470   28.42590    0.05930
 5175.00000   46.88630  192.36250   89.06010   24.05540    0.03980
 5175.50000   46.87320  189.56990   87.65950   22.26020    0.02490
 5176.00000   46.78390  187.70950   89.82980   22.61410    0.02010
 5176.50000   46.85340  191.63610   91.49830   24.84060    0.01800
 5177.00000   47.40870  196.78740   91.50090   27.04360    0.01970
 5177.50000   47.62790  202.98300   91.50360   29.13940    0.02260
 5178.00000   47.49310  209.67070   91.60450   29.81300    0.02680
 5178.50000   47.13640  210.38170   91.86220   28.30010    0.02990
 5179.00000   47.15210  208.87730   91.68680   26.97510    0.03080
 5179.50000   47.29170  205.10510   91.24210   26.66660    0.03110
 5180.00000   47.45410  204.48710   90.15820   27.54680    0.03070
 5180.50000   47.61660  209.27010   89.10750   28.48020    0.03030
 5181.00000   47.77900  214.05300   89.18800   28.79170    0.03040
 5181.50000   47.96780  222.26130   90.05090   29.89700    0.03190
 5182.00000   47.99480  227.95360   90.91380   31.49650    0.03640
 5182.50000   47.90590  229.10230   91.77670   31.36850    0.04530
 5183.00000   47.73340  229.73750   92.56880   30.64350    0.04850
 5183.50000   48.14740  230.37270   92.61760   30.56640    0.04950
 5184.00000   48.56320  230.72340   92.84260   32.33080    0.04650
 5184.50000   48.38560  226.86800   93.14030   35.97610    0.04670
 5185.00000   47.94260  209.31300   92.83210   37.39620    0.05100
 5185.50000   47.77760  199.09970   90.41520   37.24370    0.05650
 5186.00000   47.77630  194.70410   85.77120   35.96230    0.05780
 5186.50000   47.78800  195.44720   81.12730   34.25440    0.05850
 5187.00000   47.79970  196.63070   82.14560   32.52690    0.05690
 5187.50000   47.81140  198.07610   84.12160   31.32510    0.05440
 5188.00000   47.82300  199.52150   88.68690   31.39900    0.05170
 5188.50000   47.83470  200.51830   91.26840   32.10170    0.04730
 5189.00000   47.84640  199.26600   91.42960   33.31410    0.04460
 5189.50000   47.85810  197.55710   91.59090   34.65720    0.04160
 5190.00000   47.86980  196.32170   91.68960   35.05160    0.03970
 5190.50000   47.89750  199.05650   91.70400   35.20050    0.04040
 5191.00000   47.94170  205.34770   91.71840   34.49440    0.04160
 5191.50000   47.98280  212.54730   91.73280   33.73680    0.04200
 5192.00000   48.03280  218.65800   91.74720   32.54580    0.04050
 5192.50000   48.13690  220.57620   91.76170   31.47070    0.04060
 5193.00000   48.24090  220.16680   91.77610   31.38390    0.04570
 5193.50000   48.34500  217.30370   91.79050   31.99210    0.05200
 5194.00000   48.38210  209.61450   91.80490   34.06280    0.05520
 5194.50000   48.28580  201.84470   91.81930   36.70870    0.05330
 5195.00000   48.18950  198.66320   91.83370   39.08960    0.05120
 5195.50000   48.10750  197.50810   91.84810   39.56170    0.05130
 5196.00000   48.09840  197.34140   91.86250   37.89480    0.05100
 5196.50000   48.08940  197.32870   91.87700   34.82970    0.04580
 5197.00000   48.08030  197.33960   91.88090   31.30210    0.03970
 5197.50000   48.07440  197.35040   91.83230   28.48270    0.03520
 5198.00000   48.07730  197.65920   91.11110   26.73400    0.03060
 5198.50000   48.08160  197.88350   89.78510   25.80900    0.02580
 5199.00000   47.89880  197.78870   88.45900   25.21180    0.02450
 5199.50000   47.59150  197.31260   87.93330   24.62820    0.02430
 5200.00000   47.38800  197.55770   87.95140   22.79760    0.02450
 5200.50000   47.14490  197.81320   87.89770   20.51560    0.02250
 5201.00000   46.66510  197.84090   87.78610   18.65130    0.01820
 5201.50000   46.41770  197.83480   87.25010   17.57290    0.01470
 5202.00000   46.22840  197.82580   85.59070   17.53080    0.01520
 5202.50000   46.08380  197.80240   83.87130   18.75530    0.01730
 5203.00000   46.05730  197.78010   84.63790   21.76520    0.02340
 5203.50000   46.00520  198.10070   85.75720   25.09750    0.02830
 5204.00000   45.73470  198.07970   86.64950   24.89050    0.02940
 5204.50000   45.82470  197.90390   87.06070   23.37230    0.02950
 5205.00000   45.79720  197.87830   86.58830   22.84000    0.02900
 5205.50000   45.76980  197.57090   86.11580   24.12510    0.02880
 5206.00000   45.74240  195.84680   86.29180   26.08220    0.02940
 5206.50000   45.55790  192.65220   87.09270   26.21900    0.03050
 5207.00000   45.28850  192.56920   87.79880   24.90210    0.03060
 5207.50000   45.19390  194.73630   87.79030   23.86620    0.03010
 5208.00000   45.36310  195.52640   87.75400   23.25600    0.02860
 5208.50000   45.53230  195.26240   87.60340   22.67930    0.02550
 5209.00000   45.70150  196.25500   85.33250   21.38740    0.02610
 5209.50000   45.92080  200.47590   83.06160   21.07640    0.02720
 5210.00000   46.35600  202.62750   79.65080   22.92570    0.02910
 5210.50000   46.67360  201.84340   76.63170   24.36570    0.03050
 5211.00000   46.51920  197.68560   75.83870   23.18580    0.03080
 5211.50000   46.34730  194.90290   77.56170   20.91300    0.03120
 5212.00000   46.17540  195.29750   80.58980   19.56260    0.03040
 5212.50000   46.07460  195.91060   86.59970   19.23150    0.02760
 5213.00000   46.04330  195.73720   87.74210   20.27610    0.02640
 5213.50000   45.89070  194.97140   87.28960   21.85180    0.02610
 5214.00000   46.11010  192.75740   87.14310   24.08960    0.02620
 5214.50000   46.68170  190.70630   87.05060   27.63020    0.02660
 5215.00000   46.87550  190.29430   86.51110   31.31870    0.02770
 5215.50000   46.89820  190.48650   86.13450   35.08600    0.03130
 5216.00000   46.91830  192.57700   87.23380   36.50610    0.03860
 5216.50000   46.83720  194.41110   87.79140   34.42420    0.04470
 5217.00000   46.75620  195.16990   87.79430   29.26030    0.04520
 5217.50000   46.67510  196.04980   87.79730   23.38140    0.03980
 5218.00000   46.29320  196.89270   87.81560   20.66720    0.03120
 5218.50000   45.96140  197.62490   88.08680   20.54880    0.02610
 5219.00000   45.94780  196.49660   89.51850   21.04740    0.02610
 5219.50000   45.90890  192.78380   90.87440   21.27810    0.02830
 5220.00000   46.01920  191.08030   91.12290   22.00940    0.02970
 5220.50000   46.23470  192.60550   91.63100   24.62530    0.03100
 5221.00000   46.23430  196.80860   91.09220   29.01020    0.03330
 5221.50000   46.36490  197.72810   89.35750   32.67690    0.03670
 5222.00000   47.33140  195.84780   89.61910   37.37560    0.04050
 5222.50000   49.36160  195.31510   92.94280   43.64140    0.04450
