~Version ---------------------------------------------------
VERS.   2.0 : CWLS log ASCII Standard -VERSION 2.0
WRAP.    NO : One line per depth step
DLM . SPACE : Column Data Section Delimiter
~Well ------------------------------------------------------
STRT .FT                 440.0 : START DEPTH
STOP .FT                7179.0 : STOP DEPTH
STEP .FT                   0.5 : STEP
NULL .                -9999.25 : NULL VALUE
COMP .                         : COMPANY
WELL .                         : WELL
FLD  .                         : FIELD
LOC  .                         : LOCATION
PROV .                         : PROVINCE
CNTY .                         : COUNTY
STAT .                         : STATE
CTRY .                         : COUNTRY
SRVC .                         : SERVICE COMPANY
DATE .                         : DATE
UWI  .                         : UNIQUE WELL ID
API  .                         : API NUMBER
SLAT .WGS84  6.061860059400395 : SURFACE LATITUDE
SLON .WGS84 2.3611323134881985 : SURFACE LONGITUDE
DATUM.F                    nan : DEPTH DATUM ELEV
~Curve Information -----------------------------------------
DEPT .FT    : 
AT10 .OHMM  : ARRAY INDUCTION TWO FOOT RESISTIVITY A10
AT30 .OHMM  : ARRAY INDUCTION TWO FOOT RESISTIVITY A30
AT60 .OHMM  : ARRAY INDUCTION TWO FOOT RESISTIVITY A60
DTSM .US/F  : DELTA-T SHEAR
ECGRS.CU    : ENVIRONMENTALLY CORRECTED GAMMA RAY FROM SONIC LOG
HCALR.IN    : HRCC CALIPER CALIBRATED FROM RESISTIVITY LOG
~Params ----------------------------------------------------
~Other -----------------------------------------------------
~ASCII -----------------------------------------------------
# ...
 6568.50000   15.96830   17.14030   18.17040  155.44430   95.47780   13.24340
 6569.00000   15.49230   16.50360   18.30430  154.78260   93.55930   13.24340
 6569.50000   14.73580   15.81550   16.90290  153.16200   92.05200   13.24340
 6570.00000   12.28600   13.81950   14.40590  151.91140   90.77300   13.24340
 6570.50000   10.76870   11.60360   11.90880  143.99830   89.72250   13.24340
 6571.00000    8.98480   10.03360   11.09690  141.34120   89.72250   13.26050
 6571.50000    8.86730    9.89280   10.57190  140.70810   89.72250   13.26470
 6572.00000    9.65550   10.37450   11.71450  138.34910   89.72250   13.26340
 6572.50000   10.51980   12.50500   13.10770  131.15910   88.35210   13.26210
 6573.00000   11.26100   14.60250   15.76050  129.53920   89.03730   13.26080
 6573.50000   10.81080   15.38370   16.91950  132.12940   87.25590   13.25950
 6574.00000    9.80750   11.50490   11.83120  130.41000   89.17430   13.25980
 6574.50000    9.17190    9.66800   10.32210  130.83580   87.11880   13.25560
 6575.00000    8.50480    9.30790    9.91290  129.01260   80.28670   13.25550
 6575.50000    7.83780    9.57070   10.55580  129.05900   73.72870   13.25540
 6576.00000    7.93660    9.57850   10.81340  131.51310   68.07120   13.25530
 6576.50000    8.16160    9.15760   10.65940  134.43590   65.04670   13.25520
 6577.00000    7.70560    8.17110   10.44030  138.67370   62.15920   13.25510
 6577.50000    7.24500    7.70350   10.35760  140.39460   59.71220   13.25490
 6578.00000   10.51720   11.75010   12.41020  140.69740   59.30110   13.25480
 6578.50000   15.64970   17.61920   20.28220  141.43080   59.71220   13.25470
 6579.00000   19.53680   22.19560   23.61810  142.37120   61.08250   13.25460
 6579.50000   19.85250   23.15730   23.87790  143.02770   62.04170   13.25450
 6580.00000   15.75910   19.36890   23.28330  144.05590   63.13800   13.25440
 6580.50000   12.27280   15.01520   17.68690  145.25510   70.88150   13.25430
 6581.00000   11.21510   13.07300   14.81650  146.45430   72.86930   13.25420
 6581.50000   10.74530   11.74740   12.83750  150.39560   72.59660   13.25410
 6582.00000   11.28120   11.59390   12.46510  150.07140   72.18640   13.25400
 6582.50000   10.20720   11.00800   12.97190  149.00570   72.05050   13.25380
 6583.00000    8.66390    9.43440   10.40680  148.54470   71.09220   13.25370
 6583.50000    7.39810    7.86090    9.48870  148.79970   70.54510   13.25360
 6584.00000    7.22290    8.05030    9.20540  149.16790   68.49490   13.25350
 6584.50000    8.65840    9.26300    9.77610  149.06650   67.81120   13.24630
 6585.00000    8.73630   10.11000   10.55930  148.41330   68.55560   13.24630
 6585.50000    8.50850    9.44420   10.75610  148.97500   71.09980   13.25340
 6586.00000    8.22950    8.68850    9.20920  149.41000   73.64400   13.25210
 6586.50000    7.95040    8.68930    9.08560  148.74880   75.66720   13.25090
 6587.00000    7.77980    8.56740    8.94860  149.35410   76.44470   13.24970
 6587.50000    7.58830    8.34840    8.65360  150.84500   75.21250   13.24840
 6588.00000    7.55560    8.20190    8.50890  151.12560   74.93940   13.24720
 6588.50000    7.74280    8.21220    8.57160  150.85860   76.50260   13.24910
 6589.00000    7.82870    8.65270    8.88770  150.73960   78.23020   13.24670
 6589.50000    7.76090    8.37280    9.01800  151.08310   76.62120   13.24670
 6590.00000    7.52210    8.04170    8.49520  150.83850   76.45060   13.24670
 6590.50000    7.39430    7.90980    8.30080  149.70540   77.21810   13.24670
 6591.00000    7.66260    8.16540    8.30150  151.35330   77.35420   13.24670
 6591.50000    7.76410    8.25640    8.51510  151.86190   80.38870   13.24670
 6592.00000    7.59540    8.25720    8.60880  151.92190   81.96770   13.25380
 6592.50000    7.59620    8.22500    8.54770  152.21970   82.05800   13.25320
 6593.00000    7.64570    8.18440    8.41980  151.30190   78.17220   13.25260
 6593.50000    7.72210    8.14390    8.39050  146.89230   77.07500   13.25190
 6594.00000    7.76820    8.10330    8.36110  144.29430   75.97770   13.25130
 6594.50000    7.73470    8.06280    8.33180  145.36910   75.42850   13.25070
 6595.00000    7.58640    8.03050    8.30850  145.14330   77.40680   13.25000
 6595.50000    7.40830    8.00310    8.27940  143.26170   78.98940   13.24940
 6596.00000    7.11130    7.88130    8.43120  140.49770   79.12550   13.24880
 6596.50000    7.10050    7.95730    8.77380  141.45540   78.14550   13.24810
 6597.00000    7.34130    8.52590    8.93460  141.62300   77.75290   13.24750
 6597.50000    7.50400    9.18920    9.29780  140.43110   79.51620   13.24750
 6598.00000    7.43870    9.99370   10.74710  141.61200   81.52810   13.24750
 6598.50000    6.90530    9.35060   11.97560  146.20040   83.53990   13.24750
 6599.00000    5.42460    7.53220    7.87670  154.49730   85.15790   13.24750
 6599.50000    5.35370    5.71390    8.56010  154.34950   84.11540   13.24750
 6600.00000    6.12730    6.96850   10.10280  154.23990   82.83480   13.24750
 6600.50000    7.46480    8.40570   11.30690  154.24710   83.05110   13.24750
 6601.00000    8.53470    9.83620   11.98000  153.58430   87.37840   13.24750
 6601.50000   10.36080   11.25660   16.20800  154.63640   91.70580   13.24750
 6602.00000   13.10190   14.14090   19.72310  158.14160   96.03310   13.24750
 6602.50000   12.24980   16.60500   23.20500  159.59180   98.62960   13.24750
 6603.00000   11.88820   14.68740   14.93480  160.35930   95.54630   13.24750
 6603.50000   10.89960   11.91690   13.07640  160.32230   94.65560   13.24750
 6604.00000    9.78880   11.74880   11.98190  157.11170   96.78720   13.24750
 6604.50000    9.53300   13.02290   14.20640  145.33450   98.76660   13.24750
 6605.00000    9.40790   11.29310   15.09900  134.09920   98.49250   13.24750
 6605.50000    8.44380    8.91970   10.10400  133.83510   93.65070   13.25820
 6606.00000    7.02920    8.18820    8.59130  133.52010   89.88680   13.25410
 6606.50000    6.96760    7.96620    8.57840  133.68650   87.28320   13.25000
 6607.00000    7.22230    8.78500    9.71870  132.69190   85.06330   13.25740
 6607.50000    7.71700   10.14520   10.91640  129.87930   86.19380   13.25650
 6608.00000    7.88550    9.77370   10.83160  128.61320   89.36270   13.25560
 6608.50000    7.78190    8.86780    9.20140  128.76180   87.61210   13.25470
 6609.00000    7.40760    7.96190    8.80140  127.81000   81.65120   13.25380
 6609.50000    6.98030    7.56280    8.17280  126.24680   77.66350   13.25280
 6610.00000    6.63850    8.26610    9.14480  125.32840   76.70430   13.25190
 6610.50000    7.41240    9.01300   10.80790  120.75080   67.97340   13.25140
 6611.00000    9.31930   10.81630   13.35810  121.36250   61.08260   13.25140
 6611.50000   11.36420   12.61950   16.67530  133.51490   59.30120   13.25140
 6612.00000   14.01540   16.49420   21.55260  133.93250   56.97160   13.25140
 6612.50000   16.63840   20.46550   25.80770  134.77360   58.06790   13.25140
 6613.00000   15.92000   20.36930   27.01920  135.38630   58.61600   13.25140
 6613.50000   12.06330   16.27590   18.06410  135.50280   67.38610   13.25140
 6614.00000    9.07600   11.87290   12.40400  139.21910   72.18230   13.25140
 6614.50000    7.48120    8.93000   10.11670  163.02120   72.86750   13.25140
 6615.00000    9.47550   10.57660   13.36090  176.80100   75.60820   13.25140
 6615.50000   11.84350   13.10990   19.52300  175.70790   78.65330   13.25140
 6616.00000   11.84380   13.04830   13.41270  171.75980   86.34240   13.25140
 6616.50000   10.57680   11.42000   12.61150  171.65080   91.23000   13.25140
 6617.00000    9.00720   10.79550   11.48160  172.31380   90.68180   13.25140
 6617.50000    7.68350   11.75710   13.55700  172.56030   88.07820   13.25140
 6618.00000    7.68370   12.62380   12.34220  172.79330   86.02270   13.25140
 6618.50000    7.92510    7.67500   12.64610  170.40170   86.57080   13.25140
 6619.00000    7.61650    8.38540   10.99560  171.55880   88.07820   13.25140
 6619.50000    6.66250    9.15360    9.83120  173.01110   88.62630   13.25140
