~Version ---------------------------------------------------
VERS.   2.0 : CWLS log ASCII Standard -VERSION 2.0
WRAP.    NO : One line per depth step
DLM . SPACE : Column Data Section Delimiter
~Well ------------------------------------------------------
STRT .FT                 440.0 : START DEPTH
STOP .FT                7179.0 : STOP DEPTH
STEP .FT                   0.5 : STEP
NULL .                -9999.25 : NULL VALUE
COMP .                         : COMPANY
WELL .                         : WELL
FLD  .                         : FIELD
LOC  .                         : LOCATION
PROV .                         : PROVINCE
CNTY .                         : COUNTY
STAT .                         : STATE
CTRY .                         : COUNTRY
SRVC .                         : SERVICE COMPANY
DATE .                         : DATE
UWI  .                         : UNIQUE WELL ID
API  .                         : API NUMBER
SLAT .WGS84  6.061860059400395 : SURFACE LATITUDE
SLON .WGS84 2.3611323134881985 : SURFACE LONGITUDE
DATUM.F                    nan : DEPTH DATUM ELEV
~Curve Information -----------------------------------------
DEPT .FT    : 
AT10 .OHMM  : ARRAY INDUCTION TWO FOOT RESISTIVITY A10
AT30 .OHMM  : ARRAY INDUCTION TWO FOOT RESISTIVITY A30
AT60 .OHMM  : ARRAY INDUCTION TWO FOOT RESISTIVITY A60
DTSM .US/F  : DELTA-T SHEAR
ECGRS.CU    : ENVIRONMENTALLY CORRECTED GAMMA RAY FROM SONIC LOG
HCALR.IN    : HRCC CALIPER CALIBRATED FROM RESISTIVITY LOG
~Params ----------------------------------------------------
~Other -----------------------------------------------------
~ASCII -----------------------------------------------------
# ...
 3066.50000    6.12460    7.26400    7.87460  187.28950   23.10790   13.27870
 3067.00000    7.09640    8.38510    9.08920  192.33720   20.37440   13.26410
 3067.50000    7.53280    9.15640   11.49320  192.72490   21.61490   13.27350
 3068.00000    6.55970    8.05990   10.69750  189.39010   28.75260   13.28280
 3068.50000    5.49350    6.36640    7.33660  187.36980   39.04580   13.28840
 3069.00000    4.81030    5.85650    6.11150  173.38610   51.45340   13.28840
 3069.50000    3.78490    5.40970    5.70670  172.18930   65.04230   13.28840
 3070.00000    3.44300    4.56620    4.73030  163.08540   73.74120   13.26450
 3070.50000    3.00920    4.14490    4.23790  159.96130   80.86870   13.26640
 3071.00000    2.74740    3.72360    3.85660  156.08060   86.57070   13.27620
 3071.50000    2.55770    3.33180    3.50940  154.30640   83.83000   13.28610
 3072.00000    2.37100    3.11870    3.16270  152.80880   77.11540   13.28810
 3072.50000    2.19660    2.90570    2.93800  151.82490   72.31920   13.28810
 3073.00000    2.13050    2.77790    2.90650  152.41830   71.90810   13.28810
 3073.50000    2.11020    2.81840    2.99750  152.76430   70.40080   13.26920
 3074.00000    2.20300    2.94310    3.08860  152.48520   65.61600   13.26480
 3074.50000    2.29580    3.06030    3.17970  152.20610   61.10540   13.27450
 3075.00000    2.34940    3.16680    3.24760  152.23690   58.75290   13.28420
 3075.50000    2.42190    3.20950    3.34660  152.86870   64.09720   13.25980
 3076.00000    2.49290    3.25500    3.44560  153.02000   62.64860   13.25980
 3076.50000    2.53420    3.31140    3.54460  154.53370   60.53440   13.25980
 3077.00000    2.57600    3.36770    3.64360  153.31190   55.73820   13.25970
 3077.50000    2.50640    3.41290    3.74340  151.90000   48.06430   13.27600
 3078.00000    2.39910    3.17290    3.42140  151.39730   44.41930   13.27390
 3078.50000    2.23690    2.78520    3.01290  151.16410   40.37680   13.27170
 3079.00000    2.06600    2.39760    2.67640  150.93100   40.52750   13.26450
 3079.50000    2.04020    2.34640    2.66690  150.97060   44.43300   13.25900
 3080.00000    2.07930    2.45910    2.69600  152.00040   49.84550   13.25900
 3080.50000    2.07940    2.55860    2.74520  153.29170   55.18510   13.25900
 3081.00000    2.07950    2.56770    2.77930  154.57320   59.70220   13.25900
 3081.50000    2.07960    2.61250    2.79970  155.35060   63.12220   13.25900
 3082.00000    2.21530    2.65730    2.82010  155.83930   66.54290   13.25900
 3082.50000    2.53260    2.70210    2.86730  158.55280   69.41580   13.25900
 3083.00000    2.89460    2.83140    3.04840  162.77660   68.72510   13.25900
 3083.50000    3.25660    3.03640    3.31760  164.93990   66.66480   13.25900
 3084.00000    3.54350    3.23510    3.58670  166.10290   64.87790   13.25900
 3084.50000    3.99940    3.23520    3.44880  166.96540   64.18790   13.25900
 3085.00000    4.27300    2.81890    2.75860  167.50050   61.94450   13.26550
 3085.50000    4.30030    2.42570    2.27340  168.73130   58.28510   13.27370
 3086.00000    4.58080    2.03260    1.95480  169.96220   52.01110   13.28180
 3086.50000    3.93430    1.76850    1.63620  171.05860   47.31280   13.29930
 3087.00000    2.85690    1.50450    1.31770  172.07440   40.72970   13.29850
 3087.50000    2.25170    1.24040    1.07540  172.79230   38.80630   13.29770
 3088.00000    1.83330    1.06650    0.94770  173.68450   33.82170   13.28940
 3088.50000    1.47040    0.94670    0.81990  172.76660   29.24880   13.26420
 3089.00000    1.24490    0.84220    0.68970  172.73820   24.40190   13.26160
 3089.50000    1.14370    0.73760    0.64820  172.81660   23.57560   13.25900
 3090.00000    1.05100    0.66280    0.61170  172.87550   23.98110   13.25900
 3090.50000    0.97780    0.63270    0.57520  172.93450   23.98290   13.26980
 3091.00000    0.88200    0.60250    0.53870  173.16670   23.98500   13.28330
 3091.50000    0.83500    0.57230    0.50760  173.65860   23.98700   13.29680
 3092.00000    0.78410    0.54210    0.49590  174.18930   23.98890   13.29140
 3092.50000    0.76290    0.53220    0.49440  173.92070   25.63540   13.28140
 3093.00000    0.75350    0.53220    0.49240  173.70330   26.87090   13.27130
 3093.50000    0.75300    0.52280    0.48320  174.20290   25.95460   13.25900
 3094.00000    0.72720    0.51170    0.47570  175.09410   24.65500   13.25900
 3094.50000    0.71940    0.50430    0.46810  175.57760   24.24850   13.25900
 3095.00000    0.70320    0.50430    0.46060  173.85290   25.49640   13.25900
 3095.50000    0.70380    0.50220    0.46430  171.61250   26.74420   13.25900
 3096.00000    0.70330    0.49870    0.47080  169.54290   26.30060   13.25900
 3096.50000    0.70460    0.49510    0.46530  167.20020   24.76110   13.25900
 3097.00000    0.70600    0.49160    0.45880  164.99450   24.00960   13.25900
 3097.50000    0.70730    0.49010    0.46350  163.93870   25.65620   13.26890
 3098.00000    0.70760    0.49370    0.46830  159.73940   26.61730   13.27170
 3098.50000    0.71210    0.49380    0.47320  156.33250   25.69940   13.27450
 3099.00000    0.72120    0.49910    0.47700  153.60870   23.74390   13.27410
 3099.50000    0.71670    0.50280    0.48130  152.59740   23.47180   13.26910
 3100.00000    0.71680    0.50830    0.48480  152.11710   23.61070   13.26400
 3100.50000    0.71680    0.52130    0.49730  151.77450   23.67420   13.25900
 3101.00000    0.73250    0.53750    0.52100  151.43190   22.44230   13.26190
 3101.50000    0.75880    0.56160    0.54470  150.75450   21.02220   13.26550
 3102.00000    0.78370    0.58560    0.55720  149.62700   19.97680   13.26900
 3102.50000    0.80880    0.60970    0.56030  147.03360   20.80270   13.27090
 3103.00000    0.82910    0.63120    0.56030  144.83250   22.24300   13.27020
 3103.50000    0.84890    0.64380    0.57470  143.57880   23.54630   13.26960
 3104.00000    0.86740    0.65910    0.59590  141.82390   23.20540   13.30250
 3104.50000    0.95530    0.67750    0.63400  140.06910   22.72720   13.29160
 3105.00000    1.01290    0.69740    0.67590  135.10910   23.87080   13.27530
 3105.50000    1.09140    0.71730    0.70100  131.40570   25.29970   13.25900
 3106.00000    1.14010    0.73720    0.70360  131.60810   26.56880   13.27200
 3106.50000    1.14460    0.73990    0.70080  131.19380   26.15930   13.26770
 3107.00000    1.16400    0.73730    0.69380  131.80740   23.60850   13.26330
 3107.50000    1.20370    0.75340    0.69360  140.97880   21.64030   13.25900
 3108.00000    1.29980    0.79450    0.73440  146.83510   22.13500   13.26990
 3108.50000    1.43390    0.84190    0.78560  156.04890   22.95870   13.27070
 3109.00000    1.53980    0.89580    0.83690  160.99440   23.42610   13.27140
 3109.50000    1.63620    0.95490    0.88020  168.31930   24.11310   13.30330
 3110.00000    1.75460    1.01650    0.93850  173.62850   24.52550   13.29330
 3110.50000    1.82780    1.07810    0.99120  181.20280   24.77030   13.28330
 3111.00000    1.90110    1.13970    1.04390  183.52900   28.51760   13.27330
 3111.50000    1.94450    1.20130    1.12000  184.53610   32.85980   13.25900
 3112.00000    1.97420    1.29300    1.21660  185.84660   40.99460   13.25880
 3112.50000    1.99280    1.40460    1.26760  187.97220   50.64850   13.25860
 3113.00000    2.18530    1.51620    1.39740  189.38920   62.13110   13.25840
 3113.50000    2.19490    1.66070    1.56320  188.76890   74.30110   13.25820
 3114.00000    2.26050    1.76700    1.73520  186.09280   86.74510   13.25800
 3114.50000    2.22720    1.89500    1.84620  183.44800   87.98270   13.25780
 3115.00000    2.07710    2.03740    2.01670  179.76030   91.69210   13.25760
 3115.50000    2.04710    2.17870    2.18730  177.11010   89.36180   13.25740
 3116.00000    1.98360    2.31500    2.35780  177.14680   88.54460   13.25720
 3116.50000    2.10870    2.45140    2.52840  174.87700   86.08300   13.25700
 3117.00000    2.22250    2.58770    2.79280  172.52890   87.21770   13.25680
 3117.50000    2.23950    2.73850    3.03620  171.70420   84.35610   13.25660
