~Version ---------------------------------------------------
VERS.   2.0 : CWLS log ASCII Standard -VERSION 2.0
WRAP.    NO : One line per depth step
DLM . SPACE : Column Data Section Delimiter
~Well ------------------------------------------------------
STRT .FT                 440.0 : START DEPTH
STOP .FT                7179.0 : STOP DEPTH
STEP .FT                   0.5 : STEP
NULL .                -9999.25 : NULL VALUE
COMP .                         : COMPANY
WELL .                         : WELL
FLD  .                         : FIELD
LOC  .                         : LOCATION
PROV .                         : PROVINCE
CNTY .                         : COUNTY
STAT .                         : STATE
CTRY .                         : COUNTRY
SRVC .                         : SERVICE COMPANY
DATE .                         : DATE
UWI  .                         : UNIQUE WELL ID
API  .                         : API NUMBER
SLAT .WGS84  6.061860059400395 : SURFACE LATITUDE
SLON .WGS84 2.3611323134881985 : SURFACE LONGITUDE
DATUM.F                    nan : DEPTH DATUM ELEV
~Curve Information -----------------------------------------
DEPT .FT    : 
AT10 .OHMM  : ARRAY INDUCTION TWO FOOT RESISTIVITY A10
AT30 .OHMM  : ARRAY INDUCTION TWO FOOT RESISTIVITY A30
AT60 .OHMM  : ARRAY INDUCTION TWO FOOT RESISTIVITY A60
DTSM .US/F  : DELTA-T SHEAR
ECGRS.CU    : ENVIRONMENTALLY CORRECTED GAMMA RAY FROM SONIC LOG
HCALR.IN    : HRCC CALIPER CALIBRATED FROM RESISTIVITY LOG
~Params ----------------------------------------------------
~Other -----------------------------------------------------
~ASCII -----------------------------------------------------
# ...
 4817.50000    1.85320    1.46020    1.33590  139.76320   43.90790   13.26170
 4818.00000    2.23370    1.81160    1.65600  146.29730   43.93280   13.26780
 4818.50000    2.62430    2.18320    1.93750  165.31840   40.10140   13.27390
 4819.00000    3.03760    2.44280    2.32070  169.38390   40.38030   13.27250
 4819.50000    3.39100    2.77060    2.53990  170.63940   39.76880   13.26610
 4820.00000    3.71620    3.17280    2.92510  171.11240   39.56830   13.25960
 4820.50000    3.78750    3.51120    3.18440  174.62840   45.27800   13.25320
 4821.00000    3.69900    3.77910    3.40280  177.37300   53.42390   13.25320
 4821.50000    3.49220    3.91100    3.29390  180.66720   60.45380   13.25320
 4822.00000    3.27640    3.78960    2.99270  179.65570   67.62790   13.25320
 4822.50000    3.06060    3.04400    2.64010  176.04750   74.80200   13.25320
 4823.00000    2.84480    2.60430    2.43310  174.22290   81.46620   13.25320
 4823.50000    2.77160    2.43620    2.27200  168.97160   86.09110   13.25320
 4824.00000    2.89240    2.44400    2.28030  158.84870   90.71590   13.25320
 4824.50000    3.02000    2.61590    2.51310  148.82920   96.50560   13.25320
 4825.00000    3.12010    2.78220    2.67610  143.68990   95.70050   13.25320
 4825.50000    3.30220    2.94850    2.83610  136.23220   93.38810   13.25320
 4826.00000    3.58010    3.11480    2.99610  132.23500   92.32610   13.25320
 4826.50000    3.63150    3.28160    3.15610  129.50550   92.32610   13.25320
 4827.00000    3.70110    3.45050    3.32300  126.72910   89.85950   13.25320
 4827.50000    3.77850    3.61930    3.53830  125.88520   78.27660   13.25320
 4828.00000    3.89680    3.73240    3.60740  126.21890   63.31110   13.25320
 4828.50000    3.94850    3.54570    3.33360  126.31910   48.34560   13.25320
 4829.00000    4.11430    3.31140    3.06270  126.34480   33.38020   13.25320
 4829.50000    4.71320    3.07710    2.77130  126.38540   28.46860   13.25070
 4830.00000    4.89740    2.91830    2.71310  126.45320   29.88880   13.26460
 4830.50000    4.40330    2.77470    2.64550  126.20530   32.25570   13.27850
 4831.00000    3.87230    2.48470    2.22510  125.90380   34.32190   13.27710
 4831.50000    3.47350    2.12200    1.82390  125.49060   34.90910   13.25180
 4832.00000    3.25990    1.96920    1.68900  123.43290   34.90910   13.25150
 4832.50000    3.07580    1.84220    1.57680  122.41380   34.36100   13.25120
 4833.00000    3.00520    1.72840    1.50700  121.66560   32.23240   13.25080
 4833.50000    2.99940    1.70500    1.48550  119.99970   29.30910   13.25050
 4834.00000    3.07690    1.69890    1.45900  118.64910   26.38570   13.25010
 4834.50000    3.14120    1.73420    1.46440  118.40470   24.22060   13.24980
 4835.00000    2.84340    1.68030    1.47500  118.80030   24.71390   13.24950
 4835.50000    2.61300    1.55420    1.37310  119.43080   25.33050   13.24910
 4836.00000    2.49550    1.45790    1.31230  120.89060   25.72790   13.26430
 4836.50000    2.40540    1.48510    1.30490  122.35040   27.79710   13.27590
 4837.00000    2.36290    1.50460    1.32400  124.59420   30.33220   13.26950
 4837.50000    2.31070    1.52400    1.34810  127.41880   31.48330   13.26320
 4838.00000    2.38320    1.56320    1.43290  128.83230   28.87970   13.24840
 4838.50000    2.46930    1.62870    1.60900  128.85640   25.31680   13.24840
 4839.00000    2.61120    1.73760    1.63250  129.26110   28.05750   13.24840
 4839.50000    2.85930    1.91250    1.63260  132.64430   31.14070   13.24840
 4840.00000    3.21960    2.35090    2.08390  134.14050   33.66010   13.24840
 4840.50000    3.94890    2.75900    2.53060  135.28680   39.74820   13.24840
 4841.00000    4.32110    3.13350    2.90050  137.25250   43.94840   13.24840
 4841.50000    3.96800    3.38880    3.16670  138.81610   47.50860   13.24840
 4842.00000    3.95620    3.30440    3.36370  139.77410   49.43930   13.24840
 4842.50000    3.17330    3.46000    3.56070  140.68220   52.93700   13.24840
 4843.00000    3.27090    3.58740    3.71840  140.92810   55.58260   13.24840
 4843.50000    3.50390    3.63310    3.68480  140.75820   54.07190   13.24840
 4844.00000    3.73700    3.76210    3.58360  140.77700   50.78030   13.24840
 4844.50000    3.93930    3.89100    3.53570  140.87130   55.36610   13.24840
 4845.00000    4.30000    4.03270    3.70560  141.09570   63.40910   13.24640
 4845.50000    4.30560    4.07120    3.72370  140.87110   71.58850   13.24390
 4846.00000    4.01590    4.05860    3.74640  140.96350   75.26490   13.24150
 4846.50000    3.67320    3.95720    3.76010  140.82570   79.66530   13.23900
 4847.00000    3.54500    3.85590    3.80120  141.24940   77.09400   13.28450
 4847.50000    3.57530    3.77490    3.95530  142.15930   73.03960   13.30330
 4848.00000    3.65610    3.99910    4.36030  143.17660   69.11020   13.26200
 4848.50000    4.03860    4.37910    4.89790  144.02280   66.36600   13.24550
 4849.00000    4.27490    4.76760    5.16680  144.08310   65.67700   13.24550
 4849.50000    4.29540    4.87570    5.01300  142.77920   68.84620   13.24550
 4850.00000    4.33650    4.93590    4.81350  140.12200   71.77140   13.24550
 4850.50000    4.53810    4.99620    4.65390  137.63190   72.32290   13.24550
 4851.00000    4.79010    5.05640    4.65400  133.41140   73.14960   13.24550
 4851.50000    4.92820    5.08050    4.76420  131.80110   74.79790   13.24550
 4852.00000    5.31650    5.11280    4.93080  130.39460   77.77890   13.24550
 4852.50000    5.78940    5.11290    4.98450  128.44870   80.29020   13.24550
 4853.00000    6.39480    5.11300    4.79400  126.50280   79.33230   13.24550
 4853.50000    6.54080    4.50640    4.37470  125.90180   78.37760   13.24550
 4854.00000    6.33480    4.46400    3.94250  126.89840   76.46300   13.24560
 4854.50000    8.62260    4.25760    3.63310  127.89490   59.03450   13.24540
 4855.00000    8.01880    3.86070    3.26780  129.95730   41.60590   13.24510
 4855.50000    6.46580    3.25870    2.84900  132.94910   26.97820   13.24490
 4856.00000    4.95730    2.71410    2.43020  136.26930   25.60950   13.24470
 4856.50000    3.57730    2.35190    2.01130  139.90810   24.92580   13.24440
 4857.00000    2.96000    2.07100    1.62680  140.93340   23.39720   13.24420
 4857.50000    2.44460    1.53580    1.37950  142.49120   21.22910   13.24400
 4858.00000    2.20800    1.50700    1.31620  143.48330   21.36750   13.24370
 4858.50000    2.10450    1.47980    1.29740  143.58590   26.44380   13.24350
 4859.00000    2.10300    1.41480    1.29740  143.39690   32.43380   13.24340
 4859.50000    2.11760    1.42370    1.32100  144.55910   43.11190   13.24340
 4860.00000    2.19690    1.49740    1.35490  145.35230   53.29380   13.24340
 4860.50000    2.28120    1.59050    1.48070  145.59210   63.65700   13.24340
 4861.00000    2.38520    1.76360    1.63270  145.59490   69.17750   13.24340
 4861.50000    2.50800    1.97770    1.78460  146.00720   75.62360   13.24340
 4862.00000    2.65190    2.24450    2.08860  147.12270   77.61570   13.24340
 4862.50000    2.84420    2.59030    2.43350  147.55410   79.19610   13.24340
 4863.00000    3.01460    2.97700    2.83530  148.02620   75.86180   13.24340
 4863.50000    3.18510    3.34830    3.46450  147.42830   73.72510   13.24340
 4864.00000    3.35550    3.54620    3.86490  146.06610   69.07150   13.24340
 4864.50000    3.53720    3.69430    4.16310  144.75910   69.89920   13.24340
 4865.00000    3.70210    3.80790    4.26970  142.86150   72.86760   13.24340
 4865.50000    3.71090    3.92340    4.30070  139.78400   78.78190   13.24340
 4866.00000    3.72610    3.94270    4.28530  139.21430   81.01400   13.24340
 4866.50000    3.73100    3.96190    4.23920  137.73110   77.18230   13.24340
 4867.00000    3.71850    3.97350    4.25460  133.96600   73.83010   13.24340
 4867.50000    3.86320    4.04950    4.40510  131.80440   75.70210   13.24340
 4868.00000    3.95350    4.33890    4.61300  134.19970   78.01930   13.24340
 4868.50000    4.04380    4.56590    4.82090  135.49860   76.16840   13.24340
