~Version ---------------------------------------------------
VERS.   2.0 : CWLS log ASCII Standard -VERSION 2.0
WRAP.    NO : One line per depth step
DLM . SPACE : Column Data Section Delimiter
~Well ------------------------------------------------------
STRT .FT                 440.0 : START DEPTH
STOP .FT                7179.0 : STOP DEPTH
STEP .FT                   0.5 : STEP
NULL .                -9999.25 : NULL VALUE
COMP .                         : COMPANY
WELL .                         : WELL
FLD  .                         : FIELD
LOC  .                         : LOCATION
PROV .                         : PROVINCE
CNTY .                         : COUNTY
STAT .                         : STATE
CTRY .                         : COUNTRY
SRVC .                         : SERVICE COMPANY
DATE .                         : DATE
UWI  .                         : UNIQUE WELL ID
API  .                         : API NUMBER
SLAT .WGS84  6.061860059400395 : SURFACE LATITUDE
SLON .WGS84 2.3611323134881985 : SURFACE LONGITUDE
DATUM.F                    nan : DEPTH DATUM ELEV
~Curve Information -----------------------------------------
DEPT .FT    : 
AT10 .OHMM  : ARRAY INDUCTION TWO FOOT RESISTIVITY A10
AT30 .OHMM  : ARRAY INDUCTION TWO FOOT RESISTIVITY A30
AT60 .OHMM  : ARRAY INDUCTION TWO FOOT RESISTIVITY A60
DTSM .US/F  : DELTA-T SHEAR
ECGRS.CU    : ENVIRONMENTALLY CORRECTED GAMMA RAY FROM SONIC LOG
HCALR.IN    : HRCC CALIPER CALIBRATED FROM RESISTIVITY LOG
~Params ----------------------------------------------------
~Other -----------------------------------------------------
~ASCII -----------------------------------------------------
# ...
 6156.50000    5.09870    5.28050    5.56110  151.08400   89.82520   13.29080
 6157.00000    5.12170    5.47650    5.71090  151.37210   87.15050   13.29060
 6157.50000    5.05460    5.52670    5.76640  151.21940   82.15900   13.28500
 6158.00000    4.98850    5.45640    5.64040  151.09540   82.98170   13.27110
 6158.50000    4.94500    5.33230    5.58280  151.61380   84.76370   13.25720
 6159.00000    4.92360    5.50430    5.72030  151.77730   86.27160   13.26670
 6159.50000    4.92390    5.64500    5.87310  151.69330   88.05350   13.27640
 6160.00000    4.99460    5.59220    5.82850  150.95490   87.73560   13.28620
 6160.50000    5.07570    5.53990    5.81490  150.64840   88.99330   13.28060
 6161.00000    5.12460    5.55810    5.80130  150.39570   90.07560   13.28510
 6161.50000    5.14760    5.60250    5.79050  150.17980   90.21750   13.28960
 6162.00000    5.12790    5.62920    5.79620  150.20030   90.22300   13.29240
 6162.50000    5.10310    5.64760    5.82280  150.52900   90.22780   13.28610
 6163.00000    5.19430    5.73780    5.85490  150.57340   89.27350   13.27040
 6163.50000    5.24080    5.69910    5.80800  150.61780   86.67540   13.25470
 6164.00000    5.12670    5.50400    5.66690  150.95840   85.44690   13.25150
 6164.50000    5.08200    5.30900    5.52730  150.52780   84.76660   13.25150
 6165.00000    5.08240    5.23700    5.46820  150.49900   82.57960   13.25150
 6165.50000    5.08280    5.47420    5.58560  150.36660   82.58520   13.25150
 6166.00000    5.13190    5.50930    5.77330  150.23420   82.86410   13.26470
 6166.50000    5.15050    5.49250    5.73500  150.10180   83.28000   13.28060
 6167.00000    5.16920    5.44950    5.67080  149.89590   84.10720   13.29340
 6167.50000    5.18780    5.44130    5.77460  149.45870   84.38670   13.28320
 6168.00000    5.20640    5.44160    5.77510  148.89810   84.25480   13.26620
 6168.50000    5.22140    5.49380    5.72370  148.19360   84.64100   13.25250
 6169.00000    5.22550    5.51340    5.69300  148.46730   85.86400   13.26230
 6169.50000    5.23190    5.48780    5.72890  148.43450   86.73630   13.26580
 6170.00000    5.23830    5.46040    5.79750  148.16520   85.80090   13.26930
 6170.50000    5.24480    5.60140    5.80910  147.90830   83.15880   13.29240
 6171.00000    5.24640    5.69020    5.82360  147.80020   84.27440   13.29280
 6171.50000    5.26900    5.68040    5.83800  147.69220   85.78130   13.29310
 6172.00000    5.32480    5.63010    5.79910  147.61680   90.16780   13.28350
 6172.50000    5.38070    5.57970    5.73710  147.67220   90.85300   13.28380
 6173.00000    5.43650    5.56720    5.82570  147.72770   91.28460   13.28420
 6173.50000    5.46100    5.76740    5.95450  147.78310   89.14390   13.28250
 6174.00000    5.38950    5.96870    6.05770  148.00870   86.48060   13.27300
 6174.50000    5.43770    5.89420    6.08000  148.06720   84.05500   13.26360
 6175.00000    5.43810    5.69340    5.92870  147.63940   82.89930   13.25410
 6175.50000    5.41450    5.67580    5.92910  147.03350   84.28520   13.25210
 6176.00000    5.35290    5.75920    6.03760  146.89260   86.98250   13.25200
 6176.50000    5.25780    5.82190    5.99430  147.08580   89.47600   13.25190
 6177.00000    5.18180    5.74920    5.97330  147.27190   89.06440   13.25180
 6177.50000    5.20500    5.82270    5.97380  147.45800   88.78980   13.25170
 6178.00000    5.26340    5.93450    6.03920  147.45690   88.78930   13.25160
 6178.50000    5.32200    5.97260    6.14970  147.32070   88.37770   13.24010
 6179.00000    5.38160    5.91050    6.11490  147.14850   86.83060   13.23170
 6179.50000    5.44160    5.75480    5.93910  146.96400   85.26400   13.23550
 6180.00000    5.49020    5.66150    5.78480  146.73030   84.53920   13.23920
 6180.50000    5.48420    5.66190    5.76440  146.97450   85.63470   13.24290
 6181.00000    5.40790    5.69820    5.86980  146.18960   87.04170   13.24660
 6181.50000    5.33150    5.78930    5.98090  145.40480   86.21450   13.25030
 6182.00000    5.32470    5.78970    6.02090  145.00820   89.36190   13.25400
 6182.50000    5.38820    5.73550    5.93160  145.18200   89.35690   13.25770
 6183.00000    5.46840    5.69980    5.91400  145.59390   90.03460   13.26150
 6183.50000    5.54160    5.80930    5.95730  145.79160   89.11980   13.26520
 6184.00000    5.53800    5.99610    6.24350  145.66790   87.85910   13.26590
 6184.50000    5.51810    6.32730    6.47410  145.54420   87.31760   13.26590
 6185.00000    5.49810    5.83810    6.04520  145.54680   87.82620   13.26590
 6185.50000    5.59260    5.88480    6.06760  145.75500   88.91810   13.26590
 6186.00000    5.64230    6.07960    6.35960  146.57980   89.79790   13.26590
 6186.50000    5.63290    6.26940    6.33710  147.04500   89.56630   13.26590
 6187.00000    5.60850    6.05580    6.26930  148.02400   88.77370   13.26590
 6187.50000    5.59400    6.09460    6.31510  148.02660   87.98110   13.26590
 6188.00000    5.70530    6.34560    6.57150  148.02920   87.66150   13.26590
 6188.50000    5.77030    6.47240    6.69170  148.02920   87.79420   13.26590
 6189.00000    5.65930    6.20830    6.54350  148.02920   88.78050   13.26590
 6189.50000    5.51620    5.94420    6.29260  148.24260   89.69340   13.26590
 6190.00000    5.37260    5.79040    6.04180  148.39880   89.46350   13.26590
 6190.50000    5.22720    5.63830    5.81920  147.76560   89.21320   13.26590
 6191.00000    5.14640    5.48610    5.71080  148.13250   89.80100   13.26590
 6191.50000    5.25110    5.49440    5.79430  148.26690   88.27180   13.26590
 6192.00000    5.35580    5.79790    6.00770  148.87970   86.79650   13.26590
 6192.50000    5.30740    5.85350    6.13970  149.00900   88.44640   13.26590
 6193.00000    5.22650    5.75700    6.18460  149.15090   86.67050   13.26590
 6193.50000    5.14550    5.53090    6.07440  149.61300   87.49750   13.26590
 6194.00000    5.05840    5.58460    5.93440  149.56860   87.85510   13.26590
 6194.50000    5.03420    5.76420    5.88100  149.21340   87.64480   13.26590
 6195.00000    5.02290    5.74570    5.90270  149.70080   86.14220   13.26590
 6195.50000    5.01160    5.56540    5.72500  149.63250   85.46260   13.26590
 6196.00000    5.00030    5.38510    5.55750  148.96740   86.42660   13.26590
 6196.50000    4.99370    5.26050    5.45320  147.93980   91.68460   13.26590
 6197.00000    4.97940    5.28760    5.48760  147.94850   93.42550   13.26590
 6197.50000    4.96520    5.34500    5.55920  147.44810   93.29390   13.26590
 6198.00000    4.95100    5.41340    5.61410  147.09110   89.06610   13.26590
 6198.50000    4.93680    5.44170    5.62570  148.05440   84.12310   13.26590
 6199.00000    4.92260    5.48860    5.65390  146.28840   83.71680   13.26590
 6199.50000    4.90840    5.53560    5.67650  144.73320   84.13270   13.26590
 6200.00000    4.99610    5.62400    5.71600  144.02130   84.13750   13.27800
 6200.50000    5.12090    5.72570    5.80930  142.89240   85.66060   13.28100
 6201.00000    5.24560    5.80550    5.92930  141.35380   87.01620   13.27630
 6201.50000    5.16990    5.76930    6.10340  140.17630   86.87920   13.27150
 6202.00000    5.04200    5.31480    5.51690  140.17630   83.17930   13.27590
 6202.50000    5.08710    5.30760    5.57750  139.97080   82.93260   13.27340
 6203.00000    5.27880    5.43740    5.70000  138.51310   81.72670   13.27100
 6203.50000    5.38840    5.56720    5.84700  136.08370   83.72740   13.28020
 6204.00000    5.48480    5.69700    5.97960  133.65430   83.31630   13.27980
 6204.50000    5.51670    5.82670    6.09940  131.22490   83.04220   13.27930
 6205.00000    5.56970    5.94330    6.21770  130.34940   82.90520   13.27890
 6205.50000    5.62270    6.09530    6.35030  129.08990   81.12380   13.27840
 6206.00000    5.63360    6.24730    6.49590  128.60300   80.84970   13.27800
 6206.50000    5.78520    6.32230    6.64140  127.11860   80.43860   13.27750
 6207.00000    6.02010    6.40810    6.78240  126.33940   80.16450   13.27710
 6207.50000    5.94220    6.51470    6.75850  126.14500   78.65720   13.27660
