~Version ---------------------------------------------------
VERS.   2.0 : CWLS log ASCII Standard -VERSION 2.0
WRAP.    NO : One line per depth step
DLM . SPACE : Column Data Section Delimiter
~Well ------------------------------------------------------
STRT .FT                 440.0 : START DEPTH
STOP .FT                7179.0 : STOP DEPTH
STEP .FT                   0.5 : STEP
NULL .                -9999.25 : NULL VALUE
COMP .                         : COMPANY
WELL .                         : WELL
FLD  .                         : FIELD
LOC  .                         : LOCATION
PROV .                         : PROVINCE
CNTY .                         : COUNTY
STAT .                         : STATE
CTRY .                         : COUNTRY
SRVC .                         : SERVICE COMPANY
DATE .                         : DATE
UWI  .                         : UNIQUE WELL ID
API  .                         : API NUMBER
SLAT .WGS84  6.061860059400395 : SURFACE LATITUDE
SLON .WGS84 2.3611323134881985 : SURFACE LONGITUDE
DATUM.F                    nan : DEPTH DATUM ELEV
~Curve Information -----------------------------------------
DEPT .FT    : 
AT10 .OHMM  : ARRAY INDUCTION TWO FOOT RESISTIVITY A10
AT30 .OHMM  : ARRAY INDUCTION TWO FOOT RESISTIVITY A30
AT60 .OHMM  : ARRAY INDUCTION TWO FOOT RESISTIVITY A60
DTSM .US/F  : DELTA-T SHEAR
ECGRS.CU    : ENVIRONMENTALLY CORRECTED GAMMA RAY FROM SONIC LOG
HCALR.IN    : HRCC CALIPER CALIBRATED FROM RESISTIVITY LOG
~Params ----------------------------------------------------
~Other -----------------------------------------------------
~ASCII -----------------------------------------------------
# ...
 3942.00000    2.78100    3.39770    3.53340  143.14100   86.53440   13.25760
 3942.50000    2.84670    3.53830    3.69000  144.64310   78.01990   13.24960
 3943.00000    2.96940    3.70460    3.95290  146.99440   68.02760   13.24960
 3943.50000    3.19420    3.87090    4.20190  149.87370   53.47870   13.24960
 3944.00000    3.49030    4.17480    4.45080  150.50720   44.17240   13.24960
 3944.50000    3.83480    4.59090    4.78260  151.98730   43.89600   13.25440
 3945.00000    4.09870    4.89730    5.11470  153.27460   49.06800   13.26080
 3945.50000    4.23220    5.24190    5.29460  154.96950   57.89050   13.26710
 3946.00000    4.38460    5.31820    5.48200  156.68000   61.85190   13.26930
 3946.50000    4.46830    5.33750    5.69130  158.78270   63.22080   13.26880
 3947.00000    4.72940    5.26130    5.58560  161.24730   64.04130   13.26830
 3947.50000    4.64190    5.14890    5.36310  164.88590   65.41020   13.26770
 3948.00000    4.53250    4.93790    5.14050  168.42460   64.86050   13.25710
 3948.50000    4.38380    4.74920    4.94470  171.94400   61.29610   13.25730
 3949.00000    4.14230    4.51450    4.68870  175.63800   65.83770   13.25750
 3949.50000    3.85900    4.27970    4.44450  177.33670   71.85780   13.25780
 3950.00000    3.73730    4.04500    4.23780  173.40020   77.87790   13.25800
 3950.50000    3.61570    3.89470    4.06940  169.45160   83.89800   13.25830
 3951.00000    3.49280    3.71890    3.95350  166.64570   89.91810   13.25850
 3951.50000    3.37510    3.57810    3.86620  166.89270   97.67040   13.27440
 3952.00000    3.14010    3.59090    3.78350  167.99860  112.43570   13.26890
 3952.50000    2.98520    3.56500    3.70090  171.20450  107.27410   13.26330
 3953.00000    2.74640    3.45110    3.59900  176.19320  101.41220   13.25780
 3953.50000    2.56850    3.22260    3.41400  178.31340   95.39960   13.26810
 3954.00000    2.43340    2.98900    3.14460  182.65110   87.52990   13.28100
 3954.50000    2.27560    2.79000    2.89590  184.99230   89.31140   13.29390
 3955.00000    2.16950    2.71040    2.76510  182.10080   79.01100   13.25870
 3955.50000    2.16900    2.79310    2.82550  177.49650   68.67640   13.25930
 3956.00000    2.15890    2.97540    3.05640  169.64690   58.20480   13.25990
 3956.50000    2.16400    3.15780    3.32070  163.58970   61.90470   13.26050
 3957.00000    2.20540    3.36430    3.58510  155.67940   68.41380   13.26020
 3957.50000    2.15760    3.42530    3.51860  152.95370   79.49060   13.25920
 3958.00000    2.22630    3.35190    3.45780  151.67890   85.74850   13.25830
 3958.50000    2.30120    3.38830    3.59770  144.20800   86.98180   13.25730
 3959.00000    2.34510    3.54640    3.82520  141.49550   87.80400   13.29230
 3959.50000    2.49880    3.70750    3.80250  140.55300   89.44840   13.28630
 3960.00000    2.53070    3.62850    3.68940  139.98550   90.81870   13.28020
 3960.50000    2.51490    3.60190    3.75640  140.43810   89.79090   13.27730
 3961.00000    2.53570    3.65410    3.82470  143.67100   82.73370   13.28720
 3961.50000    2.61860    3.54190    3.68960  145.11000   74.16910   13.29720
 3962.00000    2.68070    3.51180    3.60990  147.41480   69.85260   13.30820
 3962.50000    2.76180    3.54990    3.67550  148.06760   64.14290   13.32080
 3963.00000    2.87730    3.68010    3.84810  146.70070   58.43320   13.31200
 3963.50000    2.94580    3.79930    3.99400  146.64270   51.01050   13.28940
 3964.00000    3.09010    3.92560    4.14000  145.98860   46.41990   13.28680
 3964.50000    3.24550    4.05580    4.20010  145.33450   49.43470   13.27740
 3965.00000    3.39170    4.17520    4.30740  143.41710   49.84580   13.26810
 3965.50000    3.62460    4.27610    4.32280  140.19520   55.82040   13.26010
 3966.00000    3.74180    4.29620    4.32270  138.71810   60.06840   13.25820
 3966.50000    3.61120    4.08550    4.32260  138.95470   63.41200   13.25620
 3967.00000    3.48670    3.86230    4.16410  139.25820   66.83790   13.25420
 3967.50000    3.41130    3.70600    3.91840  140.06160   65.87860   13.26340
 3968.00000    3.39580    3.62620    3.90540  147.67700   60.65420   13.25980
 3968.50000    3.34280    3.61310    3.89250  154.48240   57.24560   13.25620
 3969.00000    3.28090    3.61290    3.85040  152.52600   57.93070   13.25260
 3969.50000    3.19460    3.57400    3.72090  154.71880   59.71210   13.24940
 3970.00000    3.21370    3.51000    3.62100  166.30210   56.38940   13.24660
 3970.50000    3.13840    3.50990    3.62090  168.20570   53.95880   13.24370
 3971.00000    3.04290    3.47200    3.57930  169.78710   51.63150   13.24090
 3971.50000    2.96220    3.37490    3.50500  175.24980   54.13660   13.23810
 3972.00000    2.88160    3.33680    3.36840  175.49860   58.31090   13.23520
 3972.50000    2.85430    3.40970    3.59180  175.32200   67.57470   13.23240
 3973.00000    3.15760    3.72020    3.96610  175.60250   77.48570   13.24720
 3973.50000    3.59980    4.15710    4.34040  176.30730   86.54410   13.24340
 3974.00000    3.46080    4.11230    4.36970  177.41720   88.08220   13.23960
 3974.50000    3.18780    3.74550    3.82140  177.73380   87.39750   13.23570
 3975.00000    3.06400    3.55980    3.76650  177.46860   84.74870   13.23190
 3975.50000    3.35240    3.91200    4.19080  174.36590   81.78020   13.22810
 3976.00000    3.22770    3.98050    4.47870  171.93520   81.50660   13.23740
 3976.50000    3.04820    3.69900    4.00010  171.48240   84.24780   13.22650
 3977.00000    2.93820    3.37200    3.62390  171.39550   85.89270   13.22650
 3977.50000    2.88050    3.32360    3.52900  169.52850   84.57770   13.22650
 3978.00000    2.88040    3.44720    3.65860  167.93660   83.70120   13.22650
 3978.50000    2.88040    3.60520    3.72530  167.65480   82.46850   13.22650
 3979.00000    2.88020    3.66300    3.75190  166.93010   81.92080   13.22650
 3979.50000    2.88020    3.62350    3.71140  165.40130   84.33330   13.22650
 3980.00000    2.96310    3.55870    3.71130  164.20660   87.66860   13.22430
 3980.50000    3.06290    3.48750    3.76520  164.84790   88.52290   13.22940
 3981.00000    3.01960    3.43050    3.76500  165.21730   87.22060   13.23460
 3981.50000    2.91000    3.40770    3.68450  165.38120   83.79420   13.22880
 3982.00000    2.83900    3.30500    3.63660  163.42860   78.31030   13.23080
 3982.50000    2.86600    3.33450    3.68400  160.43010   75.13260   13.24890
 3983.00000    2.90690    3.46990    3.90550  156.70370   72.57770   13.25390
 3983.50000    2.94840    3.78270    4.07560  152.41210   70.63340   13.24060
 3984.00000    2.87930    3.51910    3.87810  149.59550   71.31750   13.23050
 3984.50000    2.70050    3.19230    3.47140  145.75780   72.68670   13.22030
 3985.00000    2.48590    2.86550    3.22700  147.15620   72.68590   13.22670
 3985.50000    2.39560    2.88430    3.04190  150.47800   70.53270   13.22930
 3986.00000    2.35950    2.90320    3.01990  152.89630   65.25250   13.22080
 3986.50000    2.35940    2.97040    3.10830  156.36800   60.89110   13.21410
 3987.00000    2.40640    3.20410    3.53920  162.92360   64.31550   13.21410
 3987.50000    2.63080    3.43100    4.10580  167.29000   67.73970   13.21410
 3988.00000    3.03250    3.84740    4.34800  170.21470   58.47290   13.21410
 3988.50000    3.07110    3.99170    4.11870  170.77030   46.88990   13.21070
 3989.00000    3.47210    5.04240    6.21550  170.34890   48.80580   13.20610
 3989.50000    5.03830    7.23400    9.34620  169.54330   51.27990   13.20150
 3990.00000    6.22970   10.26780   14.62310  167.96070   61.81270   13.20560
 3990.50000    5.53090    9.24930   12.05250  168.14730   72.07140   13.20250
 3991.00000    4.36330    5.95940    7.17640  168.09860   82.33020   13.24220
 3991.50000    3.32170    3.68320    4.02960  167.72770   88.80890   13.22860
 3992.00000    2.89140    3.53510    3.70840  168.26210   92.18910   13.21500
 3992.50000    3.00300    3.48720    3.59630  169.00010   93.55940   13.20690
 3993.00000    2.84710    3.47880    3.56380  168.72390   93.01130   13.20690
