~Version ---------------------------------------------------
VERS.   2.0 : CWLS log ASCII Standard -VERSION 2.0
WRAP.    NO : One line per depth step
DLM . SPACE : Column Data Section Delimiter
~Well ------------------------------------------------------
STRT .FT                 440.0 : START DEPTH
STOP .FT                7179.0 : STOP DEPTH
STEP .FT                   0.5 : STEP
NULL .                -9999.25 : NULL VALUE
COMP .                         : COMPANY
WELL .                         : WELL
FLD  .                         : FIELD
LOC  .                         : LOCATION
PROV .                         : PROVINCE
CNTY .                         : COUNTY
STAT .                         : STATE
CTRY .                         : COUNTRY
SRVC .                         : SERVICE COMPANY
DATE .                         : DATE
UWI  .                         : UNIQUE WELL ID
API  .                         : API NUMBER
SLAT .WGS84  6.061860059400395 : SURFACE LATITUDE
SLON .WGS84 2.3611323134881985 : SURFACE LONGITUDE
DATUM.F                    nan : DEPTH DATUM ELEV
~Curve Information -----------------------------------------
DEPT .FT    : 
AT10 .OHMM  : ARRAY INDUCTION TWO FOOT RESISTIVITY A10
AT30 .OHMM  : ARRAY INDUCTION TWO FOOT RESISTIVITY A30
AT60 .OHMM  : ARRAY INDUCTION TWO FOOT RESISTIVITY A60
DTSM .US/F  : DELTA-T SHEAR
ECGRS.CU    : ENVIRONMENTALLY CORRECTED GAMMA RAY FROM SONIC LOG
HCALR.IN    : HRCC CALIPER CALIBRATED FROM RESISTIVITY LOG
~Params ----------------------------------------------------
~Other -----------------------------------------------------
~ASCII -----------------------------------------------------
# ...
 1779.00000    1.15280    1.88040    2.35160  240.00010   74.47890   13.26490
 1779.50000    1.17960    1.92120    2.32980  239.99070   71.99630   13.27420
 1780.00000    1.21130    2.02910    2.55460  239.77580   70.67470   13.28350
 1780.50000    1.24260    2.17190    2.50430  239.78050   70.06270   13.29280
 1781.00000    1.27430    2.19550    2.44270  239.63830   69.83380   13.30090
 1781.50000    1.27110    2.12320    2.38110  239.93660   70.64730   13.31030
 1782.00000    1.26470    2.04260    2.31940  229.11910   72.23730   13.30590
 1782.50000    1.26210    1.95880    2.23640  211.33150   74.87580   13.30140
 1783.00000    1.26470    1.97030    2.26400  193.54400   78.29010   13.31310
 1783.50000    1.27030    2.00610    2.29640  191.76590   79.65060   13.31610
 1784.00000    1.28510    1.99890    2.24850  188.85690   78.16050   13.31900
 1784.50000    1.28250    1.92780    2.18050  185.74240   75.52440   13.31980
 1785.00000    1.30290    1.90040    2.19130  175.05130   74.28270   13.31710
 1785.50000    1.36530    1.97730    2.23510  177.31570   72.90330   13.31450
 1786.00000    1.36290    1.94250    2.19180  144.62680   76.77930   13.31180
 1786.50000    1.34080    1.87320    2.08570  142.45950   83.24740   13.30920
 1787.00000    1.40180    1.85300    2.11050  136.30280   89.71550   13.30650
 1787.50000    1.44800    1.90040    2.16620  131.17670   89.02840   13.30190
 1788.00000    1.44430    1.89940    2.16230  130.23900   72.78260   13.29590
 1788.50000    1.44630    1.82620    1.90820  125.77460   61.20810   13.28990
 1789.00000    1.48690    1.79690    1.92150  125.13460   55.22110   13.29910
 1789.50000    1.54160    1.89790    2.25190  124.56810   49.68930   13.30270
 1790.00000    1.61390    2.06470    2.59740  124.21660   45.26720   13.30630
 1790.50000    1.79170    2.07210    2.45520  124.00430   40.97640   13.29440
 1791.00000    1.92680    2.22410    2.63990  122.07410   38.51340   13.29110
 1791.50000    2.17970    2.88610    3.23070  122.39930   34.26930   13.29260
 1792.00000    2.48680    3.53380    3.58740  122.97170   34.27270   13.29410
 1792.50000    2.81900    4.44140    6.01550  123.01710   35.92090   13.30800
 1793.00000    3.85280    6.67390   10.02650  122.23220   41.06380   13.31380
 1793.50000    4.94710    8.08600   13.89810  120.58480   46.20680   13.31960
 1794.00000    4.73540    6.87830   10.38020  119.42090   48.19800   13.31410
 1794.50000    4.55760    6.07010    6.32430  119.70980   45.25560   13.30290
 1795.00000    5.03330    6.41560    7.06640  119.70940   41.14850   13.29170
 1795.50000    5.75730    7.11450    7.79790  119.70900   42.58510   13.28050
 1796.00000    6.21570    7.70130    8.59660  119.70850   45.20510   13.30080
 1796.50000    5.84050    7.52840    7.65830  119.95520   46.91580   13.32110
 1797.00000    5.46150    7.13580    8.05530  121.61250   46.50830   13.34140
 1797.50000    5.42770    6.71480    8.14300  122.17070   45.20240   13.32870
 1798.00000    5.81100    6.64240    8.14290  122.17260   43.91240   13.31290
 1798.50000    6.41520    7.81290    8.44220  122.82380   43.77900   13.30020
 1799.00000    7.01940    9.16240   11.71560  124.54910   45.19860   13.30020
 1799.50000    7.46310    9.84130   12.37960  132.41490   46.62920   13.30020
 1800.00000    7.50480    8.98070   10.31350  143.75150   48.05980   13.30020
 1800.50000    7.48620    8.07040    8.93970  147.93410   49.49040   13.30270
 1801.00000    6.76570    7.75640    7.91060  162.23600   51.03610   13.30900
 1801.50000    5.98000    7.00650    7.54760  176.53780   50.49180   13.31530
 1802.00000    5.93710    6.29220    6.53240  208.77530   43.24350   13.32250
 1802.50000    5.64800    6.40660    6.77250  224.27860   35.99510   13.31780
 1803.00000    5.33580    6.73830    7.52020  239.40020   32.96020   13.31310
 1803.50000    5.94080    7.08730    9.93110  239.97310   34.06080   13.30840
 1804.00000    5.18780    7.86860    8.44140  239.90210   39.61580   13.30650
 1804.50000    4.06620    7.09690    9.47540  239.83110   49.17510   13.31430
 1805.00000    3.61610    5.57860    7.49160  239.76010   61.56410   13.32210
 1805.50000    2.86930    4.06020    4.63500  239.68910   73.95320   13.32460
 1806.00000    2.06620    3.15820    3.76110  239.61810   83.45310   13.31640
 1806.50000    1.65280    2.41040    2.88730  235.12890   85.76070   13.30830
 1807.00000    1.35100    1.66260    2.01350  227.69410   79.32110   13.30190
 1807.50000    1.13470    1.47070    1.57430  220.05370   76.24280   13.30920
 1808.00000    1.06340    1.47070    1.62750  210.59480   73.30090   13.31640
 1808.50000    1.09400    1.60960    1.83650  201.34150   74.67620   13.31580
 1809.00000    1.12850    1.64250    1.95510  195.27450   73.58430   13.31720
 1809.50000    1.14230    1.66530    1.94810  191.33180   74.24000   13.31850
 1810.00000    1.15750    1.68110    1.94100  187.56050   75.53060   13.31980
 1810.50000    1.22170    1.76030    2.02700  185.94690   76.69880   13.31820
 1811.00000    1.32230    1.93460    2.19450  184.68560   72.65150   13.31660
 1811.50000    1.45060    2.25170    2.45450  181.10140   67.29220   13.32080
 1812.00000    1.62060    2.56870    2.80050  179.82640   62.09910   13.32050
 1812.50000    1.64820    2.71500    2.91910  177.20830   59.96000   13.32010
 1813.00000    1.59430    2.34860    2.58010  173.16750   59.81880   13.32130
 1813.50000    1.56390    2.06350    2.21670  168.43430   61.32050   13.32480
 1814.00000    1.56760    1.91090    2.00150  168.88460   60.76770   13.32830
 1814.50000    1.54250    1.80070    1.88510  171.87950   59.04960   13.33080
 1815.00000    1.50700    1.75440    1.80570  183.20930   57.74260   13.32940
 1815.50000    1.47330    1.71110    1.77980  192.96530   59.79260   13.32800
 1816.00000    1.53810    1.72350    1.81880  201.62100   59.51360   13.32650
 1816.50000    1.59560    1.85120    2.06460  218.53120   57.31550   13.32750
 1817.00000    1.61850    2.00530    2.15520  225.10330   55.25520   13.32900
 1817.50000    1.56380    1.93500    2.10140  232.02400   53.19480   13.33050
 1818.00000    1.48030    1.86640    2.10370  239.78370   52.50420   13.32620
 1818.50000    1.41560    1.83240    2.11540  239.78390   53.16930   13.31810
 1819.00000    1.38990    1.87770    2.12720  239.78390   54.00150   13.31000
 1819.50000    1.36850    1.95800    2.16510  239.78390   54.83380   13.30860
 1820.00000    1.40380    2.03820    2.28810  239.78390   56.04660   13.31720
 1820.50000    1.44060    2.10150    2.43660  239.78390   58.55890   13.32590
 1821.00000    1.40610    2.10150    2.47090  239.78390   61.18540   13.31810
 1821.50000    1.37490    2.11670    2.55390  239.78930   63.17240   13.31230
 1822.00000    1.36430    2.17860    2.72970  235.47700   61.61930   13.30640
 1822.50000    1.38020    2.36130    2.98260  230.34240   59.19840   13.29680
 1823.00000    1.40890    2.50760    3.15350  224.79660   57.00590   13.29590
 1823.50000    1.40890    2.54410    3.15600  223.40230   54.52870   13.29510
 1824.00000    1.42520    2.58090    3.19350  221.65830   51.31370   13.30480
 1824.50000    1.43580    2.60900    3.20180  219.91430   48.09870   13.30280
 1825.00000    1.46120    2.62790    3.24380  218.17030   48.53260   13.30070
 1825.50000    1.49800    2.69290    3.31250  216.68480   51.66160   13.29860
 1826.00000    1.54530    2.76240    3.37440  215.10040   50.87360   13.29080
 1826.50000    1.59980    2.89700    3.44330  213.51610   48.30420   13.29190
 1827.00000    1.64650    2.94920    3.49600  210.45520   47.52310   13.31180
 1827.50000    1.67970    2.90960    3.47630  208.07650   49.44160   13.32670
 1828.00000    1.72470    2.89140    3.44350  203.29940   52.30460   13.31930
 1828.50000    1.74360    2.87190    3.43340  199.67290   54.83440   13.31200
 1829.00000    1.76570    2.85250    3.39210  196.71490   57.36430   13.30910
 1829.50000    1.79560    2.84470    3.30270  195.71330   58.23920   13.30740
 1830.00000    1.84740    2.83650    3.28930  195.23420   57.41680   13.30570
