~Version ---------------------------------------------------
VERS.   2.0 : CWLS log ASCII Standard -VERSION 2.0
WRAP.    NO : One line per depth step
DLM . SPACE : Column Data Section Delimiter
~Well ------------------------------------------------------
STRT .FT                 440.0 : START DEPTH
STOP .FT                7179.0 : STOP DEPTH
STEP .FT                   0.5 : STEP
NULL .                -9999.25 : NULL VALUE
COMP .                         : COMPANY
WELL .                         : WELL
FLD  .                         : FIELD
LOC  .                         : LOCATION
PROV .                         : PROVINCE
CNTY .                         : COUNTY
STAT .                         : STATE
CTRY .                         : COUNTRY
SRVC .                         : SERVICE COMPANY
DATE .                         : DATE
UWI  .                         : UNIQUE WELL ID
API  .                         : API NUMBER
SLAT .WGS84  6.061860059400395 : SURFACE LATITUDE
SLON .WGS84 2.3611323134881985 : SURFACE LONGITUDE
DATUM.F                    nan : DEPTH DATUM ELEV
~Curve Information -----------------------------------------
DEPT .FT    : 
AT10 .OHMM  : ARRAY INDUCTION TWO FOOT RESISTIVITY A10
AT30 .OHMM  : ARRAY INDUCTION TWO FOOT RESISTIVITY A30
AT60 .OHMM  : ARRAY INDUCTION TWO FOOT RESISTIVITY A60
DTSM .US/F  : DELTA-T SHEAR
ECGRS.CU    : ENVIRONMENTALLY CORRECTED GAMMA RAY FROM SONIC LOG
HCALR.IN    : HRCC CALIPER CALIBRATED FROM RESISTIVITY LOG
~Params ----------------------------------------------------
~Other -----------------------------------------------------
~ASCII -----------------------------------------------------
# ...
 5281.00000    6.00160    6.21640    6.55280  135.50380   72.99610   13.27900
 5281.50000    6.03000    6.27510    6.33670  135.02480   74.66360   13.27900
 5282.00000    6.02980    6.19610    6.18470  135.63580   75.72850   13.27900
 5282.50000    5.94450    6.03910    6.14000  136.59770   75.03940   13.27900
 5283.00000    5.72040    5.97140    6.20660  137.58810   75.03500   13.27900
 5283.50000    5.49630    5.90370    6.25140  136.98200   73.73000   13.27900
 5284.00000    5.40660    5.94610    6.16160  138.06910   70.64500   13.27900
 5284.50000    5.74980    6.11740    6.48080  141.65720   69.13500   13.27900
 5285.00000    5.69540    6.68280    6.81660  141.65480   69.96510   13.27900
 5285.50000    5.88730    6.63270    6.81640  141.62250   73.14050   13.27930
 5286.00000    6.02830    6.38290    6.55080  141.59020   77.06610   13.27930
 5286.50000    5.94430    6.24020    6.45030  141.55790   75.55430   13.27810
 5287.00000    5.80600    6.07790    6.28300  141.79230   75.68750   13.27680
 5287.50000    5.66760    6.05220    6.18250  142.91930   70.88750   13.27550
 5288.00000    5.64060    6.10320    6.22710  143.65410   72.34940   13.27430
 5288.50000    5.79610    6.13520    6.29470  144.04990   75.13850   13.27300
 5289.00000    5.91400    6.07710    6.29450  144.32920   78.16040   13.27180
 5289.50000    5.74800    5.93630    6.10920  144.60850   79.64100   13.27050
 5290.00000    5.31430    5.77720    5.96890  143.78300   78.54080   13.26920
 5290.50000    5.15420    5.83210    5.94060  141.58970   79.44900   13.26800
 5291.00000    5.15410    5.87090    6.02690  142.53980   76.75800   13.26670
 5291.50000    5.28510    5.88100    6.04850  143.38080   73.41220   13.26550
 5292.00000    5.38990    5.92430    6.04830  143.73950   73.43210   13.26420
 5292.50000    5.49360    6.03750    6.27050  144.03630   74.94330   13.26290
 5293.00000    5.59730    6.09480    6.66720  144.59990   77.29100   13.26170
 5293.50000    5.61200    5.94330    6.17000  145.34140   81.47660   13.26040
 5294.00000    5.36670    5.80370    5.91420  146.08290   84.82630   13.25910
 5294.50000    5.05620    5.77560    5.87520  147.09240   84.19150   13.25790
 5295.00000    4.78570    5.49470    5.68720  148.08390   82.91710   13.25660
 5295.50000    4.79920    5.01010    5.25270  148.03810   79.69810   13.25540
 5296.00000    5.03460    5.29260    5.38700  147.99240   77.43880   13.25410
 5296.50000    5.24770    5.82070    6.13450  148.37320   77.78550   13.25280
 5297.00000    5.47900    6.38890    6.73810  149.03830   77.99520   13.25210
 5297.50000    5.66410    6.20340    6.50430  148.72990   79.30500   13.26370
 5298.00000    5.50950    5.82930    6.05490  148.79870   80.47810   13.27820
 5298.50000    5.38310    5.71990    5.88020  148.86750   82.67540   13.28790
 5299.00000    5.25670    5.64770    5.76840  148.93630   85.42080   13.27820
 5299.50000    5.13040    5.61200    5.81000  149.87520   86.24580   13.27550
 5300.00000    4.97500    5.47400    5.85200  150.60480   86.25130   13.28750
 5300.50000    4.83600    5.30160    5.72650  151.08700   82.12840   13.29620
 5301.00000    4.79780    5.39150    5.58360  150.28610   79.03590   13.30500
 5301.50000    4.96060    5.48910    5.60380  150.59320   79.31110   13.30760
 5302.00000    4.99380    5.52190    5.68530  150.77250   82.32490   13.30090
 5302.50000    4.96120    5.68630    5.89440  150.65160   81.73150   13.29420
 5303.00000    4.92860    5.41520    5.91570  150.50190   78.85560   13.29010
 5303.50000    4.89610    5.12060    5.27020  150.35210   76.26980   13.29370
 5304.00000    4.81320    5.15300    5.27020  150.21340   76.16450   13.29730
 5304.50000    4.77520    5.31400    5.42460  149.14150   75.34330   13.30420
 5305.00000    4.82060    5.47180    5.78890  148.15930   79.08810   13.30090
 5305.50000    4.82060    5.47180    5.78890  148.22780   84.52100   13.30340
 5306.00000    4.70770    5.17000    5.42770  147.82220   84.65850   13.30590
 5306.50000    4.52900    4.86820    5.13870  147.65550   83.56280   13.29910
 5307.00000    4.48940    4.94570    5.23230  148.04750   82.60410   13.29910
 5307.50000    4.64170    5.12310    5.36620  148.48890   82.46760   13.29910
 5308.00000    4.78070    5.28580    5.46400  148.15490   80.67070   13.28320
 5308.50000    4.84490    5.36900    5.62410  147.82100   78.64030   13.26790
 5309.00000    4.84450    5.42020    5.60380  147.81250   78.64150   13.26790
 5309.50000    4.84400    5.38970    5.50000  148.16480   81.57180   13.26790
 5310.00000    4.80170    5.28490    5.41640  149.21800   83.13290   13.26540
 5310.50000    4.68710    5.00860    5.30840  147.78010   86.67350   13.27410
 5311.00000    4.54930    5.04040    5.30840  145.95120   80.23290   13.28280
 5311.50000    4.57790    5.40310    5.54340  142.01120   81.05510   13.28650
 5312.00000    4.67800    5.23930    5.42460  139.66240   79.34220   13.28260
 5312.50000    4.79000    5.08830    5.38560  142.33480   74.78580   13.27870
 5313.00000    4.85820    5.28430    5.54340  138.88120   71.53130   13.27650
 5313.50000    4.91280    5.61180    5.84370  130.61730   70.09240   13.27680
 5314.00000    4.94600    5.46140    6.15530  128.80660   73.86090   13.27700
 5314.50000    4.87420    5.26040    5.36620  128.64500   75.43670   13.27640
 5315.00000    4.70150    5.13680    5.36620  128.49790   77.53790   13.27230
 5315.50000    4.67000    5.31610    6.06710  128.25760   75.43670   13.26830
 5316.00000    4.72030    5.40310    5.62410  128.12050   76.25890   13.26420
 5316.50000    4.67620    5.26070    5.54340  127.98340   74.68310   13.26020
 5317.00000    4.63110    5.15300    5.34690  127.84640   72.83310   13.25610
 5317.50000    4.73090    5.13680    5.45960  127.60330   70.76050   13.26640
 5318.00000    5.00110    5.48040    5.78730  127.72750   68.44800   13.27910
 5318.50000    5.40610    6.05230    6.29670  127.89970   67.35180   13.29190
 5319.00000    5.81120    6.55110    6.80600  127.95860   64.33710   13.28080
 5319.50000    6.07780    6.81810    7.13740  127.93280   64.20000   13.27950
 5320.00000    6.25210    7.11930    7.35280  127.90700   65.70740   13.27830
 5320.50000    6.42640    7.29390    7.56810  127.88120   67.00760   13.26470
 5321.00000    6.66040    7.48950    7.78350  127.85540   68.17080   13.26650
 5321.50000    6.92840    7.80510    8.18700  127.59130   68.85450   13.26820
 5322.00000    6.96430    7.81870    8.15750  127.40730   68.16770   13.27300
 5322.50000    6.82260    7.41920    7.67690  127.28290   70.90950   13.27970
 5323.00000    6.59200    7.06900    7.30390  127.23140   72.00480   13.28650
 5323.50000    6.39520    6.71880    7.00970  127.44060   73.51100   13.28280
 5324.00000    6.19840    6.61350    6.83480  127.52620   70.90420   13.27930
 5324.50000    6.11050    6.61350    6.78560  127.69880   68.43430   13.27580
 5325.00000    6.26160    6.66100    6.89310  127.97340   68.15860   13.27230
 5325.50000    6.41270    6.79410    6.99030  128.23300   67.60900   13.26880
 5326.00000    6.47610    6.89070    6.99800  128.60520   68.84060   13.26750
 5326.50000    6.64080    6.89070    6.97840  128.78830   68.15380   13.26620
 5327.00000    6.53190    6.86860    6.95880  130.13940   69.83650   13.26490
 5327.50000    6.47750    6.84640    6.93920  130.28360   69.93990   13.26890
 5328.00000    6.40390    6.82420    6.91960  130.61720   71.10370   13.26930
 5328.50000    6.35080    6.80210    6.90000  130.95070   72.40460   13.26960
 5329.00000    6.37940    6.77990    6.88430  130.76900   70.85810   13.27000
 5329.50000    6.43320    6.75770    6.88430  130.50310   68.96670   13.27040
 5330.00000    6.41720    6.74000    6.88430  130.50070   69.85260   13.27070
 5330.50000    6.40120    6.74000    6.88430  130.54990   74.23850   13.27110
 5331.00000    6.38520    6.74000    6.88060  130.51230   73.55460   13.27140
 5331.50000    6.34380    6.72910    6.86210  129.78470   72.59630   13.27180
 5332.00000    6.28230    6.71090    6.84350  129.30760   73.14550   13.27210
