~Version ---------------------------------------------------
VERS.   2.0 : CWLS log ASCII Standard -VERSION 2.0
WRAP.    NO : One line per depth step
DLM . SPACE : Column Data Section Delimiter
~Well ------------------------------------------------------
STRT .FT                 440.0 : START DEPTH
STOP .FT                7179.0 : STOP DEPTH
STEP .FT                   0.5 : STEP
NULL .                -9999.25 : NULL VALUE
COMP .                         : COMPANY
WELL .                         : WELL
FLD  .                         : FIELD
LOC  .                         : LOCATION
PROV .                         : PROVINCE
CNTY .                         : COUNTY
STAT .                         : STATE
CTRY .                         : COUNTRY
SRVC .                         : SERVICE COMPANY
DATE .                         : DATE
UWI  .                         : UNIQUE WELL ID
API  .                         : API NUMBER
SLAT .WGS84  6.061860059400395 : SURFACE LATITUDE
SLON .WGS84 2.3611323134881985 : SURFACE LONGITUDE
DATUM.F                    nan : DEPTH DATUM ELEV
~Curve Information -----------------------------------------
DEPT .FT    : 
AT10 .OHMM  : ARRAY INDUCTION TWO FOOT RESISTIVITY A10
AT30 .OHMM  : ARRAY INDUCTION TWO FOOT RESISTIVITY A30
AT60 .OHMM  : ARRAY INDUCTION TWO FOOT RESISTIVITY A60
DTSM .US/F  : DELTA-T SHEAR
ECGRS.CU    : ENVIRONMENTALLY CORRECTED GAMMA RAY FROM SONIC LOG
HCALR.IN    : HRCC CALIPER CALIBRATED FROM RESISTIVITY LOG
~Params ----------------------------------------------------
~Other -----------------------------------------------------
~ASCII -----------------------------------------------------
  440.00000   -9999.25   -9999.25   -9999.25   -9999.25   23.32150   -9999.25
  440.50000   -9999.25   -9999.25   -9999.25   -9999.25   23.30370   -9999.25
  441.00000   -9999.25   -9999.25   -9999.25   -9999.25   22.60070   -9999.25
  441.50000   -9999.25   -9999.25   -9999.25   -9999.25   21.60870   -9999.25
  442.00000   -9999.25   -9999.25   -9999.25   -9999.25   20.37510   -9999.25
  442.50000   -9999.25   -9999.25   -9999.25   -9999.25   18.97160   -9999.25
  443.00000   -9999.25   -9999.25   -9999.25   -9999.25   17.97160   -9999.25
  443.50000   -9999.25   -9999.25   -9999.25   -9999.25   16.89640   -9999.25
  444.00000   -9999.25   -9999.25   -9999.25   -9999.25   15.89640   -9999.25
  444.50000   -9999.25   -9999.25   -9999.25   -9999.25   15.46340   -9999.25
  445.00000   -9999.25   -9999.25   -9999.25   -9999.25   15.46340   -9999.25
  445.50000   -9999.25   -9999.25   -9999.25   -9999.25   15.69620   -9999.25
  446.00000   -9999.25   -9999.25   -9999.25   -9999.25   15.67700   -9999.25
  446.50000   -9999.25   -9999.25   -9999.25   -9999.25   15.79480   -9999.25
  447.00000   -9999.25   -9999.25   -9999.25   -9999.25   16.59510   -9999.25
  447.50000   -9999.25   -9999.25   -9999.25   -9999.25   18.16590   -9999.25
  448.00000   -9999.25   -9999.25   -9999.25   -9999.25   19.73680   -9999.25
  448.50000   -9999.25   -9999.25   -9999.25   -9999.25   20.94320   -9999.25
  449.00000   -9999.25   -9999.25   -9999.25   -9999.25   21.88460   -9999.25
  449.50000   -9999.25   -9999.25   -9999.25   -9999.25   22.96320   -9999.25
  450.00000   -9999.25   -9999.25   -9999.25   -9999.25   26.07680   -9999.25
  450.50000   -9999.25   -9999.25   -9999.25   -9999.25   26.92190   -9999.25
  451.00000   -9999.25   -9999.25   -9999.25   -9999.25   26.80000   -9999.25
  451.50000   -9999.25   -9999.25   -9999.25   -9999.25   26.37060   -9999.25
  452.00000   -9999.25   -9999.25   -9999.25  239.38320   25.94120   -9999.25
  452.50000   -9999.25   -9999.25   -9999.25  239.38320   25.12220   -9999.25
  453.00000   -9999.25   -9999.25   -9999.25  239.38320   23.84890   -9999.25
  453.50000   -9999.25   -9999.25   -9999.25  239.38320   22.57560   -9999.25
  454.00000   -9999.25   -9999.25   -9999.25  239.38320   22.06900   -9999.25
  454.50000   -9999.25   -9999.25   -9999.25  239.38320   23.08780   -9999.25
  455.00000   -9999.25   -9999.25   -9999.25  239.38320   25.62780   -9999.25
  455.50000   -9999.25   -9999.25   -9999.25  239.29510   28.16780   -9999.25
  456.00000   -9999.25   -9999.25   -9999.25  237.03390   30.70790   -9999.25
  456.50000   -9999.25   -9999.25   -9999.25  226.31480   33.07800   -9999.25
  457.00000   -9999.25   -9999.25   -9999.25  219.03170   32.47300   -9999.25
  457.50000   -9999.25   -9999.25   -9999.25  218.20940   31.70420   -9999.25
  458.00000   -9999.25   -9999.25   -9999.25  216.89380   31.27990   -9999.25
  458.50000   -9999.25   -9999.25   -9999.25  214.92030   32.11400   -9999.25
  459.00000   -9999.25   -9999.25   -9999.25  216.35930   33.49460   -9999.25
  459.50000   -9999.25   -9999.25   -9999.25  227.56290   35.05860   -9999.25
  460.00000    0.60470    0.77950   -9999.25  238.76650   35.09500   13.35260
  460.50000    0.74020    0.80990    0.84470  239.79390   33.51180   13.35240
  461.00000    0.82930    0.86040    0.89960  239.98990   33.29900   13.35210
  461.50000    0.76870    0.91100    0.95450  239.97810   33.36750   13.35190
  462.00000    0.71460    0.96520    1.00950  239.96630   33.77860   13.35170
  462.50000    0.69060    1.01090    1.04640  239.95450   36.56980   13.32970
  463.00000    0.64170    1.00000    1.04630  239.94270   39.16620   13.32940
  463.50000    0.64000    0.99290    1.02750  239.93090   41.76260   13.32920
  464.00000    0.68740    0.99280    1.03110  239.91910   44.35900   13.32880
  464.50000    0.70150    0.99980    1.06270  239.90730   44.60420   13.32830
  465.00000    0.71250    1.00690    1.06500  239.89550   43.33180   13.32770
  465.50000    0.69040    0.99170    1.02770  239.88360   42.68580   13.32720
  466.00000    0.67640    0.97150    0.99780  239.87180   42.95980   13.32670
  466.50000    0.67350    0.96450    0.99420  239.86000   44.94680   13.32610
  467.00000    0.66070    0.96440    0.99410  239.84820   49.94850   13.32560
  467.50000    0.66420    1.01830    1.03060  239.83640   56.11500   13.32510
  468.00000    0.73130    1.11310    1.17420  239.82460   57.07430   13.32450
  468.50000    0.81930    1.34390    1.44650  239.81280   56.66320   13.32400
  469.00000    0.90660    1.60870    1.82950  239.80100   56.11500   13.32350
  469.50000    0.97270    1.97950    2.28640  239.78920   54.88170   13.32290
  470.00000    1.04550    2.50910    2.77610  239.57860   55.42990   13.32240
  470.50000    1.10210    3.14540    3.28760  230.08110   59.71170   13.32190
  471.00000    1.05070    3.08110    3.35600  227.76300   61.05400   13.32130
  471.50000    0.95720    2.05260    2.56260  226.29630   51.84400   13.31580
  472.00000    0.79270    1.41360    1.87000  225.21940   40.33000   13.31550
  472.50000    0.58680    0.81420    1.24660  226.25460   32.46130   13.31530
  473.00000    0.44670    0.59850    0.61870  233.19580   28.61490   13.31500
  473.50000    0.42130    0.58270    0.60980  238.66370   29.74680   13.31480
  474.00000    0.44480    0.60540    0.63460  240.20550   30.26470   13.31460
  474.50000    0.45630    0.63690    0.66010  240.20550   29.86950   13.31430
  475.00000    0.47790    0.66950    0.72970  240.20550   29.32910   13.31410
  475.50000    0.53090    0.78790    0.84380  240.20550   32.61320   13.31390
  476.00000    0.64010    0.98080    1.20360  240.20550   38.23440   13.31360
  476.50000    0.75910    1.38460    1.56160  240.20550   47.13390   13.31340
  477.00000    0.88760    1.78850    1.91690  240.20550   54.93930   13.31320
  477.50000    0.91770    2.02040    2.14760  240.20550   61.18800   13.31290
  478.00000    0.92640    2.14170    2.26980  240.20550   62.85490   13.31270
  478.50000    0.94480    2.22430    2.31410  240.00000   62.52680   13.31240
  479.00000    0.97570    2.29010    2.34900  237.32750   61.32910   13.31220
  479.50000    0.98420    2.29000    2.36980  236.71080   60.69560   13.31200
  480.00000    0.98860    2.21350    2.31440  233.62720   60.69850   13.31170
  480.50000    0.98620    2.14440    2.24000  236.24110   62.34180   13.31150
  481.00000    0.98400    2.09160    2.16740  240.20550   57.63790   13.31130
  481.50000    0.98230    2.03870    2.10230  240.38300   52.24100   13.31100
  482.00000    0.97920    1.98590    2.04290  240.33630   47.23560   13.31080
  482.50000    0.97300    1.93310    2.00890  240.28960   47.08880   13.29040
  483.00000    0.95220    1.88030    1.96470  240.24280   48.58860   13.29890
  483.50000    0.93610    1.82760    1.92320  240.19610   50.22560   13.31380
  484.00000    0.92000    1.77490    1.87690  240.14930   48.79310   13.30430
  484.50000    0.91990    1.76430    1.86750  240.10260   46.63610   13.30330
  485.00000    0.94840    1.84230    1.89120  240.05580   47.92680   13.30230
  485.50000    0.97700    1.98140    2.03110  240.00910   49.79240   13.30130
  486.00000    1.00550    2.10020    2.17100  239.96240   51.96080   13.30020
  486.50000    1.01760    2.12260    2.19450  239.91560   52.09160   13.29920
  487.00000    0.97340    1.88690    2.16290  239.86890   48.05510   13.29900
  487.50000    0.79800    1.36910    1.58070  239.82210   42.70840   13.29900
  488.00000    0.62250    0.96100    1.03710  239.77540   39.09170   13.29900
  488.50000    0.52200    0.71740    0.79710  239.72860   36.22100   13.29900
  489.00000    0.49290    0.65150    0.66570  239.68190   33.35030   13.29900
  489.50000    0.54270    0.72680    0.77950  239.63510   30.47960   13.29900
  490.00000    0.58760    0.79820    0.84190  239.58840   29.70200   13.29900
  490.50000    0.55740    0.73530    0.76610  239.54170   30.52230   13.29900
  491.00000    0.54770    0.71450    0.74170  239.49490   31.54720   13.29260
