~Version ---------------------------------------------------
VERS.   2.0 : CWLS log ASCII Standard -VERSION 2.0
WRAP.    NO : One line per depth step
DLM . SPACE : Column Data Section Delimiter
~Well ------------------------------------------------------
STRT .FT                 440.0 : START DEPTH
STOP .FT                7179.0 : STOP DEPTH
STEP .FT                   0.5 : STEP
NULL .                -9999.25 : NULL VALUE
COMP .                         : COMPANY
WELL .                         : WELL
FLD  .                         : FIELD
LOC  .                         : LOCATION
PROV .                         : PROVINCE
CNTY .                         : COUNTY
STAT .                         : STATE
CTRY .                         : COUNTRY
SRVC .                         : SERVICE COMPANY
DATE .                         : DATE
UWI  .                         : UNIQUE WELL ID
API  .                         : API NUMBER
SLAT .WGS84  6.061860059400395 : SURFACE LATITUDE
SLON .WGS84 2.3611323134881985 : SURFACE LONGITUDE
DATUM.F                    nan : DEPTH DATUM ELEV
~Curve Information -----------------------------------------
DEPT .FT    : 
AT10 .OHMM  : ARRAY INDUCTION TWO FOOT RESISTIVITY A10
AT30 .OHMM  : ARRAY INDUCTION TWO FOOT RESISTIVITY A30
AT60 .OHMM  : ARRAY INDUCTION TWO FOOT RESISTIVITY A60
DTSM .US/F  : DELTA-T SHEAR
ECGRS.CU    : ENVIRONMENTALLY CORRECTED GAMMA RAY FROM SONIC LOG
HCALR.IN    : HRCC CALIPER CALIBRATED FROM RESISTIVITY LOG
~Params ----------------------------------------------------
~Other -----------------------------------------------------
~ASCII -----------------------------------------------------
# ...
 2191.00000    1.29960    1.34190    1.41620  185.22570   53.94050   13.29430
 2191.50000    1.29960    1.41290    1.51920  186.57030   52.69930   13.29400
 2192.00000    1.48310    1.55740    1.62210  185.83150   46.89100   13.29380
 2192.50000    1.57070    1.69680    1.72500  184.03190   38.81640   13.29350
 2193.00000    1.59070    1.83630    1.92970  183.56260   35.96240   13.29320
 2193.50000    1.79850    2.06630    2.13450  180.93440   43.01860   13.29290
 2194.00000    2.03500    2.35670    2.57990  182.62910   54.51430   13.29260
 2194.50000    2.02850    2.61720    2.73190  183.38050   63.79090   13.29230
 2195.00000    1.97390    2.65520    2.72830  185.37710   69.49040   13.29210
 2195.50000    1.95070    2.77030    2.95380  189.17780   69.97900   13.29180
 2196.00000    2.04480    2.90780    3.64430  203.26660   70.28900   13.29150
 2196.50000    2.06520    3.04540    3.72060  208.81990   71.23960   13.29120
 2197.00000    1.89860    3.13400    3.40030  212.95160   72.05200   13.29090
 2197.50000    1.86450    3.21800    3.57650  220.54760   70.81010   13.29060
 2198.00000    1.77280    3.27250    3.61540  228.53460   72.44600   13.29040
 2198.50000    1.67940    3.12890    3.53790  234.80700   76.73960   13.29010
 2199.00000    1.57130    2.99030    3.65470  237.72810   81.03320   13.29160
 2199.50000    1.61300    3.22500    4.16740  238.81700   84.46680   13.29320
 2200.00000    1.50290    3.20230    4.34610  239.47980   82.30010   13.29470
 2200.50000    1.26570    2.38990    3.22500  239.95960   77.58470   13.29430
 2201.00000    1.14450    2.04770    2.66930  239.97510   72.86930   13.29240
 2201.50000    1.21510    2.19290    3.36310  239.99060   69.33880   13.29060
 2202.00000    1.30640    2.89080    4.52130  239.99610   66.94070   13.28980
 2202.50000    1.33690    3.29570    5.05730  239.98660   64.40560   13.28980
 2203.00000    1.34900    3.30760    4.76020  239.97710   63.99450   13.28980
 2203.50000    1.34090    3.28030    4.45680  239.96760   63.72040   13.28980
 2204.00000    1.32530    3.25310    4.50530  239.95810   62.03030   13.28980
 2204.50000    1.32520    3.26010    4.93550  239.94860   59.67030   13.28980
 2205.00000    1.34780    3.37970    5.24280  239.93910   59.76930   13.28980
 2205.50000    1.34090    3.24390    4.87570  239.92960   61.25380   13.28980
 2206.00000    1.30630    3.10380    4.24130  239.92010   60.55620   13.28980
 2206.50000    1.29930    3.03580    4.05710  239.91060   59.12360   13.28980
 2207.00000    1.33250    3.03310    4.31570  239.90110   57.69090   13.28960
 2207.50000    1.34930    3.27070    4.57030  239.89160   57.55390   13.29280
 2208.00000    1.35920    3.25830    4.47230  239.88210   59.60940   13.29600
 2208.50000    1.37530    3.07910    4.36060  236.24660   61.52790   13.29920
 2209.00000    1.37530    2.92210    4.06620  223.02150   62.81600   13.30730
 2209.50000    1.34940    2.76510    3.68070  221.78800   63.99450   13.30680
 2210.00000    1.35210    2.69260    3.60110  220.24630   65.22780   13.30630
 2210.50000    1.44760    3.04370    3.85670  219.52680   67.69440   13.30580
 2211.00000    1.53150    3.31880    4.36030  218.91000   67.69440   13.30540
 2211.50000    1.56410    3.28300    4.26680  216.75370   66.46110   13.30490
 2212.00000    1.57730    3.12240    3.89620  214.81750   65.70740   13.30440
 2212.50000    1.59320    3.02440    3.61380  212.42880   64.67960   13.30390
 2213.00000    1.61550    3.03810    3.61380  211.58500   63.65190   13.30350
 2213.50000    1.65040    3.05170    3.65310  207.09080   64.13150   13.30300
 2214.00000    1.71470    3.05440    3.67950  200.25790   66.59810   13.30250
 2214.50000    1.77650    3.22870    3.81470  198.70430   69.11040   13.30210
 2215.00000    1.84450    3.44660    4.05600  196.21320   70.02390   13.30160
 2215.50000    1.87980    3.47760    4.14480  192.10180   71.62270   13.30110
 2216.00000    1.78660    2.96640    3.55360  188.66730   73.86090   13.30060
 2216.50000    1.77590    2.74600    3.24250  185.21520   73.44980   13.30020
 2217.00000    1.77590    2.66310    3.19600  181.81180   71.80540   13.29970
 2217.50000    1.77590    2.64260    3.15010  181.21020   69.90800   13.29840
 2218.00000    1.81510    2.64390    3.15010  181.37100   68.01060   13.29660
 2218.50000    1.88040    2.74110    3.24240  182.68150   66.18700   13.29480
 2219.00000    1.97460    2.92000    3.36630  183.70910   66.63240   13.29310
 2219.50000    2.13340    3.19250    3.63920  184.40950   67.48880   13.29130
 2220.00000    2.23510    3.30600    3.62630  184.98940   67.42030   13.28950
 2220.50000    2.28790    3.31790    3.56170  187.35540   63.63280   13.28770
 2221.00000    2.29330    3.30750    3.51010  191.48510   63.17930   13.28590
 2221.50000    2.31280    3.31560    3.53540  195.95460   64.41640   13.28680
 2222.00000    2.30100    3.32380    3.61720  201.63590   65.79030   13.28830
 2222.50000    2.29450    3.33190    3.63890  207.98750   67.66070   13.28980
 2223.00000    2.27170    3.34000    3.63890  210.13780   69.40490   13.28940
 2223.50000    2.24220    3.32960    3.63880  212.13300   71.14920   13.28860
 2224.00000    2.14490    3.16500    3.55210  209.36670   70.63890   13.28770
 2224.50000    2.05200    3.03160    3.43350  213.63590   70.19820   13.28680
 2225.00000    1.95380    2.99290    3.42210  221.29300   70.73630   13.28600
 2225.50000    1.91890    3.01810    3.55570  219.19530   72.04250   13.28510
 2226.00000    1.85640    3.16810    3.73400  214.41310   73.22510   13.28570
 2226.50000    1.84350    3.25800    3.85480  214.81380   73.22900   13.28840
 2227.00000    1.79760    3.21140    3.77040  216.11430   72.27420   13.29110
 2227.50000    1.73970    3.03020    3.59420  214.62820   70.72230   13.29380
 2228.00000    1.66310    2.84900    3.41810  212.55370   69.17040   13.29410
 2228.50000    1.64890    2.74020    3.31230  210.80880   67.61850   13.29290
 2229.00000    1.64050    2.74020    3.37260  210.57160   67.69040   13.29160
 2229.50000    1.65540    2.90170    3.51760  210.97170   68.55040   13.29030
 2230.00000    1.70930    2.99850    3.66450  211.24270   69.33810   13.28900
 2230.50000    1.72020    3.05600    3.68270  210.48810   68.51000   13.28770
 2231.00000    1.74260    3.12790    3.70760  208.46960   68.22930   13.28650
 2231.50000    1.77690    3.14230    3.71760  210.51820   69.04490   13.30140
 2232.00000    1.80330    3.13710    3.71090  208.20230   71.09510   13.29850
 2232.50000    1.85530    3.16820    3.70250  199.51000   72.32220   13.29560
 2233.00000    1.87910    3.19930    3.69410  196.01690   68.88750   13.29270
 2233.50000    1.91450    3.19920    3.68570  190.57080   66.74930   13.28980
 2234.00000    1.91550    3.17820    3.67730  179.08250   64.90090   13.28680
 2234.50000    1.92260    3.12570    3.66900  163.83550   65.62880   13.28390
 2235.00000    1.95250    3.07310    3.66390  163.94030   67.80230   13.27940
 2235.50000    1.95590    3.04160    3.60810  167.33710   69.61070   13.27380
 2236.00000    1.99950    3.07460    3.62430  170.16210   69.67620   13.26810
 2236.50000    2.05310    3.17900    3.69430  173.16460   69.52580   13.26250
 2237.00000    2.08760    3.14880    3.60010  175.64950   69.51950   13.25690
 2237.50000    2.16570    3.05240    3.43940  178.55600   72.07860   13.25120
 2238.00000    2.16820    3.10790    3.45800  181.77510   71.98080   13.24560
 2238.50000    2.24910    3.31890    3.61100  186.29110   66.62210   13.24000
 2239.00000    2.49230    3.76130    3.88120  194.41980   59.91920   13.24690
 2239.50000    2.99230    5.38100    5.81450  204.95090   53.76440   13.28180
 2240.00000    3.76890    7.56190   10.69420  198.74090   47.60970   13.28560
 2240.50000    4.57600   12.75890   15.68670  188.73280   41.31790   13.28940
 2241.00000    5.48640   22.56070   29.07650  184.31220   41.32060   13.29320
 2241.50000    5.11490   20.44450   25.32840  183.39800   44.57410   13.28840
 2242.00000    4.07670   12.67510   11.94290  182.32980   52.60950   13.28370
