~Version ---------------------------------------------------
VERS.   2.0 : CWLS log ASCII Standard -VERSION 2.0
WRAP.    NO : One line per depth step
DLM . SPACE : Column Data Section Delimiter
~Well ------------------------------------------------------
STRT .FT                 440.0 : START DEPTH
STOP .FT                7179.0 : STOP DEPTH
STEP .FT                   0.5 : STEP
NULL .                -9999.25 : NULL VALUE
COMP .                         : COMPANY
WELL .                         : WELL
FLD  .                         : FIELD
LOC  .                         : LOCATION
PROV .                         : PROVINCE
CNTY .                         : COUNTY
STAT .                         : STATE
CTRY .                         : COUNTRY
SRVC .                         : SERVICE COMPANY
DATE .                         : DATE
UWI  .                         : UNIQUE WELL ID
API  .                         : API NUMBER
SLAT .WGS84  6.061860059400395 : SURFACE LATITUDE
SLON .WGS84 2.3611323134881985 : SURFACE LONGITUDE
DATUM.F                    nan : DEPTH DATUM ELEV
~Curve Information -----------------------------------------
DEPT .FT    : 
AT10 .OHMM  : ARRAY INDUCTION TWO FOOT RESISTIVITY A10
AT30 .OHMM  : ARRAY INDUCTION TWO FOOT RESISTIVITY A30
AT60 .OHMM  : ARRAY INDUCTION TWO FOOT RESISTIVITY A60
DTSM .US/F  : DELTA-T SHEAR
ECGRS.CU    : ENVIRONMENTALLY CORRECTED GAMMA RAY FROM SONIC LOG
HCALR.IN    : HRCC CALIPER CALIBRATED FROM RESISTIVITY LOG
~Params ----------------------------------------------------
~Other -----------------------------------------------------
~ASCII -----------------------------------------------------
# ...
  903.50000    1.47320    1.90790    2.04100  231.85050   70.57200   13.34530
  904.00000    1.66080    1.87760    1.88510  234.31250   71.34280   13.34560
  904.50000    2.61780    2.40150    1.94510  237.57810   72.07940   13.34590
  905.00000    3.57490    2.92540    2.00440  238.95760   71.12020   13.34590
  905.50000    4.03340    3.04640    1.76560  237.55380   61.87040   13.34560
  906.00000    3.11140    2.30950    1.23620  236.47600   51.02200   13.34530
  906.50000    2.18940    1.57270    0.78380  235.91030   39.14570   13.34500
  907.00000    1.26730    0.83580    0.64000  236.99250   31.65460   13.34470
  907.50000    0.68750    0.66110    0.52490  238.28550   28.91400   13.34440
  908.00000    0.63110    0.56460    0.49720  239.30240   27.81770   13.34410
  908.50000    0.61090    0.55270    0.49360  239.99420   26.76710   13.34380
  909.00000    0.60470    0.53330    0.50260  239.97970   24.25480   13.34350
  909.50000    0.52890    0.47510    0.43700  239.96530   22.74750   13.34320
  910.00000    0.45300    0.40630    0.36180  239.95590   22.47340   13.34290
  910.50000    0.37480    0.36030    0.34030  239.96720   22.06230   13.34260
  911.00000    0.37010    0.36160    0.34280  239.97840   22.06230   13.33510
  911.50000    0.42000    0.39030    0.36170  239.98960   22.88450   13.33730
  912.00000    0.43350    0.41850    0.38060  240.00080   23.77530   13.34000
  912.50000    0.50280    0.46760    0.41590  240.01210   24.80300   13.32970
  913.00000    0.50440    0.47530    0.41960  240.02330   25.76220   13.33230
  913.50000    0.44760    0.42900    0.39530  240.03450   25.76220   13.33480
  914.00000    0.41210    0.38970    0.37710  240.04570   25.76220   13.34220
  914.50000    0.40180    0.37870    0.35880  240.05700   26.17330   13.34360
  915.00000    0.39180    0.38010    0.34650  240.06820   25.15540   13.34010
  915.50000    0.38290    0.37870    0.33540  240.07940   22.95310   13.33980
  916.00000    0.37740    0.36470    0.32300  239.46720   20.75070   13.34430
  916.50000    0.36320    0.35020    0.31200  237.41150   19.45870   13.34330
  917.00000    0.34420    0.33910    0.29610  235.35580   20.80160   13.34230
  917.50000    0.36630    0.35170    0.31710  233.30000   22.30900   13.33510
  918.00000    0.41810    0.40370    0.37260  231.24430   22.47340   13.33840
  918.50000    0.51470    0.46620    0.43920  230.91540   21.75400   13.34170
  919.00000    0.59070    0.50370    0.46260  230.83320   21.51420   13.33780
  919.50000    0.51090    0.44770    0.39630  231.65550   21.05670   13.33990
  920.00000    0.43480    0.39550    0.36050  233.30010   19.91290   13.34200
  920.50000    0.39930    0.36410    0.34270  234.41070   19.45100   13.34420
  921.00000    0.39930    0.36810    0.34400  235.54180   19.30510   13.34020
  921.50000    0.40180    0.37920    0.35270  237.00190   18.74830   13.33630
  922.00000    0.41770    0.39040    0.36490  238.90390   18.05510   13.33410
  922.50000    0.43370    0.40160    0.37920  240.28950   17.63640   13.33440
  923.00000    0.44960    0.40520    0.38610  240.28950   17.21750   13.33460
  923.50000    0.46870    0.40600    0.38060  240.08390   17.53370   13.35440
  924.00000    0.44190    0.40720    0.36980  235.56540   17.84980   13.34750
  924.50000    0.41920    0.40810    0.36710  231.04340   18.16590   13.34060
  925.00000    0.41950    0.40020    0.36710  218.16580   18.41770   13.33370
  925.50000    0.41710    0.39020    0.36530  214.19320   18.40880   13.33590
  926.00000    0.39850    0.37170    0.36100  207.70100   17.57830   13.33810
  926.50000    0.37780    0.36060    0.35660  204.30890   16.88600   13.34030
  927.00000    0.35710    0.35050    0.35220  205.40620   18.24690   13.33550
  927.50000    0.33640    0.34040    0.34780  207.74070   19.19890   13.33890
  928.00000    0.31050    0.33310    0.34520  210.70940   21.62450   13.34230
  928.50000    0.31900    0.33870    0.35280  213.29820   24.50440   13.34200
  929.00000    0.34160    0.37270    0.40710  215.66280   27.38430   13.33400
  929.50000    0.37920    0.43500    0.46620  219.85970   28.77670   13.32610
  930.00000    0.45410    0.52690    0.53630  223.19550   29.62940   13.32750
  930.50000    0.54760    0.63430    0.80680  224.90350   30.22180   13.31730
  931.00000    0.99150    0.84520    1.07530  227.02630   30.22840   13.32910
  931.50000    1.49260    1.07900    1.20870  227.14790   30.09640   13.34090
  932.00000    1.93740    1.25020    1.19130  227.43580   29.83400   13.34240
  932.50000    1.70110    1.04360    0.89970  227.72380   29.70380   13.34130
  933.00000    1.11030    0.73620    0.63780  228.32160   29.02540   13.34030
  933.50000    0.73020    0.57350    0.51140  229.12590   28.48410   13.33330
  934.00000    0.57670    0.46400    0.43990  230.66340   27.12160   13.33400
  934.50000    0.57020    0.46240    0.44330  231.35410   26.71440   13.33470
  935.00000    0.59520    0.48720    0.46790  230.97820   26.72500   13.33540
  935.50000    0.62030    0.50870    0.49180  230.50710   26.04670   13.33610
  936.00000    0.64530    0.52390    0.50440  230.22060   24.95720   13.33680
  936.50000    0.63890    0.52390    0.50440  230.46850   25.37610   13.33750
  937.00000    0.63870    0.52060    0.50440  230.27050   26.47920   13.33820
  937.50000    0.65580    0.55780    0.53090  228.37750   28.94560   13.33890
  938.00000    0.69010    0.60020    0.57410  224.60650   31.13650   13.33970
  938.50000    0.70100    0.62160    0.58280  224.20910   30.05070   13.34040
  939.00000    0.65940    0.58300    0.54640  224.89090   27.67050   13.34110
  939.50000    0.58950    0.51950    0.49510  223.85280   26.65310   13.34180
  940.00000    0.54350    0.45600    0.41720  222.27810   27.21560   13.34370
  940.50000    0.46260    0.40230    0.37920  222.86400   30.42130   13.34650
  941.00000    0.46300    0.43710    0.40470  225.71280   30.83240   13.34920
  941.50000    0.53910    0.49140    0.43810  226.91280   35.82590   13.35200
  942.00000    0.63450    0.54560    0.51170  231.94720   40.86870   13.34960
  942.50000    0.69910    0.60190    0.57440  238.00980   45.91160   13.34580
  943.00000    0.75300    0.63270    0.59120  239.71640   50.95440   13.34210
  943.50000    0.81680    0.68190    0.62410  239.82540   55.99720   13.34060
  944.00000    0.99960    0.86590    0.70720  239.93450   55.36140   13.33910
  944.50000    1.51460    1.29130    0.93110  240.00000   49.02360   13.33760
  945.00000    2.22720    1.71670    1.33710  240.00000   43.11400   13.33700
  945.50000    1.71520    1.47080    1.19060  240.00000   37.20450   13.33780
  946.00000    1.23670    1.12290    0.93120  239.95790   31.92870   13.33870
  946.50000    0.97000    0.82020    0.70590  239.88780   28.99460   13.33950
  947.00000    0.77360    0.69840    0.61690  239.81770   25.93150   13.34030
  947.50000    0.60520    0.57670    0.52780  239.74760   22.86840   13.34110
  948.00000    0.47880    0.46420    0.43880  239.67750   20.28090   13.33990
  948.50000    0.39370    0.39660    0.38850  239.60740   19.73270   13.33550
  949.00000    0.34190    0.35900    0.36640  239.53730   19.59570   13.33120
  949.50000    0.29820    0.32140    0.34430  239.46720   20.96600   13.33800
  950.00000    0.29710    0.32140    0.33660  236.38360   23.36410   13.33590
  950.50000    0.32350    0.34700    0.37210  229.70260   25.21410   13.33370
  951.00000    0.34990    0.37610    0.39780  223.02150   24.28910   13.33160
  951.50000    0.39170    0.40530    0.42000  217.88220   22.40490   13.33480
  952.00000    0.40380    0.41990    0.43500  212.74290   20.52070   13.33800
  952.50000    0.39520    0.42140    0.42870  207.60370   20.00680   13.33990
  953.00000    0.39080    0.41190    0.42300  189.94340   19.86980   13.33970
  953.50000    0.38640    0.40380    0.41740  184.13600   20.69200   13.33940
  954.00000    0.38200    0.40260    0.41170  178.44690   21.78820   13.33920
  954.50000    0.37780    0.40140    0.41200  179.34090   22.47340   13.33900
