~Version ---------------------------------------------------
VERS.   2.0 : CWLS log ASCII Standard -VERSION 2.0
WRAP.    NO : One line per depth step
DLM . SPACE : Column Data Section Delimiter
~Well ------------------------------------------------------
STRT .FT                 440.0 : START DEPTH
STOP .FT                7179.0 : STOP DEPTH
STEP .FT                   0.5 : STEP
NULL .                -9999.25 : NULL VALUE
COMP .                         : COMPANY
WELL .                         : WELL
FLD  .                         : FIELD
LOC  .                         : LOCATION
PROV .                         : PROVINCE
CNTY .                         : COUNTY
STAT .                         : STATE
CTRY .                         : COUNTRY
SRVC .                         : SERVICE COMPANY
DATE .                         : DATE
UWI  .                         : UNIQUE WELL ID
API  .                         : API NUMBER
SLAT .WGS84  6.061860059400395 : SURFACE LATITUDE
SLON .WGS84 2.3611323134881985 : SURFACE LONGITUDE
DATUM.F                    nan : DEPTH DATUM ELEV
~Curve Information -----------------------------------------
DEPT .FT    : 
AT10 .OHMM  : ARRAY INDUCTION TWO FOOT RESISTIVITY A10
AT30 .OHMM  : ARRAY INDUCTION TWO FOOT RESISTIVITY A30
AT60 .OHMM  : ARRAY INDUCTION TWO FOOT RESISTIVITY A60
DTSM .US/F  : DELTA-T SHEAR
ECGRS.CU    : ENVIRONMENTALLY CORRECTED GAMMA RAY FROM SONIC LOG
HCALR.IN    : HRCC CALIPER CALIBRATED FROM RESISTIVITY LOG
~Params ----------------------------------------------------
~Other -----------------------------------------------------
~ASCII -----------------------------------------------------
# ...
 3530.00000    2.85360    3.01570    3.08380  151.33240   65.00980   13.25220
 3530.50000    2.74460    2.93210    2.97520  153.68490   59.60220   13.24870
 3531.00000    2.64110    2.84850    2.89960  156.53970   60.69210   13.25370
 3531.50000    2.64110    2.83180    2.89960  159.75460   63.97430   13.26090
 3532.00000    2.67150    2.89370    2.95440  164.05770   62.15090   13.26810
 3532.50000    2.75610    2.99430    3.04570  168.55370   58.97420   13.24950
 3533.00000    2.76920    3.05460    3.13700  170.63870   58.47010   13.25360
 3533.50000    2.76920    3.04030    3.15070  175.68480   58.73640   13.25770
 3534.00000    2.76920    3.02390    3.09560  185.10830   58.86660   13.26190
 3534.50000    2.73010    3.01080    3.05510  189.17360   60.50880   13.26600
 3535.00000    2.65360    3.02170    3.07200  191.79110   65.57330   13.25960
 3535.50000    2.70440    3.07750    3.12800  194.34410   79.27450   13.25330
 3536.00000    2.74310    3.13400    3.19360  198.35760   80.78220   13.24820
 3536.50000    2.74310    3.19040    3.26140  201.37920   86.94260   13.25530
 3537.00000    2.66210    3.22430    3.30210  205.52700   86.93650   13.26720
 3537.50000    2.62050    3.18410    3.27160  207.60630   88.71260   13.27910
 3538.00000    2.58880    3.11690    3.24070  210.34380   87.33690   13.27140
 3538.50000    2.51330    3.06560    3.20970  210.92290   88.53330   13.26370
 3539.00000    2.47340    3.03000    3.17350  210.91310   90.07540   13.25600
 3539.50000    2.38760    2.96870    3.07200  210.83610   90.20760   13.24830
 3540.00000    2.25720    2.90740    3.00690  210.31040   91.16530   13.25980
 3540.50000    2.21960    2.84610    2.95310  209.78470   92.55230   13.25540
 3541.00000    2.09090    2.79130    2.91010  208.70970   93.93920   13.25100
 3541.50000    2.00710    2.71080    2.86240  206.84700   94.36270   13.25270
 3542.00000    1.96600    2.65340    2.81480  204.40010   94.64190   13.25920
 3542.50000    1.92020    2.60330    2.72470  201.95330   95.05790   13.25560
 3543.00000    1.88090    2.55330    2.62080  199.37820   95.33750   13.25200
 3543.50000    1.85200    2.50510    2.68790  197.11660   96.16520   13.24850
 3544.00000    1.83210    2.45300    2.66380  193.93700   96.85510   13.24850
 3544.50000    1.81050    2.43380    2.63980  190.59210   97.68220   13.24850
 3545.00000    1.79160    2.43380    2.65240  186.12080   98.50920   13.24850
 3545.50000    1.81080    2.44410    2.66510  180.14110   97.82950   13.24850
 3546.00000    1.82110    2.45430    2.67770  176.01990   94.66580   13.24850
 3546.50000    1.84460    2.46450    2.69470  173.13780   91.05190   13.24850
 3547.00000    1.84590    2.47480    2.72870  170.50920   87.30100   13.26870
 3547.50000    1.87770    2.48500    2.76270  167.84980   86.62130   13.28760
 3548.00000    1.90830    2.51660    2.79660  165.19030   85.94200   13.28560
 3548.50000    1.94770    2.56810    2.83060  164.77510   85.39920   13.27590
 3549.00000    1.99710    2.60640    2.87870  169.26790   83.62310   13.25980
 3549.50000    2.07580    2.73100    2.99640  176.07340   81.57370   13.25960
 3550.00000    2.17350    2.92390    3.21610  187.29440   80.16240   13.25950
 3550.50000    2.27290    3.11680    3.43590  193.00810   77.19440   13.25940
 3551.00000    2.44950    3.30970    3.61840  193.41930   74.82010   13.25920
 3551.50000    2.59530    3.50270    3.80100  195.06380   76.09900   13.25910
 3552.00000    2.75870    3.64530    3.98360  197.89040   76.67000   13.27780
 3552.50000    2.86960    3.77550    4.15250  200.20310   76.32740   13.28130
 3553.00000    2.92940    3.90560    4.31230  198.10170   78.88890   13.28020
 3553.50000    2.94060    3.94580    4.40790  195.47500   82.78910   13.27920
 3554.00000    2.88050    3.84750    4.19570  194.65270   86.68920   13.27810
 3554.50000    2.76920    3.68570    3.98350  192.80250   93.14820   13.27710
 3555.00000    2.62000    3.53790    3.68390  190.33570   98.80090   13.27600
 3555.50000    2.50540    3.39000    3.32600  184.18680   95.14660   13.27500
 3556.00000    2.39100    3.24210    3.26650  180.91140   88.38630   13.27390
 3556.50000    2.27750    3.09430    3.23130  177.75330   88.24930   13.27290
 3557.00000    2.20600    2.94640    3.15930  175.34780   87.97520   13.27180
 3557.50000    2.13210    2.87650    3.08310  171.95840   86.05680   13.27080
 3558.00000    2.07120    2.82890    3.06100  168.56890   80.57540   13.26970
 3558.50000    2.01840    2.78120    3.04990  168.39000   80.16430   13.26870
 3559.00000    2.07960    2.77120    3.04990  172.11380   78.33720   13.26760
 3559.50000    2.09330    2.83180    3.15120  171.89160   78.72550   13.26660
 3560.00000    2.16730    2.94640    3.27460  169.54690   80.26720   13.26550
 3560.50000    2.21780    3.13130    3.43260  171.24240   79.20520   13.26450
 3561.00000    2.25280    3.30880    3.59050  172.98620   78.10890   13.26340
 3561.50000    2.33450    3.48640    3.74850  173.45020   73.69640   13.26240
 3562.00000    2.40760    3.66400    3.90650  173.16450   67.25590   13.26130
 3562.50000    2.49970    3.83360    3.96970  173.05170   60.81530   13.26030
 3563.00000    2.57880    3.87530    3.91790  172.57720   57.82800   13.25920
 3563.50000    2.62000    3.76200    3.85320  169.16710   63.07740   13.25920
 3564.00000    2.62040    3.67860    3.80140  169.02590   72.77510   13.25960
 3564.50000    2.62080    3.59520    3.78770  171.61210   82.47290   13.26000
 3565.00000    2.67580    3.52850    3.78770  174.04020   87.97530   13.26050
 3565.50000    2.61580    3.52850    3.78770  174.35620   86.63920   13.26090
 3566.00000    2.58900    3.55400    3.76040  174.19530   83.98420   13.26130
 3566.50000    2.57050    3.50000    3.66660  176.08280   83.31610   13.26180
 3567.00000    2.53100    3.44600    3.51460  178.45070   83.59020   13.26220
 3567.50000    2.46000    3.39200    3.42350  178.93430   84.00130   13.26260
 3568.00000    2.35090    3.33800    3.47330  183.15350   89.34560   13.26300
 3568.50000    2.25140    3.29480    3.42240  187.70860   89.89370   13.26350
 3569.00000    2.21300    3.22970    3.37440  190.04370   91.67520   13.26390
 3569.50000    2.19880    3.19820    3.37440  191.93580   91.26410   13.26430
 3570.00000    2.15950    3.16670    3.27830  193.65550   90.03030   13.26480
 3570.50000    2.11690    3.13710    3.23910  195.61340   89.20320   13.26520
 3571.00000    2.04900    3.10670    3.23130  197.43090   89.19840   13.26560
 3571.50000    2.01040    3.07640    3.27830  199.17980   90.15280   13.26610
 3572.00000    1.96940    3.04600    3.32630  200.41270   89.87320   13.26650
 3572.50000    1.91770    3.02170    3.37440  202.46950   87.40140   13.26690
 3573.00000    1.86670    2.99640    3.35460  203.70370   85.20370   13.26730
 3573.50000    1.80140    2.97840    3.32980  201.44560   84.17810   13.26780
 3574.00000    1.75530    2.96420    3.30500  199.18760   82.65050   13.26820
 3574.50000    1.69840    2.90420    3.26650  206.09250   81.62560   13.26860
 3575.00000    1.63230    2.77090    3.24300  189.75110   80.11340   13.26910
 3575.50000    1.53620    2.66910    3.19650  182.55240   77.36720   13.26950
 3576.00000    1.48770    2.58770    3.15710  175.35380   78.14970   13.26990
 3576.50000    1.46010    2.53550    3.12220  167.03450   79.77230   13.27030
 3577.00000    1.43100    2.49350    3.09430  157.94460   80.36600   13.27080
 3577.50000    1.43030    2.45150    3.08310  156.90190   78.82930   13.27120
 3578.00000    1.42960    2.45150    3.06100  154.10590   77.29270   13.27160
 3578.50000    1.44260    2.44560    3.06100  149.18140   75.75610   13.27210
 3579.00000    1.46730    2.46920    3.12360  152.77160   74.59050   13.27250
 3579.50000    1.54410    2.67350    3.32600  155.50920   73.21530   13.27260
 3580.00000    1.65470    2.90330    3.64570  156.33160   69.17130   13.27180
 3580.50000    1.80430    3.18350    3.93880  147.56410   66.77500   13.27100
 3581.00000    1.95270    3.46370    4.23200  146.68860   71.55850   13.27020
