~Version ---------------------------------------------------
VERS.   2.0 : CWLS log ASCII Standard -VERSION 2.0
WRAP.    NO : One line per depth step
DLM . SPACE : Column Data Section Delimiter
~Well ------------------------------------------------------
STRT .FT                 440.0 : START DEPTH
STOP .FT                7179.0 : STOP DEPTH
STEP .FT                   0.5 : STEP
NULL .                -9999.25 : NULL VALUE
COMP .                         : COMPANY
WELL .                         : WELL
FLD  .                         : FIELD
LOC  .                         : LOCATION
PROV .                         : PROVINCE
CNTY .                         : COUNTY
STAT .                         : STATE
CTRY .                         : COUNTRY
SRVC .                         : SERVICE COMPANY
DATE .                         : DATE
UWI  .                         : UNIQUE WELL ID
API  .                         : API NUMBER
SLAT .WGS84  6.061860059400395 : SURFACE LATITUDE
SLON .WGS84 2.3611323134881985 : SURFACE LONGITUDE
DATUM.F                    nan : DEPTH DATUM ELEV
~Curve Information -----------------------------------------
DEPT .FT    : 
AT10 .OHMM  : ARRAY INDUCTION TWO FOOT RESISTIVITY A10
AT30 .OHMM  : ARRAY INDUCTION TWO FOOT RESISTIVITY A30
AT60 .OHMM  : ARRAY INDUCTION TWO FOOT RESISTIVITY A60
DTSM .US/F  : DELTA-T SHEAR
ECGRS.CU    : ENVIRONMENTALLY CORRECTED GAMMA RAY FROM SONIC LOG
HCALR.IN    : HRCC CALIPER CALIBRATED FROM RESISTIVITY LOG
~Params ----------------------------------------------------
~Other -----------------------------------------------------
~ASCII -----------------------------------------------------
# ...
 4405.50000    3.40620    4.21730    4.42860  155.30470   47.45790   13.25020
 4406.00000    3.45320    4.20970    4.47120  154.73430   51.13170   13.25090
 4406.50000    3.45400    4.18690    4.56900  153.48950   66.03320   13.25160
 4407.00000    3.44100    4.14180    4.75410  150.30160   80.93470   13.24800
 4407.50000    3.11610    3.85720    4.56890  146.78750   92.85730   13.25200
 4408.00000    2.82430    3.52490    3.65240  146.08190   91.90780   13.25600
 4408.50000    2.74730    3.19260    3.66550  146.96730   81.22920   13.26000
 4409.00000    2.92510    3.19450    4.15930  147.59580   78.39760   13.26030
 4409.50000    3.10730    3.80750    4.72670  147.67540   76.86650   13.25520
 4410.00000    3.19690    4.29340    4.87520  146.79050   78.10890   13.25020
 4410.50000    3.59220    4.64770    4.69130  148.76490   82.13770   13.24710
 4411.00000    3.69590    4.56140    4.63470  161.01650   86.65980   13.24710
 4411.50000    3.74250    4.34580    4.63460  164.82860   87.56420   13.24710
 4412.00000    3.42960    4.17500    4.39540  164.78660   76.87560   13.24710
 4412.50000    3.17110    4.04410    4.20400  167.87880   65.22780   13.24710
 4413.00000    3.46460    3.96550    4.35850  170.55810   53.57990   13.24710
 4413.50000    3.38810    4.02300    4.24960  172.75770   52.67940   13.24780
 4414.00000    3.48770    4.02290    4.17350  172.25750   62.07600   13.24780
 4414.50000    3.46570    3.97960    4.24950  169.79750   71.47260   13.24780
 4415.00000    3.35420    3.87110    4.08390  164.66590   75.77930   13.24780
 4415.50000    3.21400    3.82510    4.02530  160.44400   75.70620   13.24780
 4416.00000    3.10660    3.77900    4.02520  154.54790   78.76660   13.24780
 4416.50000    3.34500    3.76980    3.92470  145.90400   81.82710   13.24780
 4417.00000    3.70170    3.74670    3.73690  139.18880   84.41240   13.24780
 4417.50000    3.96970    3.71780    3.61020  136.35790   85.71420   13.24780
 4418.00000    4.44000    3.68890    3.47110  133.10310   87.42710   13.24780
 4418.50000    4.79700    3.51990    3.37220  131.26710   88.91740   13.24780
 4419.00000    4.98760    3.26860    3.24080  128.96720   90.71590   13.24780
 4419.50000    5.30270    3.01320    2.97180  129.72720   90.71590   13.24780
 4420.00000    6.79590    2.75780    2.55520  132.84020   85.57680   13.24780
 4420.50000    7.50890    2.51690    2.15500  133.16030   80.43760   13.24780
 4421.00000    6.27440    2.14290    1.92960  132.34960   60.50960   13.24780
 4421.50000    4.51710    1.72970    1.63180  132.60200   40.58170   13.24780
 4422.00000    2.52480    1.39850    1.22090  133.30860   21.65510   13.24780
 4422.50000    1.22910    1.02310    0.73470  132.76730   16.12840   13.24780
 4423.00000    0.92890    0.69080    0.56520  134.08180   15.43530   13.24780
 4423.50000    0.73210    0.59480    0.48850  135.73370   15.01550   13.24780
 4424.00000    0.93830    0.65740    0.58130  137.52970   16.50620   13.24780
 4424.50000    1.17400    0.75920    0.67120  140.04110   19.55880   13.24780
 4425.00000    1.21540    0.79080    0.68340  139.96310   22.61130   13.24780
 4425.50000    1.11210    0.76320    0.67600  139.87900   23.62720   13.24780
 4426.00000    1.11480    0.73580    0.64500  140.89130   22.11310   13.24780
 4426.50000    1.19170    0.77720    0.66870  140.89370   22.51740   13.24780
 4427.00000    1.28210    0.87690    0.75330  140.89620   25.66160   13.24780
 4427.50000    1.46810    0.94020    0.87990  139.61610   41.16530   13.24780
 4428.00000    1.40350    0.92020    0.88300  137.76080   55.80430   13.24780
 4428.50000    1.14870    0.80770    0.71120  133.68550   61.47550   13.24780
 4429.00000    0.94980    0.68950    0.59360  128.99160   59.12400   13.24780
 4429.50000    1.30030    0.80530    0.69530  120.80760   57.06470   13.24780
 4430.00000    2.21480    1.23350    0.96390  118.98900   32.54360   13.24780
 4430.50000    3.80650    1.48610    1.38660  116.96290   25.56000   13.24780
 4431.00000    3.71740    1.43350    1.31350  116.26350   22.74500   13.24780
 4431.50000    1.47680    1.09810    0.85820  117.06230   21.45680   13.24780
 4432.00000    0.97010    0.77820    0.54960  117.29510   19.81780   13.24780
 4432.50000    0.61710    0.51850    0.43660  118.10400   19.27350   13.24780
 4433.00000    0.67160    0.55430    0.45590  118.85100   19.36000   13.24780
 4433.50000    0.85540    0.63680    0.58710  119.59810   19.69290   13.24780
 4434.00000    1.03910    0.71190    0.64720  120.27880   18.84750   13.24780
 4434.50000    1.38540    0.78930    0.68320  120.72520   17.50870   13.24780
 4435.00000    1.97180    0.89120    0.74500  121.82710   17.64960   13.24780
 4435.50000    2.70410    1.03720    0.88760  124.16070   19.26260   13.24780
 4436.00000    4.09000    1.25370    1.00530  131.61390   20.73800   13.24780
 4436.50000    6.14350    1.50740    1.14900  134.42940   22.21340   13.24780
 4437.00000    8.72000    1.60270    1.21290  137.69550   23.82590   13.24780
 4437.50000    6.86800    1.55710    1.18910  143.68990   24.10330   13.24780
 4438.00000    3.79350    1.40600    1.08750  153.64370   23.55860   13.24780
 4438.50000    2.90480    1.22800    0.94390  163.32200   22.78580   13.24780
 4439.00000    1.93550    1.07000    0.84830  172.34490   22.16110   13.24780
 4439.50000    1.57900    0.99200    0.79200  173.54910   21.78780   13.24780
 4440.00000    1.38210    0.92970    0.78350  173.91750   22.61390   13.24780
 4440.50000    1.33740    0.91960    0.79490  175.20890   29.97900   13.24780
 4441.00000    1.43440    1.00280    0.88760  174.50060   44.62990   13.24780
 4441.50000    1.84650    1.22720    1.06500  173.90890   57.32000   13.24780
 4442.00000    2.50920    1.62450    1.47340  173.51680   68.28290   13.24780
 4442.50000    3.47730    2.11790    1.87030  171.28150   83.69600   13.24780
 4443.00000    3.37550    2.55720    2.24490  166.40550   99.10920   13.24780
 4443.50000    3.03080    3.08460    2.81450  160.53370   99.38320   13.24780
 4444.00000    3.05960    3.38630    3.66200  158.74800   98.74950   13.24780
 4444.50000    3.26500    3.51650    4.50950  158.28190   97.50760   13.24780
 4445.00000    3.30040    3.70180    5.13200  157.53350   96.26570   13.24780
 4445.50000    3.26920    3.91750    5.64520  158.66680   95.27230   13.24780
 4446.00000    3.27370    4.00370    5.49540  158.05340   95.95740   13.24780
 4446.50000    3.29620    4.00370    5.23280  156.96520   97.46480   13.24780
 4447.00000    3.31870    4.00360    5.10390  154.41520   96.50550   13.24780
 4447.50000    3.34110    3.96040    4.96640  151.93170   94.52620   13.24780
 4448.00000    3.36360    3.88960    4.88560  150.08750   92.39460   13.24780
 4448.50000    3.38610    3.81430    4.73130  148.76140   88.83760   13.24780
 4449.00000    3.42630    3.75170    4.59460  146.05510   86.78540   13.24780
 4449.50000    3.47830    3.73810    4.62780  143.38150   85.55270   13.24780
 4450.00000    3.52610    3.85780    4.98940  139.78320   82.12730   13.24780
 4450.50000    3.66090    4.03470    5.36610  136.92790   84.69140   13.24780
 4451.00000    3.87520    4.19820    5.92980  135.59910   86.20310   13.24780
 4451.50000    4.14260    4.35250    6.68840  134.52840   83.95840   13.24780
 4452.00000    4.22020    4.50690    6.47460  134.46050   77.99620   13.24780
 4452.50000    4.28240    4.66130    5.56270  133.70440   72.03400   13.24780
 4453.00000    4.56820    4.81560    5.06840  132.77610   66.07170   13.24780
 4453.50000    5.39720    4.95260    4.99270  131.97230   64.70480   13.25800
 4454.00000    6.25630    4.95260    4.79830  131.97030   67.86120   13.25800
 4454.50000    6.97650    4.58690    3.98420  131.96830   74.71950   13.25800
 4455.00000    7.33730    3.80650    3.36850  131.96630   76.23150   13.25800
 4455.50000    8.17740    3.54490    3.00980  131.75330   66.31750   13.25800
 4456.00000   10.53190    3.28330    2.73210  131.56110   51.84700   13.25800
 4456.50000   19.92100    3.12190    2.57880  131.38980   37.37650   13.25800
