~Version ---------------------------------------------------
VERS.   2.0 : CWLS log ASCII Standard -VERSION 2.0
WRAP.    NO : One line per depth step
DLM . SPACE : Column Data Section Delimiter
~Well ------------------------------------------------------
STRT .FT                 440.0 : START DEPTH
STOP .FT                7179.0 : STOP DEPTH
STEP .FT                   0.5 : STEP
NULL .                -9999.25 : NULL VALUE
COMP .                         : COMPANY
WELL .                         : WELL
FLD  .                         : FIELD
LOC  .                         : LOCATION
PROV .                         : PROVINCE
CNTY .                         : COUNTY
STAT .                         : STATE
CTRY .                         : COUNTRY
SRVC .                         : SERVICE COMPANY
DATE .                         : DATE
UWI  .                         : UNIQUE WELL ID
API  .                         : API NUMBER
SLAT .WGS84  6.061860059400395 : SURFACE LATITUDE
SLON .WGS84 2.3611323134881985 : SURFACE LONGITUDE
DATUM.F                    nan : DEPTH DATUM ELEV
~Curve Information -----------------------------------------
DEPT .FT    : 
AT10 .OHMM  : ARRAY INDUCTION TWO FOOT RESISTIVITY A10
AT30 .OHMM  : ARRAY INDUCTION TWO FOOT RESISTIVITY A30
AT60 .OHMM  : ARRAY INDUCTION TWO FOOT RESISTIVITY A60
DTSM .US/F  : DELTA-T SHEAR
ECGRS.CU    : ENVIRONMENTALLY CORRECTED GAMMA RAY FROM SONIC LOG
HCALR.IN    : HRCC CALIPER CALIBRATED FROM RESISTIVITY LOG
~Params ----------------------------------------------------
~Other -----------------------------------------------------
~ASCII -----------------------------------------------------
# ...
 7032.00000   27.76870  438.60360 1148.36300  109.15400   28.62390   13.19260
 7032.50000   25.39040  428.30130 1443.24510  109.15190   39.09730   13.19260
 7033.00000   24.27690  368.03320 1724.01290  109.60210   46.34560   13.19260
 7033.50000   23.45160  312.63000 1913.17160  110.41130   52.76950   13.19260
 7034.00000   22.97330  302.96350 1976.20730  111.10300   57.90780   13.19260
 7034.50000   22.65620  333.16640 1968.89710  112.03200   60.98630   13.19260
 7035.00000   22.65620  376.71000 1926.49340  111.78530   63.92780   13.19260
 7035.50000   22.65620  382.21480 1831.35430  111.62090   59.97810   13.19260
 7036.00000   22.54730  455.26800 1857.81170  110.47880   53.17140   13.19260
 7036.50000   22.08710  410.15920 1905.22440  108.82350   47.45090   13.19260
 7037.00000   21.46980  314.98190  580.60540  107.26210   50.53150   13.19260
 7037.50000   20.61960  196.47340  425.12180  105.76210   56.59370   13.19260
 7038.00000   18.76750  122.70380  233.39270  104.56490   64.75850   13.19260
 7038.50000   17.12520   71.09740  121.70610  102.26080   71.42660   13.19260
 7039.00000   16.09440   52.73560   91.76930  100.59460   75.86420   13.19260
 7039.50000   15.66010   50.92650   83.46210   98.87460   81.41240   13.19260
 7040.00000   16.45130   58.46000  100.48250   98.74310   81.83300   13.19260
 7040.50000   17.62890   89.97260  135.69000   98.71490   70.63770   13.19260
 7041.00000   18.64350  104.02290  243.19020   98.68680   59.44240   13.19260
 7041.50000   18.81390  129.57510  370.75800   98.48730   48.24710   13.19260
 7042.00000   19.09070  229.88180 1159.77180   97.52030   37.05180   13.19260
 7042.50000   19.36130  265.49370 1944.73420   97.27060   25.85640   13.19260
 7043.00000   19.72090  287.18550 2008.81380   97.24560   20.58590   13.19260
 7043.50000   19.74830  335.79200 1996.24120   97.02530   15.45230   13.19260
 7044.00000   20.01640  500.45770 1984.13270   96.71700   15.59420   13.19260
 7044.50000   20.76580  683.33440 1977.36640   96.91970   19.05660   13.19260
 7045.00000   21.44780  923.73520 1970.60000   97.12240   22.69860   13.19260
 7045.50000   22.40370 1257.75550 1963.83370   97.32510   25.61360   13.19260
 7046.00000   24.14820 1458.10090 1957.06740   97.38140   26.25770   13.19260
 7046.50000   25.87530 1388.27770 1950.30100   97.32160   26.44550   13.19260
 7047.00000   28.27150 1176.56280 1957.16970   96.89480   25.17160   13.19260
 7047.50000   31.67610  917.44850 1964.11910   97.05950   23.44120   13.19360
 7048.00000   36.92150  626.73450 1964.11910   97.23060   23.17190   13.19270
 7048.50000   40.71390  388.93560 1963.72010   97.02530   25.01750   13.19170
 7049.00000   47.59940  362.79730 1963.51840   96.76840   26.47120   13.19080
 7049.50000   53.23010  340.26290 1963.31890   96.61420   26.47600   13.18980
 7050.00000   56.15510  355.17160 1963.27580   96.75140   24.36700   13.18880
 7050.50000   58.37700  388.44330 1955.83020   96.98010   21.55180   13.18790
 7051.00000   59.70370  422.98690 1948.55690   97.20880   22.48090   13.18690
 7051.50000   61.16020  523.44200 1913.47680   97.43760   24.25450   13.18600
 7052.00000   64.12020  410.57800  984.57940   97.39500   25.67390   13.18500
 7052.50000   63.80870  248.72640  845.94890   97.25140   25.12940   13.18410
 7053.00000   64.76470  304.89740  719.01520   97.01170   23.76260   13.18310
 7053.50000   68.64180  304.86180  836.17640   96.97730   24.67050   13.18210
 7054.00000   69.12310  426.72470 1050.21990   96.33310   25.55080   13.18120
 7054.50000   59.79060  272.59710  309.90300   95.28240   24.04730   13.18020
 7055.00000   59.92540  160.75810  493.97450   94.90900   23.22880   13.17930
 7055.50000   65.12670  304.03140  956.99960   95.05590   22.77580   13.17830
 7056.00000   70.61820  401.04790 1337.01530   94.01330   22.55100   13.17740
 7056.50000   78.42100  298.93250  736.82050   93.13530   22.00630   13.17640
 7057.00000   79.20650  372.31180 1057.76760   92.87080   20.91340   13.17540
 7057.50000   78.50840  621.65040 1521.20230   92.86480   18.32130   13.17450
 7058.00000   77.93360  850.17140 1903.70120   92.59250   15.44750   13.17350
 7058.50000   74.85940  905.42400 1903.47890   92.50260   15.17790   13.17260
 7059.00000   71.59790  656.04480 1751.60520   92.43740   19.68820   13.17160
 7059.50000   64.43350  289.70680  681.21130   92.53800   24.29690   13.17070
 7060.00000   52.69390  163.64250  356.45150   93.27860   30.87740   13.16970
 7060.50000   47.70280  188.20860  234.36340   93.45560   42.03340   13.16870
 7061.00000   49.67230  287.51520  354.63100   93.87350   43.99260   13.16780
 7061.50000   53.10490  342.06910  456.23960   94.22980   36.59410   13.16680
 7062.00000   55.73440  424.13650  569.28180   94.58610   28.37290   13.16590
 7062.50000   58.17490  670.83420  958.92940   94.94240   19.87490   13.16490
 7063.00000   61.64590  807.25900 1537.90020   95.36170   16.72410   13.16400
 7063.50000   67.27510  427.23290 1964.07100   95.70580   18.47080   13.16300
 7064.00000   69.37920  403.97830 1963.87790   96.11230   20.65390   13.16200
 7064.50000   72.79340  376.73410 1398.37870   96.29800   21.80200   13.16110
 7065.00000   73.83390  333.53160  984.05720   96.19330   21.94070   13.16010
 7065.50000   75.78050  317.25550  819.39090   96.29660   21.66820   13.15920
 7066.00000   80.03020  361.12020  770.51710   96.19770   20.16230   13.15820
 7066.50000   86.23560  406.44930  773.22140   95.89720   16.04630   13.15730
 7067.00000   89.67480  427.45150  834.03370   95.12500   15.77310   13.15630
 7067.50000   91.81100  413.46410  922.65350   94.35280   20.51900   13.15530
 7068.00000   91.80100  309.24570  799.77340   94.22690   30.66910   13.15440
 7068.50000   76.58080  139.41670  460.49850   93.55600   42.82250   13.15340
 7069.00000   57.01550   92.70610  178.52610   92.91200   57.63860   13.15250
 7069.50000   37.45010   68.27400   85.83630   92.74030   66.25550   13.15150
 7070.00000   34.93430   55.69460   70.78000   92.45650   59.35670   13.15060
 7070.50000   40.89890   72.95920  109.09270   92.47300   49.22730   13.14960
 7071.00000   52.14150  150.47220  196.38310   92.48950   39.09790   13.14860
 7071.50000   65.91820  265.03240  267.17580   92.58490   28.96850   13.14770
 7072.00000   65.36100  417.33590  854.84210   92.91390   22.27590   13.14670
 7072.50000   66.74100  594.80160 1441.54210   92.88860   16.70380   13.14580
 7073.00000   67.24470  734.39910 1938.66490   92.84660   15.03720   13.14480
 7073.50000   67.28680  942.98810 1876.74010   92.80450   19.47050   13.14390
 7074.00000   67.60020 1137.92300 1869.47190   92.70830   23.63050   13.14290
 7074.50000   68.46190 1046.44700 1924.06570   92.74310   25.97610   13.14190
 7075.00000   70.05460  947.20510 1931.50340   92.77800   24.87360   13.14100
 7075.50000   70.45100  847.96310 1935.01620   92.80390   24.45530   13.14000
 7076.00000   71.65410  779.92530 1938.52900   92.70830   24.86010   13.13910
 7076.50000   72.80520  719.68850 1942.04180   92.63500   24.30570   13.13890
 7077.00000   72.79330  659.45180 1945.55460   92.32250   20.99360   13.13890
 7077.50000   70.96830  718.08270 1949.06740   92.20160   17.17410   13.13890
 7078.00000   70.35450  560.03280 1952.58010   92.33670   20.40340   13.13890
 7078.50000   69.33450  498.46730 1956.09290   92.10300   24.44200   13.13890
 7079.00000   68.35050  608.13570 1959.60570   92.03450   25.91590   13.13890
 7079.50000   67.48120  595.06230 1963.11850   91.96610   24.47040   13.13890
 7080.00000   68.68940  596.58730 1942.51490   91.89770   22.37080   13.13890
 7080.50000   68.47040  763.19570 1909.81290   92.32990   27.44580   13.13890
 7081.00000   69.20260 1309.92220 1886.75770   93.00920   29.36910   13.13890
 7081.50000   69.93470 1850.53270 1866.19870   93.85340   30.28780   13.13890
 7082.00000   70.83090  829.44650 1690.96450   95.29850   31.29860   13.13890
 7082.50000   71.45060  521.23190 1275.48210   96.60780   31.57750   13.13890
 7083.00000   72.30530  391.22980  979.00680   97.91540   27.40320   13.13890
