~Version ---------------------------------------------------
VERS.   2.0 : CWLS log ASCII Standard -VERSION 2.0
WRAP.    NO : One line per depth step
DLM . SPACE : Column Data Section Delimiter
~Well ------------------------------------------------------
STRT .FT                 440.0 : START DEPTH
STOP .FT                7179.0 : STOP DEPTH
STEP .FT                   0.5 : STEP
NULL .                -9999.25 : NULL VALUE
COMP .                         : COMPANY
WELL .                         : WELL
FLD  .                         : FIELD
LOC  .                         : LOCATION
PROV .                         : PROVINCE
CNTY .                         : COUNTY
STAT .                         : STATE
CTRY .                         : COUNTRY
SRVC .                         : SERVICE COMPANY
DATE .                         : DATE
UWI  .                         : UNIQUE WELL ID
API  .                         : API NUMBER
SLAT .WGS84  6.061860059400395 : SURFACE LATITUDE
SLON .WGS84 2.3611323134881985 : SURFACE LONGITUDE
DATUM.F                    nan : DEPTH DATUM ELEV
~Curve Information -----------------------------------------
DEPT .FT    : 
AT10 .OHMM  : ARRAY INDUCTION TWO FOOT RESISTIVITY A10
AT30 .OHMM  : ARRAY INDUCTION TWO FOOT RESISTIVITY A30
AT60 .OHMM  : ARRAY INDUCTION TWO FOOT RESISTIVITY A60
DTSM .US/F  : DELTA-T SHEAR
ECGRS.CU    : ENVIRONMENTALLY CORRECTED GAMMA RAY FROM SONIC LOG
HCALR.IN    : HRCC CALIPER CALIBRATED FROM RESISTIVITY LOG
~Params ----------------------------------------------------
~Other -----------------------------------------------------
~ASCII -----------------------------------------------------
# ...
 1315.50000    1.08650    1.49730    1.65800  239.66240   79.17090   13.34110
 1316.00000    1.06140    1.46500    1.64310  239.64470   79.53630   13.34110
 1316.50000    1.07560    1.51870    1.75980  239.62710   86.15960   13.37370
 1317.00000    1.08190    1.47790    1.77250  239.60950   87.25590   13.43450
 1317.50000    1.07870    1.41300    1.63440  239.59180   84.31940   13.36780
 1318.00000    1.11030    1.41300    1.64300  239.57420   80.67830   13.35090
 1318.50000    1.14790    1.54110    1.78130  239.55660   81.08940   13.35040
 1319.00000    1.20500    1.68600    1.85750  239.53890   86.47280   13.34980
 1319.50000    1.22160    1.64400    1.78750  239.52130   88.76320   13.34930
 1320.00000    1.22360    1.61450    1.78510  239.50360   86.84480   13.34870
 1320.50000    1.24570    1.61970    1.82410  239.48600   82.32320   13.34820
 1321.00000    1.25070    1.62610    1.79790  239.46840   81.15890   13.34770
 1321.50000    1.22950    1.59130    1.75590  240.06780   78.07780   13.33620
 1322.00000    1.20300    1.51140    1.71140  232.51060   77.80470   13.33740
 1322.50000    1.17400    1.46630    1.65150  226.71660   79.38150   13.33860
 1323.00000    1.15200    1.41770    1.56860  221.57540   84.79240   13.33900
 1323.50000    1.12990    1.38240    1.49000  214.41200   80.89890   13.33550
 1324.00000    1.11070    1.36250    1.55030  211.70200   76.98650   13.33200
 1324.50000    1.11760    1.34790    1.52540  211.70200   77.21590   13.32860
 1325.00000    1.13060    1.34300    1.50070  212.99480   77.94790   13.30890
 1325.50000    1.13960    1.38220    1.61330  214.51940   75.07120   13.32210
 1326.00000    1.25230    1.58010    1.75900  215.08240   72.60570   13.33530
 1326.50000    1.40970    1.91670    2.26470  214.58720   72.96640   13.34230
 1327.00000    1.70020    2.13820    2.60710  215.85620   77.50670   13.33620
 1327.50000    1.52990    1.94160    2.29010  222.63930   79.46040   13.33310
 1328.00000    1.34950    1.62090    1.85670  226.88820   82.35050   13.33000
 1328.50000    1.28970    1.54550    1.71490  227.40230   85.18950   13.32820
 1329.00000    1.37590    1.70650    1.93520  227.75530   86.30580   13.32820
 1329.50000    1.43670    1.80190    2.15580  222.80960   85.60990   13.32820
 1330.00000    1.43410    1.85740    2.13020  226.58140   84.89690   13.32820
 1330.50000    1.36420    1.75820    1.95890  225.23100   84.47620   13.32820
 1331.00000    1.30250    1.64220    1.82140  229.18390   85.84100   13.32820
 1331.50000    1.24150    1.52620    1.68400  233.81530   92.55010   13.32820
 1332.00000    1.22000    1.40700    1.56080  238.20760   91.72310   13.32560
 1332.50000    1.23150    1.42740    1.57790  239.99160   89.25110   13.31990
 1333.00000    1.24570    1.51760    1.67550  240.01630   85.54640   13.31430
 1333.50000    1.26600    1.50660    1.73320  240.04100   84.30760   13.30860
 1334.00000    1.29320    1.51750    1.68380  240.06560   80.27390   13.31630
 1334.50000    1.37630    1.60180    1.78350  240.09030   75.66420   13.32390
 1335.00000    1.45740    1.83720    2.03580  240.06140   78.39970   13.33160
 1335.50000    1.45660    1.99580    2.17560  240.01920   81.41000   13.33780
 1336.00000    1.37430    1.77970    1.88090  239.97700   87.89080   13.33820
 1336.50000    1.30090    1.58060    1.71800  239.93480   89.85630   13.33860
 1337.00000    1.20860    1.46110    1.67140  234.77410   84.17380   13.33900
 1337.50000    1.19770    1.45300    1.65930  233.38590   82.25660   13.33800
 1338.00000    1.19550    1.45820    1.63550  231.50440   81.52100   13.33660
 1338.50000    1.18630    1.45820    1.62370  230.04580   80.69400   13.33520
 1339.00000    1.17070    1.45930    1.58890  228.44030   79.45520   13.33380
 1339.50000    1.15220    1.46220    1.60810  221.87180   79.79350   13.33240
 1340.00000    1.16460    1.46860    1.64960  220.42060   81.33120   13.33100
 1340.50000    1.19820    1.49530    1.69540  218.31990   81.64240   13.32960
 1341.00000    1.22670    1.54570    1.76410  216.74200   79.22530   13.33100
 1341.50000    1.24930    1.58980    1.82720  215.31020   75.48310   13.33300
 1342.00000    1.27520    1.65460    1.89030  214.40940   75.35070   13.33500
 1342.50000    1.29040    1.67800    1.89840  214.63940   78.23240   13.33700
 1343.00000    1.28950    1.64810    1.89600  213.87920   78.37330   13.33590
 1343.50000    1.30300    1.64200    1.89600  218.92170   76.56840   13.33480
 1344.00000    1.34050    1.70280    1.93350  224.30390   74.40750   13.33360
 1344.50000    1.38950    1.77110    1.99610  228.14930   78.79690   13.33250
 1345.00000    1.42110    1.79680    2.00140  231.03710   76.60880   13.33140
 1345.50000    1.37140    1.69680    1.88800  232.91130   79.21850   13.33030
 1346.00000    1.32660    1.58140    1.77590  238.02720   82.65200   13.31610
 1346.50000    1.29310    1.50030    1.67070  239.99740   83.75320   13.30140
 1347.00000    1.30840    1.58360    1.77530  240.02930   83.20930   13.29900
 1347.50000    1.34270    1.69680    1.93010  240.02930   80.61060   13.29670
 1348.00000    1.43010    1.85580    2.06720  240.02880   80.88960   13.29800
 1348.50000    1.43630    1.86250    2.07460  239.92250   80.25220   13.31140
 1349.00000    1.35000    1.67150    1.88900  239.51710   77.96760   13.32480
 1349.50000    1.29940    1.62830    1.84150  238.53240   76.57680   13.34400
 1350.00000    1.28630    1.62970    1.87040  229.54730   77.97550   13.34470
 1350.50000    1.30910    1.66780    1.90760  214.28050   81.63800   13.34530
 1351.00000    1.31500    1.70170    1.94380  207.01670   81.45580   13.34600
 1351.50000    1.30870    1.69560    1.94380  203.49310   81.09090   13.34180
 1352.00000    1.25340    1.62720    1.88160  196.78570   82.69020   13.33030
 1352.50000    1.23060    1.53820    1.80180  196.61130   85.61400   13.31890
 1353.00000    1.18490    1.46040    1.61700  199.59940   82.07370   13.32280
 1353.50000    1.17530    1.41060    1.56500  201.69730   76.85800   13.33050
 1354.00000    1.19920    1.50550    1.75870  201.13130   71.50530   13.33830
 1354.50000    1.30960    1.69460    1.87460  200.38430   72.60250   13.34610
 1355.00000    1.41530    1.90870    2.04950  198.85300   76.71450   13.33900
 1355.50000    1.58640    1.97240    2.23730  196.98980   80.59620   13.33020
 1356.00000    1.62150    1.90540    2.10900  197.12720   84.24730   13.32140
 1356.50000    1.64510    1.84840    1.90170  203.09790   81.30500   13.32460
 1357.00000    1.69210    1.86850    1.91540  210.41000   79.32240   13.33080
 1357.50000    1.89710    2.07820    2.00020  218.87700   75.66490   13.33700
 1358.00000    2.23890    2.60800    2.84760  224.25240   68.50710   13.34320
 1358.50000    2.58060    3.13780    3.34860  233.09630   67.13800   13.34570
 1359.00000    2.71730    2.91110    3.42510  239.69270   72.47710   13.34570
 1359.50000    2.60200    2.62550    3.22110  159.31440   72.61290   13.34570
 1360.00000    2.19640    2.47980    2.68930  159.72310   70.68420   13.34570
 1360.50000    1.79070    2.20430    2.15740  178.30480   67.21470   13.34570
 1361.00000    1.61850    1.92120    1.94150  218.91150   66.52960   13.34570
 1361.50000    1.48820    1.66450    1.76880  238.30630   68.99610   13.34570
 1362.00000    1.37950    1.66440    1.94980  233.43120   69.40720   13.34570
 1362.50000    1.33610    1.64650    1.80740  222.33790   69.68130   13.34520
 1363.00000    1.29010    1.60540    1.80090  219.49580   71.18870   13.34050
 1363.50000    1.24650    1.54030    1.71820  222.98530   76.80700   13.33580
 1364.00000    1.18310    1.48000    1.59870  221.74670   79.31930   13.33110
 1364.50000    1.14300    1.37970    1.49890  227.60030   87.01600   13.32630
 1365.00000    1.10750    1.35990    1.41950  234.27620   89.96220   13.32440
 1365.50000    1.08020    1.35990    1.39850  239.61690   89.00300   13.32440
 1366.00000    1.07920    1.38460    1.43940  239.61690   82.73860   13.32440
 1366.50000    1.20540    1.45620    1.71430  239.61690   73.58680   13.32440
