~Version ---------------------------------------------------
VERS.   2.0 : CWLS log ASCII Standard -VERSION 2.0
WRAP.    NO : One line per depth step
DLM . SPACE : Column Data Section Delimiter
~Well ------------------------------------------------------
STRT .FT                 440.0 : START DEPTH
STOP .FT                7179.0 : STOP DEPTH
STEP .FT                   0.5 : STEP
NULL .                -9999.25 : NULL VALUE
COMP .                         : COMPANY
WELL .                         : WELL
FLD  .                         : FIELD
LOC  .                         : LOCATION
PROV .                         : PROVINCE
CNTY .                         : COUNTY
STAT .                         : STATE
CTRY .                         : COUNTRY
SRVC .                         : SERVICE COMPANY
DATE .                         : DATE
UWI  .                         : UNIQUE WELL ID
API  .                         : API NUMBER
SLAT .WGS84  6.061860059400395 : SURFACE LATITUDE
SLON .WGS84 2.3611323134881985 : SURFACE LONGITUDE
DATUM.F                    nan : DEPTH DATUM ELEV
~Curve Information -----------------------------------------
DEPT .FT    : 
AT10 .OHMM  : ARRAY INDUCTION TWO FOOT RESISTIVITY A10
AT30 .OHMM  : ARRAY INDUCTION TWO FOOT RESISTIVITY A30
AT60 .OHMM  : ARRAY INDUCTION TWO FOOT RESISTIVITY A60
DTSM .US/F  : DELTA-T SHEAR
ECGRS.CU    : ENVIRONMENTALLY CORRECTED GAMMA RAY FROM SONIC LOG
HCALR.IN    : HRCC CALIPER CALIBRATED FROM RESISTIVITY LOG
~Params ----------------------------------------------------
~Other -----------------------------------------------------
~ASCII -----------------------------------------------------
# ...
 2654.50000    6.58700   11.03820   14.40790  168.66890   53.69530   13.28890
 2655.00000    5.67700    8.51010   11.25290  168.83930   60.20970   13.28720
 2655.50000    4.80840    5.98200    6.76250  171.17040   66.72410   13.29640
 2656.00000    3.93980    4.18080    4.61060  172.64120   72.21040   13.30570
 2656.50000    3.07120    3.68890    4.01770  172.43100   75.36730   13.30980
 2657.00000    2.78670    3.27170    3.50750  170.97450   78.79830   13.30210
 2657.50000    2.69060    3.15330    3.35070  170.51440   83.41130   13.29450
 2658.00000    2.60240    3.03490    3.16770  173.82710   86.34560   13.28680
 2658.50000    2.50560    2.91660    2.98480  175.02450   81.73730   13.28090
 2659.00000    2.44200    2.82190    2.97400  178.61210   75.11920   13.28200
 2659.50000    2.37810    2.85250    3.03910  178.04810   72.84040   13.28300
 2660.00000    2.49810    2.93600    3.18390  174.98110   71.01740   13.28410
 2660.50000    2.44480    3.10890    3.32870  173.71910   72.49840   13.28520
 2661.00000    2.41730    3.20130    3.32400  175.68070   72.80080   13.28620
 2661.50000    2.50950    3.13780    3.21960  178.11960   70.90060   13.28730
 2662.00000    2.54200    3.05840    3.21960  179.43830   69.65330   13.28840
 2662.50000    2.46830    3.01080    3.36040  181.45580   71.25210   13.28940
 2663.00000    2.43560    3.12130    3.43790  185.78020   72.85100   13.29050
 2663.50000    2.36430    3.25280    3.51540  187.57720   73.49120   13.29160
 2664.00000    2.47080    3.34250    3.56180  188.44670   72.25900   13.29270
 2664.50000    2.45100    3.30330    3.42170  191.35320   71.02670   13.29370
 2665.00000    2.43170    3.22740    3.33760  193.00810   72.49770   13.29480
 2665.50000    2.36250    3.15140    3.37390  191.53560   76.17370   13.29590
 2666.00000    2.30810    3.08750    3.32550  187.18860   79.11460   13.29690
 2666.50000    2.27920    3.03230    3.21370  182.44010   78.14130   13.29800
 2667.00000    2.24970    2.96730    3.11380  173.42920   76.92420   13.29910
 2667.50000    2.21020    2.92640    3.08260  165.14000   77.33640   13.30010
 2668.00000    2.17090    2.89330    3.08260  160.45090   78.96260   13.30120
 2668.50000    2.12610    2.89330    3.07360  152.73510   80.48140   13.30230
 2669.00000    2.08710    2.89320    3.07140  149.51030   80.61900   13.30340
 2669.50000    2.08610    2.93520    3.09360  147.76070   79.23530   13.30540
 2670.00000    2.12350    3.02110    3.12320  151.13570   78.02650   13.29290
 2670.50000    2.11620    3.07600    3.15940  158.01460   77.68790   13.28050
 2671.00000    2.13610    3.10400    3.19560  161.68760   73.21380   13.30620
 2671.50000    2.26470    3.15080    3.24200  168.60020   66.68010   13.30530
 2672.00000    2.40490    3.19760    3.37950  173.74950   55.58270   13.30450
 2672.50000    2.55080    3.25840    3.54980  179.22050   44.34680   13.30360
 2673.00000    2.72000    3.37740    3.65200  181.02780   44.74830   13.29030
 2673.50000    2.68080    3.55670    3.70510  183.19550   58.85290   13.29450
 2674.00000    2.68610    3.73600    3.95870  186.63010   73.91580   13.29870
 2674.50000    2.78790    3.91530    4.26670  188.43470   79.66050   13.30290
 2675.00000    2.90640    4.00140    4.50230  190.16940   75.40210   13.30080
 2675.50000    2.75500    3.81820    4.29360  189.14120   70.59550   13.29880
 2676.00000    2.61100    3.34170    3.97030  186.51060   66.74890   13.29680
 2676.50000    2.53310    3.03150    3.53490  182.30150   67.69710   13.29480
 2677.00000    2.47360    2.81040    2.94050  181.24040   70.97650   13.29280
 2677.50000    2.48960    2.71080    2.79010  180.49620   73.43180   13.29080
 2678.00000    2.45140    2.70100    2.74550  180.82310   76.16240   13.29220
 2678.50000    2.40210    2.70100    2.76540  181.93080   80.53760   13.28630
 2679.00000    2.38140    2.65270    2.77530  184.18400   86.00850   13.28050
 2679.50000    2.28960    2.49500    2.69630  187.23210   82.28540   13.27470
 2680.00000    2.12970    2.29010    2.37940  188.68680   69.87800   13.27430
 2680.50000    1.96990    2.05640    2.13530  190.14150   57.47050   13.27520
 2681.00000    1.88010    1.90870    1.98630  190.63490   45.06310   13.27610
 2681.50000    1.79210    1.79910    1.85410  190.01200   40.37930   13.29340
 2682.00000    1.70400    1.70870    1.74840  187.18020   49.33500   13.29210
 2682.50000    1.65730    1.68420    1.72180  185.47910   58.29070   13.28010
 2683.00000    1.65350    1.68420    1.71710  184.92570   67.24640   13.26810
 2683.50000    1.68690    1.70250    1.73570  184.52310   74.96940   13.28210
 2684.00000    1.63640    1.73970    1.76730  185.39500   80.84330   13.27740
 2684.50000    1.65680    1.77770    1.81250  187.10290   85.11730   13.27260
 2685.00000    1.67140    1.82970    1.88590  187.50890   85.40090   13.26030
 2685.50000    1.73600    1.98700    2.16910  191.20390   85.13600   13.27150
 2686.00000    1.89150    2.19530    2.48810  173.94760   83.09080   13.28110
 2686.50000    2.02490    2.40360    2.71180  168.98210   85.01970   13.29070
 2687.00000    2.11290    2.61200    2.96700  167.83490   83.79510   13.27660
 2687.50000    2.17620    2.82030    3.19360  168.61570   88.05390   13.26970
 2688.00000    2.13520    2.96390    3.30610  164.84080   84.22600   13.26280
 2688.50000    2.16550    2.89000    3.38390  160.84600   90.40600   13.26250
 2689.00000    2.17590    2.80010    3.27570  158.47380   96.58740   13.26530
 2689.50000    2.17040    2.78250    3.32330  158.55470   93.34680   13.26800
 2690.00000    2.22810    2.78240    3.47030  158.31700   87.96880   13.27080
 2690.50000    2.29220    2.88990    3.47030  160.64610   84.72160   13.27360
 2691.00000    2.34500    3.00140    3.48270  163.43510   76.16360   13.27630
 2691.50000    2.48590    3.13700    3.48270  166.39770   68.42770   13.27910
 2692.00000    2.58370    3.03940    3.47010  167.31180   60.69180   13.28180
 2692.50000    2.78770    2.92800    3.23010  166.57750   57.46150   13.28460
 2693.00000    2.73470    2.83740    2.92980  165.08060   59.38210   13.28730
 2693.50000    2.41170    2.62320    2.68560  160.82370   54.06920   13.29010
 2694.00000    2.27700    2.44070    2.58100  158.43730   48.45500   13.29550
 2694.50000    2.37990    2.38850    2.50760  156.92100   45.41540   13.28990
 2695.00000    2.27700    2.34580    2.41860  151.00870   42.54050   13.28700
 2695.50000    2.20620    2.09140    2.29940  148.14920   36.44820   13.28400
 2696.00000    2.16480    1.84370    1.86890  145.69940   28.12020   13.29020
 2696.50000    1.74980    1.59610    1.43830  139.88690   21.32130   13.29080
 2697.00000    1.45420    1.34840    1.26600  132.44070   22.14740   13.29150
 2697.50000    1.38260    1.26190    1.20520  136.58400   21.32830   13.30070
 2698.00000    1.10150    1.26190    1.20080  145.76900   20.64680   13.29320
 2698.50000    1.10840    1.27560    1.21390  151.50160   21.19870   13.28380
 2699.00000    1.40900    1.29880    1.24940  161.93440   20.79100   13.27440
 2699.50000    1.42710    1.34160    1.30560  171.44200   19.57130   13.27120
 2700.00000    1.47280    1.38580    1.39980  176.10800   19.43810   13.27740
 2700.50000    1.50090    1.47880    1.56220  180.03250   20.41790   13.28360
 2701.00000    1.31460    1.62950    1.70430  182.95400   22.47340   13.28980
 2701.50000    1.59590    1.77750    1.89930  185.68850   30.02270   13.27980
 2702.00000    1.94740    2.10020    2.29270  189.05820   39.86420   13.26970
 2702.50000    2.29890    2.42300    2.65150  188.55110   49.88000   13.25960
 2703.00000    2.65040    2.71040    3.20600  188.31430   59.47240   13.26890
 2703.50000    2.70810    2.74010    2.98300  189.69430   67.28330   13.26550
 2704.00000    2.70150    2.71080    3.24140  191.67540   65.09070   13.26200
 2704.50000    2.41140    2.61640    3.06220  191.32710   69.79550   13.25860
 2705.00000    2.30240    2.50450    2.73460  192.56650   77.40850   13.26390
 2705.50000    2.22660    2.50470    2.65840  192.32170   83.31620   13.27510
