~Version ---------------------------------------------------
VERS.   2.0 : CWLS log ASCII Standard -VERSION 2.0
WRAP.    NO : One line per depth step
DLM . SPACE : Column Data Section Delimiter
~Well ------------------------------------------------------
STRT .FT                 440.0 : START DEPTH
STOP .FT                7179.0 : STOP DEPTH
STEP .FT                   0.5 : STEP
NULL .                -9999.25 : NULL VALUE
COMP .                         : COMPANY
WELL .                         : WELL
FLD  .                         : FIELD
LOC  .                         : LOCATION
PROV .                         : PROVINCE
CNTY .                         : COUNTY
STAT .                         : STATE
CTRY .                         : COUNTRY
SRVC .                         : SERVICE COMPANY
DATE .                         : DATE
UWI  .                         : UNIQUE WELL ID
API  .                         : API NUMBER
SLAT .WGS84  6.061860059400395 : SURFACE LATITUDE
SLON .WGS84 2.3611323134881985 : SURFACE LONGITUDE
DATUM.F                    nan : DEPTH DATUM ELEV
~Curve Information -----------------------------------------
DEPT .FT    : 
AT10 .OHMM  : ARRAY INDUCTION TWO FOOT RESISTIVITY A10
AT30 .OHMM  : ARRAY INDUCTION TWO FOOT RESISTIVITY A30
AT60 .OHMM  : ARRAY INDUCTION TWO FOOT RESISTIVITY A60
DTSM .US/F  : DELTA-T SHEAR
ECGRS.CU    : ENVIRONMENTALLY CORRECTED GAMMA RAY FROM SONIC LOG
HCALR.IN    : HRCC CALIPER CALIBRATED FROM RESISTIVITY LOG
~Params ----------------------------------------------------
~Other -----------------------------------------------------
~ASCII -----------------------------------------------------
# ...
 5693.00000    5.79890    6.50990    6.67330  132.78030   73.51200   13.26480
 5693.50000    5.90980    6.50990    6.72160  131.58440   71.45550   13.26480
 5694.00000    6.13440    6.61350    6.80450  130.23530   70.35820   13.26480
 5694.50000    6.22600    6.74940    6.94250  129.56360   71.72750   13.26480
 5695.00000    6.25560    6.88530    7.08050  129.01480   70.35630   13.26480
 5695.50000    6.28530    7.05450    7.21860  127.96230   68.15700   13.26480
 5696.00000    6.30530    7.23200    7.38320  127.65540   66.62530   13.26480
 5696.50000    6.35530    7.40950    7.59260  127.91520   65.21540   13.26480
 5697.00000    6.46650    7.63920    7.83120  127.71650   63.80550   13.26480
 5697.50000    6.67430    7.74500    7.90740  127.90390   62.25850   13.26480
 5698.00000    6.90100    7.57560    7.90740  128.52860   61.84580   13.26480
 5698.50000    7.20280    7.64790    7.90740  129.22530   62.80350   13.25680
 5699.00000    7.41900    7.76970    7.96300  129.62140   63.35000   13.25060
 5699.50000    7.28500    7.86830    8.10190  132.02710   63.34850   13.24990
 5700.00000    7.13840    8.01900    8.24080  132.25150   63.07300   13.24920
 5700.50000    7.10890    8.14600    8.37970  132.25870   62.86390   13.24970
 5701.00000    7.31350    8.17140    8.40720  132.62150   64.23420   13.25490
 5701.50000    7.45310    8.12760    8.28620  132.93120   65.54580   13.25900
 5702.00000    7.45280    8.03940    8.18600  132.30670   66.01570   13.25590
 5702.50000    7.38210    7.95120    8.09810  132.55680   65.03690   13.25290
 5703.00000    7.37180    7.86300    8.01020  131.74780   64.64530   13.24980
 5703.50000    7.35900    7.77480    7.92220  131.14190   66.01570   13.24860
 5704.00000    7.31140    7.68660    7.86170  128.86400   70.08100   13.24860
 5704.50000    7.14690    7.69290    7.84720  127.68770   73.00440   13.24860
 5705.00000    6.99410    7.69280    7.84680  126.34850   73.27840   13.24860
 5705.50000    6.84120    7.66790    7.83070  125.08770   73.55250   13.24860
 5706.00000    6.77640    7.54740    7.78960  124.12280   73.00440   13.24860
 5706.50000    6.71220    7.33870    7.58560  123.77320   72.73030   13.24850
 5707.00000    6.71190    7.07790    7.21620  122.97700   71.49700   13.25270
 5707.50000    6.80770    6.97340    7.14200  122.86220   68.44310   13.25700
 5708.00000    6.80730    6.98640    7.19350  122.83040   66.01570   13.25350
 5708.50000    6.67920    7.05270    7.24520  123.07180   64.30280   13.24840
 5709.00000    6.58460    7.15080    7.29740  123.31330   63.13800   13.24840
 5709.50000    6.58430    7.21850    7.37650  123.27480   64.15200   13.24840
 5710.00000    7.06890    7.28690    7.64740  124.16420   64.78240   13.25320
 5710.50000    7.20390    7.80790    8.52180  124.01740   61.17380   13.25920
 5711.00000    6.96850    7.90330    8.25720  123.68430   57.70230   13.26520
 5711.50000    6.52100    6.77540    6.93600  123.09940   54.23080   13.26800
 5712.00000    6.30790    6.54370    7.51370  121.93210   58.75290   13.26580
 5712.50000    7.01080    7.54350    8.86760  120.76470   63.13800   13.26360
 5713.00000    7.95560    8.47740    9.98670  119.59740   61.05510   13.26740
 5713.50000    7.99300    8.29160    9.14770  118.43010   58.04040   13.26390
 5714.00000    6.75690    7.08840    7.75730  117.75660   55.02560   13.26050
 5714.50000    5.51210    5.88430    6.36690  117.71320   53.40860   13.25840
 5715.00000    5.06240    5.32760    5.54150  117.90460   55.84960   13.25840
 5715.50000    4.88240    5.22740    5.38500  118.49040   58.29050   13.25840
 5716.00000    4.95200    5.17780    5.34600  118.93120   60.73140   13.25840
 5716.50000    4.89960    5.05500    5.25010  119.70690   61.21950   13.25710
 5717.00000    4.75570    4.94230    5.21210  121.13840   58.54740   13.25410
 5717.50000    4.61170    4.82960    5.17430  122.01780   50.66800   13.25110
 5718.00000    4.65540    4.92170    5.23040  124.10340   44.22740   13.25060
 5718.50000    5.08020    5.27560    5.78660  125.67280   44.09040   13.25010
 5719.00000    5.84360    6.37130    6.83170  126.04810   46.19160   13.24970
 5719.50000    6.45460    7.38310    8.09110  126.01050   47.92730   13.24900
 5720.00000    7.98810    8.46790    9.15180  125.97280   47.37930   13.24820
 5720.50000    7.37630    8.41810    9.08540  125.93520   45.73490   13.24730
 5721.00000    6.22230    6.73210    7.81480  125.98870   45.02230   13.24650
 5721.50000    5.06820    5.04600    6.34880  125.50580   44.63860   13.24560
 5722.00000    3.91420    4.19170    4.88290  125.57260   44.15900   13.24480
 5722.50000    3.37170    3.48670    3.67780  125.58910   43.81640   13.24330
 5723.00000    3.36790    3.39950    3.51610  125.64650   44.09050   13.23920
 5723.50000    3.36320    3.39940    3.45340  125.20710   44.36450   13.23520
 5724.00000    3.35840    3.39940    3.46370  124.76770   45.04970   13.24120
 5724.50000    3.35370    3.39940    3.47400  124.74900   46.76260   13.24400
 5725.00000    3.34900    3.39940    3.48440  124.73030   48.47550   13.24420
 5725.50000    3.34420    3.39940    3.49470  124.71150   50.25700   13.24450
 5726.00000    3.33950    3.39940    3.50500  124.69280   47.79040   13.24480
 5726.50000    3.33480    3.39940    3.51320  124.71460   47.79040   13.24510
 5727.00000    3.33000    3.39940    3.51300  125.12880   47.79040   13.24530
 5727.50000    3.32530    3.40880    3.51290  125.33750   46.83110   13.24560
 5728.00000    3.32240    3.43960    3.56380  125.14780   44.36450   13.24590
 5728.50000    3.32220    3.46280    3.69520  125.57490   43.67940   13.25310
 5729.00000    3.42970    3.58520    3.85810  125.79140   43.67940   13.24560
 5729.50000    3.56660    3.77060    4.08030  126.00790   45.18670   13.24570
 5730.00000    3.86210    4.06220    4.35720  126.22440   52.67630   13.24580
 5730.50000    4.09150    4.36700    4.63410  126.44090   56.00450   13.24900
 5731.00000    4.30790    4.67190    4.91110  126.97990   54.48830   13.25270
 5731.50000    4.41330    4.74760    5.00230  127.67030   52.42460   13.25270
 5732.00000    4.28940    4.55040    4.91260  127.68480   50.63560   13.25270
 5732.50000    4.12770    4.35400    4.65950  127.69930   50.07850   13.25270
 5733.00000    3.96590    4.14410    4.38740  127.71380   50.48180   13.25270
 5733.50000    3.80420    4.02320    4.11540  128.09350   51.43320   13.25270
 5734.00000    3.64250    3.90240    3.99800  128.24880   51.83540   13.25270
 5734.50000    3.48070    3.78160    3.92640  128.13540   53.23690   13.25270
 5735.00000    3.36770    3.69800    3.92610  128.09930   54.69640   13.25270
 5735.50000    3.36760    3.69780    3.98300  128.11470   54.82560   13.25270
 5736.00000    3.41290    3.74460    4.07010  128.02730   55.83130   13.25270
 5736.50000    3.73720    3.87620    4.17680  127.77780   57.46730   13.25270
 5737.00000    3.88130    4.05560    4.28100  128.06180   58.77500   13.25270
 5737.50000    3.93670    4.23490    4.38510  128.03090   58.35610   13.25270
 5738.00000    3.91800    4.32940    4.40570  127.98630   55.63420   13.25270
 5738.50000    3.67590    4.19460    4.40550  127.88430   53.04930   13.25270
 5739.00000    3.48000    3.74030    4.24910  127.86740   50.46440   13.25270
 5739.50000    3.08340    3.31250    3.60510  127.45980   49.15120   13.25270
 5740.00000    2.73270    2.80810    3.00680  126.21470   49.81870   13.25270
 5740.50000    2.70680    2.76400    2.85590  124.96960   51.29340   13.25270
 5741.00000    2.70670    2.77260    2.87650  123.72450   51.94360   13.25270
 5741.50000    2.71940    2.86910    2.97140  122.50210   52.22210   13.25270
 5742.00000    2.74520    2.95690    3.02540  120.73570   51.58670   13.25270
 5742.50000    2.74510    3.01900    3.04720  118.96250   47.70030   13.25270
 5743.00000    2.71350    2.94720    3.05800  117.37670   43.59210   13.25270
 5743.50000    2.63490    2.77850    2.91670  115.01650   44.23400   13.25270
 5744.00000    2.54430    2.64350    2.74380  113.22730   44.41920   13.25270
