~Version ---------------------------------------------------
VERS.   2.0 : CWLS log ASCII Standard -VERSION 2.0
WRAP.    NO : One line per depth step
DLM . SPACE : Column Data Section Delimiter
~Well ------------------------------------------------------
STRT .F                 5832.5 : START DEPTH
STOP .F                13039.0 : STOP DEPTH
STEP .F                    0.5 : STEP
NULL .                -9999.25 : NULL VALUE
COMP .                         : COMPANY
WELL .                         : WELL
FLD  .                         : FIELD
LOC  .                         : LOCATION
PROV .                         : PROVINCE
CNTY .                         : COUNTY
STAT .                         : STATE
CTRY .                         : COUNTRY
SRVC .                         : SERVICE COMPANY
DATE .                         : DATE
UWI  .                         : UNIQUE WELL ID
API  .                         : API NUMBER
SLAT .WGS84 5.9082427416359025 : SURFACE LATITUDE
SLON .WGS84 4.0611652289877895 : SURFACE LONGITUDE
DATUM.F                1804.45 : DEPTH DATUM ELEV
~Curve Information -----------------------------------------
DEPT.F     : 
TENR.LBS   : TENSION FROM RESISTIVITY
SPR .MV    : SPONTANEOUS POTENTIAL FROM RES.
HCAL.IN    : DIFFERENTIAL CALIPER
AT10.OHMM  : 10-IN. RESISTIVITY, 4-FT RESOLUTION
AT30.OHMM  : 30-IN. RESISTIVITY, 4-FT RESOLUTION
AT90.OHMM  : 90-IN. RESISTIVITY, 4-FT RESOLUTION
GRR .GAPI  : GAMMA RAY FROM RESISTIVITY
DTCO.US/F  : COMPRESSIONAL-WAVE INTERVAL TRANSIT TIME ACOUSTIC SLOWNESS
DTSM.US/F  : SHEAR-WAVE INTERVAL TRANSIT TIME DELTA-T
AT20.OHMM  : 
AT60.OHMM  : 
~Params ----------------------------------------------------
~Other -----------------------------------------------------
~ASCII -----------------------------------------------------
# ...
 8272.50000 3452.15800  -22.79100    8.89160   83.18560  193.58850  160.17080   41.40120   51.19180   97.27000  205.44430  163.22770
 8273.00000 3438.03830  -22.80000    8.88690   92.47120  204.82680  158.99910   41.63780   49.94020   93.55720  222.04070  141.66590
 8273.50000 3408.02370  -22.81020    8.92170  149.50870  229.34560  163.53590   43.06110   49.30540   93.85600  240.43370  145.72500
 8274.00000 3407.72660  -22.97160    8.92170  223.64450  318.22450  177.44480   46.58510   49.60030   94.84040  290.41540  152.15220
 8274.50000 3437.14790  -23.12540    8.89160  239.39330  287.52490  298.51970   49.72780   50.19910   97.52740  500.46650  146.67350
 8275.00000 3451.70850  -23.13470    8.83130  146.28160  171.45240  193.71750   51.97630   50.79410  100.29100  253.88280  134.14210
 8275.50000 3481.12870  -23.14330    8.80120   77.55260   95.92690   92.04550   55.11900   51.70060  103.05460  122.57730  102.98030
 8276.00000 3495.69070  -23.45070    8.81630   48.88370   50.35780   46.61530   58.48520   53.89300  106.43500   55.92790   63.62890
 8276.50000 3510.25270  -23.46130    8.83130   25.32680   27.77890   28.99250   62.29860   58.02930  110.43230   29.81150   34.61090
 8277.00000 3509.95140  -23.46870    8.84640   15.88110   17.16150   19.63200   74.38310   63.05300  115.66310   18.51260   21.38520
 8277.50000 3494.79440  -23.47760    8.86140   10.61230   11.79000   13.48340   84.06080   67.04430  122.43600   13.31540   12.31030
 8278.00000 3479.63750  -23.48660    8.89160    7.61100    9.53100    8.73390   97.21420   71.03550  129.51730    8.59000    8.22220
 8278.50000 3464.48020  -23.49590    8.89160    7.34520    7.65180    7.43250  102.59240   74.10150  138.67260    7.51000    7.38660
 8279.00000 3434.46440  -23.50450    8.89160    7.50100    7.33210    7.32640  109.53540   75.93400  145.52720    7.35190    7.34050
 8279.50000 3434.16670  -23.51340    8.89160    7.49910    7.22750    7.32490  112.45450   76.53720  145.82660    7.35140    7.18580
 8280.00000 3419.00950  -23.52400    8.90660    7.39230    7.12450    7.22040  113.36170   76.51470  146.12300    7.19660    7.03430
 8280.50000 3418.71120  -23.53130    8.90660    7.28710    6.97330    7.06710  113.15120   76.49650  146.10800    7.09510    7.08380
 8281.00000 3418.42480  -23.54130    8.92170    7.18330    6.92270    7.01580  113.38780   76.47800  145.78760    7.09460    7.08330
 8281.50000 3424.25660  -23.54930    8.92170    7.18180    6.97360    7.06740  114.74940   75.83940  145.15880    7.14450    7.08280
 8282.00000 3432.68950  -23.55860    8.92170    7.23130    7.06800    7.21450  117.04870   75.82140  144.83830    7.19470    7.13270
 8282.50000 3432.37720  -23.56720    8.92170    7.28110    7.11690    7.26430  117.67430   75.80340  145.13470    7.29660    7.18280
 8283.00000 3432.07890  -23.57610    8.92170    7.33120    7.16640    7.26240  115.67870   76.71060  145.44330    7.39990    7.18220
 8283.50000 3431.78080  -23.58670    8.93670    7.27770    7.21540    7.20960  113.45620   78.23460  147.40340    7.39940    7.23290
 8284.00000 3431.48320  -23.29460    8.93670    7.17410    7.21380    7.15730  113.46920   79.14180  150.64690    7.39890    7.28380
 8284.50000 3431.18480  -23.30450    8.93670    7.02210    7.11090    7.05510  115.04710   79.43250  152.48540    7.28950    7.18080
 8285.00000 3416.02780  -23.36140    8.92170    6.92210    7.00950    7.00390  116.62500   78.79720  152.78480    7.09050    6.97980
 8285.50000 3430.58840  -23.62120    8.95180    6.92070    7.00800    6.90390  118.42640   78.73430  152.46130    7.09000    6.88120
 8286.00000 3460.08250  -23.62980    8.96690    6.87060    7.00630    6.95160  119.11010   78.44850  152.44930    7.08960    6.88060
 8286.50000 3489.50170  -23.63880    8.98190    6.81730    6.85760    6.90070  118.00540   78.74330  152.43730    7.03910    6.83160
 8287.00000 3504.06250  -23.64780    9.01200    6.58220    6.66480    6.65920  117.12420   78.72080  153.35050    6.89100    6.78290
 8287.50000 3488.83080  -23.95520    9.01200    6.39740    6.43170    6.51780  116.24630   78.70280  154.88050    6.60440    6.59310
 8288.00000 3488.53250  -23.96510    9.04220    6.44150    6.43040    6.51640  116.25930   78.68480  155.79370    6.46280    6.50000
 8288.50000 3488.23490  -23.97310    9.04220    6.44010    6.47470    6.60810  117.83720   78.05000  154.54510    6.41930    6.49950
 8289.00000 3487.93650  -23.98240    9.10240    6.39350    6.51940    6.60670  122.09760   78.03200  153.60780    6.51020    6.49910
 8289.50000 3472.77980  -23.99110    9.16270    6.25800    6.33570    6.46610  126.58160   78.01390  152.97900    6.50980    6.54480
 8290.00000 3442.76370  -24.00000    9.22290    6.12550    6.15760    6.23980  125.25330   78.61280  153.58380    6.41800    6.36150
 8290.50000 3397.88890  -24.01050    9.28310    5.99570    5.98440    6.06420  121.58190   79.82840  156.03900    6.19470    6.22740
 8291.00000 3367.87300  -24.01790    9.34340    5.86840    5.81610    5.93540  119.91430   80.73110  158.80260    6.02160    6.05310
 8291.50000 3337.85690  -24.02690    9.40360    5.86720    5.77390    5.89240  122.38960   81.02600  161.87470    5.89480    5.96760
 8292.00000 3337.55880  -24.03650    9.46390    5.78360    5.77270    5.80800  124.19100   81.31640  163.40470    5.85290    5.92510
 8292.50000 3367.05300  -24.04510    9.52480    5.70130    5.77150    5.72510  125.09820   81.29390  164.95420    5.85240    5.88290
 8293.00000 3366.68070  -24.05370    9.56930    5.62010    5.77030    5.72390  123.99350   81.27590  165.95590    5.81080    5.84100
 8293.50000 3371.06080  -24.06270    9.58430    5.50100    5.68780    5.64220  122.66530   81.25780  167.68330    5.64840    5.67740
 8294.00000 3383.01420  -23.77250    9.59940    5.22960    5.56710    5.56170  120.88990   81.54820  167.98270    5.56870    5.55780
 8294.50000 3395.52810  -23.78330    9.61450    5.08720    5.56590    5.56060  120.90310   81.52970  167.35080    5.52910    5.51820
 8295.00000 3410.08890  -23.49250    9.62950    5.12220    5.52550    5.59900  121.81070   81.82060  166.72200    5.52870    5.51780
 8295.50000 3424.72460  -23.20360    9.64460    5.15770    5.52440    5.59240  122.72070   82.11100  166.40160    5.52840    5.55670
 8296.00000 3424.35180  -23.21190    9.64460    5.04820    5.48430    5.47870  124.07500   82.70980  166.38960    5.48900    5.51700
 8296.50000 3424.05350  -23.22090    9.67470    5.01160    5.40610    5.43890  126.77060   83.00020  166.37750    5.44990    5.51670
 8297.00000 3468.33200  -23.22980    9.73490    5.01060    5.40470    5.39940  129.01910   83.29060  166.68370    5.41120    5.47730
 8297.50000 3453.17480  -23.23880    9.75000    5.08090    5.40360    5.43660  130.14980   83.26810  167.97470    5.41080    5.47690
 8298.00000 3452.87670  -23.24900    9.75000    5.15220    5.40250    5.43550  129.71580   83.55900  170.03940    5.41040    5.43790
 8298.50000 3437.71950  -23.25760    9.76510    5.15090    5.44000    5.39600  129.05810   83.54050  170.02730    5.37190    5.47620
 8299.00000 3422.56230  -23.26630    9.81020    5.07750    5.40030    5.39770  129.31670   83.52200  169.39850    5.37160    5.43710
 8299.50000 3407.40530  -23.27490    9.82530    5.14880    5.39430    5.58800  128.19330   82.26640  168.46130    5.48620    5.51430
 8300.00000 3422.04100  -22.93930    9.76510    5.37070    5.47500    5.82950  123.73540   81.32770  166.59730    5.76410    5.75320
 8300.50000 3421.53300  -22.75770    9.70480    5.80380    5.85030    6.08140  120.61880   81.61790  165.34850    6.09910    6.00240
 8301.00000 3421.01980  -22.99130    9.70480    5.96900    6.17270    6.03720  121.97310   81.29140  164.41200    6.01300    5.91750
 8301.50000 3405.74460  -22.99420    9.71990    5.76580    6.04140    5.82590  126.45710   81.89000  165.93510    5.84500    5.79280
 8302.00000 3408.08030  -22.99700    9.73490    5.64320    5.78900    5.78360  129.15270   82.48420  166.84520    5.84460    5.91670
 8302.50000 3410.71460  -22.84830    9.70480    6.01390    6.03890    6.03350  129.61280   82.46600  167.45060    6.01320    6.17300
