~Version ---------------------------------------------------
VERS.   2.0 : CWLS log ASCII Standard -VERSION 2.0
WRAP.    NO : One line per depth step
DLM . SPACE : Column Data Section Delimiter
~Well ------------------------------------------------------
STRT .F                 5832.5 : START DEPTH
STOP .F                13039.0 : STOP DEPTH
STEP .F                    0.5 : STEP
NULL .                -9999.25 : NULL VALUE
COMP .                         : COMPANY
WELL .                         : WELL
FLD  .                         : FIELD
LOC  .                         : LOCATION
PROV .                         : PROVINCE
CNTY .                         : COUNTY
STAT .                         : STATE
CTRY .                         : COUNTRY
SRVC .                         : SERVICE COMPANY
DATE .                         : DATE
UWI  .                         : UNIQUE WELL ID
API  .                         : API NUMBER
SLAT .WGS84 5.9082427416359025 : SURFACE LATITUDE
SLON .WGS84 4.0611652289877895 : SURFACE LONGITUDE
DATUM.F                1804.45 : DEPTH DATUM ELEV
~Curve Information -----------------------------------------
DEPT.F     : 
TENR.LBS   : TENSION FROM RESISTIVITY
SPR .MV    : SPONTANEOUS POTENTIAL FROM RES.
HCAL.IN    : DIFFERENTIAL CALIPER
AT10.OHMM  : 10-IN. RESISTIVITY, 4-FT RESOLUTION
AT30.OHMM  : 30-IN. RESISTIVITY, 4-FT RESOLUTION
AT90.OHMM  : 90-IN. RESISTIVITY, 4-FT RESOLUTION
GRR .GAPI  : GAMMA RAY FROM RESISTIVITY
DTCO.US/F  : COMPRESSIONAL-WAVE INTERVAL TRANSIT TIME ACOUSTIC SLOWNESS
DTSM.US/F  : SHEAR-WAVE INTERVAL TRANSIT TIME DELTA-T
AT20.OHMM  : 
AT60.OHMM  : 
~Params ----------------------------------------------------
~Other -----------------------------------------------------
~ASCII -----------------------------------------------------
# ...
 11660.50000 4378.41650  -12.36490    9.31900   17.33150   17.72530   17.36800  121.16400   70.58500  120.55350   16.06170   17.59540
 11661.00000 4422.66700  -12.37070    9.31840   18.18810   15.88280   16.10720  124.41260   70.87810  121.13090   15.73490   16.32150
 11661.50000 4424.17630  -12.07800    9.33300   20.02490   16.14810   17.36680  126.55810   71.47480  121.71200   17.31930   17.59430
 11662.00000 4421.69040  -11.95240    9.34750   21.77720   18.47900   18.34430  124.76730   71.44830  121.99550   18.42110   18.58180
 11662.50000 4376.67190  -11.79100    9.34700   22.65750   18.73710   18.59650  122.97430   71.11840  121.68280   18.93300   18.83650
 11663.00000 4361.27930  -11.79700    9.34650   22.82040   18.61100   18.72980  124.33440   70.47950  120.45290   19.19430   18.97120
 11663.50000 4360.84620  -11.80410    9.36100   22.82800   18.61380   18.85170  127.94680   70.14950  119.86600   19.32630   19.09430
 11664.00000 4330.69430  -11.80900    9.37550   22.67820   18.48890   18.59450  130.20780   69.81950  120.14980   19.45920   18.83450
 11664.50000 4315.40190  -11.81490    9.37510   22.37960   18.49130   18.85030  128.18960   70.43760  120.43300   18.93000   19.09290
 11665.00000 4300.10890  -11.82150    9.37700   21.48790   18.36720   18.97930  122.79300   71.31640  121.30830   17.54270   19.22320
 11665.50000 4299.67480  -12.42430    9.38910   20.07540   16.89070   17.60150  119.42340   71.34950  121.89310   17.20100   17.83130
 11666.00000 4299.24070  -12.43010    9.37370   20.65900   16.57360   16.54890  117.58740   71.58830  122.76830   17.92300   16.76780
 11666.50000 4328.52490  -12.73440    9.37320   21.50930   17.51210   17.24240  116.51530   71.56450  123.34940   17.92300   17.46860
 11667.00000 4357.80860  -13.03880    9.37280   20.09710   16.46510   16.87090  120.35290   71.54090  123.93410   17.43840   17.09320
 11667.50000 4357.26710  -13.04590    9.37240   19.56010   16.02100   15.99010  124.86620   71.51970  124.51520   17.08350   16.20320
 11668.00000 4341.97410  -13.05070    9.37190   19.43340   16.13360   16.21010  127.12730   71.49860  124.79520   17.20100   16.42550
 11668.50000 4326.68160  -13.05670    9.37150   19.84400   16.24700   16.43320  127.81170   71.47750  125.07820   17.67900   16.65100
 11669.00000 4296.52980  -13.06380    9.37260   20.26170   16.58740   16.54560  127.82050   72.07420  125.95690   17.55830   16.76450
 11669.50000 4310.95460  -12.95500    9.38550   20.54730   16.58960   16.43200  128.27980   72.39350  126.53800   17.31930   16.64970
 11670.00000 4325.48830  -12.68240    9.40000   20.13710   16.23830   16.31930  128.51380   72.64970  126.51980   16.96690   16.53590
 11670.50000 4324.94580  -12.40990    9.38460   19.71920   15.70740   16.09680  126.72080   72.62330  125.90950   16.96690   16.31100
 11671.00000 4324.51170  -12.13730    9.36920   19.60720   15.60140   15.98640  124.16580   72.29330  125.29920   17.08350   16.19950
 11671.50000 4294.35350  -11.89780    9.38380   20.43620   16.26050   16.31760  120.06310   71.65440  124.98680   17.67900   16.53410
 11672.00000 4293.90770  -11.60510    9.39830   21.00940   16.94690   17.00140  116.61430   71.32450  124.67430   18.04630   17.22510
 11672.50000 4293.38480  -12.50790    9.39780   21.30560   16.60350   18.33090  115.94520   70.99450  124.36190   17.78890   18.56820
 11673.00000 4292.95070  -12.81220    9.41220   20.17890   15.71790   17.00030  121.13640   70.97340  124.34730   16.60340   17.22390
 11673.50000 4322.23440  -12.62160    9.42670   18.21930   14.87950   15.87450  125.64970   70.95220  125.22620   15.73490   16.08640
 11674.00000 4321.80030  -12.52520    9.42620   17.02170   14.45930   15.13100  130.38820   70.93110  125.80730   15.20490   15.33500
 11674.50000 4321.36670  -12.23250    9.42580   16.33810   14.18490   14.32390  133.09970   70.90960  125.79270   14.99790   14.51920
 11675.00000 4306.07370  -12.23980    9.44040   16.68760   14.38340   14.72120  132.88320   70.88800  125.77810   15.41470   14.92080
 11675.50000 4305.63960  -11.94560    9.42490   17.15690   14.48450   14.72070  129.51370   70.86250  125.46540   15.73490   14.92030
 11676.00000 4320.89790  -12.25070    9.39460   17.16260   14.19100   14.41150  125.66490   70.84140  124.85480   15.20490   14.60770
 11676.50000 4351.82760  -12.25720    9.39420   17.05000   13.80830   14.03070  122.91350   70.82030  124.30720   14.39370   14.22280
 11677.00000 4378.52490  -12.56150    9.39370   17.41030   13.71510   14.51890  120.53320   70.49030  123.86430   14.54370   14.71630
 11677.50000 4378.09080  -12.56730    9.37840   18.14490   14.69270   15.12740  117.38890   70.46920  122.96940   15.84310   15.33130
 11678.00000 4362.79790  -12.87160    9.37780   18.78170   15.53510   15.97870  111.31660   70.44810  121.76780   16.96690   16.19170
 11678.50000 4362.36430  -13.17610    9.37740   19.97950   16.63120   16.76270  107.49660   69.80920  120.26840   18.54780   16.98390
 11679.00000 4376.89750  -13.18310    9.39190   21.25380   17.45260   17.70610  108.85670   69.47920  119.06690   18.93300   17.93700
 11679.50000 4361.49610  -13.18890    9.39140   19.45540   17.81770   16.41470  114.72140   69.14900  117.86530   17.67900   16.63220
 11680.00000 4346.20410  -13.19400    9.39100   18.17650   15.11250   14.31860  119.23470   68.50960  117.25940   16.17220   14.51380
 11680.50000 4345.05220  -13.20050    9.39060   18.68640   16.41300   15.65110  119.96580   67.24840  116.95140   16.53000   15.86060
 11681.00000 4315.60210  -13.20600    9.39010   20.85190   17.46190   16.75980  117.90090   66.92370  116.94120   18.04630   16.98100
 11681.50000 4285.35840  -13.21190    9.38970   22.48700   17.95070   17.70300  113.53070   67.82930  117.26170   19.06320   17.93390
 11682.00000 4284.92430  -13.21790    9.41910   22.34130   18.07680   18.19400  111.16180   68.72950  118.70530   19.45920   18.42990
 11682.50000 4299.45800  -13.22390    9.43360   22.04520   18.07090   18.31860  112.52410   69.32610  119.29340   18.80370   18.55580
 11683.00000 4284.05660  -13.23090    9.44810   21.45820   17.59220   18.06860  113.65900   69.30510  119.87890   18.04630   18.30330
 11683.50000 4253.90480  -13.23580    9.47750   20.88660   17.11720   17.69090  114.79390   69.59280  120.46180   17.55830   17.92170
 11684.00000 4253.47120  -13.24250    9.50690   20.60990   16.42890   16.98740  113.22620   69.57170  120.75200   17.55830   17.21090
 11684.50000 4253.03810  -13.24880    9.52130   20.90220   16.20640   16.52790  113.23500   69.55060  120.73930   17.80060   16.74660
 11685.00000 4267.93850  -13.25370    9.55070   21.19680   16.20910   16.41450  114.82030   69.52900  120.72910   17.92300   16.63210
 11685.50000 4281.88770  -13.25970    9.56520   20.63220   16.21130   16.41400  115.95520   69.50310  121.31460   16.96690   16.63150
 11686.00000 4281.34520  -13.26570    9.59560   19.94590   15.77400   16.30140  116.18930   70.09970  121.30440   16.50810   16.51780
 11686.50000 4280.91160  -13.27160    9.62390   19.68170   15.45440   16.18970  117.12450   70.39280  121.59200   16.28340   16.40480
 11687.00000 4310.23190  -13.39850    9.62350   19.55410   15.77880   16.07860  119.01340   70.05750  121.58150   16.50810   16.29260
 11687.50000 4309.79830  -13.58210    9.62310   19.69490   15.99920   16.07810  119.82150   69.41870  121.56910   16.73590   16.29210
 11688.00000 4309.36080  -13.58890    9.62260   19.83800   16.33440   15.96770  116.67710   69.09030  121.55890   16.39530   16.18060
 11688.50000 4308.91500  -13.59460    9.63720   19.30960   15.78510   15.32440  114.65890   69.06760  122.74010   15.62740   15.53050
 11689.00000 4308.38770  -13.30190    9.65170   18.28850   15.35890   14.60670  113.53940   70.28200  126.60180   14.99790   14.80500
 11689.50000 4278.23630  -13.30750    9.66610   17.55970   14.14610   14.11460  115.12690   72.42300  129.86790   14.39370   14.30760
 11690.00000 4277.80220  -13.31340    9.68060   16.86000   13.48390   13.73280  117.61320   73.96570  132.24040   14.29540   13.92160
