~Version ---------------------------------------------------
VERS.   2.0 : CWLS log ASCII Standard -VERSION 2.0
WRAP.    NO : One line per depth step
DLM . SPACE : Column Data Section Delimiter
~Well ------------------------------------------------------
STRT .F                 5832.5 : START DEPTH
STOP .F                13039.0 : STOP DEPTH
STEP .F                    0.5 : STEP
NULL .                -9999.25 : NULL VALUE
COMP .                         : COMPANY
WELL .                         : WELL
FLD  .                         : FIELD
LOC  .                         : LOCATION
PROV .                         : PROVINCE
CNTY .                         : COUNTY
STAT .                         : STATE
CTRY .                         : COUNTRY
SRVC .                         : SERVICE COMPANY
DATE .                         : DATE
UWI  .                         : UNIQUE WELL ID
API  .                         : API NUMBER
SLAT .WGS84 5.9082427416359025 : SURFACE LATITUDE
SLON .WGS84 4.0611652289877895 : SURFACE LONGITUDE
DATUM.F                1804.45 : DEPTH DATUM ELEV
~Curve Information -----------------------------------------
DEPT.F     : 
TENR.LBS   : TENSION FROM RESISTIVITY
SPR .MV    : SPONTANEOUS POTENTIAL FROM RES.
HCAL.IN    : DIFFERENTIAL CALIPER
AT10.OHMM  : 10-IN. RESISTIVITY, 4-FT RESOLUTION
AT30.OHMM  : 30-IN. RESISTIVITY, 4-FT RESOLUTION
AT90.OHMM  : 90-IN. RESISTIVITY, 4-FT RESOLUTION
GRR .GAPI  : GAMMA RAY FROM RESISTIVITY
DTCO.US/F  : COMPRESSIONAL-WAVE INTERVAL TRANSIT TIME ACOUSTIC SLOWNESS
DTSM.US/F  : SHEAR-WAVE INTERVAL TRANSIT TIME DELTA-T
AT20.OHMM  : 
AT60.OHMM  : 
~Params ----------------------------------------------------
~Other -----------------------------------------------------
~ASCII -----------------------------------------------------
# ...
 11330.50000 4185.55760   -8.95520    9.06060    6.02460    5.34350    5.17000  120.02740   75.87930  141.87990    5.47030    5.25510
 11331.00000 4155.69580   -8.65670    9.06100    6.02420    5.34460    5.17140  121.60600   75.86120  142.46400    5.47170    5.25660
 11331.50000 4125.83400   -8.65670    9.04630    5.94200    5.33470    5.17280  122.28500   76.15180  143.04510    5.39830    5.25800
 11332.00000 4110.83110   -8.65670    9.04690    5.86100    5.31010    5.13890  122.28940   76.74610  143.63210    5.36250    5.22360
 11332.50000 4125.58150   -8.65670    9.04730    5.70260    5.28540    5.14040  123.48310   77.34490  144.21620    5.32690    5.22510
 11333.00000 4095.68380   -8.65670    9.04780    5.62480    5.27580    5.14180  127.15770   77.63980  144.80030    5.32800    5.22650
 11333.50000 4095.53980   -8.35820    9.04820    5.70180    5.27700    5.14330  131.52410   77.61730  145.38430    5.29260    5.22810
 11334.00000 4095.39360   -8.35820    9.04860    5.70150    5.27810    5.14460  134.67690   77.91220  145.66790    5.29400    5.22940
 11334.50000 4124.96920   -8.41130    9.04910    5.70100    5.27930    5.14600  135.13100   78.20260  145.95390    5.33140    5.23080
 11335.00000 4139.68360   -8.95520    9.06460    5.77910    5.28030    5.14740  134.23580   78.18010  146.24010    5.36920    5.23220
 11335.50000 4139.50340   -9.25370    9.06510    5.77870    5.28140    5.14880  130.64200   78.48290  145.92780    5.40720    5.23370
 11336.00000 4124.50050   -9.39270    9.06550    5.85790    5.28240    5.15050  126.59840   78.76090  145.32050    5.40820    5.23540
 11336.50000 4139.25150   -9.55220    9.06600    5.73860    5.28350    5.15190  125.02860   78.73840  144.71320    5.40930    5.23670
 11337.00000 4168.78910   -9.25370    9.06630    5.62180    5.28480    5.15320  125.93260   78.10370  144.10600    5.41040    5.23810
 11337.50000 4168.64500   -9.25370    9.06490    5.65990    5.32230    5.11910  127.37700   77.46880  143.49870    5.37480    5.20350
 11338.00000 4168.49950   -9.25370    9.06380    5.69830    5.32340    5.12080  130.44020   76.83400  143.48710    5.37590    5.20520
 11338.50000 4168.35060   -9.05960    9.06260    5.77630    5.32440    5.12210  132.01880   76.81600  143.47540    5.41390    5.20660
 11339.00000 4183.07130   -8.95520    9.06140    5.77590    5.28880    5.12350  130.44890   76.79800  143.76170    5.41500    5.20800
 11339.50000 4182.89110   -9.25370    9.06030    5.77550    5.29010    5.12490  128.65420   77.39710  144.37410    5.41610    5.20940
 11340.00000 4153.02930   -9.25370    9.05910    5.77510    5.29120    5.12660  127.98280   77.99570  145.52260    5.41720    5.21110
 11340.50000 4138.02590   -9.25370    9.05800    5.77470    5.29220    5.16320  127.08770   78.59000  145.51100    5.41820    5.24820
 11341.00000 4123.02290   -9.25370    9.05680    5.77440    5.25710    5.16450  125.29410   78.57200  145.49940    5.41930    5.24960
 11341.50000 4122.87890   -8.95520    9.05560    5.77400    5.25840    5.13030  123.04960   78.55400  145.19000    5.42070    5.21490
 11342.00000 4167.78560   -8.91550    9.05450    5.77360    5.26110    5.13200  124.18200   78.22760  144.88050    5.42170    5.21660
 11342.50000 4182.02640   -8.65670    9.05330    5.77310    5.26490    5.09800  127.25880   78.20960  144.57110    5.42270    5.18220
 11343.00000 4166.98730   -8.65670    9.05220    5.81240    5.26870    5.09970  130.71000   77.88320  144.26160    5.42390    5.18390
 11343.50000 4137.12550   -8.65670    9.05100    5.85190    5.27260    5.10110  131.38900   77.86520  144.25000    5.42500    5.18530
 11344.00000 4122.12210   -8.65670    9.04980    5.85140    5.27640    5.10280  130.49390   77.23040  143.94040    5.46340    5.18700
 11344.50000 4181.41360   -8.65670    9.04870    5.93160    5.28020    5.06900  128.92410   77.21200  143.92850    5.46450    5.15280
 11345.00000 4196.16460   -8.65670    9.04750    5.97190    5.28400    5.07800  128.70250   76.88150  143.61660    5.50320    5.16190
 11345.50000 4195.98440   -8.65670    9.04640    5.93070    5.28790    5.10670  128.70790   76.86350  143.30720    5.50450    5.19090
 11346.00000 4180.98100   -8.95520    9.04520    5.88830    5.29170    5.10820  128.93720   76.84550  143.29560    5.50560    5.19250
 11346.50000 4180.83200   -8.95520    9.06000    5.84940    5.29550    5.12880  128.94160   76.82750  143.28400    5.50670    5.21340
 11347.00000 4210.41060   -8.95520    9.07540    5.84900    5.29930    5.14600  128.02490   77.12250  143.27240    5.50780    5.23080
 11347.50000 4225.12550   -8.80660    9.07590    5.88870    5.30320    5.18280  126.18350   77.10000  143.26080    5.54680    5.26810
 11348.00000 4180.36870   -8.65670    9.07630    5.96930    5.30700    5.22010  124.90790   77.39090  143.24920    5.54790    5.30590
 11348.50000 4135.64790   -8.65670    9.07680    6.00990    5.30980    5.22150  128.06070   77.98920  143.23750    5.58720    5.30730
 11349.00000 4102.08010   -8.65670    9.10720    6.00940    5.31080    5.22290  129.86420   78.27960  142.92780    5.58830    5.30870
 11349.50000 4090.78300   -8.35820    9.10770    6.00900    5.31190    5.22430  130.54320   78.87840  142.91360    5.58970    5.31010
 11350.00000 4090.63890   -8.40500    9.12310    6.00860    5.28570    5.22550  128.97340   78.24030  142.94380    5.59080    5.31140
 11350.50000 4134.34720   -8.69380    9.13860    5.92180    5.24160    5.22700  126.72890   77.60240  143.05420    5.59190    5.31290
 11351.00000 4166.91990   -8.93870    9.15410    5.84580    5.24270    5.22840  124.48440   76.96440  143.17660    5.55450    5.31440
 11351.50000 4192.97660   -9.22850    9.18460    5.84540    5.24390    5.22980  123.73190   76.94320  143.16500    5.51800    5.31580
 11352.00000 4219.03370   -9.81490    9.20010    5.84500    5.24500    5.23130  124.79450   77.53890  143.45130    5.25330    5.31720
 11352.50000 4240.73490   -9.50750    9.23050    5.84460    5.24600    5.23290  128.41450   77.84780  143.43970    5.25260    5.31890
 11353.00000 4211.30420   -9.19830    9.24600    5.92470    5.28320    5.22210  131.80960   78.73020  143.72590    5.25190    5.30790
 11353.50000 4196.73140   -9.18970    9.26140    6.00290    5.28430    5.20900  133.40020   79.01740  143.71410    5.25600    5.29460
 11354.00000 4182.16060   -9.77800    9.29190    6.00210    5.32180    5.19580  130.72870   78.68250  143.69980    5.32300    5.28130
 11354.50000 4182.51950   -9.76940    9.32240    6.00120    5.40150    5.26470  126.25280   78.04460  143.39040    5.35890    5.35110
 11355.00000 4182.80710   -9.16370    9.32490    6.00030    5.49480    5.41130  124.91780   77.71500  143.97440    5.43210    5.49970
 11355.50000 4183.09420   -8.55810    9.35930    5.99950    5.49450    5.41170  126.76840   77.69380  144.26360    5.50620    5.50010
 11356.00000 4183.38130   -8.54920    9.37950    5.99870    5.49410    5.41200  126.54300   78.60320  144.24910    5.50540    5.50050
 11356.50000 4168.73730   -8.53860    9.40620    5.99790    5.49370    5.41240  126.57020   78.89040  143.93960    5.50470    5.50080
 11357.00000 4169.09620   -8.83070    9.45120    5.99710    5.49330    5.41270  127.49150   78.55550  143.63020    5.50380    5.50120
 11357.50000 4154.52440   -9.12060    9.51220    5.99630    5.49300    5.41310  127.73820   77.91760  143.61860    5.50310    5.50160
 11358.00000 4139.95310   -9.10980    9.54310    5.99550    5.49260    5.41350  126.63560   77.27960  142.99930    5.50230    5.50190
 11358.50000 4140.31200   -9.10110    9.57400    5.95370    5.51400    5.41390  125.30800   76.64150  142.06290    5.50160    5.50240
 11359.00000 4140.59910   -9.09250    9.57480    5.99390    5.54970    5.41430  125.78320   76.31150  141.19810    5.50090    5.50270
 11359.50000 4155.74510   -9.10170    9.60570    5.99290    5.56740    5.41460  127.66290   76.59930  142.08000    5.50010    5.50310
 11360.00000 4200.60890   -9.37370    9.63660    5.99210    5.58910    5.41500  129.87660   76.57290  142.66700    5.53720    5.50350
