~Version ---------------------------------------------------
VERS.   2.0 : CWLS log ASCII Standard -VERSION 2.0
WRAP.    NO : One line per depth step
DLM . SPACE : Column Data Section Delimiter
~Well ------------------------------------------------------
STRT .F                 5832.5 : START DEPTH
STOP .F                13039.0 : STOP DEPTH
STEP .F                    0.5 : STEP
NULL .                -9999.25 : NULL VALUE
COMP .                         : COMPANY
WELL .                         : WELL
FLD  .                         : FIELD
LOC  .                         : LOCATION
PROV .                         : PROVINCE
CNTY .                         : COUNTY
STAT .                         : STATE
CTRY .                         : COUNTRY
SRVC .                         : SERVICE COMPANY
DATE .                         : DATE
UWI  .                         : UNIQUE WELL ID
API  .                         : API NUMBER
SLAT .WGS84 5.9082427416359025 : SURFACE LATITUDE
SLON .WGS84 4.0611652289877895 : SURFACE LONGITUDE
DATUM.F                1804.45 : DEPTH DATUM ELEV
~Curve Information -----------------------------------------
DEPT.F     : 
TENR.LBS   : TENSION FROM RESISTIVITY
SPR .MV    : SPONTANEOUS POTENTIAL FROM RES.
HCAL.IN    : DIFFERENTIAL CALIPER
AT10.OHMM  : 10-IN. RESISTIVITY, 4-FT RESOLUTION
AT30.OHMM  : 30-IN. RESISTIVITY, 4-FT RESOLUTION
AT90.OHMM  : 90-IN. RESISTIVITY, 4-FT RESOLUTION
GRR .GAPI  : GAMMA RAY FROM RESISTIVITY
DTCO.US/F  : COMPRESSIONAL-WAVE INTERVAL TRANSIT TIME ACOUSTIC SLOWNESS
DTSM.US/F  : SHEAR-WAVE INTERVAL TRANSIT TIME DELTA-T
AT20.OHMM  : 
AT60.OHMM  : 
~Params ----------------------------------------------------
~Other -----------------------------------------------------
~ASCII -----------------------------------------------------
# ...
 9645.00000 3736.98930  -20.13450    8.26430    7.85330    7.30890    7.18470  121.54840   76.23860  145.05040    7.05750    7.29640
 9645.50000 3736.70120  -20.13580    8.26460    7.58730    7.10870    7.06610  123.79920   76.53200  145.03870    6.95370    7.17640
 9646.00000 3736.40410  -20.13740    8.26490    7.48310    7.01020    6.98600  125.82590   76.82530  145.62790    6.86660    7.09520
 9646.50000 3750.98780  -20.13880    8.25010    7.43130    6.91320    6.88760  126.73140   76.80650  145.91510    6.86660    6.99560
 9647.00000 3735.77050  -20.14030    8.25050    7.22920    6.77060    6.79260  126.51590   76.79150  146.20240    6.86660    6.89930
 9647.50000 3720.62500  -20.14200    8.25080    7.22870    6.72310    6.78540  124.03660   76.77650  146.18790    6.86660    6.89200
 9648.00000 3705.47950  -20.14350    8.23610    7.22820    6.62980    6.69530  122.23740   76.76150  146.47530    6.81970    6.80070
 9648.50000 3690.33400  -20.14490    8.22130    7.27750    6.62220    6.64740  123.40510   76.74630  146.45380    6.72690    6.75220
 9649.00000 3675.18580  -20.14640    8.22160    7.22710    6.53710    6.59980  126.77710   76.42250  146.15250    6.68100    6.70400
 9649.50000 3674.83060  -20.14780    8.23690    7.22660    6.53620    6.55260  129.70060   76.71640  146.44020    6.54500    6.65620
 9650.00000 3675.15890  -20.14930    8.25230    7.03000    6.49040    6.41730  133.29670   77.31440  147.02640    6.36800    6.51910
 9650.50000 3681.94510  -20.15070    8.26760    6.79190    6.35650    6.24170  135.09910   76.99610  148.50660    6.19590    6.34120
 9651.00000 3688.85060  -20.15220    8.28290    6.47220    6.18250    6.07060  134.43510   77.29260  150.28860    6.15350    6.16790
 9651.50000 3703.42160  -20.15390    8.28320    6.56430    6.09690    6.19460  132.38260   77.58890  151.17670    6.32460    6.29350
 9652.00000 3703.06180  -20.15540    8.28350    6.90760    6.18080    6.32110  129.07350   77.88520  151.16210    6.41180    6.42160
 9652.50000 3702.77390  -20.15680    8.28150    7.02770    6.35310    6.45010  126.16740   77.56160  150.55260    6.32460    6.55240
 9653.00000 3687.62720  -20.15820    8.28140    6.97010    6.44030    6.59400  123.48550   77.24100  149.94300    6.32460    6.69820
 9653.50000 3687.33980  -20.15970    8.28120    6.92050    6.48430    6.67390  121.69840   77.22890  149.03440    6.32460    6.77900
 9654.00000 3701.98270  -20.16120    8.28110    6.96640    6.48320    6.71750  121.70920   77.83360  149.10040    6.41180    6.82320
 9654.50000 3716.48170  -20.16270    8.28090    7.01270    6.52750    6.71570  125.75380   77.82140  149.23800    6.54500    6.82140
 9655.00000 3731.05520  -20.16420    8.28080    7.05910    6.52640    6.76010  127.10780   78.12080  149.38690    6.68100    6.86640
 9655.50000 3747.05440  -20.01280    8.28060    7.10600    6.48060    6.75530  127.08790   78.10560  149.38400    6.50030    6.86150
 9656.00000 3760.19460  -19.86840    8.28050    7.10360    6.47970    6.61860  125.77990   77.16820  149.38100    6.41180    6.72310
 9656.50000 3774.76560  -19.87020    8.26530    7.00470    6.47860    6.61690  126.23920   77.15610  149.07910    6.41180    6.72130
 9657.00000 3774.40580  -19.87170    8.26520    6.90710    6.43320    6.52510  129.83530   77.14400  149.37520    6.41180    6.62840
 9657.50000 3774.11770  -19.57460    8.26500    6.81100    6.38810    6.39080  132.08620   77.44030  149.97010    6.36800    6.49220
 9658.00000 3770.13380  -19.57640    8.26490    6.71610    6.25630    6.21640  133.44010   78.04490  150.88290    6.15350    6.31560
 9658.50000 3758.68360  -19.57780    8.24970    6.57720    6.08510    6.13030  133.89720   78.95800  152.09480    5.94630    6.22830
 9659.00000 3758.27540  -19.57930    8.23450    6.37110    5.83740    6.04530  135.25120   79.25430  153.54800    5.78290    6.14220
 9659.50000 3728.38060  -19.58060    8.21930    6.26430    5.83660    5.95850  135.22750   79.85890  154.74090    5.78550    6.05420
 9660.00000 3698.31270  -19.58210    8.21920    6.26260    5.83580    5.91880  133.47710   80.15520  155.33580    5.78550    6.01400
 9660.50000 3683.16600  -19.58360    8.21910    6.17540    5.79470    5.91720  133.03520   80.45150  155.63260    5.74600    6.01240
 9661.00000 3668.01930  -19.58510    8.21890    6.00620    5.75400    5.91570  136.18510   80.43630  156.22680    5.74600    6.01090
 9661.50000 3682.59010  -19.28830    8.23380    6.00460    5.67440    5.91410  137.98750   80.42420  156.52360    5.74600    6.00930
 9662.00000 3697.16190  -19.28980    8.24870    6.08610    5.67360    5.91250  137.54770   80.41200  156.51990    5.78550    6.00770
 9662.50000 3696.87380  -19.21640    8.27850    6.08450    5.71210    5.91090  135.76270   80.39990  156.21800    5.78550    6.00610
 9663.00000 3726.30370  -18.99380    8.27840    6.25260    5.79080    5.90940  134.42610   80.38780  155.91610    5.78550    6.00450
 9663.50000 3755.73340  -18.99560    8.27820    6.25050    5.84100    5.90780  133.27410   80.06720  155.91310    5.78550    6.00290
 9664.00000 3755.37350  -18.99700    8.27810    6.20600    5.68150    5.86550  131.75290   80.05510  155.91020    5.78550    5.96010
 9664.50000 3725.36820  -18.99850    8.27790    6.07760    5.68110    5.82400  130.86470   80.04300  155.92870    5.74600    5.91790
 9665.00000 3710.22140  -19.29850    8.27780    6.03440    5.68070    5.74320  136.25680   80.03080  156.20330    5.70670    5.83610
 9665.50000 3695.07450  -19.30020    8.27760    5.99140    5.64000    5.70250  139.40450   80.01850  156.49930    5.66780    5.79490
 9666.00000 3694.78740  -19.30170    8.27750    5.94880    5.56350    5.70110  141.65530   79.69780  156.79530    5.66780    5.79340
 9666.50000 3694.49930  -19.60160    8.27730    5.90640    5.67960    5.69950  142.11240   79.68300  157.09130    5.66780    5.79180
 9667.00000 3709.07030  -19.60310    8.29220    5.90440    5.75820    5.73710  139.87900   79.98230  157.38730    5.70670    5.82990
 9667.50000 3723.64140  -19.90300    8.29200    5.90290    5.75770    5.73560  135.31030   79.96710  157.68340    5.70670    5.82840
 9668.00000 3738.21220  -19.90450    8.30690    5.90130    5.67830    5.73370  126.22140   79.95500  157.97940    5.70670    5.82650
 9668.50000 3767.57010  -19.90630    8.33680    5.89970    5.67800    5.73220  125.10680   80.25430  158.27460    5.70670    5.82490
 9669.00000 3797.00000  -19.90770    8.42670    5.89820    5.67760    5.73070  126.46300   80.23910  158.27170    5.66780    5.82340
 9669.50000 3841.28830  -19.90910    8.45660    5.89660    5.75610    5.72910  129.83490   80.53840  158.26880    5.66780    5.82180
 9670.00000 3841.00050  -19.91040    8.45640    5.89500    5.75570    5.68850  131.18890   80.52330  157.96690    5.66780    5.78070
 9670.50000 3781.27780  -19.91190    8.45630    5.89340    5.71570    5.68700  130.07650   80.51110  157.66500    5.66780    5.77920
 9671.00000 3734.48680  -19.91350    8.47120    5.89150    5.59810    5.68550  128.73990   80.49900  157.36310    5.62900    5.77760
 9671.50000 3721.19480  -19.91490    8.39590    5.88990    5.44530    5.53040  128.30020   80.48690  157.36010    5.47680    5.62040
 9672.00000 3750.62450  -19.91640    8.38080    5.88830    5.48260    5.49090  131.63570   80.16630  157.35720    5.36540    5.58040
 9672.50000 3780.12650  -20.21640    8.36560    5.88680    5.63580    5.60330  135.55300   80.15420  157.35430    5.36540    5.69430
 9673.00000 3794.69730  -20.21810    8.36550    5.88520    5.59660    5.64070  136.69370   80.14190  157.35130    5.47680    5.73220
 9673.50000 3824.12700  -20.02660    8.36690    5.84330    5.51950    5.56210  136.48910   80.12950  157.34830    5.51450    5.65260
 9674.00000 3838.63310  -19.92210    8.39520    5.84180    5.44340    5.52270  135.60690   80.11480  157.64370    5.47680    5.61260
 9674.50000 3838.33570  -19.92390    8.39500    5.88050    5.40550    5.40900  136.75250   80.10260  157.93970    5.43940    5.49740
 9675.00000 3820.66330  -19.77550    8.39490    5.87860    5.36800    5.40750  137.89320   80.09050  158.23640    5.40230    5.49590
