~Version ---------------------------------------------------
VERS.   2.0 : CWLS log ASCII Standard -VERSION 2.0
WRAP.    NO : One line per depth step
DLM . SPACE : Column Data Section Delimiter
~Well ------------------------------------------------------
STRT .F                 5832.5 : START DEPTH
STOP .F                13039.0 : STOP DEPTH
STEP .F                    0.5 : STEP
NULL .                -9999.25 : NULL VALUE
COMP .                         : COMPANY
WELL .                         : WELL
FLD  .                         : FIELD
LOC  .                         : LOCATION
PROV .                         : PROVINCE
CNTY .                         : COUNTY
STAT .                         : STATE
CTRY .                         : COUNTRY
SRVC .                         : SERVICE COMPANY
DATE .                         : DATE
UWI  .                         : UNIQUE WELL ID
API  .                         : API NUMBER
SLAT .WGS84 5.9082427416359025 : SURFACE LATITUDE
SLON .WGS84 4.0611652289877895 : SURFACE LONGITUDE
DATUM.F                1804.45 : DEPTH DATUM ELEV
~Curve Information -----------------------------------------
DEPT.F     : 
TENR.LBS   : TENSION FROM RESISTIVITY
SPR .MV    : SPONTANEOUS POTENTIAL FROM RES.
HCAL.IN    : DIFFERENTIAL CALIPER
AT10.OHMM  : 10-IN. RESISTIVITY, 4-FT RESOLUTION
AT30.OHMM  : 30-IN. RESISTIVITY, 4-FT RESOLUTION
AT90.OHMM  : 90-IN. RESISTIVITY, 4-FT RESOLUTION
GRR .GAPI  : GAMMA RAY FROM RESISTIVITY
DTCO.US/F  : COMPRESSIONAL-WAVE INTERVAL TRANSIT TIME ACOUSTIC SLOWNESS
DTSM.US/F  : SHEAR-WAVE INTERVAL TRANSIT TIME DELTA-T
AT20.OHMM  : 
AT60.OHMM  : 
~Params ----------------------------------------------------
~Other -----------------------------------------------------
~ASCII -----------------------------------------------------
# ...
 9980.50000 3803.13480  -19.17080    8.14710    9.47570    9.33490    9.88870  130.13720   73.72090  145.16520    9.77510   10.03370
 9981.00000 3774.98410  -19.17660    8.11710    8.61180    7.95590    9.20910  132.85270   74.01170  145.45980    8.50300    9.34600
 9981.50000 3774.69700  -19.18210    8.11710    7.72020    7.74080    8.09960  133.76380   73.98910  146.05180    7.89520    8.22290
 9982.00000 3804.19900  -19.18810    8.11710    8.04540    7.74340    8.26770  132.15790   74.28400  146.94140    7.68130    8.39310
 9982.50000 3833.55710  -18.89540    8.11710    8.27030    8.07300    8.49730  131.30020   74.57430  147.83240    8.22550    8.62550
 9983.00000 3833.26950  -18.90260    8.11710    7.11620    7.74750    8.09960  134.24350   74.86020  149.02240    7.73300    8.22290
 9983.50000 3832.98170  -18.90750    8.11710    6.16490    6.65750    6.91930  139.21470   75.45890  150.84840    6.69610    7.02760
 9984.00000 3832.68950  -18.91340    8.17720    5.56470    5.83290    6.41730  142.38140   76.67450  155.16890    6.00030    6.51910
 9984.50000 3832.33450  -18.91940    8.20720    5.19760    5.45270    5.95160  143.74350   78.19850  161.55940    5.56420    6.04730
 9985.00000 3832.04690  -18.92570    8.22220    5.09280    5.30560    5.62690  141.94780   80.03090  163.34730    5.33620    5.71830
 9985.50000 3846.69070  -18.93130    8.29730    5.19970    5.16250    5.40750  140.60320   80.62960  163.64190    5.23060    5.49590
 9986.00000 3846.35960  -18.93730    8.41740    5.27240    5.34530    5.37060  140.38640   80.60700  163.93500    5.23030    5.45850
 9986.50000 3846.04350  -18.64450    8.44740    5.42010    5.53450    5.48210  141.97440   80.58900  164.22810    5.26590    5.57150
 9987.00000 3830.89700  -18.65170    8.29730    5.42110    5.57430    5.53150  142.88740   80.87930  164.22080    5.30180    5.62150
 9987.50000 3815.75020  -18.65740    8.19220    5.34850    5.49930    5.63440  143.57290   81.47810  164.81290    5.30140    5.72580
 9988.00000 3800.59450  -18.66270    8.20720    5.20510    5.35100    5.48210  141.10050   81.77300  165.10610    5.22890    5.57150
 9988.50000 3800.24410  -18.66870    8.20720    5.06530    5.27900    5.33280  140.20480   82.06330  164.80120    5.12160    5.42020
 9989.00000 3829.67430  -18.67470    8.19220    5.13640    5.39130    5.22060  140.21580   82.04070  163.27650    5.08680    5.30640
 9989.50000 3829.38720  -18.68100    8.23720    5.42650    5.69900    5.33400  140.22460   81.71430  161.69530    5.37310    5.42140
 9990.00000 3843.95850  -18.68660    8.23720    5.65530    5.90070    5.63440  137.97770   81.07940  159.70000    5.59820    5.72580
 9990.50000 3858.52980  -18.69250    8.23720    5.73440    5.86130    5.87070  137.08420   80.41430  158.49830    5.75340    5.96530
 9991.00000 3858.24190  -18.69930    8.23720    5.73550    5.82290    5.96520  137.56250   79.49680  157.29660    5.83250    6.06100
 9991.50000 3857.94970  -18.70500    8.23720    5.81570    5.82450    6.03370  138.00630   78.86190  156.39400    5.83200    6.13050
 9992.00000 3857.59470  -18.71040    8.23720    5.81690    5.90740    5.95160  137.11280   78.53550  155.49130    5.79180    6.04730
 9992.50000 3842.44820  -18.71640    8.20720    5.81800    5.86800    5.87070  135.76600   78.51740  155.18640    5.79240    5.96530
 9993.00000 3842.16060  -18.72240    8.19220    5.81920    6.07610    5.95160  136.22810   78.49940  155.47980    5.91120    6.04730
 9993.50000 3856.73190  -19.32660    8.17720    5.58650    6.20490    6.11690  137.59030   78.17290  155.47370    6.03360    6.21480
 9994.00000 3856.44480  -18.90680    8.16220    5.51140    6.24960    6.28680  138.50140   77.53800  155.46790    6.15870    6.38690
 9994.50000 3871.02490  -18.44110    8.14710    5.74380    6.08090    6.28680  139.41240   77.52000  156.08850    5.91010    6.38690
 9995.00000 3870.72800  -19.94090    8.11710    5.82380    5.91690    6.03370  140.32350   77.81030  158.14530    5.67160    6.13050
 9995.50000 3870.43070  -20.24510    8.11710    5.59090    5.91300    5.91100  139.86310   78.40860  159.33670    5.51790    6.00610
 9996.00000 3855.22220  -19.95220    8.11710    5.44110    5.71960    5.79080  137.53250   78.69940  157.83470    5.51750    5.88430
 9996.50000 3854.93460  -19.65970    8.11710    5.29430    5.88130    5.75130  134.48740   78.36850  158.12920    5.51040    5.84430
 9997.00000 3839.78810  -20.01230    8.14710    5.15330    5.76230    5.67310  133.59170   78.66330  159.31770    5.36750    5.76500
 9997.50000 3824.64140  -20.86670    8.16220    5.15450    5.60640    5.63440  137.10770   78.95370  160.50770    5.36720    5.72580
 9998.00000 3839.28520  -20.87250    8.17720    5.15560    5.25970    5.55770  140.15360   79.85630  161.09980    5.44090    5.64810
 9998.50000 3838.92550  -20.57830    8.17720    5.22760    5.34880    5.63440  141.06460   80.76800  163.48560    5.55350    5.72580
 9999.00000 3838.63330  -20.58550    8.11710    5.30070    5.43790    5.79080  140.84780   81.36220  165.27340    5.66850    5.88430
 9999.50000 3823.41940  -20.59130    8.13210    5.44890    5.52710    5.79080  140.40330   81.03580  164.35640    5.66810    5.88430
 10000.00000 3823.13180  -20.00000    8.14710    5.52510    5.58820    5.79080  142.21880   80.70930  160.67680    5.66780    5.88430
 10000.50000 3807.98540  -19.66620    8.14710    5.56410    5.61440    5.82900  143.12980   79.77430  157.78060    5.66740    5.92300
 10001.00000 3807.69750  -19.41450    8.14710    5.60370    5.61440    5.82660  144.04090   79.45690  158.07370    5.66690    5.92060
 10001.50000 3807.40990  -20.01870    8.11710    5.60480    5.61440    5.82460  142.69630   79.75630  158.66720    5.66700    5.91860
 10002.00000 3828.78120  -20.32300    8.11710    5.60590    5.61440    5.78250  140.40960   80.05560  158.36100    5.66780    5.87590
 10002.50000 3882.61520  -20.32880    8.10890    5.60700    5.57580    5.78060  137.75360   80.04630  158.05620    5.62900    5.87400
 10003.00000 3971.76830  -20.33460    8.11710    5.60810    5.53740    5.77890  135.73230   80.03530  158.34930    5.59060    5.87230
 10003.50000 4031.20360  -20.04180    8.17720    5.53300    5.46150    5.77680  137.54570   80.33690  158.64390    5.55240    5.87010
 10004.00000 4031.92850  -20.01170    8.13210    5.41720    5.34950    5.77490  141.16350   80.63630  159.53340    5.54970    5.86820
 10004.50000 3970.19780  -19.75480    8.10210    5.24060    5.27620    5.69440  143.20230   81.24180  160.42440    5.40230    5.78670
 10005.00000 3912.33280  -19.76210    8.11710    5.13510    5.23520    5.46100  141.85770   81.85190  161.93240    5.22030    5.55010
 10005.50000 3867.75630  -20.06630    8.20720    4.99750    5.09710    5.20550  139.15980   82.15120  163.70120    5.04450    5.29120
 10006.00000 3852.89750  -20.07210    8.19190    4.96410    5.02720    5.02870  139.14320   82.13990  163.69390    4.94180    5.11190
 10006.50000 3838.03860  -20.37640    8.11710    5.17350    5.16800    5.20210  141.21840   82.13090  163.68810    5.07920    5.28770
 10007.00000 3823.17970  -20.08360    8.07210    5.39140    5.31270    5.41850  142.60600   82.11690  163.98270    5.18470    5.50700
 10007.50000 3808.32100  -19.79090    8.11710    5.54210    5.46150    5.60540  143.47160   81.45870  163.97530    5.36540    5.69640
 10008.00000 3808.32100  -19.49820    8.14710    5.32050    5.61440    5.75920  144.18030   81.17630  163.96950    5.47680    5.85230
 10008.50000 3808.32100  -20.10240    8.17720    4.93570    5.27620    5.59700  143.46130   81.78410  163.96370    4.94180    5.68800
 10009.00000 3808.32100  -20.70520    8.20720    4.77040    4.95830    5.05280  140.76110   82.08350  164.10420    4.71040    5.13630
 10009.50000 3793.46220  -20.59110    8.22220    4.77160    4.99270    4.88110  139.41060   82.38280  163.95100    4.74270    4.96220
 10010.00000 3793.46220  -20.41140    8.17520    5.04100    5.31270    5.15420  137.58740   82.06540  164.24560    5.04450    5.23910
