~Version ---------------------------------------------------
VERS.   2.0 : CWLS log ASCII Standard -VERSION 2.0
WRAP.    NO : One line per depth step
DLM . SPACE : Column Data Section Delimiter
~Well ------------------------------------------------------
STRT .F                 5832.5 : START DEPTH
STOP .F                13039.0 : STOP DEPTH
STEP .F                    0.5 : STEP
NULL .                -9999.25 : NULL VALUE
COMP .                         : COMPANY
WELL .                         : WELL
FLD  .                         : FIELD
LOC  .                         : LOCATION
PROV .                         : PROVINCE
CNTY .                         : COUNTY
STAT .                         : STATE
CTRY .                         : COUNTRY
SRVC .                         : SERVICE COMPANY
DATE .                         : DATE
UWI  .                         : UNIQUE WELL ID
API  .                         : API NUMBER
SLAT .WGS84 5.9082427416359025 : SURFACE LATITUDE
SLON .WGS84 4.0611652289877895 : SURFACE LONGITUDE
DATUM.F                1804.45 : DEPTH DATUM ELEV
~Curve Information -----------------------------------------
DEPT.F     : 
TENR.LBS   : TENSION FROM RESISTIVITY
SPR .MV    : SPONTANEOUS POTENTIAL FROM RES.
HCAL.IN    : DIFFERENTIAL CALIPER
AT10.OHMM  : 10-IN. RESISTIVITY, 4-FT RESOLUTION
AT30.OHMM  : 30-IN. RESISTIVITY, 4-FT RESOLUTION
AT90.OHMM  : 90-IN. RESISTIVITY, 4-FT RESOLUTION
GRR .GAPI  : GAMMA RAY FROM RESISTIVITY
DTCO.US/F  : COMPRESSIONAL-WAVE INTERVAL TRANSIT TIME ACOUSTIC SLOWNESS
DTSM.US/F  : SHEAR-WAVE INTERVAL TRANSIT TIME DELTA-T
AT20.OHMM  : 
AT60.OHMM  : 
~Params ----------------------------------------------------
~Other -----------------------------------------------------
~ASCII -----------------------------------------------------
# ...
 12350.50000 4588.73580    0.00900    9.09850   26.88930   20.27660   19.21560  107.60320   68.39260  117.58750   22.46710   19.46190
 12351.00000 4581.57710    0.01800    9.11320   24.75740   19.45800   17.56520  106.87940   68.38880  117.88530   20.12890   17.79470
 12351.50000 4567.00540    0.32540    9.12780   22.02340   18.04210   16.29290  108.32390   68.42830  118.48100   18.28380   16.50910
 12352.00000 4507.92770    0.33590    9.12750   21.13230   16.50100   15.96320  109.23690   68.46890  119.07670   18.03130   16.17600
 12352.50000 4493.28370   -0.03750    9.11220   21.13230   16.05380   16.29720  110.82720   68.50960  119.07670   18.40220   16.51350
 12353.00000 4493.64210   -0.84010    9.11200   20.54810   16.05380   16.52410  115.56300   68.55020  119.37450   17.84510   16.74280
 12353.50000 4493.92770   -1.13000    9.11170   19.72650   15.40570   15.86100  120.52370   68.55520  119.67240   16.74410   16.07280
 12354.00000 4494.21440   -1.42200    9.11140   20.41730   14.98820   15.43450  125.48430   68.52870  119.67240   16.07060   15.64170
 12354.50000 4499.36180   -1.41120    9.11110   20.00000   14.58210   15.22710  126.16890   68.50740  119.67240   15.53030   15.43210
 12355.00000 4494.79930   -1.40250    9.11070   19.19080   14.08980   14.41730  121.91240   68.17760  118.75960   16.18330   14.61350
 12355.50000 4497.44240   -1.39390    9.11040   17.75110   13.61410   13.65050  118.10250   67.84770  118.18320   15.73300   13.83840
 12356.00000 4510.29100   -1.08660    9.11010   17.45640   13.70800   14.22490  115.41700   67.82650  119.37450   14.90770   14.41910
 12356.50000 4540.29540   -1.37660    9.10980   19.76240   14.89310   15.02790  114.30570   67.80530  120.26810   16.41010   15.23080
 12357.00000 4570.29930   -1.36580    9.10960   20.88400   15.40570   15.76790  115.74060   68.09280  120.56590   17.81790   15.97870
 12357.50000 4600.30320   -1.35720    9.10930   21.17630   15.19550   15.43910  118.76950   68.07100  120.56590   17.57620   15.64640
 12358.00000 4600.59470   -1.34860    9.10790   21.92070   15.19550   14.82940  122.10440   68.04940  120.56590   17.57760   15.03010
 12358.50000 4615.80620   -1.33990    9.10290   22.38110   15.61880   15.03640  123.69330   68.02380  120.26810   17.57880   15.23930
 12359.00000 4630.95170   -1.33130    9.09790   21.77610   15.72640   15.45600  122.81840   68.00260  119.37450   17.70090   15.66340
 12359.50000 4631.23830   -1.32240    9.09310   20.57780   15.72640   15.56430  123.06290   67.98130  118.48100   17.94640   15.77280
 12360.00000 4626.56790   -1.61250    9.09280   17.96400   15.40570   15.88940  125.78120   68.57740  118.18320   18.07090   16.10140
 12360.50000 4616.88040   -2.19870    9.09250   13.45550   15.19550   15.46210  129.84890   68.87020  119.07670   16.64570   15.66960
 12361.00000 4617.23880   -2.49080    9.09220   13.64390   14.48230   14.04900  128.51920   69.15760  120.26810   14.51470   14.24120
 12361.50000 4602.66650   -2.48000    9.07690   16.54640   13.24520   14.40800  122.87690   68.82240  120.56590   15.12490   14.60420
 12362.00000 4588.09330   -2.17280    9.07660   21.64470   16.62420   19.52410  115.45770   68.18390  120.26810   19.62540   19.77350
 12362.50000 4573.52150   -2.16420    9.06140   25.36120   19.62620   21.93680  118.68810   67.54540  118.77890   20.94810   22.20980
 12363.00000 4544.16160   -2.45410    9.04610   24.09910   19.75770   19.26370  125.00460   66.59830  116.69400   18.96680   19.51040
 12363.50000 4544.44820   -2.44320    9.04570   21.80360   17.11300   18.23920  129.97180   65.65110  114.90690   18.45520   18.47550
 12364.00000 4529.86670   -3.03160    9.04550   20.63810   16.66020   17.38780  134.93900   65.32100  114.60910   18.20550   17.61540
 12364.50000 4530.16360   -3.32150    9.04520   19.80570   15.97840   16.69010  135.40840   65.64720  115.20480   17.71440   16.91050
 12365.00000 4530.46040   -3.61350    9.04490   19.27040   15.26320   15.88860  134.07880   66.20480  115.80040   17.11880   16.10060
 12365.50000 4545.66600   -3.60270    9.04460   19.54010   14.53760   15.16830  127.80160   66.79550  117.58750   16.20670   15.37270
 12366.00000 4575.66940   -3.59400    9.02930   21.25940   13.85980   16.58330  120.26970   67.08830  118.77890   15.76920   16.80260
 12366.50000 4595.37790   -3.58330    9.02900   25.80150   14.15300   17.51940  108.73040   67.37570  119.67240   18.21150   17.74850
 12367.00000 4620.81880   -3.27760    9.01380   26.10120   16.24240   18.25610  107.84560   67.34920  119.66370   19.63870   18.49260
 12367.50000 4635.96440   -3.26750    8.99840   25.04930   17.64380   17.76520  110.79370   67.64190  119.65610   19.91110   17.99670
 12368.00000 4651.11430   -3.25890    8.98320   23.71030   17.17270   17.40680  116.66050   67.61540  119.64750   18.59380   17.63460
 12368.50000 4651.41160   -3.13790    8.99790   22.44290   16.82800   17.16570  124.77610   67.90810  119.63880   17.90360   17.39100
 12369.00000 4636.82370   -2.94310    8.98260   21.53770   16.60400   16.82530  127.03970   67.88160  119.63000   17.01120   17.04720
 12369.50000 4637.18160   -2.32050    8.98230   21.24600   16.26940   16.48540  123.46610   67.55180  119.62130   16.55240   16.70370
 12370.00000 4622.53810   -1.73180    8.98200   21.24950   16.05410   16.37510  124.38530   67.22190  119.01680   16.21640   16.59220
 12370.50000 4607.96480   -2.31800    8.96680   21.10660   16.17010   16.37780  130.81030   66.88950  116.92320   16.66840   16.59490
 12371.00000 4593.46440   -2.60790    8.94970   20.82070   16.41580   16.60580  135.67390   65.91990  113.91700   17.73000   16.82540
 12371.50000 4578.89210   -3.19620    8.92120   20.11900   17.09620   16.95270  135.24380   64.68830  111.48240   17.85310   17.17590
 12372.00000 4564.31980   -3.48660    8.92090   19.44090   17.21980   17.07150  132.11510   63.73660  108.55520   16.55810   17.29590
 12372.50000 4549.74760   -3.47750    8.92060   19.57780   16.64400   16.24110  129.06890   63.40680  106.75940   16.11120   16.45680
 12373.00000 4550.10550   -3.46870    8.92030   20.73550   16.30860   16.05540  124.50820   63.38550  105.85710   18.60650   16.26910
 12373.50000 4535.46140   -3.45970    8.92000   23.42180   17.71710   18.79720  121.82930   63.67830  106.44400   21.34110   19.03930
 12374.00000 4520.95120   -3.44940    8.91980   28.79820   20.19340   21.55910  119.15020   63.65180  108.81800   24.64600   21.82850
 12374.50000 4536.10640   -3.14330    8.91900   35.40860   23.85220   24.72680  115.50950   64.25310  111.48980   31.97940   25.02640
 12375.00000 4551.26320   -2.83510    8.90170   41.48830   28.74860   30.78880  110.67910   65.15250  113.86370   42.94130   31.14310
 12375.50000 4581.32710   -2.82650    8.87390   53.52990   34.30500   35.31260  106.39560   66.67460  117.13120   51.49390   35.70560
 12376.00000 4596.47170   -2.51930    8.85860   56.56790   32.48170   32.04270  104.83610   68.50520  119.80310   55.72310   32.40780
 12376.50000 4611.61720   -2.18040    8.85840   54.88110   31.60940   34.36870  109.35840   69.71920  121.87920   57.27550   34.75370
 12377.00000 4611.90380   -1.60440    8.85810   41.79850   38.85810   38.35350  116.57450   69.69730  122.17070   55.73050   38.77150
 12377.50000 4612.19040   -1.29720    8.85780   32.40450   32.73820   39.96610  132.78610   69.36730  118.82590   42.37150   40.39710
 12378.00000 4597.61770   -0.99220    8.84250   19.33960   20.95630   21.58270  138.87770   69.03700  116.06490   31.34370   21.85230
 12378.50000 4597.97560   -1.28210    8.82720   13.89980   18.74900   18.82220  140.70000   68.08950  112.90670   25.87300   19.06440
 12379.00000 4598.26170   -2.16680    8.82690   13.90160   18.03080   18.31660  134.85510   66.82940  111.70660   21.93420   18.55380
 12379.50000 4598.54830   -2.45670    8.81160   13.71340   16.95560   17.31230  119.82620   65.57360  110.50650   20.45960   17.53910
 12380.00000 4598.83500   -2.74660    8.81130   12.78010   14.68310   15.54530  114.89830   65.86630  108.71070   17.75210   15.75370
