~Version ---------------------------------------------------
VERS.   2.0 : CWLS log ASCII Standard -VERSION 2.0
WRAP.    NO : One line per depth step
DLM . SPACE : Column Data Section Delimiter
~Well ------------------------------------------------------
STRT .F                 5832.5 : START DEPTH
STOP .F                13039.0 : STOP DEPTH
STEP .F                    0.5 : STEP
NULL .                -9999.25 : NULL VALUE
COMP .                         : COMPANY
WELL .                         : WELL
FLD  .                         : FIELD
LOC  .                         : LOCATION
PROV .                         : PROVINCE
CNTY .                         : COUNTY
STAT .                         : STATE
CTRY .                         : COUNTRY
SRVC .                         : SERVICE COMPANY
DATE .                         : DATE
UWI  .                         : UNIQUE WELL ID
API  .                         : API NUMBER
SLAT .WGS84 5.9082427416359025 : SURFACE LATITUDE
SLON .WGS84 4.0611652289877895 : SURFACE LONGITUDE
DATUM.F                1804.45 : DEPTH DATUM ELEV
~Curve Information -----------------------------------------
DEPT.F     : 
TENR.LBS   : TENSION FROM RESISTIVITY
SPR .MV    : SPONTANEOUS POTENTIAL FROM RES.
HCAL.IN    : DIFFERENTIAL CALIPER
AT10.OHMM  : 10-IN. RESISTIVITY, 4-FT RESOLUTION
AT30.OHMM  : 30-IN. RESISTIVITY, 4-FT RESOLUTION
AT90.OHMM  : 90-IN. RESISTIVITY, 4-FT RESOLUTION
GRR .GAPI  : GAMMA RAY FROM RESISTIVITY
DTCO.US/F  : COMPRESSIONAL-WAVE INTERVAL TRANSIT TIME ACOUSTIC SLOWNESS
DTSM.US/F  : SHEAR-WAVE INTERVAL TRANSIT TIME DELTA-T
AT20.OHMM  : 
AT60.OHMM  : 
~Params ----------------------------------------------------
~Other -----------------------------------------------------
~ASCII -----------------------------------------------------
# ...
 10310.50000 3935.78660  -15.65810    7.98590   14.71130   13.59160   12.99180  118.17840   70.80820  124.71320   14.15700   13.17240
 10311.00000 3920.64060  -15.88670    8.00180   15.33290   14.46780   13.53670  120.68480   70.77800  125.00560   14.15470   13.72340
 10311.50000 3890.63600  -16.48660    8.00270   16.45460   14.87800   14.20140  122.82850   71.05630  124.69560   14.64610   14.39530
 10312.00000 3860.62400  -16.78810    7.98850   17.11450   14.47870   15.00110  124.92500   71.33450  124.68690   15.47000   15.20370
 10312.50000 3875.13210  -17.38860    7.98960   15.34850   12.96880   15.03470  126.27440   70.99460  124.97700   14.54220   15.23760
 10313.00000 3904.63450  -17.69000    7.99050   13.66990   11.85940   13.16810  127.17390   70.95810  124.96820   13.03030   13.35060
 10313.50000 3934.06540  -17.99140    7.99140   13.03470   11.61920   12.35810  128.07350   70.92790  125.55760   12.67630   12.53170
 10314.00000 3933.70650  -17.99400    7.99220   12.60210   11.54410   11.40680  128.74810   71.51460  126.74440   12.50210   11.56950
 10314.50000 3933.41970  -17.88190    7.99310   11.85440   11.00310   11.17490  132.12140   72.10120  130.04780   12.15370   11.33490
 10315.00000 3962.85030  -17.70150    7.99400   11.20560   10.27250   10.65180  136.22740   72.68780  131.51010   11.35500   10.80580
 10315.50000 3962.55590  -17.40590    7.99510   10.20750    9.77370   10.15330  144.00420   72.96600  133.29280   10.52910   10.30140
 10316.00000 3962.20530  -17.40900    8.01090    9.86800    9.33300    9.74460  158.88310   73.25180  134.47990    9.83040    9.88780
 10316.50000 3947.05960  -17.41190    8.02680    9.73640    9.20730    9.41660  160.00750   73.21400  135.07120    9.56330    9.55590
 10317.00000 3931.91360  -17.41490    8.02770   10.21770    9.53470    9.28850  151.91150   73.49230  135.06020    9.49670    9.42630
 10317.50000 3931.62670  -17.41790    8.02860   10.50420    9.87290    9.55700  150.97000   73.77050  134.75250    9.56080    9.69810
 10318.00000 3931.33980  -17.42110    8.04450   10.65230    9.67380   10.22300  141.56670   73.73940  134.74370    9.76020   10.37200
 10318.50000 3916.19380  -17.42390    8.06040   10.65580    8.84630   10.29330  139.54270   74.32690  135.93070   10.24590   10.44310
 10319.00000 3930.76590  -17.42690    8.07650    9.95620    7.79980    9.41660  139.31780   75.52280  137.71560    9.23470    9.55590
 10319.50000 3930.40700  -17.42980    8.09230    7.02910    6.53360    8.55570  141.56670   77.34310  144.58280    7.99590    8.68460
 10320.00000 3945.05080  -17.73190    8.09320    6.09160    6.05780    7.16030  145.16490   79.16330  149.35720    6.92320    7.27170
 10320.50000 3944.69260  -17.73430    8.09410    5.76940    5.81390    6.28680  153.71060   80.98350  153.62930    6.16110    6.38690
 10321.00000 3929.56930  -17.73770    8.06470    5.73160    5.77530    5.87070  153.93550   81.57770  156.26310    5.87170    5.96530
 10321.50000 3929.27170  -17.74030    8.03570    5.72880    5.85810    5.75130  151.91150   82.16430  155.60670    5.75150    5.84430
 10322.00000 3943.83350  -17.74370    8.00650    5.93890    6.86860    5.97980  150.49410   79.65930  150.81470    5.75290    6.07590
 10322.50000 3958.40360  -17.74690    8.00760    8.03040    8.74900    9.67810  140.21740   76.85350  143.63100    7.11070    9.82050
 10323.00000 3972.97530  -17.74930    8.00850   13.67020   13.11250   11.88520  132.57120   74.04770  133.75670    9.35190   12.05340
 10323.50000 3987.54740  -17.75220    8.00940   15.04740   13.62040   13.53670  127.62370   71.21910  125.37730   12.46930   13.72340
 10324.00000 3987.18850  -17.45730    8.01020   14.54680   13.71940   13.62970  125.82460   69.56980  121.48210   14.29910   13.81740
 10324.50000 3972.04320  -17.46020    8.01110   13.96710   13.72390   13.44430  131.22190   68.08990  119.38060   13.81560   13.63000
 10325.00000 3971.75630  -17.16380    7.99700   13.87640   13.82360   13.91260  135.71960   67.75130  118.47500   14.10070   14.10340
 10325.50000 3971.46950  -16.86890    7.99810   14.26580   14.21550   14.59580  137.51870   67.72110  117.86830   14.69070   14.79400
 10326.00000 3956.31490  -16.87160    7.98390   14.78790   14.51170   15.11760  138.41830   67.69100  117.26160   15.11550   15.32140
 10326.50000 3955.96510  -16.87470    7.98480   15.60250   15.15060   15.73770  131.44680   67.66070  116.03290   15.94510   15.94810
 10327.00000 3955.67800  -17.17610    7.97060   16.82590   16.22570   16.51040  121.32680   67.32220  114.80420   16.95720   16.72900
 10327.50000 3940.53220  -17.50050    7.97150   18.14520   17.27170   17.68070  116.82910   66.98360  113.04770   18.40820   17.91130
 10328.00000 3925.40890  -18.07810    7.97240   19.70220   18.25870   18.80460  116.82910   66.64500  112.14200   20.12070   19.04670
 10328.50000 3925.10010  -18.37950    7.97330   21.68710   20.25780   20.41510  116.15440   65.99800  110.63850   21.84240   20.67330
 10329.00000 3939.67190  -18.68120    7.97430   24.70150   23.91670   23.89760  106.48430   64.72660  107.93910   25.74370   24.18930
 10329.50000 3954.24390  -18.98210    7.96000   30.23270   30.67550   29.75230   91.19190   63.74120  105.23970   33.18590   30.09750
 10330.00000 3968.81540  -18.98510    7.94600   45.09980   43.03910   36.28830   85.33030   62.50740  103.73620   41.80730   36.68930
 10330.50000 3968.45680  -18.98810    7.93170   42.71490   42.63850   43.99420   84.44530   61.86050  103.12950   38.03000   44.45690
 10331.00000 3968.16990  -19.01030    7.93280   35.77430   37.00180   41.04850   90.96700   61.83030  102.22380   34.54640   41.48820
 10331.50000 3967.88280  -19.29250    7.94870   30.79160   28.47250   36.28830   95.68970   61.49170  102.51420   32.47570   36.68930
 10332.00000 3952.73730  -18.99680    7.96460   30.58960   27.51320   29.54930  101.08700   62.38670  103.40210   28.90050   29.89270
 10332.50000 3952.45040  -18.93260    7.98070   31.66570   28.49150   27.40520  106.03450   63.28930  104.63680   26.79850   27.72940
 10333.00000 3952.15480  -18.70450    8.01160   32.33580   29.09750   27.21820  110.08250   64.48520  107.11510   28.49960   27.54070
 10333.50000 3951.80520  -18.11070    8.02740   32.56500   27.35360   28.16620  115.92950   65.38020  109.33730   27.85580   28.49730
 10334.00000 3966.44870  -18.11340    8.05830   20.19340   20.95980   18.42220  122.22640   65.96760  112.13610   17.51470   18.66050
 10334.50000 3951.23120  -18.11640    8.08920   18.60990   15.32730   16.17470  125.82460   67.17030  113.32460   15.91030   16.38970
 10335.00000 3936.08540  -17.82080    8.09010   17.86830   15.12090   15.63030  126.27440   68.37360  115.41000   15.26740   15.83960
 10335.50000 3935.79860  -17.82390    8.10650   17.27390   15.12720   15.00110  124.92500   69.00600  118.39230   14.85260   15.20370
 10336.00000 3950.37160  -17.82690    8.12210   17.63750   15.34270   15.00770  123.57570   69.84780  119.28180   14.85060   15.21040
 10336.50000 3950.07420  -17.83020    8.13800   18.63450   15.56120   15.73770  121.77660   70.13350  120.17140   15.41510   15.94810
 10337.00000 3949.72530  -18.13160    8.13890   18.89730   15.35300   15.95470  124.58410   70.09580  121.06100   16.11870   16.16740
 10337.50000 3934.57960  -17.83530    8.13970   17.89940   14.33350   15.00110  128.07350   70.37400  121.95070   16.11650   15.20370
 10338.00000 3919.43360  -17.83890    8.15560   15.94170   13.43870   14.10450  129.42280   71.26910  123.44750   15.04710   14.29730
 10338.50000 3919.14670  -18.04190    8.15650   14.89380   12.58080   13.08110  129.42280   72.47250  126.45350   13.95260   13.26270
 10339.00000 3948.58840  -18.14330    8.15740   14.69650   12.15790   12.38370  132.57120   73.05910  128.80270   13.11630   12.55750
 10339.50000 3948.29050  -18.14630    8.14320   14.40310   11.82970   11.96690  138.64320   73.64570  131.18710   12.24600   12.13600
 10340.00000 3962.86230  -18.14930    8.12910   14.01930   11.59210   11.72360  145.16490   74.69540  132.37740   11.91330   11.88990
