~Version ---------------------------------------------------
VERS.   2.0 : CWLS log ASCII Standard -VERSION 2.0
WRAP.    NO : One line per depth step
DLM . SPACE : Column Data Section Delimiter
~Well ------------------------------------------------------
STRT .F                 5832.5 : START DEPTH
STOP .F                13039.0 : STOP DEPTH
STEP .F                    0.5 : STEP
NULL .                -9999.25 : NULL VALUE
COMP .                         : COMPANY
WELL .                         : WELL
FLD  .                         : FIELD
LOC  .                         : LOCATION
PROV .                         : PROVINCE
CNTY .                         : COUNTY
STAT .                         : STATE
CTRY .                         : COUNTRY
SRVC .                         : SERVICE COMPANY
DATE .                         : DATE
UWI  .                         : UNIQUE WELL ID
API  .                         : API NUMBER
SLAT .WGS84 5.9082427416359025 : SURFACE LATITUDE
SLON .WGS84 4.0611652289877895 : SURFACE LONGITUDE
DATUM.F                1804.45 : DEPTH DATUM ELEV
~Curve Information -----------------------------------------
DEPT.F     : 
TENR.LBS   : TENSION FROM RESISTIVITY
SPR .MV    : SPONTANEOUS POTENTIAL FROM RES.
HCAL.IN    : DIFFERENTIAL CALIPER
AT10.OHMM  : 10-IN. RESISTIVITY, 4-FT RESOLUTION
AT30.OHMM  : 30-IN. RESISTIVITY, 4-FT RESOLUTION
AT90.OHMM  : 90-IN. RESISTIVITY, 4-FT RESOLUTION
GRR .GAPI  : GAMMA RAY FROM RESISTIVITY
DTCO.US/F  : COMPRESSIONAL-WAVE INTERVAL TRANSIT TIME ACOUSTIC SLOWNESS
DTSM.US/F  : SHEAR-WAVE INTERVAL TRANSIT TIME DELTA-T
AT20.OHMM  : 
AT60.OHMM  : 
~Params ----------------------------------------------------
~Other -----------------------------------------------------
~ASCII -----------------------------------------------------
# ...
 11000.50000 4015.88500  -14.34180    8.47800    3.42680    4.20650    4.25450  133.67270   83.41600  167.46540    4.30890    4.32680
 11001.00000 4001.48580  -14.90630    8.61380    3.50950    4.08420    4.02710  130.56020   84.61820  167.45290    3.96870    4.09620
 11001.50000 4031.20360  -15.83000    8.92970    3.57030    3.97970    3.81190  125.20450   86.12860  167.14480    4.16540    3.87790
 11002.00000 4060.92110  -15.23590    8.94530    3.54590    3.87520    3.34640  123.42650   86.72210  166.24110    4.77540    3.51270
 11002.50000 4060.92110  -14.64180    8.57070    3.47390    3.64070    3.10060  131.06030   86.68400  164.74170    4.16370    3.23560
 11003.00000 4075.78000  -14.04760    8.55610    3.40340    3.49450    2.90500  135.55540   85.42090  162.05090    3.85030    3.10460
 11003.50000 4075.78000  -14.05120    8.60190    3.38020    3.44680    2.77210  135.08960   83.84970  157.87100    3.60390    3.06310
 11004.00000 4060.92110  -14.05370    8.60250    3.43020    3.42320    2.77070  131.56470   82.89470  155.77590    3.67850    3.08410
 11004.50000 4046.06250  -14.05700    8.54300    3.47390    3.42320    2.84610  129.79120   83.48060  155.46790    3.70360    3.16980
 11005.00000 4016.34470  -14.05990    8.46840    3.49780    3.42320    2.92360  128.24140   83.75830  156.64900    3.78030    3.25780
 11005.50000 3971.76830  -14.06280    8.49910    3.35720    3.44680    2.98270  126.24390   83.72800  159.02160    3.78000    3.30270
 11006.00000 3942.05050  -13.76720    8.61980    3.20030    3.42250    3.00160  125.36150   84.00570  161.44120    3.60270    3.19160
 11006.50000 3897.47390  -13.77010    8.58960    3.22220    3.33050    3.08600  131.42810   84.59170  163.51840    3.47940    3.14820
 11007.00000 3882.61520  -13.77360    8.51500    3.22210    3.44680    3.43810  133.23840   85.17740  164.94520    3.33710    3.14820
 11007.50000 3942.05050  -13.47730    8.49100    3.11390    3.56730    4.13410  134.15140   84.81150  165.23550    3.99180    3.59980
 11008.00000 4150.07420  -12.88320    8.50690    3.20030    3.69190    4.51720  133.49710   82.87590  162.84000    4.04670    4.02830
 11008.50000 4611.41700  -12.28900    8.76600    3.47390    3.76880    3.55220  132.83850   81.02280  156.27730    3.77840    3.61020
 11009.00000 4595.83940  -11.99400    9.06440    3.38020    3.77250    3.07480  133.10890   80.11750  150.90600    3.55220    3.51270
 11009.50000 4551.26320  -11.99700    8.55480    3.38020    3.61660    2.77310  131.52890   79.47070  149.40660    3.27150    3.39450
 11010.00000 4491.82760  -11.91510    8.43530    3.95590    3.46730    3.95720  129.03180   77.28310  148.80070    4.60820    3.83970
 11010.50000 4447.25100  -11.70430    8.43640    4.69470    4.92640    5.16330  127.98690   75.40360  147.89700    6.71720    5.24830
 11011.00000 4387.81590  -11.70790    8.42230    5.40400    6.75680    6.00180  127.33700   75.06510  146.69540    6.53510    6.09810
 11011.50000 4328.38040  -11.71040    8.34810    6.34080    6.75680    5.91700  124.22010   75.34970  142.98330    6.06020    6.01220
 11012.00000 4283.32420  -11.71370    8.31890    6.16970    6.43960    5.59860  113.26730   74.04330  136.65520    5.85560    5.68960
 11012.50000 4209.50980  -11.74170    8.36490    5.92170    5.97100    5.44450  105.89660   72.53320  131.47240    5.89550    5.53330
 11013.00000 4135.21530  -11.71940    8.39600    6.00330    5.84920    5.36760  101.66020   71.28140  129.97300    6.04120    5.45540
 11013.50000 4105.49760  -11.72240    8.42690    6.25470    5.88960    5.43870  104.58810   70.95490  128.77150    6.18440    5.52750
 11014.00000 4150.07420  -11.72590    8.44280    6.65240    5.97100    5.58680  109.83650   71.24970  128.16560    6.26930    5.67760
 11014.50000 4194.65090  -11.72840    8.44360    6.69730    6.01220    5.66000  111.11540   71.84380  128.45580    5.61500    5.75180
 11015.00000 4268.94480  -11.73130    8.50460    6.16970    5.97100    5.61840  109.12220   72.44700  129.33650    5.50260    5.70970
 11015.50000 4298.66260  -11.73460    8.55050    5.60650    5.65180    5.42650  109.81120   73.04110  130.81560    5.38810    5.51510
 11016.00000 4234.67380  -11.73740    8.58140    5.09470    5.34960    5.16970  114.97780   73.64430  132.59240    5.05150    5.25490
 11016.50000 4120.35640  -11.74030    8.61230    4.92350    4.92640    4.85820  120.36830   74.23840  134.07140    4.76450    4.93900
 11017.00000 4060.92110  -11.44470    8.62840    4.99120    4.69200    4.62830  122.84840   74.52890  135.25260    4.66730    4.70600
 11017.50000 4046.06250  -11.44830    8.62930    5.23600    4.56790    4.72190  121.07470   74.82370  135.97240    4.66690    4.80080
 11018.00000 4150.07420  -11.45120    8.63020    5.38710    4.66300    4.89290  119.47840   75.13810  139.10330    4.73110    4.97420
 11018.50000 4179.79200  -11.45410    8.63100    5.49270    4.71170    5.01610  122.45710   76.06930  140.28440    4.82910    5.09910
 11019.00000 4164.93310  -11.75550    8.63190    5.45520    4.80370    5.01340  126.50430   76.92320  140.57210    4.92900    5.09640
 11019.50000 4150.07420  -11.75840    8.63280    5.53030    4.92640    5.11480  128.76050   76.90050  140.85970    5.03370    5.19910
 11020.00000 4120.35640  -12.05970    8.63360    5.60650    4.99450    5.14790  127.65850   76.88240  139.65560    5.17040    5.23270
 11020.50000 4105.49760  -12.36120    8.63540    5.68370    5.06620    5.25190  122.97430   76.86430  137.85840    5.27740    5.33820
 11021.00000 4090.63890  -12.66330    8.66560    5.68370    5.09850    5.17700  119.18580   76.84610  136.95470    5.24110    5.26230
 11021.50000 4090.63890  -12.96460    8.66650    5.50630    5.13360    4.96160  122.78520   76.82790  137.24480    4.99520    5.04380
 11022.00000 4090.63890  -13.56450    8.69740    4.95720    4.96030    4.69820  125.06170   77.42660  139.31700    4.79370    4.77680
 11022.50000 4120.35640  -13.86590    8.72830    4.82350    4.72750    4.56880  125.51090   78.33360  141.98740    4.56890    4.64560
 11023.00000 4150.07420  -14.16730    8.75920    4.79060    4.53660    4.35270  126.64770   78.93230  144.35990    4.44500    4.42640
 11023.50000 4135.21530  -14.17020    8.79010    4.82350    4.38350    4.32070  131.14260   79.53120  147.92380    4.47530    4.39400
 11024.00000 4090.63890  -14.17310    8.79100    4.79060    4.29270    4.28890  134.96600   80.12960  151.78550    4.56800    4.36180
 11024.50000 4060.92110  -14.17670    8.80690    4.75720    4.23550    4.22830  135.42680   80.44640  154.18170    4.56760    4.30030
 11025.00000 4031.20360  -14.17960    8.80780    4.69330    4.20650    4.22610  134.10450   80.76070  155.68670    4.53610    4.29800
 11025.50000 4016.34470  -13.88400    8.80890    4.66140    4.23550    4.22380  134.79420   81.00040  156.51790    4.44350    4.29570
 11026.00000 4060.92110  -13.58810    8.80970    4.62960    4.20650    4.25000  137.34680   80.97760  156.80800    4.38270    4.32230
 11026.50000 4060.92110  -13.47860    8.79540    4.69330    4.20650    4.27750  139.53480   81.27240  157.09570    4.44290    4.35020
 11027.00000 4046.06250  -12.99700    8.79650    4.75800    4.20650    4.30460  140.44770   81.56270  157.08290    4.47390    4.37770
 11027.50000 4060.92110  -13.00000    8.79730    4.82350    4.20710    4.30180  140.24120   81.23160  156.17920    4.56580    4.37480
 11028.00000 4105.49760  -13.00360    8.79820    4.82350    4.23720    4.32960  138.24370   81.21340  154.97760    4.47250    4.40310
 11028.50000 4120.35640  -13.00650    8.79910    4.78510    4.29410    4.35650  134.23120   81.50820  154.37180    4.41130    4.43040
 11029.00000 4090.63890  -13.00900    8.81730    4.69330    4.32370    4.35420  133.79640   81.79840  154.95730    4.32130    4.42790
 11029.50000 4075.78000  -13.01190    8.83110    4.66140    4.35350    4.29210  135.16140   81.77570  155.54280    4.29150    4.36500
 11030.00000 4075.78000  -13.01510    8.89200    4.56670    4.32370    4.17390  134.25470   81.44920  155.53240    4.20390    4.24520
