~Version ---------------------------------------------------
VERS.   2.0 : CWLS log ASCII Standard -VERSION 2.0
WRAP.    NO : One line per depth step
DLM . SPACE : Column Data Section Delimiter
~Well ------------------------------------------------------
STRT .F                 5832.5 : START DEPTH
STOP .F                13039.0 : STOP DEPTH
STEP .F                    0.5 : STEP
NULL .                -9999.25 : NULL VALUE
COMP .                         : COMPANY
WELL .                         : WELL
FLD  .                         : FIELD
LOC  .                         : LOCATION
PROV .                         : PROVINCE
CNTY .                         : COUNTY
STAT .                         : STATE
CTRY .                         : COUNTRY
SRVC .                         : SERVICE COMPANY
DATE .                         : DATE
UWI  .                         : UNIQUE WELL ID
API  .                         : API NUMBER
SLAT .WGS84 5.9082427416359025 : SURFACE LATITUDE
SLON .WGS84 4.0611652289877895 : SURFACE LONGITUDE
DATUM.F                1804.45 : DEPTH DATUM ELEV
~Curve Information -----------------------------------------
DEPT.F     : 
TENR.LBS   : TENSION FROM RESISTIVITY
SPR .MV    : SPONTANEOUS POTENTIAL FROM RES.
HCAL.IN    : DIFFERENTIAL CALIPER
AT10.OHMM  : 10-IN. RESISTIVITY, 4-FT RESOLUTION
AT30.OHMM  : 30-IN. RESISTIVITY, 4-FT RESOLUTION
AT90.OHMM  : 90-IN. RESISTIVITY, 4-FT RESOLUTION
GRR .GAPI  : GAMMA RAY FROM RESISTIVITY
DTCO.US/F  : COMPRESSIONAL-WAVE INTERVAL TRANSIT TIME ACOUSTIC SLOWNESS
DTSM.US/F  : SHEAR-WAVE INTERVAL TRANSIT TIME DELTA-T
AT20.OHMM  : 
AT60.OHMM  : 
~Params ----------------------------------------------------
~Other -----------------------------------------------------
~ASCII -----------------------------------------------------
# ...
 11990.50000 4438.03910   -5.59910    9.39930    8.10800    6.87070    6.98160  144.92850   77.05470  148.78840    7.11520    7.09070
 11991.00000 4422.83250   -5.83280    9.39870    8.33570    7.46250    7.35920  145.39640   76.41530  148.18100    7.77770    7.47310
 11991.50000 4392.82810   -5.82390    9.39810    8.70850    8.16110    7.72050  144.00860   75.78040  146.68020    8.67840    7.83900
 11992.00000 4377.68310   -6.11390    9.39760    8.99400    8.86400    8.21130  140.48070   74.52870  144.58360    9.29340    8.33600
 11992.50000 4362.53760   -6.10310    9.39700    9.31010    9.30240    8.49730  137.11980   74.20200  142.76590    9.16610    8.62550
 11993.00000 4362.25150   -6.17320    9.39640    9.50640    9.36840    8.67370  134.20930   73.87560  140.95010    9.16550    8.80400
 11993.50000 4361.96140   -6.38650    9.41080    9.57480    9.30200    8.91800  131.74930   74.47430  140.08100    9.35530    9.05130
 11994.00000 4361.60740   -6.37570    9.41000    9.44770    9.05620    9.16210  128.38840   75.07300  141.55860    9.03950    9.29840
 11994.50000 4361.32080   -6.36720    9.42440    9.38640    8.81210    9.03750  128.18020   75.36330  141.84470    8.85500    9.17230
 11995.00000 4361.03420   -6.35820    9.42380    9.47620    8.57500    8.61450  130.01450   75.34070  141.83020    8.84850    8.74410
 11995.50000 4375.67820   -6.34930    9.43810   10.19730    9.31400    8.43930  131.85610   75.01420  141.22280    9.23160    8.56680
 11996.00000 4405.10890   -6.33910    9.45250   10.70110    9.70770    9.16210  132.06180   74.37920  140.01980    9.67820    9.29840
 11996.50000 4404.75100   -6.03200    9.45190   11.00170    9.91180    9.54640  130.28180   73.12750  137.92320   10.08360    9.68730
 11997.00000 4403.00780   -6.02330    9.45130   11.78480   10.19000    9.95390  128.49750   72.18420  135.52890   10.36330   10.09970
 11997.50000 4374.38920   -5.71640    9.46650   12.79750   10.40460   10.36400  126.71310   71.24090  134.32580   10.50560   10.51460
 11998.00000 4356.27880   -5.69060    9.48000   12.43430   10.40670   10.43520  125.82530   71.22280  133.71850   10.50470   10.58670
 11998.50000 4344.09860   -5.39830    9.49440   10.86740   10.05740    9.94680  128.09930   71.82150  133.70680   10.22000   10.09250
 11999.00000 4343.81250   -5.38970    9.49360   10.15200    9.85380    9.48130  130.19320   72.46880  134.58870    9.60180    9.62140
 11999.50000 4343.52590   -5.68170    9.49310   10.29530    9.92410    8.97580  132.19270   73.63570  135.46770    9.15730    9.10980
 12000.00000 4343.23930   -5.65740    9.50740   11.49020    9.99450    8.91460  133.11100   73.92600  136.05170    9.80620    9.04780
 12000.50000 4352.27880   -5.55970    9.50680   11.73240   10.13490   10.10550  134.47980   73.90330  136.34080   10.35820   10.25300
 12001.00000 4372.68070   -5.46200    9.52120   11.73630   10.27750    9.61200  135.17290   74.19820  136.32620   10.07740    9.75370
 12001.50000 4387.39500   -5.37310    9.53550   11.75000   10.13060    9.41660  133.16340   74.17550  136.31450   10.00810    9.55590
 12002.00000 4402.10990   -5.37310    9.53490   11.98860   10.06070    9.94680  130.25290   73.84910  136.00500   11.01490   10.09250
 12002.50000 4401.92970   -5.37310    9.53420   12.07390   10.26930    9.94680  125.99110   73.52250  135.39770   11.08990   10.09250
 12003.00000 4386.09230   -5.48340    9.53360   11.75270   10.48260    9.94680  122.40490   73.19600  134.79030   10.78920   10.09250
 12003.50000 4371.91700   -5.67160    9.54810   11.51680   10.55400    9.95290  125.12940   73.17790  134.18300   10.64160   10.09860
 12004.00000 4371.74270   -5.67160    9.54740   11.52150   10.55330   10.01520  127.17390   73.15960  133.57560   10.78790   10.16170
 12004.50000 4416.17480   -5.67160    9.54790   11.36620   10.48030    9.94680  128.31750   73.45010  133.86180   10.49540   10.09250
 12005.00000 4460.64360   -5.67160    9.54850   10.73120   10.19550    9.74460  128.56020   73.42750  134.14800    9.41130    9.88780
 12005.50000 4460.46290   -5.67160    9.54910    9.85430    9.64970    9.16640  129.70370   73.40940  134.43420    8.66830    9.30270
 12006.00000 4460.31880   -5.67160    9.54970   10.20060    9.13320    8.43930  134.17300   72.77450  134.41960    8.20590    8.56680
 12006.50000 4489.89210   -5.67160    9.55030   11.22990    9.51680    8.85370  135.53750   72.44800  134.11010    9.87380    8.98630
 12007.00000 4504.60690   -5.67160    9.55040   13.23860   10.47670   10.02080  133.29840   71.81310  133.50280   11.24680   10.16730
 12007.50000 4504.45750   -5.67160    9.57910   13.25770   11.45440   11.09900  128.80700   71.48660  132.59760   11.96500   11.25810
 12008.00000 4474.56450   -5.67160    9.59260   12.70190   12.10320   12.21530  122.06330   70.85170  131.09670   11.88060   12.38720
 12008.50000 4444.70210   -5.67160    9.60640   12.20700   10.97590   11.09860  119.59900   70.83360  129.89370   11.71890   11.25780
 12009.00000 4399.98190   -5.67160    9.60520   12.89920   10.76540   10.43520  121.48650   70.81550  128.98850   11.96230   10.58670
 12009.50000 4370.12010   -5.67160    9.60400   14.00770   11.37270   11.32900  123.68260   70.48880  127.78550   13.44040   11.49080
 12010.00000 4369.97560   -5.67160    9.60290   14.80080   12.34900   11.96690  125.04700   70.16190  127.15890   14.49270   12.13600
 12010.50000 4369.83150   -5.67160    9.60170   15.21650   12.77950   12.29920  125.28540   70.13990  126.52510   13.07690   12.47210
 12011.00000 4369.68700   -5.67160    9.60060   15.43130   13.31630   12.72760  125.29850   69.81340  125.66270   12.86920   12.90530
 12011.50000 4399.26070   -5.67160    9.59940   15.31930   13.68630   13.17970  125.31160   69.48690  125.65110   14.00450   13.36240
 12012.00000 4413.97460   -5.67160    9.59820   14.82150   13.59170   12.72760  123.52290   69.46880  125.63940   13.70910   12.90530
 12012.50000 4428.68950   -5.65850    9.61200   14.23000   13.30560   12.04910  121.50900   69.76360  125.62770   12.97260   12.21920
 12013.00000 4421.35840   -5.37310    9.62580   14.43090   12.68760   11.40680  122.08200   70.05390  125.31820   12.37930   11.56950
 12013.50000 4398.64750   -5.37310    9.65450   15.24790   12.51390   12.04910  125.14210   70.65270  125.00870   12.04460   12.21920
 12014.00000 4398.51460   -5.67160    9.65300   16.11120   13.40250   12.81510  125.60240   70.63000  124.69920   12.55020   12.99370
 12014.50000 4398.35890   -5.67160    9.65190   16.56370   13.68060   13.53670  123.59180   70.92060  124.68760   14.10080   13.72340
 12015.00000 4398.21480   -5.97010    9.65070   16.08640   13.77420   13.81770  122.47550   70.74230  124.67590   14.39370   14.00740
 12015.50000 4398.06840   -6.26870    9.64950   15.26800   13.49220   13.34240  123.61800   70.57520  124.66420   13.56310   13.52690
 12016.00000 4395.40380   -6.26870    9.64840   14.86190   13.39890   12.72760  125.88340   70.55310  124.65230   12.89890   12.90530
 12016.50000 4368.02780   -6.26870    9.64690   14.86680   13.12480   12.72760  127.24790   70.84790  124.63800   12.72330   12.90530
 12017.00000 4350.00290   -6.26870    9.64580   15.70850   13.39710   13.17100  126.08060   70.82530  124.62630   13.25740   13.35360
 12017.50000 4338.02200   -6.26870    9.64460   16.26060   13.78420   13.35260  122.54770   69.88200  123.72120   14.00450   13.53720
 12018.00000 4323.01860   -6.26870    9.64340   16.37780   14.34750   13.26150  120.53380   69.55550  122.81600   14.19780   13.44510
 12018.50000 4337.76950   -6.26870    9.64230   16.83910   14.74610   13.44430  120.77210   69.22900  122.50940   14.10080   13.63000
 12019.00000 4352.45170   -6.26870    9.65630   17.07670   14.54400   13.72340  120.10960   69.21090  122.79560   14.19780   13.91210
 12019.50000 4367.16260   -6.26870    9.66990   17.55640   14.54300   14.10530  117.42000   69.19280  122.78100   14.99790   14.29810
 12020.00000 4382.83110   -6.26870    9.66870   17.08800   14.94710   14.39720  114.50520   69.48310  122.76930   15.20490   14.59330
