~Version ---------------------------------------------------
VERS.   2.0 : CWLS log ASCII Standard -VERSION 2.0
WRAP.    NO : One line per depth step
DLM . SPACE : Column Data Section Delimiter
~Well ------------------------------------------------------
STRT .F                 5832.5 : START DEPTH
STOP .F                13039.0 : STOP DEPTH
STEP .F                    0.5 : STEP
NULL .                -9999.25 : NULL VALUE
COMP .                         : COMPANY
WELL .                         : WELL
FLD  .                         : FIELD
LOC  .                         : LOCATION
PROV .                         : PROVINCE
CNTY .                         : COUNTY
STAT .                         : STATE
CTRY .                         : COUNTRY
SRVC .                         : SERVICE COMPANY
DATE .                         : DATE
UWI  .                         : UNIQUE WELL ID
API  .                         : API NUMBER
SLAT .WGS84 5.9082427416359025 : SURFACE LATITUDE
SLON .WGS84 4.0611652289877895 : SURFACE LONGITUDE
DATUM.F                1804.45 : DEPTH DATUM ELEV
~Curve Information -----------------------------------------
DEPT.F     : 
TENR.LBS   : TENSION FROM RESISTIVITY
SPR .MV    : SPONTANEOUS POTENTIAL FROM RES.
HCAL.IN    : DIFFERENTIAL CALIPER
AT10.OHMM  : 10-IN. RESISTIVITY, 4-FT RESOLUTION
AT30.OHMM  : 30-IN. RESISTIVITY, 4-FT RESOLUTION
AT90.OHMM  : 90-IN. RESISTIVITY, 4-FT RESOLUTION
GRR .GAPI  : GAMMA RAY FROM RESISTIVITY
DTCO.US/F  : COMPRESSIONAL-WAVE INTERVAL TRANSIT TIME ACOUSTIC SLOWNESS
DTSM.US/F  : SHEAR-WAVE INTERVAL TRANSIT TIME DELTA-T
AT20.OHMM  : 
AT60.OHMM  : 
~Params ----------------------------------------------------
~Other -----------------------------------------------------
~ASCII -----------------------------------------------------
# ...
 8608.00000 3479.03560  -22.88960    8.96450    6.31900    6.38310    6.24350  134.03160   79.91240  151.91630    6.25310    6.13860
 8608.50000 3478.89210  -22.88270    8.96430    6.27450    6.24810    6.15480  129.96230   80.50000  153.89210    6.20780    6.13910
 8609.00000 3478.74900  -22.87690    8.96420    6.27450    6.15940    6.11030  127.93540   81.10170  155.07480    6.20650    6.09620
 8609.50000 3478.60350  -22.87110    8.98130    6.22780    6.11510    6.06640  127.26620   81.08970  155.94970    6.11790    6.05070
 8610.00000 3493.32080  -22.86540    8.99400    6.14280    6.07120    5.98020  128.19310   81.07760  157.42700    6.07350    5.92690
 8610.50000 3493.14160  -22.85960    8.97870    6.05660    6.07030    5.89520  129.79710   81.06550  159.80100    5.94490    5.84400
 8611.00000 3507.89260  -22.55520    8.96350    5.97160    6.02360    5.81150  134.15630   81.67030  160.08690    5.81890    5.72150
 8611.50000 3507.71310  -22.54810    8.97850    5.88770    5.85740    5.72890  135.28340   81.65820  159.76600    5.73610    5.64140
 8612.00000 3507.56980  -22.54240    8.97940    5.80510    5.73350    5.68640  135.73570   82.26590  159.74850    5.69450    5.60200
 8612.50000 3507.42630  -22.53730    9.03840    5.72360    5.65220    5.60690  134.16930   82.86770  159.73090    5.73370    5.60250
 8613.00000 3507.28080  -22.53130    9.06840    5.64320    5.61150    5.60600  133.50000   82.85560  160.93530    5.73250    5.60280
 8613.50000 3507.10380  -22.52510    9.09840    5.68330    5.61070    5.64520  133.05530   83.15190  162.98000    5.73110    5.60330
 8614.00000 3492.10160  -22.51930    9.09820    5.64320    5.61000    5.68440  133.73440   83.13950  164.45720    5.64950    5.56410
 8614.50000 3491.95800  -22.51340    9.09800    5.64320    5.60920    5.64350  135.08600   83.43620  164.74300    5.56900    5.48630
 8615.00000 3476.95580  -22.80630    9.09790    5.52480    5.60830    5.64270  136.21320   83.42110  164.72110    5.56790    5.40960
 8615.50000 3476.81230  -22.80000    9.09770    5.44730    5.60750    5.60210  137.11570   83.40900  164.70360    5.56670    5.44840
 8616.00000 3491.53050  -22.79330    9.09760    5.37080    5.60670    5.56180  138.46740   84.01370  164.98940    5.56560    5.48750
 8616.50000 3506.24290  -22.78810    9.09740    5.29540    5.60600    5.60060  139.59450   84.00170  165.86430    5.56440    5.48780
 8617.00000 3506.06350  -22.48320    9.09730    5.25810    5.56560    5.59960  140.72160   84.30100  166.74370    5.56300    5.48480
 8617.50000 3476.20260  -22.47750    9.09710    5.25810    5.44790    5.52010  141.39960   84.59730  166.42720    5.52270    5.33540
 8618.00000 3476.05930  -22.47160    9.09700    5.14780    5.37060    5.36510  140.28230   84.58220  165.80450    5.36760    5.26070
 8618.50000 3461.06980  -22.16600    9.14200    5.07550    5.36970    5.28890  139.38840   84.26170  165.82930    5.29150    5.26110
 8619.00000 3460.91330  -22.16120    9.18710    5.03980    5.44550    5.36370  138.04550   83.94130  166.66920    5.40380    5.33650
 8619.50000 3460.77000  -22.15440    9.21700    5.03980    5.52240    5.43940  136.70250   83.92910  166.95500    5.44070    5.41300
 8620.00000 3475.48540  -22.14870    9.24700    5.07550    5.56110    5.47740  135.35850   83.91670  167.23640    5.40130    5.45180
 8620.50000 3490.16480  -22.31630    9.27690    5.07550    5.40490    5.36130  136.71120   83.90200  168.41030    5.36210    5.37550
 8621.00000 3534.63350  -22.43580    9.27680    5.03980    5.36600    5.24780  136.72280   84.50680  169.88760    5.28580    5.26290
 8621.50000 3534.45460  -22.42990    9.27660    5.00430    5.44300    5.35980  131.47930   85.11150  170.76690    5.39790    5.33850
 8622.00000 3534.31100  -22.72240    9.27650    4.96900    5.55780    5.47420  130.66140   85.71620  170.45040    5.51250    5.45340
 8622.50000 3519.30880  -22.71540    9.30650    5.00430    5.47880    5.43480  133.13690   86.32400  170.13400    5.43370    5.45380
 8623.00000 3534.02690  -22.71040    9.33640    5.03980    5.55610    5.55080  135.83590   87.23410  169.51850    5.43250    5.49290
 8623.50000 3533.87790  -22.70390    9.33630    5.11420    5.75550    5.75000  138.98390   87.53340  171.02420    5.58720    5.65110
 8624.00000 3518.84250  -22.69810    9.33610    5.29540    5.92000    5.99880  140.56020   87.21000  172.85740    5.86940    5.89670
 8624.50000 3503.84010  -22.69250    9.33600    5.48590    6.08920    6.12690  140.78910   86.27270  173.35230    6.07930    6.11100
 8625.00000 3503.69650  -22.68660    9.27560    5.72360    6.35260    6.25760  139.89520   85.33540  172.43360    6.25230    6.24870
 8625.50000 3503.55320  -22.68060    9.18480    6.25040    6.72840    6.52850  137.59620   83.75410  170.92130    6.48190    6.42100
 8626.00000 3503.40990  -22.67360    9.06440    6.95140    7.06210    6.90820  135.41290   82.42740  168.21320    7.09740    6.79560
 8626.50000 3503.26640  -22.36930    8.98900    8.15010    7.21270    7.26310  133.62190   81.28690  164.01030    8.28980    6.99120
 8627.00000 3532.84080  -22.66350    8.97380    7.81160    6.96090    7.20600  131.15620   81.89160  162.49800    8.52580    6.84480
 8627.50000 3532.66140  -22.65630    9.00380    6.59270    6.30330    6.52470  131.38510   83.42160  163.67630    8.11260    5.98370
 8628.00000 3517.65890  -22.65050    9.22950    5.64320    6.03340    6.03470  130.93930   84.33770  165.75140    7.34670    5.77600
 8628.50000 3517.51560  -22.20000    9.31970    5.76420    6.48250    5.99140  130.49560   84.32260  167.82660    6.46760    5.99490
 8629.00000 3517.37210  -22.04180    9.03340    5.97160    6.37960    6.43050  130.95270   84.31060  169.30380    6.93990    6.07030
 8629.50000 3517.22850  -22.03580    8.95800    5.92440    5.91070    5.90530  132.10890   84.29850  169.88420    6.06620    5.65590
 8630.00000 3502.22660  -22.02900    9.09340    5.33300    5.82680    5.73950  132.75530   84.28640  170.16560    5.77210    5.90170
 8630.50000 3502.08010  -22.02320    9.21370    4.76270    5.90910    5.98800  131.86140   84.89110  170.44700    5.69020    5.73740
 8631.00000 3501.90360  -22.01790    9.30390    4.46910    5.86660    5.57760  130.51850   85.19960  170.72840    6.02010    5.90260
 8631.50000 3516.65500  -22.01190    9.34890    5.40890    5.82460    6.61030  129.17550   85.52290  171.00990    5.64780    6.65790
 8632.00000 3531.37040  -22.00590    9.09270    6.97630    7.84020    8.29130  128.50620   86.39390  170.98800    7.07960    7.78050
 8632.50000 3516.33200  -22.50770    8.94200    7.28190    7.49260    7.45440  128.73510   86.38180  170.67150    7.12830    8.11870
 8633.00000 3516.18870  -22.59100    8.97200    5.79980    5.98910    5.73460  129.19950   86.36980  169.45810    6.10900    5.65870
 8633.50000 3530.90650  -22.58510    9.27300    4.07680    5.12460    4.80150  130.79940   86.04930  168.24480    5.14720    5.05310
 8634.00000 3576.54220  -22.57840    9.17000    4.69580    5.73840    5.45550  133.68940   85.72880  167.92830    4.96770    5.50150
 8634.50000 3590.05270  -22.57310    8.91130    5.14780    5.98680    6.06640  137.73570   87.25880  170.03410    5.92670    6.20550
 8635.00000 3560.15580  -22.56720    9.00150    4.72910    5.01490    5.77200  142.68010   88.48330  170.58380    5.48200    5.54130
 8635.50000 3530.29440  -22.56110    9.28750    4.31070    6.15690    4.86900  149.42100   88.15980  169.36610    4.99960    5.25080
 8636.00000 3500.43330  -22.55520    9.24220    6.87840    7.85870    7.08670  157.50960   88.45640  168.15280    6.09260    7.11200
 8636.50000 3500.28980  -22.54810    9.03040    9.13910   10.31980    9.67760  175.92710   89.67770  166.64050    7.79560    9.25450
 8637.00000 3515.00510  -22.24480    8.95570   16.76040   15.66790   14.59380  203.55120   90.61530  165.72610   12.88270   12.60060
 8637.50000 3516.05690  -22.23880    8.92540   19.85910   22.96020   14.36990  208.72020   90.21850  164.81170   22.04070   13.05550
 8638.00000 3529.57710  -21.93380    8.91020   21.16360   21.08740   13.21170  190.31140   88.71320  164.19630   18.99630   12.42510
