~Version ---------------------------------------------------
VERS.   2.0 : CWLS log ASCII Standard -VERSION 2.0
WRAP.    NO : One line per depth step
DLM . SPACE : Column Data Section Delimiter
~Well ------------------------------------------------------
STRT .F                 5832.5 : START DEPTH
STOP .F                13039.0 : STOP DEPTH
STEP .F                    0.5 : STEP
NULL .                -9999.25 : NULL VALUE
COMP .                         : COMPANY
WELL .                         : WELL
FLD  .                         : FIELD
LOC  .                         : LOCATION
PROV .                         : PROVINCE
CNTY .                         : COUNTY
STAT .                         : STATE
CTRY .                         : COUNTRY
SRVC .                         : SERVICE COMPANY
DATE .                         : DATE
UWI  .                         : UNIQUE WELL ID
API  .                         : API NUMBER
SLAT .WGS84 5.9082427416359025 : SURFACE LATITUDE
SLON .WGS84 4.0611652289877895 : SURFACE LONGITUDE
DATUM.F                1804.45 : DEPTH DATUM ELEV
~Curve Information -----------------------------------------
DEPT.F     : 
TENR.LBS   : TENSION FROM RESISTIVITY
SPR .MV    : SPONTANEOUS POTENTIAL FROM RES.
HCAL.IN    : DIFFERENTIAL CALIPER
AT10.OHMM  : 10-IN. RESISTIVITY, 4-FT RESOLUTION
AT30.OHMM  : 30-IN. RESISTIVITY, 4-FT RESOLUTION
AT90.OHMM  : 90-IN. RESISTIVITY, 4-FT RESOLUTION
GRR .GAPI  : GAMMA RAY FROM RESISTIVITY
DTCO.US/F  : COMPRESSIONAL-WAVE INTERVAL TRANSIT TIME ACOUSTIC SLOWNESS
DTSM.US/F  : SHEAR-WAVE INTERVAL TRANSIT TIME DELTA-T
AT20.OHMM  : 
AT60.OHMM  : 
~Params ----------------------------------------------------
~Other -----------------------------------------------------
~ASCII -----------------------------------------------------
# ...
 7937.00000   -9999.25  -16.39220   -9999.25   -9999.25   -9999.25   -9999.25   85.99630   -9999.25   -9999.25   27.64070   28.91260
 7937.50000   -9999.25  -16.09210   -9999.25   -9999.25   -9999.25   -9999.25   80.78830   -9999.25   -9999.25   26.01080   26.97680
 7938.00000   -9999.25  -16.08910   -9999.25   -9999.25   -9999.25   -9999.25   68.72950   -9999.25   -9999.25   22.55420   23.86960
 7938.50000   -9999.25  -15.78840   -9999.25   -9999.25   -9999.25   -9999.25   60.66440   -9999.25   -9999.25   21.11990   22.50580
 7939.00000   -9999.25  -15.77570   -9999.25   -9999.25   -9999.25   -9999.25   61.78170   -9999.25   -9999.25   20.62950   21.20040
 7939.50000   -9999.25  -15.02030   -9999.25   -9999.25   -9999.25   -9999.25   68.52080   -9999.25   -9999.25   19.12210   19.33790
 7940.00000   -9999.25  -14.26470   -9999.25   -9999.25   -9999.25   -9999.25   76.17790   -9999.25   -9999.25   16.67690   16.15740
 7940.50000   -9999.25  -12.80490   -9999.25   -9999.25   -9999.25   -9999.25   90.66670   -9999.25   -9999.25   14.15700   13.83650
 7941.00000   -9999.25  -12.20800   -9999.25   -9999.25   -9999.25   -9999.25   97.38880   -9999.25   -9999.25   11.90340   11.85620
 7941.50000   -9999.25  -11.90750   -9999.25   -9999.25   -9999.25   -9999.25  102.89760   -9999.25   -9999.25   10.60140   10.59730
 7942.00000   -9999.25  -11.60770   -9999.25   -9999.25   -9999.25   -9999.25  110.96730   -9999.25   -9999.25    9.86810    8.89030
 7942.50000   -9999.25  -11.60450   -9999.25   -9999.25   -9999.25   -9999.25  116.77810   -9999.25   -9999.25    8.82620    7.94900
 7943.00000   -9999.25  -11.60180   -9999.25   -9999.25   -9999.25   -9999.25  123.29820   -9999.25   -9999.25    7.99430    7.11140
 7943.50000   -9999.25  -11.89600   -9999.25   -9999.25   -9999.25   -9999.25  128.33120   -9999.25   -9999.25    6.75430    6.79270
 7944.00000   -9999.25  -12.00010   -9999.25   -9999.25   -9999.25   -9999.25  132.81550   -9999.25   -9999.25    6.59050    6.66770
 7944.50000   -9999.25  -12.18720   -9999.25   -9999.25   -9999.25   -9999.25  137.47250   -9999.25   -9999.25    6.46250    6.58170
 7945.00000   -9999.25  -12.18420   -9999.25   -9999.25   -9999.25   -9999.25  138.29460   -9999.25   -9999.25    6.31660    6.52080
 7945.50000   -9999.25  -12.18120   -9999.25   -9999.25   -9999.25   -9999.25  136.56470   -9999.25   -9999.25    6.17130    6.43390
 7946.00000   -9999.25  -12.17830   -9999.25   -9999.25   -9999.25   -9999.25  132.24040   -9999.25   -9999.25    6.01340    6.29980
 7946.50000   -9999.25  -12.17530   -9999.25   -9999.25   -9999.25   -9999.25  130.98070   -9999.25   -9999.25    5.80560    6.19680
 7947.00000   -9999.25  -12.17180   -9999.25   -9999.25   -9999.25   -9999.25  133.49000   -9999.25   -9999.25    5.71570    5.93040
 7947.50000   -9999.25  -12.16940   -9999.25   -9999.25   -9999.25   -9999.25  137.07490   -9999.25   -9999.25    5.44000    5.76690
 7948.00000   -9999.25  -12.16600   -9999.25   -9999.25   -9999.25   -9999.25  137.59310   -9999.25   -9999.25    5.28780    5.48670
 7948.50000 3401.98360  -12.46080    9.83740    5.10820   -9999.25   -9999.25  141.61700   -9999.25   -9999.25    5.07430    5.39630
 7949.00000 3401.14330  -12.75480    9.74890    5.10880    5.41670    5.23910  144.29950   -9999.25   -9999.25    5.16870    5.14850
 7949.50000 3400.30320  -13.07610    9.71960    5.10960    5.79580    5.45960  142.51120   -9999.25   -9999.25    5.45990    5.47650
 7950.00000 3399.70290  -13.38810    9.81700    5.62250    6.03910    5.76750  137.59310   -9999.25   -9999.25    5.76740    5.86540
 7950.50000 3398.86280  -13.70010    9.92920    5.70050    6.24970    5.92840  135.35770   83.16000  165.03980    5.97310    6.03730
 7951.00000 3398.14280  -14.01210    9.95960    5.81910    6.37980    6.07040  134.91060   82.52060  162.55000    6.19540    6.28230
 7951.50000 3397.47410  -14.23480   10.10900    6.06310    6.69330    6.35020  134.01640   81.88580  159.13960    6.39240    6.45730
 7952.00000 3396.70240  -14.23480   10.05010    6.53660    7.07040    6.98920  133.08090   80.32570  155.42070    6.89240    6.72880
 7952.50000 3395.86210  -14.23480    9.88410    7.39170    7.62360    8.12450  131.33380   77.22360  142.44970    7.18180    7.30610
 7953.00000 3395.14230  -14.23480    9.69420    9.45080    8.98490    9.63980  129.54550   75.66350  131.02070    7.84990    8.04230
 7953.50000 3377.17430  -14.23480    9.60540   10.11950    9.62190   11.91590  127.75710   75.64550  126.68510    9.63700    7.93330
 7954.00000 3363.98410  -14.57670    9.56140    6.10880    8.27780    8.35460  128.65130   76.90120  126.97540    8.81930    7.61420
 7954.50000 3348.40530  -14.82910    9.75540    5.94500    7.21950    7.19020  131.78090   78.68890  128.80780    7.13680    7.06190
 7955.00000 3332.70630  -14.82910   10.02380    5.40430    6.74250    6.99750  134.68700   79.90450  131.91550    6.89770    6.64000
 7955.50000 3332.09520  -15.12630    9.92030    5.33160    6.16900    6.99470  135.13410   80.81160  134.37550    6.62180    6.46080
 7956.00000 3331.26590  -15.42350   10.11440    5.55540    6.04400    6.95280  133.34570   80.17680  134.92180    6.27040    6.64080
 7956.50000 3330.60910  -15.42350    9.96610    5.26100    6.04450    6.95450  131.07530   79.23350  134.28250    6.10230    6.79470
 7957.00000 3329.82540  -16.01780    9.90710    5.01630    6.00370    7.00350  128.57940   78.59860  132.72250    5.97930    6.82640
 7957.50000 3328.98540  -16.01780   10.44350    4.84860    5.96310    7.19900  125.96870   77.96380  130.54560    5.93920    6.82680
 7958.00000 3328.26540  -16.31500   10.02750    7.00950    5.88250    8.48350  123.06260   76.09530  126.82680    5.94010    5.79190
 7958.50000 3327.63770  -16.61220    9.79000    5.99240    5.76340    9.86120  119.48580   72.65150  120.94900    5.82040    5.40860
 7959.00000 3326.82500  -16.61220    9.70110    4.46940    5.64660    8.14620  118.36810   66.64300  115.68810    5.51150    5.40900
 7959.50000 3326.15140  -16.61220    9.71670    4.11850    5.64700    6.72910  119.70940   63.39660  112.25170    5.70390    5.67520
 7960.00000 3340.12350  -16.61220    9.62800    4.88530    5.64750    6.54880  121.27420   64.60760  109.09360    5.86270    5.87340
 7960.50000 3383.97950  -16.46720    9.91140    4.41070    5.88450    6.64030  121.49780   65.20640  108.54080    6.02580    5.95490
 7961.00000 3412.97730  -16.31500   10.03100    3.74500    5.72600    6.64170  121.49780   65.80970  110.06030    5.32940    6.12080
 7961.50000 3397.39870  -16.53240   10.56730    3.54640    5.20330    5.63850  122.19520   66.40390  111.58430    4.87710    5.63800
 7962.00000 3366.96040  -16.61220   10.06200    4.47310    4.99430    4.78650  123.73320   67.31110  113.41670    5.78630    4.91610
 7962.50000 3334.09640  -16.97440    9.69060    4.92210    7.03230    7.83010  123.06260   67.91060  115.24910    6.54440    6.83150
 7963.00000 3301.44900  -17.20650    9.94410    4.59810    7.63460    9.04000  119.26230   67.89180  114.61420    6.68070    7.11880
 7963.50000 3275.52730  -17.80090   10.56970    4.41420    7.74030    9.22940  116.57970   65.70490  112.43740    6.63610    7.62420
 7964.00000 3259.94780  -18.09810   10.83810    4.89060    7.90140    9.10530  114.34430   64.11330  109.64370    7.10660    7.89050
 7964.50000 3259.22800  -17.98270    9.55900   14.87250   14.93180   18.14270  108.08490   62.89860  105.44510   17.04280   13.19320
 7965.00000 3273.48660  -17.80090    9.02390   23.65500   34.88500   43.85250   99.59020   61.95530   99.73430   34.69030   39.49730
 7965.50000 3287.62570  -17.69320    8.90530   19.54460   37.10300   56.86060   98.24890   61.01210   97.55740   42.58780   56.40960
 7966.00000 3316.38280  -17.20650    8.90600   15.71330   24.11130   30.75130   98.28310   60.68560   96.92260   36.64890   31.07800
 7966.50000 3330.52170  -17.07400    8.92150   16.59700   21.31830   32.04350   99.14310   60.66760   96.90450   30.27140   29.62500
 7967.00000 3344.78030  -16.78670    8.86260   17.77120   21.02990   28.34090  100.48440   60.64950   97.50330   42.02740   29.22340
