~Version ---------------------------------------------------
VERS.   2.0 : CWLS log ASCII Standard -VERSION 2.0
WRAP.    NO : One line per depth step
DLM . SPACE : Column Data Section Delimiter
~Well ------------------------------------------------------
STRT .F                 5832.5 : START DEPTH
STOP .F                13039.0 : STOP DEPTH
STEP .F                    0.5 : STEP
NULL .                -9999.25 : NULL VALUE
COMP .                         : COMPANY
WELL .                         : WELL
FLD  .                         : FIELD
LOC  .                         : LOCATION
PROV .                         : PROVINCE
CNTY .                         : COUNTY
STAT .                         : STATE
CTRY .                         : COUNTRY
SRVC .                         : SERVICE COMPANY
DATE .                         : DATE
UWI  .                         : UNIQUE WELL ID
API  .                         : API NUMBER
SLAT .WGS84 5.9082427416359025 : SURFACE LATITUDE
SLON .WGS84 4.0611652289877895 : SURFACE LONGITUDE
DATUM.F                1804.45 : DEPTH DATUM ELEV
~Curve Information -----------------------------------------
DEPT.F     : 
TENR.LBS   : TENSION FROM RESISTIVITY
SPR .MV    : SPONTANEOUS POTENTIAL FROM RES.
HCAL.IN    : DIFFERENTIAL CALIPER
AT10.OHMM  : 10-IN. RESISTIVITY, 4-FT RESOLUTION
AT30.OHMM  : 30-IN. RESISTIVITY, 4-FT RESOLUTION
AT90.OHMM  : 90-IN. RESISTIVITY, 4-FT RESOLUTION
GRR .GAPI  : GAMMA RAY FROM RESISTIVITY
DTCO.US/F  : COMPRESSIONAL-WAVE INTERVAL TRANSIT TIME ACOUSTIC SLOWNESS
DTSM.US/F  : SHEAR-WAVE INTERVAL TRANSIT TIME DELTA-T
AT20.OHMM  : 
AT60.OHMM  : 
~Params ----------------------------------------------------
~Other -----------------------------------------------------
~ASCII -----------------------------------------------------
# ...
 13010.50000 4732.66600   22.68070    7.76790    6.09690    5.97970    6.29210   -9999.25   -9999.25   -9999.25    7.52750    5.98240
 13011.00000 4717.98680   22.36430    7.79820    5.81080    5.85810    7.04760   -9999.25   -9999.25   -9999.25    6.23850    5.90010
 13011.50000 4711.87450   22.66620    7.85850    5.81160    6.72110    6.66100   -9999.25   -9999.25   -9999.25    6.15350    5.74380
 13012.00000 4673.71040   22.96780    7.88870    5.89300    5.54570    5.70190   -9999.25   -9999.25   -9999.25    5.88650    6.02600
 13012.50000 4644.13040   23.26950    7.85900    5.89370    5.28570    5.46590   -9999.25   -9999.25   -9999.25    5.76360    5.28250
 13013.00000 4644.28080   23.57130    7.85940    6.11760    6.89130    8.84430   -9999.25   -9999.25   -9999.25    6.18740    7.74200
 13013.50000 4613.40280   23.67620    7.85970    5.74330    7.55880    9.49380   -9999.25   -9999.25   -9999.25    6.59530    9.44090
 13014.00000 4555.41600   23.55480    7.86000    5.83240    7.13510    9.10080   -9999.25   -9999.25   -9999.25    6.45790    8.99020
 13014.50000 4525.87840   23.54710    7.83020    6.08130    6.60910    8.35230   -9999.25   -9999.25   -9999.25    6.31770    8.49980
 13015.00000 4526.02200   23.22910    7.80060    5.83150    6.20310    7.68300   -9999.25   -9999.25   -9999.25    6.23560    7.64820
 13015.50000 4526.16600   22.91260    7.74090    5.71120    5.94670    6.71790   -9999.25   -9999.25   -9999.25    6.10600    6.83340
 13016.00000 4556.02780   22.59610    7.69360    5.59290    5.86400    6.21600   -9999.25   -9999.25   -9999.25    6.06370    6.37000
 13016.50000 4585.88960   22.27960    7.73340    5.75510    5.78280    5.95870   -9999.25   -9999.25   -9999.25    5.89580    6.02250
 13017.00000 4615.75100   21.96290    7.78680    5.59710    5.82500    6.14160   -9999.25   -9999.25   -9999.25    5.89680    5.73440
 13017.50000 4647.05420   21.95400    7.80210    5.75950    6.07820    6.81840   -9999.25   -9999.25   -9999.25    6.02440    6.33450
 13018.00000 4720.08740   21.94660    7.80240    6.24440    6.53680    7.31950   -9999.25   -9999.25   -9999.25    6.37620    6.61190
 13018.50000 4809.38430   21.93920    7.80270    6.73290    7.00310    7.37240   -9999.25   -9999.25   -9999.25    6.90290    7.30220
 13019.00000 4898.68160   21.93190    7.77300    6.87950    6.85720    6.96820   -9999.25   -9999.25   -9999.25    6.99280    7.00290
 13019.50000 4958.26070   22.23360    7.74330    6.54930    6.66760    6.72140   -9999.25   -9999.25   -9999.25    6.79920    6.76210
 13020.00000 4973.26370   22.53540    7.74370    6.50600    6.57490    6.74860   -9999.25   -9999.25   -9999.25    6.65720    6.76590
 13020.50000 4913.97220   22.83710   -9999.25    6.69470    6.76470    7.02980   -9999.25   -9999.25   -9999.25    6.89840    7.01740
 13021.00000 4854.68120   22.82790   -9999.25    7.08630    7.68320    7.89620   -9999.25   -9999.25   -9999.25    7.67190    7.81930
 13021.50000 4778.85740   22.51150   -9999.25    8.74550    8.57450    9.39740   -9999.25   -9999.25   -9999.25    8.96540    9.31350
 13022.00000 4706.41700   22.19470   -9999.25   10.53250   10.71220   11.61760   -9999.25   -9999.25   -9999.25   10.70160   10.96270
 13022.50000 4647.12550   21.87670   -9999.25   11.30720   11.99590   12.83150   -9999.25   -9999.25   -9999.25   11.86120   11.60570
 13023.00000 4617.51560   21.56020   -9999.25   12.57520   13.15180   13.67980   -9999.25   -9999.25   -9999.25   13.05080   13.00130
 13023.50000 4602.80030   21.55280   -9999.25   13.69220   14.21680   14.37930   -9999.25   -9999.25   -9999.25   14.00980   13.96000
 13024.00000 4632.69820   21.54550   -9999.25   13.12860   12.78980   12.48660   -9999.25   -9999.25   -9999.25   13.14800   13.67330
 13024.50000 4677.41890   21.22870   -9999.25   10.32930   10.87390   10.61540   -9999.25   -9999.25   -9999.25   10.63570   11.98800
 13025.00000 4692.42190   20.91070   -9999.25    9.03520    9.92160   10.03480   -9999.25   -9999.25   -9999.25    9.91100   10.38950
 13025.50000 4707.42970   20.90420   -9999.25    8.28020    9.56980    9.75830   -9999.25   -9999.25   -9999.25    9.63620   10.03210
 13026.00000 4707.60500   20.89600   -9999.25    7.52520    8.49700    8.59460   -9999.25   -9999.25   -9999.25    8.85350    9.22150
 13026.50000 4677.99510   20.57950   -9999.25    6.72340    7.43120    7.10280   -9999.25   -9999.25   -9999.25    7.53190    7.25480
 13027.00000 4648.45750   19.64450   -9999.25    6.44600    6.54510    7.41330   -9999.25   -9999.25   -9999.25    6.48790    7.18520
 13027.50000 4633.70650   19.01730   -9999.25    6.05160    7.02530    8.72620   -9999.25   -9999.25   -9999.25    6.44300    8.54330
 13028.00000 4618.99170   18.70080   -9999.25    5.84360    7.64800    8.91650   -9999.25   -9999.25   -9999.25    6.53590    8.98090
 13028.50000 4619.17190   18.07520   -9999.25    5.76360    7.75820    8.67070   -9999.25   -9999.25   -9999.25    7.06600    8.85870
 13029.00000 4634.17530   17.75880   -9999.25    5.76560    7.81810    8.43180   -9999.25   -9999.25   -9999.25    6.40110    8.73840
 13029.50000 4632.28660   17.75120   -9999.25    5.64710    8.09710    8.49460   -9999.25   -9999.25   -9999.25    6.82310    8.74330
 13030.00000 4604.78120   17.43310   -9999.25    5.45300    8.27190    8.67980   -9999.25   -9999.25   -9999.25    7.97340    8.93480
 13030.50000 4590.04490   17.42570   -9999.25   -9999.25   -9999.25    8.81010   -9999.25   -9999.25   -9999.25   -9999.25   -9999.25
 13031.00000 4560.49320   17.41840   -9999.25   -9999.25   -9999.25   -9999.25   -9999.25   -9999.25   -9999.25   -9999.25   -9999.25
 13031.50000 4590.35450   17.41100   -9999.25   -9999.25   -9999.25   -9999.25   -9999.25   -9999.25   -9999.25   -9999.25   -9999.25
 13032.00000 4620.21580   17.71280   -9999.25   -9999.25   -9999.25   -9999.25   -9999.25   -9999.25   -9999.25   -9999.25   -9999.25
 13032.50000 4635.21880   17.70360   -9999.25   -9999.25   -9999.25   -9999.25   -9999.25   -9999.25   -9999.25   -9999.25   -9999.25
 13033.00000 4650.22270   18.00720   -9999.25   -9999.25   -9999.25   -9999.25   -9999.25   -9999.25   -9999.25   -9999.25   -9999.25
 13033.50000 4665.23000   17.99800   -9999.25   -9999.25   -9999.25   -9999.25   -9999.25   -9999.25   -9999.25   -9999.25   -9999.25
 13034.00000 4680.23780   17.99060   -9999.25   -9999.25   -9999.25   -9999.25   -9999.25   -9999.25   -9999.25   -9999.25   -9999.25
 13034.50000 4695.26660   17.67390   -9999.25   -9999.25   -9999.25   -9999.25   -9999.25   -9999.25   -9999.25   -9999.25   -9999.25
 13035.00000 4695.41060   17.66490   -9999.25   -9999.25   -9999.25   -9999.25   -9999.25   -9999.25   -9999.25   -9999.25   -9999.25
 13035.50000 4710.41360   17.65760   -9999.25   -9999.25   -9999.25   -9999.25   -9999.25   -9999.25   -9999.25   -9999.25   -9999.25
 13036.00000 4710.54980   17.65020   -9999.25   -9999.25   -9999.25   -9999.25   -9999.25   -9999.25   -9999.25   -9999.25   -9999.25
 13036.50000 4710.69820   17.95210   -9999.25   -9999.25   -9999.25   -9999.25   -9999.25   -9999.25   -9999.25   -9999.25   -9999.25
 13037.00000 4695.98680   18.29440   -9999.25   -9999.25   -9999.25   -9999.25   -9999.25   -9999.25   -9999.25   -9999.25   -9999.25
 13037.50000 4681.27200   19.48100   -9999.25   -9999.25   -9999.25   -9999.25   -9999.25   -9999.25   -9999.25   -9999.25   -9999.25
 13038.00000 4651.69820   20.09370   -9999.25   -9999.25   -9999.25   -9999.25   -9999.25   -9999.25   -9999.25   -9999.25   -9999.25
 13038.50000   -9999.25   20.39550   -9999.25   -9999.25   -9999.25   -9999.25   -9999.25   -9999.25   -9999.25   -9999.25   -9999.25
 13039.00000   -9999.25   20.38630   -9999.25   -9999.25   -9999.25   -9999.25   -9999.25   -9999.25   -9999.25   -9999.25   -9999.25
