~Version ---------------------------------------------------
VERS.   2.0 : CWLS log ASCII Standard -VERSION 2.0
WRAP.    NO : One line per depth step
DLM . SPACE : Column Data Section Delimiter
~Well ------------------------------------------------------
STRT .F                 5832.5 : START DEPTH
STOP .F                13039.0 : STOP DEPTH
STEP .F                    0.5 : STEP
NULL .                -9999.25 : NULL VALUE
COMP .                         : COMPANY
WELL .                         : WELL
FLD  .                         : FIELD
LOC  .                         : LOCATION
PROV .                         : PROVINCE
CNTY .                         : COUNTY
STAT .                         : STATE
CTRY .                         : COUNTRY
SRVC .                         : SERVICE COMPANY
DATE .                         : DATE
UWI  .                         : UNIQUE WELL ID
API  .                         : API NUMBER
SLAT .WGS84 5.9082427416359025 : SURFACE LATITUDE
SLON .WGS84 4.0611652289877895 : SURFACE LONGITUDE
DATUM.F                1804.45 : DEPTH DATUM ELEV
~Curve Information -----------------------------------------
DEPT.F     : 
TENR.LBS   : TENSION FROM RESISTIVITY
SPR .MV    : SPONTANEOUS POTENTIAL FROM RES.
HCAL.IN    : DIFFERENTIAL CALIPER
AT10.OHMM  : 10-IN. RESISTIVITY, 4-FT RESOLUTION
AT30.OHMM  : 30-IN. RESISTIVITY, 4-FT RESOLUTION
AT90.OHMM  : 90-IN. RESISTIVITY, 4-FT RESOLUTION
GRR .GAPI  : GAMMA RAY FROM RESISTIVITY
DTCO.US/F  : COMPRESSIONAL-WAVE INTERVAL TRANSIT TIME ACOUSTIC SLOWNESS
DTSM.US/F  : SHEAR-WAVE INTERVAL TRANSIT TIME DELTA-T
AT20.OHMM  : 
AT60.OHMM  : 
~Params ----------------------------------------------------
~Other -----------------------------------------------------
~ASCII -----------------------------------------------------
# ...
 10670.50000 3971.76830  -13.66960    8.28300    8.10610    7.70410    7.40970  111.53280   70.58670  124.48100    7.84360    7.52430
 10671.00000 3956.90940  -14.23480    8.26880    7.46900    6.95050    6.68640  109.68270   71.18930  124.77780    7.07790    6.79170
 10671.50000 3956.90940  -14.84340    8.25450    7.16970    6.85570    7.16030  107.94100   71.47880  125.67100    7.12700    7.27170
 10672.00000 3956.90940  -14.85490    8.25540    7.47100    7.29250    7.40970  107.48890   71.76830  126.68310    7.42660    7.52430
 10672.50000 3956.90940  -14.26940    8.28610    7.27050    6.76220    6.68640  107.70950   72.36150  128.27880    7.22630    6.79170
 10673.00000 3971.76830  -13.98210    8.28690    6.81880    6.14270    6.28680  108.37570   72.96410  130.35400    6.69020    6.38690
 10673.50000 3986.62700  -13.99400    8.30260    6.79210    6.31370    6.15890  107.92360   73.56200  131.83130    6.43250    6.25740
 10674.00000 3971.76830  -14.00830    8.31830    7.07750    6.48940    6.46140  104.78500   73.84740  132.41170    6.70300    6.56370
 10674.50000 3971.40600  -14.01980    8.31910    7.27460    6.48940    6.59550  102.30890   73.82790  132.09520    7.03290    6.69960
 10675.00000 3942.05050  -14.02980    8.31730    7.68430    6.44510    6.46140  102.61310   73.50040  131.18090    7.32860    6.56370
 10675.50000 3942.05050  -14.04180    8.30550    7.95240    6.68210    6.64080  104.32310   72.86430  130.23740    7.63670    6.74550
 10676.00000 3942.05050  -13.75580    8.29120    8.28630    7.04650    7.01860  103.42330   71.91600  128.74980    8.06760    7.12820
 10676.50000 3942.05050  -13.76730    8.32210    8.10510    7.19310    6.87210  102.52340   71.28030  127.83550    8.12360    6.97980
 10677.00000 3956.90940  -14.07760    8.32290    7.48130    6.76220    6.46140  105.65340   71.57450  128.12130    7.08370    6.56370
 10677.50000 3971.76830  -14.09170    8.33860    7.08430    6.31370    6.15890  110.12670   71.86410  128.99630    6.52490    6.25740
 10678.00000 4001.48580  -14.10320    8.33930    6.43890    6.10070    6.20130  116.61490   72.15360  130.47360    6.30560    6.30020
 10678.50000 4051.45480  -14.11470    8.32510    6.26590    6.05630    6.24390  118.17770   73.05510  131.59690    6.26280    6.34340
 10679.00000 4268.94480  -14.12620    8.34100    6.44060    6.05900    6.11690  115.93350   73.34940  133.12770    6.39340    6.21480
 10679.50000 4298.66260  -14.13770    8.35670    6.53010    5.97640    5.95160  116.82470   74.25100  134.60500    6.52670    6.04730
 10680.00000 4209.50980  -13.85080    8.35740    6.62080    5.97640    5.87070  118.16360   74.54120  135.48430    6.57200    5.96530
 10680.50000 4120.35640  -13.52050    8.37320    6.35570    5.93550    5.87070  119.95030   74.83040  135.46680    6.38340    5.96530
 10681.00000 4060.92110  -13.27670    8.38890    6.53290    5.97640    5.99250  120.39480   75.11950  135.15040    6.22220    6.08870
 10681.50000 4060.92110  -13.29110    8.37460    6.53380    5.97640    6.07520  119.04610   74.79180  134.83400    6.48390    6.17250
 10682.00000 4090.63890  -13.60120    8.37540    6.76170    5.97640    6.11690  117.47460   74.77250  134.21820    6.30900    6.21480
 10682.50000 4105.49760  -13.61270    8.36130    6.99760    5.97640    6.11690  116.10140   74.74970  133.90140    6.39650    6.21480
 10683.00000 4060.92110  -13.92240    8.36200    7.09490    5.97640    6.11690  115.89880   74.73070  134.17920    6.71130    6.21480
 10683.50000 4016.34470  -14.23280    8.36270    6.90450    5.89490    6.11690  117.23660   74.71180  134.75960    6.31030    6.21480
 10684.00000 4001.48580  -14.24480    8.36340    6.06210    5.77480    5.94770  119.69500   74.69290  135.34000    5.76520    6.04330
 10684.50000 4001.48580  -13.96010    8.36420    6.19130    5.69610    5.50660  119.91560   74.67400  135.62580    5.65570    5.59630
 10685.00000 4001.48580  -13.97160    8.36490    6.54000    5.97640    5.83060  119.68630   74.34670  136.20180    6.22570    5.92470
 10685.50000 4016.34470  -14.28060    8.36560    7.09980    6.31370    6.28680  119.45810   74.01940  136.18430    6.66780    6.38690
 10686.00000 4031.20360  -14.29310    8.32150    7.49970    6.80880    6.59550  118.51490   73.69210  135.27000    7.09240    6.69960
 10686.50000 4046.06250  -14.60310    8.30700    7.85390    7.35010    6.91930  114.82720   73.05700  133.15980    7.75380    7.02760
 10687.00000 4060.92110  -14.61490    8.27770    9.59360    8.65750    7.61550  105.56340   72.42070  130.40840    8.83260    7.73270
 10687.50000 4046.06250  -14.33050    8.30860   10.13390    9.27260    8.49730   98.61880   71.78490  127.59220    9.85690    8.62550
 10688.00000 4046.06250  -14.34200    8.33940    9.08590    8.30830    8.97580   97.49500   71.45720  124.43330    8.74260    9.10980
 10688.50000 4060.92110  -14.05220    8.37010    8.60340    7.86440    8.09070   98.38620   71.07320  122.92100    7.97150    8.21380
 10689.00000 4060.92110  -13.76520    8.32580    8.84330    7.81060    7.72050   99.27740   70.48990  122.60460    7.86340    7.83900
 10689.50000 4060.92110  -14.07760    8.32660    8.78420    7.91850    7.61550  101.95960   70.47100  123.48390    8.02740    7.73270
 10690.00000 4031.20360  -14.08960    8.37250    8.14930    7.54710    7.40970  105.59510   70.14380  124.96120    7.86460    7.52430
 10690.50000 4031.20360  -13.80300    8.37320    7.39390    7.18640    7.16030  110.00960   70.43800  125.84050    7.44550    7.27170
 10691.00000 4016.34470  -13.81690    8.37400    7.77100    6.95050    7.20950  111.34850   71.03590  126.42090    7.39190    7.32160
 10691.50000 4001.48580  -13.82850    8.37470    7.93300    6.85570    7.25910  112.23970   71.32540  127.30030    7.44650    7.37170
 10692.00000 4016.34470  -13.74940    8.37540    7.71990    6.71600    7.20800  113.57870   71.61490  128.19850    7.39630    7.32000
 10692.50000 4031.20360  -13.55220    8.37610    7.31040    6.62440    6.81840  115.14150   71.59130  129.35800    7.05030    6.92540
 10693.00000 4031.20360  -13.56450    8.37690    7.72220    6.67010    6.50580  116.70430   71.88130  129.03720    7.34670    6.60870
 10693.50000 4031.20360  -13.57690    8.39280    8.26930    7.04650    6.82520  116.25220   72.17040  128.42180    7.86840    6.93230
 10694.00000 4016.34470  -13.40900    8.39350    8.56210    7.39660    7.25910  113.01950   72.15110  127.50740    7.97750    7.37170
 10694.50000 4001.48580  -13.60000    8.40930    8.61790    7.65140    7.61550  108.40660   72.13190  126.59300    8.03290    7.73270
 10695.00000 4001.48580  -13.91190    8.42500    8.61910    7.75720    7.77360  107.28400   71.49200  125.37970    8.08860    7.89280
 10695.50000 4001.48580  -13.92340    8.42570    8.50290    7.70410    7.77360  110.18900   71.16470  125.06330    8.14480    7.89280
 10696.00000 4016.34470  -13.93490    8.42640    8.62140    7.97310    7.93580  112.64740   70.83740  124.74680    8.25790    8.05700
 10696.50000 4031.20360  -13.94640    8.44220    8.86140    8.19500    8.26770  111.74750   70.81850  124.43030    8.37240    8.39310
 10697.00000 4016.34470  -13.95820    8.45810    8.86260    8.20270    8.09960  110.17600   71.11270  124.41260    8.14660    8.22290
 10697.50000 4001.48580  -13.97010    8.48890    8.62480    7.97310    7.88080  108.14940   71.40230  124.69430    7.87270    8.00130
 10698.00000 4001.48580  -13.98380    8.50460    8.15190    7.65140    7.77360  106.29570   71.68700  124.97570    7.66020    7.89280
 10698.50000 4001.48580  -13.99530    8.50530    7.84010    7.49550    7.46070  110.60970   71.98120  125.85070    7.66080    7.57590
 10699.00000 4016.34470  -14.30530    8.49090    7.68230    7.34270    7.61550  113.51580   72.26680  127.62700    7.71400    7.73270
 10699.50000 4031.20360  -14.61540    8.47670    6.88760    6.71600    6.96690  115.30360   72.55590  129.40320    7.05710    7.07580
 10700.00000 4031.20360  -14.92540    8.47750    6.56680    6.27050    6.46140  112.61160   73.46180  131.17940    6.45600    6.56370
