~Version ---------------------------------------------------
VERS.   2.0 : CWLS log ASCII Standard -VERSION 2.0
WRAP.    NO : One line per depth step
DLM . SPACE : Column Data Section Delimiter
~Well ------------------------------------------------------
STRT .F                 5832.5 : START DEPTH
STOP .F                13039.0 : STOP DEPTH
STEP .F                    0.5 : STEP
NULL .                -9999.25 : NULL VALUE
COMP .                         : COMPANY
WELL .                         : WELL
FLD  .                         : FIELD
LOC  .                         : LOCATION
PROV .                         : PROVINCE
CNTY .                         : COUNTY
STAT .                         : STATE
CTRY .                         : COUNTRY
SRVC .                         : SERVICE COMPANY
DATE .                         : DATE
UWI  .                         : UNIQUE WELL ID
API  .                         : API NUMBER
SLAT .WGS84 5.9082427416359025 : SURFACE LATITUDE
SLON .WGS84 4.0611652289877895 : SURFACE LONGITUDE
DATUM.F                1804.45 : DEPTH DATUM ELEV
~Curve Information -----------------------------------------
DEPT.F     : 
TENR.LBS   : TENSION FROM RESISTIVITY
SPR .MV    : SPONTANEOUS POTENTIAL FROM RES.
HCAL.IN    : DIFFERENTIAL CALIPER
AT10.OHMM  : 10-IN. RESISTIVITY, 4-FT RESOLUTION
AT30.OHMM  : 30-IN. RESISTIVITY, 4-FT RESOLUTION
AT90.OHMM  : 90-IN. RESISTIVITY, 4-FT RESOLUTION
GRR .GAPI  : GAMMA RAY FROM RESISTIVITY
DTCO.US/F  : COMPRESSIONAL-WAVE INTERVAL TRANSIT TIME ACOUSTIC SLOWNESS
DTSM.US/F  : SHEAR-WAVE INTERVAL TRANSIT TIME DELTA-T
AT20.OHMM  : 
AT60.OHMM  : 
~Params ----------------------------------------------------
~Other -----------------------------------------------------
~ASCII -----------------------------------------------------
# ...
 8974.00000 3541.42550  -24.03560    8.89550   15.83470   14.19350   13.88750  117.05620   71.78820  130.90470   13.85210   14.23810
 8974.50000 3556.01780  -24.21900    8.89640   15.94920   14.29330   14.38730  114.16110   71.46780  130.29520   13.94890   14.33920
 8975.00000 3555.70850  -24.32840    8.89730   15.97040   14.29230   14.18390  112.83680   71.14730  129.98460   13.94650   14.23810
 8975.50000 3555.42360  -24.32540    8.89820   15.84120   14.30270   14.18300  114.20920   70.82980  129.97290   13.94460   14.13760
 8976.00000 3555.12650  -24.32240    8.89880   15.50050   14.49370   14.18200  118.32580   72.04840  130.27210   13.95060   14.33920
 8976.50000 3554.77340  -24.31900    8.89860   13.75700   14.39050   14.17620  121.70460   72.65610  131.14540   13.84210   14.23810
 8977.00000 3554.48560  -24.01760    8.89850   13.28110   12.57980   13.52550  122.37110   72.64110  132.62560   12.98720   12.71330
 8977.50000 3554.19780  -24.01470    8.89830   13.85840   11.71990   11.54540  119.70060   72.93750  133.21480   11.76190   11.59550
 8978.00000 3568.79640  -24.01190    8.89820   14.66670   12.22720   11.96090  117.47910   72.92520  133.50210   12.18330   12.35830
 8978.50000 3568.48050  -24.00890    8.89800   15.63220   13.30950   13.20720  115.70670   72.60450  132.88960   13.16660   13.45410
 8979.00000 3568.19260  -24.00600    8.91300   16.08270   14.28420   14.07580  114.82650   71.66460  131.98110   14.02960   14.34580
 8979.50000 3567.90480  -24.00300    8.92790   15.63210   13.78370   13.87680  114.85660   71.34410  131.37150   14.03330   13.93890
 8980.00000 3552.74900  -23.99950    8.92770   13.95280   13.20090   13.39290  119.37160   71.33200  130.46300   13.43720   13.35920
 8980.50000 3537.54000  -23.99660    8.94260   13.38860   12.48490   12.82450  122.57200   71.93680  131.04920   12.52370   12.80360
 8981.00000 3507.53440  -23.99400    8.94250   13.48540   12.13580   12.12640  125.77690   71.92470  131.95810   12.00200   12.18460
 8981.50000 3522.17750  -23.99080    8.94230   14.07160   12.48320   12.47410  127.53360   71.91270  132.22180   12.08550   12.35830
 8982.00000 3536.74830  -23.98790    8.94210   15.87050   13.68470   14.27060  126.21040   71.59220  131.60930   13.34080   13.45410
 8982.50000 3551.31930  -24.07470    8.95710   16.91520   14.68680   14.68000  123.09070   71.27170  130.40180   14.51980   14.75110
 8983.00000 3565.82450  -24.28060    8.95690   16.56260   14.17540   14.16790  119.52190   70.64280  129.19430   14.31400   14.73680
 8983.50000 3580.98540  -23.97910    8.95680   15.87250   13.68180   13.77110  117.30050   70.32230  129.18270   13.91310   14.13760
 8984.00000 3594.96020  -23.97610    8.95660   15.20170   13.47740   13.29080  115.97110   70.00150  129.77180   13.14110   13.54970
 8984.50000 3579.74190  -23.97270    8.94140   14.38550   12.53980   12.63270  115.10250   71.22040  130.65410   12.24710   12.35830
 8985.00000 3579.49490  -23.67130    8.92620   13.59640   12.21500   12.11950  114.22880   71.82520  133.03410   12.07350   12.09860
 8985.50000 3564.30740  -23.66840    8.92600   13.21920   12.04250   11.78010  113.35470   73.04670  135.41400   11.90240   12.01330
 8986.00000 3564.01950  -23.96400    8.92590   12.14580   11.78890   10.81920  117.20210   73.96290  137.52590   11.01050   10.87970
 8986.50000 3578.66240  -23.96110    8.92580   11.00290   10.45240   10.29500  126.43270   74.87300  139.27420   10.40370   10.34900
 8987.00000 3593.16480  -23.65970    8.92560   11.32000   10.30480   10.29430  130.27410   75.16940  140.16240   10.32940   10.42730
 8987.50000 3592.86770  -23.65670    8.92540   11.56420   10.59980   10.36680  134.56460   75.15730  140.14780   10.54900   10.28070
 8988.00000 3592.51370  -23.65320    8.94030   11.40340   10.75010   10.66400  131.89410   74.83680  139.83720   10.47320   10.35370
 8988.50000 3592.22630  -23.65030    8.92510   12.32760   10.67360   10.98370  127.87620   74.82480  139.52660   11.19810   11.35180
 8989.00000 3577.07960  -23.64740    8.94010   12.77240   11.53650   11.44540  126.10330   74.19090  139.51490   11.80680   11.59550
 8989.50000 3576.79170  -23.34630    8.93990   11.73570   11.05620   11.04610  127.94060   73.56670  139.80270   11.72200   10.72680
 8990.00000 3561.64500  -23.34310    8.93970   11.09200   10.59600   10.58570  130.95990   73.55200  139.79050   10.69140   10.35370
 8990.50000 3561.35690  -23.34020    8.92450   11.01530   10.37280   10.21650  133.36760   73.85130  140.07780   10.24610   10.28070
 8991.00000 3561.06910  -23.34570    8.92440   11.17370   10.29900   10.21580  133.83470   74.76450  140.70430   10.24470   10.28070
 8991.50000 3560.77250  -23.63300    8.90920   11.08660   10.44500   10.28780  127.12820   75.36920  141.84820   10.31590   10.28070
 8992.00000 3560.42140  -23.30850    8.89400   10.71300   10.44430   10.28710  117.27200   75.35410  141.83370   10.31270   10.35370
 8992.50000 3560.13400  -23.02940    8.86370   10.56370   10.29680   10.14160  118.19430   75.34200  141.52310   10.16830   10.20810
 8993.00000 3559.84620  -23.02690    8.83340   11.25950   10.15150   10.35860  123.15840   75.02160  141.51140   10.16660   10.13610
 8993.50000 3559.55830  -23.02390    8.86340   11.58400   10.51610   10.65560  126.77530   74.70110  140.90180   10.45670   10.42730
 8994.00000 3559.27050  -23.02080    8.90840   11.83380   10.66540   10.65490  126.34120   74.68900  139.39540   10.60450   10.65600
 8994.50000 3558.98240  -23.01790    8.92340   11.91980   10.89320   10.73010  120.29220   74.67700  138.18790   10.75400   10.80300
 8995.00000 3574.03050  -23.01490    8.90810   12.09110   11.20500   10.95970  114.72770   74.66460  138.17630   10.98260   11.19220
 8995.50000 3605.36840  -23.01190    8.89290   11.83910   11.28400   11.12620  113.62290   74.96120  139.68070   11.13750   11.35180
 8996.00000 3647.20000  -23.00850    8.89270   10.87770   10.29170   10.42800  117.24580   75.87140  140.94830   10.51890    9.99360
 8996.50000 3646.91260  -23.00560    8.92280    9.85420    9.65620    9.63010  121.08720   76.16770  142.62560    9.71630    9.17970
 8997.00000 3642.52250  -23.30190    8.98280    9.84760    9.32000    9.17800  126.05130   76.15560  143.20900    9.26350    9.11490
 8997.50000 3616.61940  -23.59750    9.01280    9.92680    9.12370    9.11260  130.11730   76.14360  142.89830    9.13220    9.11490
 8998.00000 3586.61380  -23.59390    8.99760   10.08000    9.38470    9.44050  133.73420   76.13150  141.98980    9.06690    9.46090
 8998.50000 3556.60790  -23.59100    8.98240   10.65710   10.01670   10.06140  131.96180   75.81110  140.78230    9.72940   10.13610
 8999.00000 3556.31490  -23.88660    8.98220   10.81040   10.14290   10.06070  128.29230   75.79900  139.87390   10.22150   10.13610
 8999.50000 3555.96020  -24.18220    8.98210   10.58500   10.07060    9.98900  124.38120   75.17010  140.16140   10.14810   10.13610
 9000.00000 3552.41940  -24.12970    8.99700   10.73720   10.21340   10.05930  120.36330   74.84970  141.04640   10.07520   10.35370
 9000.50000 3548.03000  -23.50910    9.02230   11.04660   10.43170   10.35720  120.38730   74.52890  140.13750   10.22600   10.50140
 9001.00000 3543.64040  -22.97880    9.03730   11.52670   10.65470   10.79620  122.20780   74.51410  141.02300   10.58300   10.80300
 9001.50000 3539.95040  -23.27520    9.07040   12.12780   11.11590   11.42500  125.82460   74.50210  139.51370   11.04000   11.35180
 9002.00000 3569.38040  -22.97300    9.10010   12.44850   10.83720   11.08940  128.76780   74.49000  140.39890   11.35550   10.92720
 9002.50000 3613.66890  -22.97010    9.11440   10.95940   10.36540   10.63460  131.48650   75.09780  140.08830   10.73090   10.27330
 9003.00000 3615.05050  -23.26580    9.12900   10.05990    9.65150    9.74740  133.75600   76.31630  141.87030   10.13370    9.50230
 9003.50000 3613.02120  -22.96360    9.12830    9.36880    8.99230    8.96760  134.00520   76.92410  143.65240    9.50710    8.97780
 9004.00000 3612.73340  -22.96080    9.12770    9.11540    8.61470    8.71520  133.36100   77.22050  144.83660    8.91430    8.72600
