~Version ---------------------------------------------------
VERS.   2.0 : CWLS log ASCII Standard -VERSION 2.0
WRAP.    NO : One line per depth step
DLM . SPACE : Column Data Section Delimiter
~Well ------------------------------------------------------
STRT .F                 5832.5 : START DEPTH
STOP .F                13039.0 : STOP DEPTH
STEP .F                    0.5 : STEP
NULL .                -9999.25 : NULL VALUE
COMP .                         : COMPANY
WELL .                         : WELL
FLD  .                         : FIELD
LOC  .                         : LOCATION
PROV .                         : PROVINCE
CNTY .                         : COUNTY
STAT .                         : STATE
CTRY .                         : COUNTRY
SRVC .                         : SERVICE COMPANY
DATE .                         : DATE
UWI  .                         : UNIQUE WELL ID
API  .                         : API NUMBER
SLAT .WGS84 5.9082427416359025 : SURFACE LATITUDE
SLON .WGS84 4.0611652289877895 : SURFACE LONGITUDE
DATUM.F                1804.45 : DEPTH DATUM ELEV
~Curve Information -----------------------------------------
DEPT.F     : 
TENR.LBS   : TENSION FROM RESISTIVITY
SPR .MV    : SPONTANEOUS POTENTIAL FROM RES.
HCAL.IN    : DIFFERENTIAL CALIPER
AT10.OHMM  : 10-IN. RESISTIVITY, 4-FT RESOLUTION
AT30.OHMM  : 30-IN. RESISTIVITY, 4-FT RESOLUTION
AT90.OHMM  : 90-IN. RESISTIVITY, 4-FT RESOLUTION
GRR .GAPI  : GAMMA RAY FROM RESISTIVITY
DTCO.US/F  : COMPRESSIONAL-WAVE INTERVAL TRANSIT TIME ACOUSTIC SLOWNESS
DTSM.US/F  : SHEAR-WAVE INTERVAL TRANSIT TIME DELTA-T
AT20.OHMM  : 
AT60.OHMM  : 
~Params ----------------------------------------------------
~Other -----------------------------------------------------
~ASCII -----------------------------------------------------
# ...
 9309.50000 3547.23020  -22.53610    8.73520    7.82220    7.22530    7.47860  116.29830   74.62640  142.96860    7.36220    7.22570
 9310.00000 3561.66430  -22.38810    8.73490    8.21950    7.53470    7.71760  112.26460   74.59930  142.95960    7.57230    7.48660
 9310.50000 3577.03590  -22.42640    8.70450    8.69830    7.86140    8.10880  107.99240   74.26390  142.65010    7.89920    7.81200
 9311.00000 3605.37010  -22.68660    8.70420    9.14010    8.14440    8.34080  107.11200   73.92840  142.04340    8.18230    7.98020
 9311.50000 3619.79710  -22.68660    8.67380    9.14090    8.20230    8.33960  105.76950   73.28460  141.13780    8.29770    8.09460
 9312.00000 3634.22410  -22.68660    8.67340    9.01310    8.20230    8.33850  103.08110   72.94920  140.53120    8.29650    8.15270
 9312.50000 3633.68430  -22.68660    8.67320    8.95020    8.08700    8.39670  102.63430   72.61370  139.92450    8.29540    8.09570
 9313.00000 3633.25240  -22.68660    8.67290    8.64010    7.86140    8.30800  102.63700   72.89510  139.61900    8.17750    7.87030
 9313.50000 3632.82150  -22.68660    8.67260    8.16570    7.53040    7.97820  102.63920   73.16970  141.40180    7.78170    7.59710
 9314.00000 3625.14260  -22.68660    8.67230    7.93850    7.22160    7.38800  102.19240   73.45110  141.69210    7.40500    7.23030
 9314.50000 3602.22880  -22.38810    8.67190    7.77250    7.22160    7.23160  102.19520   73.73920  141.98230    7.24860    7.12900
 9315.00000 3593.48490  -22.38810    8.67160    7.71830    7.32450    7.54460  104.66370   74.32220  142.27250    7.45550    7.33440
 9315.50000 3571.55080  -22.38810    8.65630    7.66460    7.58820    7.43740  107.58070   74.29520  142.56270    7.61450    7.43950
 9316.00000 3571.11890  -22.08960    8.64090    7.55740    7.37650    7.22860  109.37670   74.58330  142.85290    7.29700    7.22410
 9316.50000 3555.82840  -22.38810    8.64070    7.34730    7.07000    7.02570  108.93040   74.85890  144.04000    7.08900    6.98140
 9317.00000 3570.36330  -22.68660    8.64040    7.14300    6.92150    6.92590  110.27840   75.13960  144.33020    6.89370    6.88370
 9317.50000 3569.82420  -22.68660    8.64000    7.09310    6.87270    6.87130  111.17750   75.42060  145.51510    6.84420    6.88420
 9318.00000 3569.39060  -22.60490    8.63970    7.14400    6.92150    6.87510  109.38590   75.70200  146.40320    6.84330    6.88460
 9318.50000 3568.94480  -22.52280    8.63940    7.24630    7.02010    6.97200  106.24910   75.98340  146.69360    6.93980    6.88510
 9319.00000 3568.49930  -22.44080    8.62410    7.35000    7.07000    7.07050  104.00910   75.64120  146.38570    7.08750    6.98380
 9319.50000 3567.98900  -22.38810    8.60870    7.40260    7.07000    7.12010  102.21760   75.61410  146.07770    7.18770    7.03390
 9320.00000 3567.60770  -22.38810    8.60840    7.40310    7.07000    7.06860  100.42610   75.27870  145.46920    7.13590    7.03450
 9320.50000 3567.16190  -22.68660    8.57800    7.40360    7.17070    7.11790   99.53140   74.94330  144.86260    7.18550    7.03490
 9321.00000 3566.69340  -22.68660    8.53250    7.83490    7.58820    7.42600   99.98210   73.99100  143.35910    7.54870    7.28890
 9321.50000 3566.26170  -22.68660    8.51710    8.96790    8.30090    8.24620  100.43270   72.73040  140.36080    8.39190    8.70080
 9322.00000 3565.82450  -22.68660    8.51690   11.00020   10.73190   10.50480  100.88380   71.15370  137.06360    9.52920   10.76030
 9322.50000 3565.29080  -22.38810    8.51660   12.49500   11.51860   11.84780  101.33390   70.16620  134.66320   11.36950   11.63250
 9323.00000 3564.85910  -22.38810    8.51620   12.58450   11.43740   11.67950  101.11190   69.25000  132.26290   11.94500   11.51130
 9323.50000 3579.39400  -22.38810    8.54600   12.32130   11.51860   11.43230  101.33830   68.60620  130.15660   11.77530   11.38960
 9324.00000 3578.85420  -22.38810    8.54580   12.32220   11.51860   11.51240  100.66780   68.27080  129.25560   11.69080   11.31010
 9324.50000 3578.42240  -22.38810    8.56050   12.32300   11.51860   11.52100  102.24010   68.24370  129.24490   11.68920   11.39140
 9325.00000 3592.84940  -22.68660    8.56020   11.98030   11.43740   11.26680  103.58750   68.21670  129.53730   11.42860   11.39220
 9325.50000 3592.41770  -22.68660    8.55990   11.72970   11.27670   11.10670  104.03820   68.50490  129.22750   11.12150   11.15350
 9326.00000 3591.97610  -22.68660    8.57470   11.81390   11.19720   11.02680  100.64130   68.78030  128.91980   11.04160   10.99730
 9326.50000 3591.53050  -22.68660    8.58940   11.81470   11.27670   11.18220   96.75290   68.75240  128.91100   11.11880   10.99820
 9327.00000 3591.01510  -22.68660    8.60430   11.89930   11.43740   11.34020   93.28290   68.72470  128.60340   11.27550   11.07840
 9327.50000 3590.58330  -22.68660    8.60390   12.50380   11.76560   11.66460   92.38770   68.69160  128.59460   11.51520   11.34040
 9328.00000 3590.15140  -22.68660    8.60360   13.61160   12.36290   12.16950   93.28730   68.35620  127.98800   12.09770   12.14680
 9328.50000 3574.88840  -22.68660    8.61830   13.90430   12.62810   12.51760   95.53170   68.32910  127.35710   12.62010   12.49660
 9329.00000 3589.30150  -22.68660    8.63310   13.80730   12.53760   12.69450   97.77600   67.99370  126.17460   12.61830   12.49740
 9329.50000 3588.85600  -22.68660    8.63280   13.90640   12.53910   12.60310   99.57190   67.34980  125.86690   12.61620   12.49830
 9330.00000 3588.40990  -22.68660    8.63250   14.00600   12.53910   12.69100  100.02200   67.32280  126.15930   12.70430   12.49920
 9330.50000 3602.85210  -22.38810    8.63220   14.10630   12.62810   12.77950   99.12790   67.29580  126.14840   12.97440   12.50000
 9331.00000 3617.27910  -22.38810    8.64930   13.90930   12.71770   12.86860   96.88790   67.57750  126.13970   13.15730   12.50660
 9331.50000 3616.73930  -22.08960    8.66180   12.96090   12.18920   12.24380   93.91570   67.85850  126.43210   12.69870   12.41380
 9332.00000 3616.30740  -22.08960    8.66140   12.33600   11.51860   11.40480   93.30480   67.83040  126.72050   11.91440   11.73100
 9332.50000 3615.87550  -22.08790    8.69120   12.25000   11.35680   11.32270   93.53180   68.11280  127.01050   11.66280   11.48530
 9333.00000 3615.45340  -21.79100    8.69100   12.69180   11.43930   11.48270   94.20660   68.38750  127.30050   11.66110   11.40490
 9333.50000 3615.00760  -21.79100    8.72080   12.78250   11.61300   11.56280   96.89940   68.36040  127.59080   11.74230   11.48690
 9334.00000 3599.68550  -21.79100    8.72040   12.25270   11.51860   11.39820   98.69530   68.33340  127.57980   11.57550   11.48770
 9334.50000 3584.32320  -21.79100    8.70510   12.08130   11.43740   11.23620   99.59440   68.30640  128.16900   11.41140   11.24700
 9335.00000 3583.89160  -21.79100    8.68980   11.99710   11.35680   11.15540  101.39030   67.97090  128.46140   11.40980   11.16850
 9335.50000 3583.45970  -21.79100    8.71960   11.99810   11.03990   11.07510  103.63460   67.94390  128.75160   11.24810   11.09040
 9336.00000 3583.02780  -21.79100    8.73430   11.82380   10.73190   10.76420  102.29150   67.91670  129.04180   10.77960   10.78170
 9336.50000 3582.59590  -22.08960    8.73400   11.10220   10.14140   10.24190  100.48730   67.88980  129.33210   10.47760   10.18870
 9337.00000 3597.02290  -22.08960    8.74880   10.41860    9.72000    9.95440   99.60530   68.78800  130.21800   10.17480    9.83490
 9337.50000 3611.45020  -22.52530    8.74850   10.12870    9.85850    9.95300  104.09230   69.37770  131.10610    9.82880    9.76620
 9338.00000 3625.76900  -22.68660    8.74820   10.49400   10.21340   10.23740  106.78510   69.96750  131.72620   10.03810   10.19080
 9338.50000 3655.05570  -22.68660    8.74790   11.02700   10.50650   10.45590  108.58100   69.31690  132.58340   10.39780   10.48430
 9339.00000 3669.59080  -22.68660    8.74700   11.34400   10.35890   10.38060  109.48010   69.28990  132.57250   10.32310   10.33760
 9339.50000 3669.05100  -22.74770    8.73220   11.26490   10.28590   10.23320  106.79170   69.26280  132.26480   10.24900   10.26540
