~Version ---------------------------------------------------
VERS.   2.0 : CWLS log ASCII Standard -VERSION 2.0
WRAP.    NO : One line per depth step
DLM . SPACE : Column Data Section Delimiter
~Well ------------------------------------------------------
STRT .F                 5832.5 : START DEPTH
STOP .F                13039.0 : STOP DEPTH
STEP .F                    0.5 : STEP
NULL .                -9999.25 : NULL VALUE
COMP .                         : COMPANY
WELL .                         : WELL
FLD  .                         : FIELD
LOC  .                         : LOCATION
PROV .                         : PROVINCE
CNTY .                         : COUNTY
STAT .                         : STATE
CTRY .                         : COUNTRY
SRVC .                         : SERVICE COMPANY
DATE .                         : DATE
UWI  .                         : UNIQUE WELL ID
API  .                         : API NUMBER
SLAT .WGS84 5.9082427416359025 : SURFACE LATITUDE
SLON .WGS84 4.0611652289877895 : SURFACE LONGITUDE
DATUM.F                1804.45 : DEPTH DATUM ELEV
~Curve Information -----------------------------------------
DEPT.F     : 
TENR.LBS   : TENSION FROM RESISTIVITY
SPR .MV    : SPONTANEOUS POTENTIAL FROM RES.
HCAL.IN    : DIFFERENTIAL CALIPER
AT10.OHMM  : 10-IN. RESISTIVITY, 4-FT RESOLUTION
AT30.OHMM  : 30-IN. RESISTIVITY, 4-FT RESOLUTION
AT90.OHMM  : 90-IN. RESISTIVITY, 4-FT RESOLUTION
GRR .GAPI  : GAMMA RAY FROM RESISTIVITY
DTCO.US/F  : COMPRESSIONAL-WAVE INTERVAL TRANSIT TIME ACOUSTIC SLOWNESS
DTSM.US/F  : SHEAR-WAVE INTERVAL TRANSIT TIME DELTA-T
AT20.OHMM  : 
AT60.OHMM  : 
~Params ----------------------------------------------------
~Other -----------------------------------------------------
~ASCII -----------------------------------------------------
# ...
 12680.50000 4536.40430   28.01060    7.99230   13.01200   11.88450   12.55450  112.29390   69.24850  120.38370   11.48040   12.73020
 12681.00000 4536.40430   28.01790    7.99220   14.52320   12.81930   14.49620  111.39920   69.22590  120.08290   12.46440   14.69330
 12681.50000 4536.40430   28.02690    7.96210   16.04590   14.11900   15.73770  114.55590   69.51710  120.08000   13.95930   15.94810
 12682.00000 4536.40430   28.03660    7.93190   15.61010   14.06450   13.91260  120.85930   69.80260  120.07710   15.10100   14.10340
 12682.50000 4531.91060   27.74630    7.88680   13.60240   12.82480   12.96360  125.37450   70.39630  122.45690   13.62580   13.14390
 12683.00000 4521.54540   27.45670    7.87170   12.01200   11.33490   11.96690  127.16940   70.98440  125.13460   12.12740   12.13600
 12683.50000 4521.54540   27.16710    7.87150   11.28340   11.25840   11.25160  125.37830   71.27560  127.21650   11.48040   11.41260
 12684.00000 4521.54540   26.87720    7.87130   11.21780   11.26030   11.25160  126.50920   71.55620  127.24230   11.40200   11.41260
 12684.50000 4521.54540   26.28890    7.87120   11.37330   11.33940   11.25160  128.09000   71.22470  126.61500   11.40200   11.41260
 12685.00000 4521.54540   26.00000    7.87100   12.18380   11.49780   11.32900  127.19700   71.20190  126.01640   11.48040   11.49080
 12685.50000 4536.40430   26.00990    7.87090   12.96250   11.57860   11.48520  122.70580   70.87060  125.71500   11.80670   11.64880
 12686.00000 4542.96140   26.01860    7.90080   13.23300   11.66030   11.56410  120.46350   71.15120  126.01060   12.55020   11.72860
 12686.50000 4551.26320   26.02720    8.00550   13.23300   11.50270   11.72360  122.71890   71.12860  126.60270   13.16690   11.88990
 12687.00000 4550.06490   25.89260    8.14090   12.85360   11.11590   11.09860  125.53310   71.10600  126.89830   13.07690   11.25780
 12687.50000 4534.23880   25.74610    8.23520   12.52400   10.81610   11.18110  128.13090   70.77520  126.59690   12.12740   11.34120
 12688.00000 4521.54540   25.75690    8.32000   13.14220   11.27260   11.09860  128.13750   70.75250  125.99830   11.71890   11.25780
 12688.50000 4506.68650   25.16860    8.31980   14.17600   11.50880   11.25160  127.24280   70.11360  124.80400   11.17000   11.41260
 12689.00000 4491.82760   25.17610    8.31960   15.61010   12.86470   12.55450  121.85370   69.47470  122.71620   11.16380   12.73020
 12689.50000 4491.82760   25.18510    8.31950   17.18940   15.53890   13.81770  116.46290   68.52750  119.73490   16.05210   14.00740
 12690.00000 4491.82760   24.89610    8.31930   18.92840   18.62170   14.39720  110.84730   66.96410  116.41760   21.27240   14.59330
 12690.50000 4521.54540   24.30750    8.31920   19.45680   19.94820   14.69610  107.03080   65.39820  113.87940   22.47110   14.89530
 12691.00000 4536.40430   23.42090    8.31900   20.84330   21.66490   15.10420  103.08740   64.42590  108.40750   25.94930   15.30780
 12691.50000 4551.26320   22.83260    8.31890   24.58760   25.72680   17.82450   94.90160   63.14300  105.72400   32.98310   18.05670
 12692.00000 4566.12210   22.24420    8.31870   23.59280   35.04870   25.41670   88.61120   62.55360  105.42330   37.56990   25.72270
 12692.50000 4566.12210   21.65810    8.31860   17.42770   16.13140   18.15280   90.64180   62.53100  106.90960   22.47110   18.38810
 12693.00000 4566.12210   21.66670    8.31840   11.69090    9.50720   10.57910  101.21800   63.43290  113.16130   15.95200   11.80900
 12693.50000 4566.12210   21.67540    8.30330   10.32840    7.84490    8.67370  111.11960   67.41640  122.09360    8.70910    7.47350
 12694.00000 4565.40330   21.68410    8.31820    7.93590    7.22290    7.51190  118.32260   74.48170  134.30220    7.55810    7.22070
 12694.50000 4551.26320   21.99130    8.36300    6.82620    6.70060    7.11150  123.95130   77.54070  141.14960    7.28790    6.97180
 12695.00000 4551.26320   22.30330    8.34590    6.64820    6.29980    6.64080  126.92870   77.51810  144.73980    7.00930    6.58740
 12695.50000 4551.26320   22.90450    8.25770    6.74040    5.68380    6.26620  129.58820   77.18730  147.47460    6.32460    6.29200
 12696.00000 4536.40430   22.91500    8.28750    7.12200    6.65740    6.68640  130.94410   76.85650  148.28910    6.36800    6.97640
 12696.50000 4521.54540   22.92240    8.31740    7.57710    7.03430    7.25910  131.17550   76.50830  146.79620    6.91390    7.37140
 12697.00000 4506.68650   22.93230    8.34720    7.89660    7.28110    7.40970  130.95560   75.88600  145.89980    7.40430    7.37140
 12697.50000 4506.68650   22.94100    8.25710    8.22960    7.33220    7.56350  130.28910   75.55040  145.89690    7.72020    7.37140
 12698.00000 4491.82760   22.94970    8.28700    8.54660    7.55080    7.61550  130.07050   75.52770  145.59610    8.26230    7.73520
 12698.50000 4491.82760   22.95830    8.33180    9.06220    7.91000    7.61550  130.07730   75.50510  144.40190    8.31910    8.00610
 12699.00000 4491.82760   22.96720    8.36160    9.37950    8.18750    7.50820  129.63400   75.17430  142.61190    8.37630    8.06140
 12699.50000 4491.82760   22.97780    8.25650    9.64140    8.41660    7.40970  129.19080   74.84360  139.92840    8.78790    8.00610
 12700.00000 4494.12400   23.30750    8.31640    9.84260    8.59300    7.77360  129.64880   74.51280  136.94710    9.09430    8.00610
 12700.50000 4508.29150   23.61570    8.42110    9.91050    8.95570    7.88080  130.55490   74.18200  134.50420    9.21980    7.89660
 12701.00000 4521.54540   23.92390    8.49590    9.77500    8.96040    7.88080  131.91070   74.15930  131.28160    9.15680    7.78870
 12701.50000 4551.26320   24.20250    8.52580    9.70800    8.83150    7.77360  133.08430   74.13670  129.49170    8.98330    8.00610
 12702.00000 4551.26320   24.50830    8.43570    9.64140    8.76170    7.46270  133.99670   74.06980  129.19160    8.79300    8.06140
 12702.50000 4551.26320   24.81400    8.40550    9.57520    8.58070    7.46320  133.10190   73.95710  130.67720    8.76660    8.11710
 12703.00000 4551.26320   24.82120    8.42040    9.64140    8.51970    7.46370  134.01640   73.84440  131.86570    8.73500    8.06140
 12703.50000 4551.26320   24.82840    8.39130    9.64140    8.51750    7.46430  135.83240   73.76710  132.16130    8.73640    8.06990
 12704.00000 4536.40430   24.20240    8.42130    9.70800    8.69250    7.51610  135.38940   73.44080  130.96630    8.73760    8.34370
 12704.50000 4655.27490   23.35030    8.46630    9.77500    8.81040    7.67260  132.23550   73.11460  129.47420    8.67900    8.69550
 12705.00000 4952.45170   23.65780    8.48130    9.70800    8.80800    7.72590  129.98530   72.78830  128.87560    8.67630    8.69550
 12705.50000 5130.75780   24.26200    8.48130    9.50960    8.67740    7.72640  128.42700   72.77020  128.89170    8.56320    8.57660
 12706.00000 5145.61670   25.46330    8.48130    9.25130    8.38950    7.72690  126.84020   73.07230  129.81090    8.44770    8.45940
 12706.50000 5101.04000   26.36600    8.48130    8.93830    8.27340    7.72740  124.14030   73.69740  131.84460    8.39110    8.22960
 12707.00000 5071.32230   26.67170    8.48130    8.57660    8.15790    7.67520  123.24330   74.56490  133.62870    8.22170    8.06140
 12707.50000 5026.74610   26.67910    8.48130    8.28650    8.04440    7.67580  124.38370   75.46680  136.00850    8.05550    7.83810
 12708.00000 4997.02830   26.68790    8.45130    8.06140    7.87830    7.62390  128.45880   75.76140  137.79270    8.00150    7.74120
 12708.50000 4967.31050   26.39480    8.42130    8.00000    7.87620    7.62440  130.72660   75.73880  138.68330    7.94800    7.74170
 12709.00000 4937.59280   26.40380    8.46630    8.48710    8.10430    7.73010  133.22030   75.72070  138.68040    8.28290    7.84870
 12709.50000 4907.87500   26.41110    8.51120    8.78990    8.66590    7.89110  132.32550   75.39440  137.78390    8.57280    8.01170
 12710.00000 4863.29880   26.41790    8.54120    8.60000    8.78400    8.00040  130.96430   75.06810  136.29180    8.45720    8.12240
