~Version ---------------------------------------------------
VERS.   2.0 : CWLS log ASCII Standard -VERSION 2.0
WRAP.    NO : One line per depth step
DLM . SPACE : Column Data Section Delimiter
~Well ------------------------------------------------------
STRT .F                  38.0 : START DEPTH
STOP .F                4498.0 : STOP DEPTH
STEP .F                   0.5 : STEP
NULL .               -9999.25 : NULL VALUE
COMP .                        : COMPANY
WELL .                        : WELL
FLD  .                        : FIELD
LOC  .                        : LOCATION
PROV .                        : PROVINCE
CNTY .                        : COUNTY
STAT .                        : STATE
CTRY .                        : COUNTRY
SRVC .                        : SERVICE COMPANY
DATE .                        : DATE
UWI  .                        : UNIQUE WELL ID
API  .                        : API NUMBER
SLAT .WGS84 1.044339074201499 : SURFACE LATITUDE
SLON .WGS84 6.369237990173005 : SURFACE LONGITUDE
DATUM.F                2698.0 : DEPTH DATUM ELEV
~Curve Information -----------------------------------------
DEPT   .F     : 
CALS   .IN    : CALIPER FROM SONIC LOG
DT     .US/F  : DELTA-T (INTERVAL TRANSIT TIME)
DTCO   .US/F  : DELTA-T COMPRESSIONAL
DTL    .US/F  : DELTA-T LONG SPACING
DTLF   .B     : DELTA-T LONG SPACING FAR
DTLN   .US/F  : DELTA-T LONG SPACING NEAR
DTSM   .US/F  : DELTA-T SHEAR
DPHI_LS.DEC   : DENSITY POROSITY LIMESTONE
DRHO   .G/C3  : BULK DENSITY CORRECTION
GRD    .GAPI  : GAMMA RAY FROM DENSITY LOG
NPHI_LS.DEC   : NEUTRON POROSITY LIMESTONE
PEF    .B/E   : PHOTOELECTRIC FACTOR
RHOB   .G/C3  : BULK DENSITY
~Params ----------------------------------------------------
~Other -----------------------------------------------------
~ASCII -----------------------------------------------------
# ...
 2872.00000    9.17540   -9999.25   51.51550   -9999.25   55.95650   56.78180   96.44710    0.05870    0.01510   18.48260    0.15010    2.79370    2.60220
 2872.50000    9.17570   -9999.25   52.71820   -9999.25   55.85880   56.78280   96.44260    0.05160    0.01830   17.53140    0.15260    2.76190    2.61120
 2873.00000    9.20600   -9999.25   53.31670   -9999.25   55.63790   56.65940   95.71000    0.04480    0.00730   16.81680    0.14500    2.76190    2.63160
 2873.50000    9.21320   -9999.25   53.34240   -9999.25   55.09320   56.17050   95.22510    0.04040    0.00570   16.33930    0.13870    2.85710    2.65900
 2874.00000    9.23660   -9999.25   52.70090   -9999.25   54.45790   55.33020   95.22050    0.02660    0.00720   16.96550    0.13240    2.95240    2.67350
 2874.50000    9.23690   -9999.25   53.02040   -9999.25   53.82260   54.70520   95.21530    0.01570    0.01190   17.74930    0.12800    3.04760    2.67460
 2875.00000    9.23720   -9999.25   53.29350   -9999.25   53.27790   54.34400   95.21090    0.02210    0.01350   18.21770    0.12550    3.11110    2.67320
 2875.50000    9.26760   -9999.25   52.60510   -9999.25   53.27570   54.16380   95.20660    0.02720    0.01350   18.21290    0.12800    3.17460    2.66990
 2876.00000    9.29790   -9999.25   52.67770   -9999.25   53.55280   54.16480   95.20220    0.02900    0.01190   18.20810    0.13430    3.20630    2.66560
 2876.50000    9.29820   -9999.25   52.67070   -9999.25   53.75050   54.34670   95.19790    0.02940    0.00870   17.73010    0.14000    3.23810    2.66080
 2877.00000    9.29850   -9999.25   52.20330   -9999.25   54.12450   54.61900   95.19340    0.02920    0.00710   17.72540    0.13940    3.26980    2.65930
 2877.50000    9.29880   -9999.25   52.05330   -9999.25   54.38450   54.80390   97.21320    0.02750    0.00870   17.08960    0.13750    3.30160    2.65930
 2878.00000    9.30030   -9999.25   52.04750   -9999.25   54.66160   55.07330   98.96670    0.02770    0.01180   16.45380    0.13690    3.39680    2.65930
 2878.50000    9.35950   -9999.25   52.04170   -9999.25   54.93880   55.18100   99.41010    0.02730    0.01490   15.34590    0.13480    3.49210    2.66000
 2879.00000    9.36640   -9999.25   52.03590   -9999.25   55.17400   55.25610   99.40480    0.02130    0.01490   14.86790    0.13400    3.55560    2.66170
 2879.50000    9.39010   -9999.25   52.33230   -9999.25   55.31190   55.25700   99.24470    0.00870    0.01330   14.86310    0.13270    2.88890    2.66440
 2880.00000    9.39040   -9999.25   52.32630   -9999.25   55.26270   55.25790   98.48860   -0.00610    0.01070   14.85840    0.13210    3.06870    2.66720
 2880.50000    9.39070   -9999.25   52.27300   -9999.25   54.80860   55.03500   97.27570   -0.01660    0.01540   14.85360    0.13180    3.21690    2.69130
 2881.00000    9.39100   -9999.25   52.01210   -9999.25   54.26390   54.51890   96.36510   -0.02330    0.01910   15.79520    0.13120    3.34390    2.71560
 2881.50000    9.39130   -9999.25   52.00600   -9999.25   53.99120   53.63180   96.96490   -0.01560    0.01640   16.73680    0.13150    3.44970    2.73100
 2882.00000    9.39160   -9999.25   52.00000   -9999.25   53.71840   53.45160   98.16910    0.00930    0.00960   17.20520    0.13210    3.57670    2.73540
 2882.50000    9.42190   -9999.25   51.99400   -9999.25   53.53620   53.63360   99.37320    0.01930    0.00700   16.72720    0.13240    3.64020    2.73070
 2883.00000    9.42220   -9999.25   51.98680   -9999.25   53.35410   53.81550   99.36860    0.01430    0.01060   16.24920    0.13100    3.62960    2.71110
 2883.50000    9.42250   -9999.25   51.98100   -9999.25   53.63220   53.72580   99.24650    0.00870    0.01690   16.24450    0.12760    3.49210    2.70750
 2884.00000    9.42640   -9999.25   51.67310   -9999.25   53.71490   53.72670   98.06650    0.00180    0.02050   16.23970    0.12610    3.29100    2.70350
 2884.50000    9.45320   -9999.25   50.76100   -9999.25   53.71390   53.72760   97.54230   -0.00580    0.02370   16.70810    0.12610    3.13230    2.70590
 2885.00000    9.45350   -9999.25   50.15100   -9999.25   53.71300   53.72850   97.67380   -0.00890    0.02520   16.70330    0.12550    3.07940    2.71380
 2885.50000    9.45380   -9999.25   49.23870   -9999.25   53.71210   54.05700   98.90330   -0.01140    0.02570   17.17170    0.12980    3.07940    2.72090
 2886.00000    9.45410   -9999.25   48.93050   -9999.25   53.83990   54.53020   99.03930   -0.01080    0.02570   17.16690    0.13710    3.15880    2.72370
 2886.50000    9.43730   -9999.25   48.85300   -9999.25   53.93590   54.84920   99.03410   -0.00200    0.02410   17.63530    0.14220    3.25400    2.71880
 2887.00000    9.42460   -9999.25   48.61630   -9999.25   54.17280   55.08960   99.02980    0.00930    0.01620   17.63060    0.14310    3.41270    2.70470
 2887.50000    9.42500   -9999.25   48.86230   -9999.25   54.61460   55.31680   99.32750    0.02180    0.00520   17.62580    0.14150    3.46030    2.68550
 2888.00000    9.39520   -9999.25   50.42120   -9999.25   54.88570   55.50530   99.32320    0.04180   -0.00650   18.09420    0.13790    3.39690    2.66040
 2888.50000    9.36550   -9999.25   53.12870   -9999.25   55.15670   55.72590   99.31870    0.05310   -0.00260   17.77480    0.13480    3.26990    2.63020
 2889.00000    9.33520   -9999.25   54.33140   -9999.25   55.33710   55.90780   99.31420    0.05460    0.00920   17.61220    0.13300    3.14280    2.61380
 2889.50000    9.30270   -9999.25   53.72140   -9999.25   55.51750   56.18020   99.30970    0.04560    0.00990   17.60750    0.13240    3.07940    2.61380
 2890.00000    9.27030   -9999.25   52.80930   -9999.25   55.60720   56.36210   98.70090    0.04060    0.00360   17.12950    0.13670    3.12170    2.61780
 2890.50000    9.24650   -9999.25   52.19930   -9999.25   55.69700   56.36290   97.97590    0.03800   -0.00160   16.65150    0.14540    3.17460    2.62740
 2891.00000    9.27690   -9999.25   51.58910   -9999.25   55.31490   56.18280   97.03930    0.03800   -0.00220   16.64680    0.15340    3.24870    2.63960
 2891.50000    9.30720   -9999.25   51.96780   -9999.25   54.93900   56.09320   96.40480    0.04180    0.00090   16.32660    0.15960    3.24860    2.64840
 2892.00000    9.30750   -9999.25   52.78620   -9999.25   54.69730   56.09410   96.56800    0.05750    0.00770   16.16400    0.16140    3.15340    2.63890
 2892.50000    9.30790   -9999.25   53.08250   -9999.25   54.72430   56.09500   96.86560    0.06940    0.01400   15.68600    0.16200    3.04760    2.62500
 2893.00000    9.30810   -9999.25   53.19840   -9999.25   54.91090   56.09590   97.46480    0.06500    0.02020   15.68130    0.16200    3.04760    2.60650
 2893.50000    9.30840   -9999.25   53.67370   -9999.25   55.17810   56.18730   98.06470    0.05680    0.02440   15.67690    0.15890    3.16400    2.59740
 2894.00000    9.30870   -9999.25   54.57280   -9999.25   55.60240   56.31980   98.06040    0.04810    0.02700   16.38190    0.15260    3.24870    2.60290
 2894.50000    9.30900   -9999.25   55.47340   -9999.25   55.97640   56.55110   98.03650    0.04010    0.02700   17.08690    0.14630    3.21690    2.61980
 2895.00000    9.27930   -9999.25   56.07180   -9999.25   56.50440   56.37120   97.70380    0.03290    0.02700   18.26510    0.14440    3.10050    2.63580
 2895.50000    9.27960   -9999.25   56.06610   -9999.25   56.52910   56.01010   97.44260    0.02860    0.02690   19.44330    0.14440    3.04760    2.64480
 2896.00000    9.27990   -9999.25   55.75820   -9999.25   55.86820   55.10600   97.13600    0.02550    0.02690   19.43850    0.14440    3.04760    2.65190
 2896.50000    9.28020   -9999.25   55.45010   -9999.25   55.23290   54.38290   96.82930    0.02360    0.02690   19.19710    0.14440    3.26980    2.65770
 2897.00000    9.25050   -9999.25   55.14200   -9999.25   54.96010   54.02180   96.67680    0.02080    0.02690   18.95570    0.14380    3.36510    2.66340
 2897.50000    9.25080   -9999.25   55.13590   -9999.25   54.68730   54.02260   96.21600    0.01660    0.02840   19.18750    0.14440    3.17460    2.67030
