~Version ---------------------------------------------------
VERS.   2.0 : CWLS log ASCII Standard -VERSION 2.0
WRAP.    NO : One line per depth step
DLM . SPACE : Column Data Section Delimiter
~Well ------------------------------------------------------
STRT .F                  38.0 : START DEPTH
STOP .F                4498.0 : STOP DEPTH
STEP .F                   0.5 : STEP
NULL .               -9999.25 : NULL VALUE
COMP .                        : COMPANY
WELL .                        : WELL
FLD  .                        : FIELD
LOC  .                        : LOCATION
PROV .                        : PROVINCE
CNTY .                        : COUNTY
STAT .                        : STATE
CTRY .                        : COUNTRY
SRVC .                        : SERVICE COMPANY
DATE .                        : DATE
UWI  .                        : UNIQUE WELL ID
API  .                        : API NUMBER
SLAT .WGS84 1.044339074201499 : SURFACE LATITUDE
SLON .WGS84 6.369237990173005 : SURFACE LONGITUDE
DATUM.F                2698.0 : DEPTH DATUM ELEV
~Curve Information -----------------------------------------
DEPT   .F     : 
CALS   .IN    : CALIPER FROM SONIC LOG
DT     .US/F  : DELTA-T (INTERVAL TRANSIT TIME)
DTCO   .US/F  : DELTA-T COMPRESSIONAL
DTL    .US/F  : DELTA-T LONG SPACING
DTLF   .B     : DELTA-T LONG SPACING FAR
DTLN   .US/F  : DELTA-T LONG SPACING NEAR
DTSM   .US/F  : DELTA-T SHEAR
DPHI_LS.DEC   : DENSITY POROSITY LIMESTONE
DRHO   .G/C3  : BULK DENSITY CORRECTION
GRD    .GAPI  : GAMMA RAY FROM DENSITY LOG
NPHI_LS.DEC   : NEUTRON POROSITY LIMESTONE
PEF    .B/E   : PHOTOELECTRIC FACTOR
RHOB   .G/C3  : BULK DENSITY
~Params ----------------------------------------------------
~Other -----------------------------------------------------
~ASCII -----------------------------------------------------
# ...
 4354.00000    9.07450   50.38970   49.48020   50.44110   60.10640   40.39560   92.91810    0.00190    0.00550   23.62160    0.16550    3.22090    2.69300
 4354.50000    9.04470   50.41890   49.47580   50.59620   53.59650   44.58470   92.59520    0.00420    0.00540   23.77460    0.16670    3.53820    2.68820
 4355.00000    9.04510   50.47970   49.13860   50.55590   47.57060   52.40760   91.97380    0.01130    0.00700   23.61220    0.16860    3.88730    2.67570
 4355.50000    9.04540   50.38840   48.86250   50.36670   44.18590   54.20670   91.69470    0.02330    0.00700   23.13430    0.17110    3.95060    2.66300
 4356.00000    9.04570   50.24740   48.85800   50.23060   43.20490   57.05860   91.69790    0.03400    0.00690   21.86770    0.17740    3.66480    2.65530
 4356.50000    9.07600   50.02430   49.65670   50.22980   43.27790   59.84110   92.08980    0.02980    0.01000   20.60110    0.18500    3.56940    2.65540
 4357.00000    9.10630   50.02380   50.36040   50.41020   46.81590   59.36650   93.02120    0.02370    0.01160   19.80780    0.18940    3.85490    2.66300
 4357.50000    9.11260   50.38650   49.60460   50.68120   54.38340   42.98640   94.38570    0.02180    0.01160   19.80310    0.19000    3.91820    2.66670
 4358.00000    9.14530   50.74910   48.97290   50.77100   58.46020   40.27150   95.48430    0.02730    0.01310   19.79840    0.19190    3.79110    2.66440
 4358.50000    9.16730   50.93030   48.83460   50.77010   60.27110   43.71040   94.73410    0.02880    0.01310   20.10910    0.19440    3.50520    2.65850
 4359.00000    9.18080   50.56670   48.83020   50.76500   60.45080   50.40720   94.43510    0.02670    0.01310   20.57760    0.20010    3.31460    2.65370
 4359.50000    9.19790   50.47550   49.12840   50.57600   59.72380   58.19920   94.13600    0.02250    0.01150   21.20380    0.20510    3.56840    2.65530
 4360.00000    9.19830   50.47500   49.42600   50.49550   49.38970   58.46150   94.13930    0.02060    0.00990   22.14460    0.20830    3.82220    2.66150
 4360.50000    9.16850   50.58410   50.02560   50.58530   41.37120   55.49140   94.44430    0.02060    0.00830   23.08630    0.21080    3.85380    2.66910
 4361.00000    9.16880   50.74650   50.02110   50.82970   40.68530   50.31120   94.44720    0.01970    0.00830   23.08160    0.21020    3.82190    2.67500
 4361.50000    9.16910   50.83680   50.01660   50.98490   42.48690   43.00190   94.14800    0.01650    0.00670   22.13050    0.20390    3.75820    2.67720
 4362.00000    9.16940   50.79750   50.01210   50.98980   43.03830   42.55590   94.15110    0.01720    0.00660   21.65260    0.19950    3.59940    2.67410
 4362.50000    9.16970   50.69970   50.38510   50.80060   41.60980   45.61860   93.80190    0.02060    0.01130   21.17470    0.20010    3.40870    2.67070
 4363.00000    9.17000   50.60190   51.00800   50.67120   40.22480   48.86880   93.17800    0.02290    0.01130   20.22360    0.20320    3.24980    2.66850
 4363.50000    9.17030   50.56260   51.20780   50.67030   43.53460   51.49320   92.55470    0.02140    0.00970   19.27250    0.20510    3.24970    2.67530
 4364.00000    9.17060   50.47130   50.91200   50.66940   51.73140   50.58820   92.34990    0.00870    0.00660   19.26780    0.20380    3.34480    2.69400
 4364.50000    9.17090   50.56170   50.12360   50.57790   50.55140   49.86430   92.35350   -0.01000    0.00340   19.26310    0.20010    3.50330    2.71260
 4365.00000    9.17120   50.56120   49.37990   50.57700   50.00580   49.14030   92.49780   -0.02870    0.00180   19.25840    0.19630    3.75710    2.73130
 4365.50000    9.18590   50.56080   49.37550   50.39100   40.12490   46.19700   92.35950   -0.04140    0.00020   19.72680    0.19250    4.01100    2.75250
 4366.00000    9.20180   50.56040   49.37110   50.21270   40.66700   40.33120   92.06090   -0.04990    0.00020   21.14170    0.18490    4.16950    2.76130
 4366.50000    9.20220   50.55220   49.36680   50.21180   71.02780   40.09050   91.76170   -0.05350    0.00020   22.08330    0.16410    4.23290    2.77460
 4367.00000    9.20240   50.46870   49.36240   50.21090   60.80860   40.09050   91.46250   -0.04370    0.00330   22.07860    0.13760    4.13750    2.78690
 4367.50000    9.20270   50.35620   49.96710   50.21000   50.32340   40.09050   91.16310   -0.04670    0.00480   22.54710    0.11810    4.04210    2.79330
 4368.00000    9.20300   50.16770   50.26000   50.17050   40.60540   40.09050   90.56200   -0.04970    0.00640   22.06920    0.10620    4.20060    2.79330
 4368.50000    9.20330   49.94440   49.85020   50.02690   40.38630   40.09050   90.56500   -0.04240    0.00630   21.11810    0.10560    4.32750    2.79330
 4369.00000    9.20360   49.79030   49.19510   50.02600   41.59490   40.09050   90.56800   -0.00350    0.00630   20.64020    0.10750    3.78760    2.79070
 4369.50000    9.20390   49.83100   48.73560   49.29990   58.05100   41.08600   90.93190    0.03460    0.00470   19.21590    0.11000    3.66050    2.73560
 4370.00000    9.20420   50.19360   48.73110   49.75220   66.30210   45.88240   91.56070    0.05260    0.00470   17.79160    0.11450    3.56510    2.63340
 4370.50000    9.23450   50.82850   48.72660   50.47640   56.72470   51.13120   91.88820    0.06590    0.00310   17.31370    0.12350    3.50140    2.59540
 4371.00000    9.23480   51.37270   49.19150   51.29120   53.97190   55.83710   92.51750    0.07600    0.00310   17.30900    0.13880    3.40600    2.58680
 4371.50000    9.23510   52.00770   49.92520   52.01540   57.41430   56.56110   93.14680    0.07470   -0.00010   18.25070    0.16080    3.27890    2.57980
 4372.00000    9.23540   52.64260   50.52500   52.38440   56.14360   54.47960   93.77660    0.04890   -0.00010   19.19230    0.17690    3.53270    2.58410
 4372.50000    9.20570   53.18680   51.12490   52.85060   53.69480   54.75110   95.12140    0.02100   -0.00010   19.18760    0.18590    4.16750    2.60460
 4373.00000    9.20610   53.46570   51.42270   53.20840   50.43020   54.63730   96.63490    0.00390    0.00140   17.76330    0.19310    4.76610    2.64020
 4373.50000    9.20630   53.73060   51.41830   53.48640   44.52840   53.75040   98.14840   -0.00490    0.00300   16.81230    0.17940    4.66170    2.67950
 4374.00000    9.20660   53.83790   51.10810   53.64240   40.00000   48.36000   98.75550   -0.00310    0.00450   15.38800    0.16770    4.00830    2.70490
 4374.50000    9.20690   53.91130   50.50300   53.51240   40.00000   41.98910   98.45620    0.03770    0.00610   15.38330    0.16410    3.72240    2.69530
 4375.00000    9.20720   53.91070   50.19640   53.41380   40.11390   49.21460   98.45920    0.06680    0.00450   15.37850    0.16820    3.59520    2.66010
 4375.50000    9.20750   53.91030   50.19180   53.36770   45.12550   62.89590   98.16000    0.06830    0.00440   15.84700    0.17720    3.53160    2.62650
 4376.00000    9.20780   53.81910   50.47660   53.36660   55.39370   78.28050   98.20770    0.06900    0.00290   16.78870    0.19360    3.46790    2.59690
 4376.50000    9.20810   53.81860   52.65720   53.63760   78.69550   73.39370   99.57310    0.07090    0.00130   17.25710    0.22370    3.40430    2.59370
 4377.00000    9.20840   53.81810   53.05630   53.90870   71.15250   64.52490  101.36770    0.07400    0.00120   19.14520    0.24000    3.30890    2.59140
 4377.50000    9.20870   53.99920   52.28850   54.17970   55.67040   53.39370  102.09970    0.07650   -0.00040   19.61360    0.24160    3.24520    2.59060
 4378.00000    9.20900   54.63410   51.98110   54.54140   47.60220   46.69680  101.97000    0.07780    0.00120   20.55530    0.22990    3.21330    2.58920
 4378.50000    9.20930   55.08760   52.88300   54.72840   56.48260   47.18630  101.64830    0.07460    0.00120   21.02380    0.22510    3.18140    2.57650
 4379.00000    9.17960   55.08710   53.18130   54.90220   64.54730   49.31140  101.50450    0.06330    0.00270   19.59950    0.22690    3.21300    2.57650
 4379.50000    9.17990   54.90510   53.78070   54.86670   78.77520   55.22100  101.20590    0.05630    0.00270   18.64840    0.24180    3.37160    2.57560
