~Version ---------------------------------------------------
VERS.   2.0 : CWLS log ASCII Standard -VERSION 2.0
WRAP.    NO : One line per depth step
DLM . SPACE : Column Data Section Delimiter
~Well ------------------------------------------------------
STRT .F                  38.0 : START DEPTH
STOP .F                4498.0 : STOP DEPTH
STEP .F                   0.5 : STEP
NULL .               -9999.25 : NULL VALUE
COMP .                        : COMPANY
WELL .                        : WELL
FLD  .                        : FIELD
LOC  .                        : LOCATION
PROV .                        : PROVINCE
CNTY .                        : COUNTY
STAT .                        : STATE
CTRY .                        : COUNTRY
SRVC .                        : SERVICE COMPANY
DATE .                        : DATE
UWI  .                        : UNIQUE WELL ID
API  .                        : API NUMBER
SLAT .WGS84 1.044339074201499 : SURFACE LATITUDE
SLON .WGS84 6.369237990173005 : SURFACE LONGITUDE
DATUM.F                2698.0 : DEPTH DATUM ELEV
~Curve Information -----------------------------------------
DEPT   .F     : 
CALS   .IN    : CALIPER FROM SONIC LOG
DT     .US/F  : DELTA-T (INTERVAL TRANSIT TIME)
DTCO   .US/F  : DELTA-T COMPRESSIONAL
DTL    .US/F  : DELTA-T LONG SPACING
DTLF   .B     : DELTA-T LONG SPACING FAR
DTLN   .US/F  : DELTA-T LONG SPACING NEAR
DTSM   .US/F  : DELTA-T SHEAR
DPHI_LS.DEC   : DENSITY POROSITY LIMESTONE
DRHO   .G/C3  : BULK DENSITY CORRECTION
GRD    .GAPI  : GAMMA RAY FROM DENSITY LOG
NPHI_LS.DEC   : NEUTRON POROSITY LIMESTONE
PEF    .B/E   : PHOTOELECTRIC FACTOR
RHOB   .G/C3  : BULK DENSITY
~Params ----------------------------------------------------
~Other -----------------------------------------------------
~ASCII -----------------------------------------------------
# ...
 4120.00000    8.90990   -9999.25   46.74700   -9999.25   47.90320   48.07240   88.33840   -0.01030    0.01750   20.72560    0.10880    3.19780    2.71610
 4120.50000    8.94040   -9999.25   45.55240   -9999.25   47.90150   48.25390   88.33840   -0.01790    0.01640   20.72320    0.11320    3.10290    2.71790
 4121.00000    8.94080   -9999.25   45.31120   -9999.25   48.18330   48.43540   88.33840   -0.02480    0.01330   20.72090    0.11890    3.18790    2.72050
 4121.50000    8.94130   -9999.25   45.08590   -9999.25   48.54430   48.52630   88.33840   -0.02420    0.01010   20.71850    0.12010    3.42100    2.72310
 4122.00000    8.94170   -9999.25   44.26400   -9999.25   48.62130   48.52670   88.33840   -0.01720    0.01010   20.71610    0.12010    3.61190    2.72470
 4122.50000    8.94220   -9999.25   43.79150   -9999.25   48.59150   48.43670   88.64050   -0.00440    0.01320   20.71370    0.12000    3.58040    2.72470
 4123.00000    8.94260   -9999.25   44.39220   -9999.25   48.36430   48.43710   88.64050   -0.00440    0.01480   20.71130    0.11720    3.49610    2.72310
 4123.50000    8.94310   -9999.25   45.29610   -9999.25   48.11860   48.43760   88.64050   -0.00500    0.01790   20.70890    0.11360    3.36940    2.72050
 4124.00000    8.95680   -9999.25   44.08420   -9999.25   47.97950   48.43800   88.64050   -0.00630    0.01940   20.70660    0.11190    3.31680    2.71840
 4124.50000    8.97400   -9999.25   44.68560   -9999.25   47.97730   48.52900   88.64050   -0.00760    0.02090   20.54650    0.11240    3.41240    2.71840
 4125.00000    8.97450   -9999.25   46.49530   -9999.25   48.15690   48.52940   88.59030   -0.00760    0.01940   20.22860    0.11800    3.58200    2.71720
 4125.50000    8.97500   -9999.25   46.49240   -9999.25   48.33640   48.52990   88.33840   -0.00760    0.01460   20.38390    0.12090    3.65640    2.71970
 4126.00000    8.97540   -9999.25   45.28110   -9999.25   48.51590   48.53040   88.33840   -0.00690    0.00990   20.69700    0.12210    3.66730    2.72570
 4126.50000    8.97590   -9999.25   45.92810   -9999.25   48.42230   48.44030   88.33840   -0.00570    0.00670   20.22150    0.12010    3.64640    2.73520
 4127.00000    9.00630   -9999.25   46.18160   -9999.25   48.11220   48.44080   88.33840   -0.00440    0.00360   20.21950    0.11290    3.58330    2.74790
 4127.50000    9.00680   -9999.25   45.87610   -9999.25   47.12000   48.44120   88.33840   -0.00320    0.00360   20.69030    0.10940    3.52010    2.75920
 4128.00000    9.02240   -9999.25   45.87310   -9999.25   46.51480   48.71310   88.33840   -0.00250    0.00670   20.68790    0.10810    3.44640    2.76390
 4128.50000    9.03770   -9999.25   45.87010   -9999.25   46.73730   48.98510   88.03630   -0.00510    0.00980   21.15870    0.10690    3.35140    2.76100
 4129.00000    9.03810   -9999.25   45.70280   -9999.25   47.83960   48.97440   87.73410   -0.01260    0.01290   22.57590    0.10750    3.17720    2.75080
 4129.50000    9.03860   -9999.25   44.95720   -9999.25   48.64330   48.87630   87.43200   -0.02210    0.01440   24.46620    0.11440    2.95530    2.73800
 4130.00000    9.03900   -9999.25   44.65210   -9999.25   48.59180   48.34430   87.43200   -0.02960    0.01440   25.88340    0.11510    2.82850    2.72940
 4130.50000    9.03950   -9999.25   44.64920   -9999.25   48.49950   47.52380   87.43500   -0.03470    0.01280   26.82740    0.11440    3.03520    2.72790
 4131.00000    9.03990   -9999.25   44.64630   -9999.25   48.49770   47.26360   87.73410   -0.03030    0.00970   26.35180    0.11190    3.24190    2.73670
 4131.50000    9.04040   -9999.25   44.64340   -9999.25   48.49600   47.92510   87.73410   -0.02020    0.00490   22.56390    0.10940    3.44850    2.74540
 4132.00000    9.01080   -9999.25   43.73410   -9999.25   48.22230   48.44530   87.73410   -0.00820    0.00020   20.66880    0.11000    3.60760    2.74990
 4132.50000    9.01130   -9999.25   43.75870   -9999.25   47.45440   48.62680   87.63850   -0.00480    0.00020   22.55920    0.11250    3.40160    2.74760
 4133.00000    9.01180   -9999.25   44.13310   -9999.25   46.95000   48.62720   87.31320   -0.00940    0.00170   23.50320    0.11560    3.21140    2.73720
 4133.50000    9.01220   -9999.25   44.93390   -9999.25   47.65110   48.62760   87.12990   -0.01720    0.00640   23.97400    0.11750    3.19590    2.72690
 4134.00000    9.01260   -9999.25   44.93050   -9999.25   48.39980   48.53760   87.12990   -0.02310    0.00950   23.02520    0.11560    3.25970    2.72370
 4134.50000    9.01310   -9999.25   44.38020   -9999.25   49.53350   48.53800   87.12990   -0.02620    0.01110   22.54960    0.11370    3.40290    2.72920
 4135.00000    9.01350   -9999.25   43.87230   -9999.25   49.97730   48.53850   87.12990   -0.02470    0.01100   21.60090    0.11210    3.55660    2.73820
 4135.50000    9.04400   -9999.25   43.71300   -9999.25   49.75010   48.62940   87.12990   -0.01290    0.00950   21.12530    0.11220    3.83210    2.74360
 4136.00000    9.04440   -9999.25   44.01160   -9999.25   49.11390   48.75300   87.43200   -0.00970    0.00790   21.59610    0.11380    3.91700    2.74050
 4136.50000    9.04490   -9999.25   46.72770   -9999.25   48.74970   48.90180   87.73410   -0.01740    0.00780   22.06690    0.11630    3.53640    2.74050
 4137.00000    9.05450   -9999.25   48.23540   -9999.25   49.56360   48.99280   87.73410   -0.02260    0.00630   23.01090    0.12040    3.38860    2.73660
 4137.50000    9.07580   -9999.25   48.23240   -9999.25   49.47130   48.99330   87.73410   -0.01500    0.00620   23.95490    0.12540    3.65350    2.72800
 4138.00000    9.07630   -9999.25   47.92740   -9999.25   49.27970   48.99370   87.73410   -0.01270    0.00460   24.42570    0.13030    3.85480    2.71800
 4138.50000    9.07670   -9999.25   45.47820   -9999.25   49.09300   48.90370   88.03630   -0.02150    0.00460   24.42330    0.13350    3.61170    2.71220
 4139.00000    9.10730   -9999.25   44.59820   -9999.25   48.30500   48.81360   88.03630   -0.02210    0.00620   24.42090    0.13450    3.24170    2.71850
 4139.50000    9.10770   -9999.25   44.70910   -9999.25   44.93280   48.81400   88.03630   -0.01350    0.00720   24.41850    0.13300    3.19970    2.73710
 4140.00000    9.07810   -9999.25   45.19680   -9999.25   42.82790   48.81450   88.03630   -0.00680    0.00870   24.41660    0.12870    3.26350    2.74990
 4140.50000    9.04850   -9999.25   44.48490   -9999.25   42.12110   48.80090   88.03630   -0.00230    0.01030   24.41420    0.12580    3.33790    2.75030
 4141.00000    9.04900   -9999.25   44.28400   -9999.25   44.45080   48.49990   88.03630   -0.00140    0.01080   24.41180    0.12500    3.43340    2.73780
 4141.50000    9.04940   -9999.25   44.73450   -9999.25   48.36890   48.09240   88.03630   -0.00870    0.01230   23.62070    0.12690    3.49720    2.71620
 4142.00000    9.04990   -9999.25   45.53470   -9999.25   48.91100   47.14050   88.03630   -0.01640    0.01230   23.46070    0.13170    3.53990    2.69970
 4142.50000    9.05030   -9999.25   45.18080   -9999.25   49.09060   46.64480   88.03630   -0.02270    0.01230   23.45830    0.13770    3.37090    2.69860
 4143.00000    9.05080   -9999.25   44.57360   -9999.25   48.90750   47.27880   88.33840   -0.02940    0.01220   23.77140    0.13950    3.13840    2.70390
 4143.50000    9.05120   -9999.25   45.47710   -9999.25   48.52320   48.09370   88.33840   -0.02380    0.01220   25.03080    0.13660    3.07520    2.71460
 4144.00000    9.05170   -9999.25   45.77640   -9999.25   44.35700   48.63720   88.64050   -0.00890    0.01220   26.29020    0.13440    3.26600    2.72540
 4144.50000    9.05210   -9999.25   45.16910   -9999.25   42.10470   48.66270   88.68780    0.00390    0.01220   25.65690    0.13450    3.45680    2.72800
 4145.00000    9.05260   -9999.25   45.48360   -9999.25   49.75760   48.63800   88.94260    0.00810    0.00640   24.55040    0.13650    3.45710    2.72020
 4145.50000    9.05300   -9999.25   47.09200   -9999.25   53.06800   48.63850   89.24470    0.00160    0.00480   24.39030    0.13990    3.45740    2.71240
