~Version ---------------------------------------------------
VERS.   2.0 : CWLS log ASCII Standard -VERSION 2.0
WRAP.    NO : One line per depth step
DLM . SPACE : Column Data Section Delimiter
~Well ------------------------------------------------------
STRT .F                  38.0 : START DEPTH
STOP .F                4498.0 : STOP DEPTH
STEP .F                   0.5 : STEP
NULL .               -9999.25 : NULL VALUE
COMP .                        : COMPANY
WELL .                        : WELL
FLD  .                        : FIELD
LOC  .                        : LOCATION
PROV .                        : PROVINCE
CNTY .                        : COUNTY
STAT .                        : STATE
CTRY .                        : COUNTRY
SRVC .                        : SERVICE COMPANY
DATE .                        : DATE
UWI  .                        : UNIQUE WELL ID
API  .                        : API NUMBER
SLAT .WGS84 1.044339074201499 : SURFACE LATITUDE
SLON .WGS84 6.369237990173005 : SURFACE LONGITUDE
DATUM.F                2698.0 : DEPTH DATUM ELEV
~Curve Information -----------------------------------------
DEPT   .F     : 
CALS   .IN    : CALIPER FROM SONIC LOG
DT     .US/F  : DELTA-T (INTERVAL TRANSIT TIME)
DTCO   .US/F  : DELTA-T COMPRESSIONAL
DTL    .US/F  : DELTA-T LONG SPACING
DTLF   .B     : DELTA-T LONG SPACING FAR
DTLN   .US/F  : DELTA-T LONG SPACING NEAR
DTSM   .US/F  : DELTA-T SHEAR
DPHI_LS.DEC   : DENSITY POROSITY LIMESTONE
DRHO   .G/C3  : BULK DENSITY CORRECTION
GRD    .GAPI  : GAMMA RAY FROM DENSITY LOG
NPHI_LS.DEC   : NEUTRON POROSITY LIMESTONE
PEF    .B/E   : PHOTOELECTRIC FACTOR
RHOB   .G/C3  : BULK DENSITY
~Params ----------------------------------------------------
~Other -----------------------------------------------------
~ASCII -----------------------------------------------------
# ...
 3236.00000    9.17300   -9999.25   46.83980   -9999.25   48.70090   49.16560   90.42900   -0.06310    0.02000   19.53310    0.06290    3.67550    2.78730
 3236.50000    9.17310   -9999.25   46.83830   -9999.25   48.70090   49.16470   90.12150   -0.05470    0.01630   19.52840    0.05660    3.62770    2.79900
 3237.00000    9.20330   -9999.25   46.83690   -9999.25   48.70090   49.17890   89.81510   -0.04910    0.01430   18.89270    0.05280    3.61140    2.81600
 3237.50000    9.23350   -9999.25   46.83530   -9999.25   48.70090   49.36650   89.50860   -0.05470    0.01530   17.94160    0.05030    3.62700    2.82240
 3238.00000    9.22880   -9999.25   46.83380   -9999.25   48.33780   49.46370   88.90000   -0.05730    0.01850   16.99050    0.04970    3.62670    2.81890
 3238.50000    9.19670   -9999.25   46.83230   -9999.25   44.07550   49.68900   88.89570   -0.05630    0.01900   16.19720    0.05220    3.61050    2.80950
 3239.00000    9.16450   -9999.25   46.83080   -9999.25   41.79310   49.92940   88.89120   -0.05070    0.01690   16.82340    0.05790    3.51500    2.79920
 3239.50000    9.14400   -9999.25   46.82930   -9999.25   41.31620   49.97380   88.88670   -0.03370    0.01060   17.60720    0.06420    3.37170    2.79140
 3240.00000    9.11410   -9999.25   46.52570   -9999.25   42.35650   49.97270   88.88220   -0.02280    0.00430   18.70670    0.07110    3.37140    2.78300
 3240.50000    9.11430   -9999.25   46.36010   -9999.25   50.60420   49.97180   88.87760   -0.02120    0.00170   20.12150    0.08490    3.38170    2.77000
 3241.00000    9.11440   -9999.25   46.22030   -9999.25   50.62630   50.24250   88.87310   -0.02000    0.00590   18.53910    0.08930    3.27550    2.75120
 3241.50000    9.11460   -9999.25   46.21880   -9999.25   50.42300   50.51310   88.86860   -0.01850    0.01060   16.95730    0.09000    3.10590    2.73870
 3242.00000    9.11470   -9999.25   45.91520   -9999.25   50.15110   50.69320   89.02330   -0.01600    0.01270   16.79500    0.09000    3.19020    2.73590
 3242.50000    9.11490   -9999.25   45.61170   -9999.25   46.79760   50.69990   90.06710   -0.01320    0.01160   17.57890    0.09120    3.38040    2.73580
 3243.00000    9.14510   -9999.25   45.61020   -9999.25   45.40640   50.88750   91.57330   -0.00820    0.01010   17.57410    0.09370    3.51770    2.73440
 3243.50000    9.14520   -9999.25   46.51860   -9999.25   44.25650   51.09780   93.07960   -0.00110    0.01060   17.56940    0.09940    3.50670    2.73320
 3244.00000    9.14530   -9999.25   49.37800   -9999.25   42.99090   51.38340   94.88790    0.01720    0.01480   17.56470    0.11070    3.36890    2.72450
 3244.50000    9.11550   -9999.25   52.79140   -9999.25   43.86690   51.79740   96.39410    0.03360    0.01580   16.45580    0.12150    3.19920    2.71210
 3245.00000    9.11560   -9999.25   53.76150   -9999.25   50.45500   52.36200   98.51510    0.04580    0.01220   15.66240    0.12590    3.16720    2.69830
 3245.50000    9.11580   -9999.25   53.36390   -9999.25   53.81140   53.26580   99.73830    0.05430    0.00640   15.81550    0.13030    3.20920    2.67630
 3246.00000    9.11590   -9999.25   53.03730   -9999.25   54.05560   54.48670  100.36250    0.05980    0.00750   16.28400    0.13590    3.20890    2.63750
 3246.50000    9.11610   -9999.25   52.40830   -9999.25   55.04530   55.66230  100.90840    0.05860    0.00960   17.06780    0.14790    3.17680    2.61700
 3247.00000    9.11620   -9999.25   51.77960   -9999.25   56.22360   56.20450  101.30920    0.05190    0.00960   17.06310    0.15610    3.12360    2.60730
 3247.50000    9.08630   -9999.25   52.24290   -9999.25   55.95170   56.02260  101.93350    0.04840    0.00690   16.42740    0.15920    3.20790    2.60870
 3248.00000    9.05650   -9999.25   53.14780   -9999.25   55.04530   55.93120  102.10270    0.04630    0.00220   16.10720    0.16110    3.42980    2.62070
 3248.50000    9.05660   -9999.25   54.05270   -9999.25   55.49850   56.02840  101.79520    0.03540   -0.00090   16.10250    0.16300    3.56710    2.62760
 3249.00000    9.02670   -9999.25   54.05120   -9999.25   56.40570   56.29150  101.48870    0.01600   -0.00090   16.09780    0.15920    3.61970    2.63240
 3249.50000    9.02690   -9999.25   53.14350   -9999.25   56.50350   56.38110  101.18220   -0.01590    0.00440   16.09300    0.14720    3.61940    2.64780
 3250.00000    9.02700   -9999.25   51.02720   -9999.25   56.43510   56.22930  100.57370   -0.05990    0.00380   16.24610    0.12580    3.61910    2.68610
 3250.50000    9.05720   -9999.25   49.81720   -9999.25   55.41180   55.85120   99.36080   -0.06840   -0.00090   16.08360    0.09430    3.61870    2.73850
 3251.00000    9.05740   -9999.25   49.51360   -9999.25   53.93360   54.56830   94.22050   -0.07450   -0.00400   15.92110    0.07040    3.61840    2.77890
 3251.50000    9.05750   -9999.25   49.21000   -9999.25   52.27050   52.68240   89.58970   -0.07750   -0.00450   15.44310    0.04710    3.63930    2.81120
 3252.00000    9.05770   -9999.25   48.51160   -9999.25   51.02100   50.58450   87.81890   -0.07920   -0.00030   15.12300    0.03510    3.73420    2.82240
 3252.50000    9.05780   -9999.25   47.99850   -9999.25   49.92740   49.22610   87.48740   -0.07780    0.00280   15.11830    0.03010    3.69150    2.83200
 3253.00000    9.05800   -9999.25   47.99700   -9999.25   48.70090   48.68230   87.25380   -0.07510    0.00750   15.27140    0.02630    3.62770    2.83690
 3253.50000    9.05810   -9999.25   47.67100   -9999.25   47.97580   47.95740   87.24920   -0.06640    0.01220   15.73980    0.02440    3.54270    2.83610
 3254.00000    9.05830   -9999.25   46.48310   -9999.25   47.70390   47.77560   87.69390   -0.03100    0.01790   16.68150    0.02310    3.46830    2.82820
 3254.50000    9.05840   -9999.25   46.48160   -9999.25   47.79460   47.88020   89.43810    0.00910    0.02000   17.46530    0.02500    3.40450    2.80490
 3255.00000    9.05860   -9999.25   46.48020   -9999.25   48.06650   48.69380   93.88140    0.02680    0.02210   17.46060    0.03070    3.36190    2.77850
 3255.50000    9.05870   -9999.25   46.78080   -9999.25   49.17720   50.78150   97.50240    0.02470    0.02210   17.61360    0.04960    3.30870    2.73990
 3256.00000    9.05890   -9999.25   47.38360   -9999.25   50.80100   52.35720   99.61290    0.02420    0.02050   17.76650    0.07540    3.24480    2.70060
 3256.50000    9.05900   -9999.25   50.40330   -9999.25   52.50060   53.86460  101.11910    0.03060    0.01790   17.44640    0.12580    3.21280    2.67260
 3257.00000    9.05920   -9999.25   54.80810   -9999.25   53.69520   55.46240  102.32320    0.05390    0.01320   17.44160    0.15600    3.11720    2.63850
 3257.50000    9.05930   -9999.25   60.33960   -9999.25   55.38390   56.81880  103.24290    0.07920    0.00850   17.43690    0.16110    3.08520    2.62010
 3258.00000    9.02940   -9999.25   62.48360   -9999.25   57.27680   57.72290  103.82510    0.08030    0.00910   17.43220    0.16550    3.20130    2.59880
 3258.50000    9.02960   -9999.25   62.08810   -9999.25   59.21340   58.80800  104.18930    0.06300    0.01380   17.42740    0.17180    3.24330    2.58150
 3259.00000    9.02970   -9999.25   61.34420   -9999.25   60.86320   60.07410  104.81370    0.05950    0.01690   18.05370    0.18060    3.02080    2.57530
 3259.50000    9.02990   -9999.25   60.66620   -9999.25   62.11480   61.24970  105.74020    0.07250    0.01900   19.46850    0.18810    2.93580    2.58610
 3260.00000    9.03000   -9999.25   61.12790   -9999.25   61.84290   61.88240  106.50540    0.07970    0.01530   20.56810    0.19440    3.08360    2.61810
 3260.50000    9.00020   -9999.25   61.87130   -9999.25   60.75530   61.49680  107.29100    0.08290    0.00950   21.35180    0.19880    3.18910    2.60670
 3261.00000    9.00030   -9999.25   62.47430   -9999.25   60.75530   61.05100  108.02640    0.08770    0.00330   21.82030    0.20260    3.14650    2.59120
 3261.50000    9.00050   -9999.25   63.37900   -9999.25   61.29910   61.08770  108.02200    0.10250    0.00020   21.81530    0.20580    3.00860    2.57320
