~Version ---------------------------------------------------
VERS.   2.0 : CWLS log ASCII Standard -VERSION 2.0
WRAP.    NO : One line per depth step
DLM . SPACE : Column Data Section Delimiter
~Well ------------------------------------------------------
STRT .F                  38.0 : START DEPTH
STOP .F                4498.0 : STOP DEPTH
STEP .F                   0.5 : STEP
NULL .               -9999.25 : NULL VALUE
COMP .                        : COMPANY
WELL .                        : WELL
FLD  .                        : FIELD
LOC  .                        : LOCATION
PROV .                        : PROVINCE
CNTY .                        : COUNTY
STAT .                        : STATE
CTRY .                        : COUNTRY
SRVC .                        : SERVICE COMPANY
DATE .                        : DATE
UWI  .                        : UNIQUE WELL ID
API  .                        : API NUMBER
SLAT .WGS84 1.044339074201499 : SURFACE LATITUDE
SLON .WGS84 6.369237990173005 : SURFACE LONGITUDE
DATUM.F                2698.0 : DEPTH DATUM ELEV
~Curve Information -----------------------------------------
DEPT   .F     : 
CALS   .IN    : CALIPER FROM SONIC LOG
DT     .US/F  : DELTA-T (INTERVAL TRANSIT TIME)
DTCO   .US/F  : DELTA-T COMPRESSIONAL
DTL    .US/F  : DELTA-T LONG SPACING
DTLF   .B     : DELTA-T LONG SPACING FAR
DTLN   .US/F  : DELTA-T LONG SPACING NEAR
DTSM   .US/F  : DELTA-T SHEAR
DPHI_LS.DEC   : DENSITY POROSITY LIMESTONE
DRHO   .G/C3  : BULK DENSITY CORRECTION
GRD    .GAPI  : GAMMA RAY FROM DENSITY LOG
NPHI_LS.DEC   : NEUTRON POROSITY LIMESTONE
PEF    .B/E   : PHOTOELECTRIC FACTOR
RHOB   .G/C3  : BULK DENSITY
~Params ----------------------------------------------------
~Other -----------------------------------------------------
~ASCII -----------------------------------------------------
# ...
 3496.00000    9.04200   -9999.25   48.77340   -9999.25   48.88220   49.33600   87.77040   -0.05760    0.01270   16.05040    0.05310    3.33460    2.82730
 3496.50000    9.04200   -9999.25   48.75370   -9999.25   48.79150   49.08390   87.84480   -0.06290    0.01270   16.68610    0.04870    3.42970    2.82060
 3497.00000    9.07210   -9999.25   48.46830   -9999.25   48.61030   48.83720   87.15670   -0.06910    0.01110   17.00620    0.04550    3.58830    2.81080
 3497.50000    9.07210   -9999.25   48.09420   -9999.25   48.42900   48.50520   86.54810   -0.07340    0.01110   16.69530    0.04240    3.49290    2.80260
 3498.00000    9.07210   -9999.25   47.66780   -9999.25   48.06650   48.15170   85.33530   -0.06890    0.00960   15.75370    0.03980    3.23870    2.78740
 3498.50000    9.07210   -9999.25   46.83030   -9999.25   47.88520   48.15000   85.33080   -0.06410    0.00850   14.96990    0.03670    3.07980    2.77670
 3499.00000    9.06970   -9999.25   46.19830   -9999.25   47.89910   48.14830   86.02900   -0.06790    0.00690   14.81710    0.03800    3.01620    2.77440
 3499.50000    9.04200   -9999.25   45.43960   -9999.25   48.06650   48.23700   87.28460   -0.06550    0.00640   15.76820    0.03980    2.98430    2.77320
 3500.00000    9.07210   -9999.25   44.83340   -9999.25   48.15700   48.41630   88.33760   -0.05800    0.00540   16.24610    0.04240    3.42860    2.77970
 3500.50000    9.07270   -9999.25   44.83040   -9999.25   48.33740   48.50680   88.03110   -0.05440    0.00330   17.67040    0.04550    3.71410    2.79220
 3501.00000    9.04320   -9999.25   44.82750   -9999.25   48.78970   48.77830   88.02670   -0.05130    0.00220   19.25260    0.04800    3.84100    2.80270
 3501.50000    9.04380   -9999.25   44.82460   -9999.25   48.97010   48.77830   88.02230   -0.04430    0.00170   21.15010    0.04990    3.77780    2.81040
 3502.00000    9.04440   -9999.25   44.82170   -9999.25   48.96440   48.86880   88.01800   -0.03890    0.00070   21.78550    0.05120    3.58730    2.81760
 3502.50000    9.04500   -9999.25   45.12580   -9999.25   48.59520   48.86880   88.01360   -0.04350    0.00170   20.68610    0.05060    3.42860    2.82180
 3503.00000    9.04560   -9999.25   45.72220   -9999.25   48.40480   48.84730   87.70690   -0.04960    0.00700   19.90230    0.04610    3.30160    2.81720
 3503.50000    9.04620   -9999.25   44.76870   -9999.25   48.33200   48.50740   87.66930   -0.05590    0.01480   20.22270    0.04240    3.20630    2.80600
 3504.00000    9.04680   -9999.25   44.50760   -9999.25   48.33110   48.23530   87.34340   -0.06360    0.02000   22.27800    0.03800    3.11110    2.79300
 3504.50000    9.04740   -9999.25   44.50450   -9999.25   48.33020   48.23530   86.71540   -0.06720    0.02210   24.17550    0.03560    3.23810    2.78180
 3505.00000    9.04820   -9999.25   44.50150   -9999.25   48.08470   48.14480   85.87610   -0.06470    0.02470   26.07300    0.03480    3.26980    2.77160
 3505.50000    9.04870   -9999.25   46.84560   -9999.25   47.42190   47.60180   86.28350   -0.06390    0.02520   27.81260    0.03610    3.20630    2.76900
 3506.00000    9.04930   -9999.25   48.88030   -9999.25   47.05850   46.96830   86.90240   -0.06070    0.02680   29.71010    0.03860    2.98410    2.76750
 3506.50000    9.04990   -9999.25   47.95000   -9999.25   47.32950   47.14930   87.07100   -0.05350    0.02680   30.97660    0.04050    2.92060    2.76550
 3507.00000    9.08050   -9999.25   47.20790   -9999.25   47.87250   47.23980   87.06650   -0.04460    0.02680   31.04850    0.04560    2.98410    2.76250
 3507.50000    9.08110   -9999.25   47.20500   -9999.25   47.59380   47.23980   86.45690   -0.03750    0.02680   30.56380    0.05560    3.07940    2.75820
 3508.00000    9.08170   -9999.25   47.20210   -9999.25   45.69420   47.23980   85.54610   -0.04000    0.01660   29.14190    0.07080    3.20630    2.74970
 3508.50000    9.08230   -9999.25   47.19910   -9999.25   40.00000   47.26530   85.23960   -0.04260    0.00650   27.72000    0.08270    3.30160    2.72560
 3509.00000    9.08290   -9999.25   47.19620   -9999.25   40.15230   47.36450   85.23520   -0.03710   -0.00140   27.24440    0.08840    3.39680    2.69520
 3509.50000    9.08350   -9999.25   46.89120   -9999.25   43.73220   47.86290   85.83530   -0.02720   -0.00450   26.92670    0.09090    3.30160    2.67060
 3510.00000    9.05400   -9999.25   46.57600   -9999.25   49.44420   49.03490   86.43500   -0.01520   -0.00610   27.71320    0.09090    3.07940    2.65580
 3510.50000    9.02450   -9999.25   45.94800   -9999.25   49.58820   49.59280   86.73260   -0.01060   -0.00610   29.13040    0.09090    2.95240    2.64290
 3511.00000    8.98230   -9999.25   45.01820   -9999.25   49.40590   49.59280   86.72810   -0.00840   -0.00530   29.75870    0.09090    3.04760    2.63270
 3511.50000    8.96580   -9999.25   44.46260   -9999.25   48.86120   49.41180   86.72360   -0.00510   -0.00060   29.59850    0.09220    3.07940    2.62640
 3512.00000    8.94950   -9999.25   44.94670   -9999.25   45.77880   48.95930   86.71900    0.00500    0.00250   28.80760    0.09410    3.01590    2.62130
 3512.50000    8.93690   -9999.25   46.19330   -9999.25   42.33380   48.77830   86.71450    0.02760    0.00410   28.80520    0.09660    2.85710    2.61700
 3513.00000    8.93760   -9999.25   47.44020   -9999.25   42.39460   48.87740   87.01280    0.04100    0.00410   28.80280    0.10480    2.92060    2.61350
 3513.50000    8.93820   -9999.25   48.38470   -9999.25   53.98690   51.52860   87.42350    0.04390    0.00330   29.43150    0.11680    2.95240    2.60060
 3514.00000    8.93880   -9999.25   49.32910   -9999.25   48.69080   51.85520   87.87280    0.04470    0.00170   29.74450    0.12750    3.01590    2.57790
 3514.50000    8.90930   -9999.25   49.79260   -9999.25   40.69860   50.97850   88.81330    0.04860    0.00020   30.21530    0.13630    3.04760    2.55810
 3515.00000    8.87990   -9999.25   47.46180   -9999.25   40.00000   51.64230   89.75320    0.05610    0.00100   30.37070    0.14320    3.04760    2.54540
 3515.50000    8.85040   -9999.25   45.94830   -9999.25   42.60020   52.21720   89.82020    0.06370    0.00330   30.84160    0.14950    3.04760    2.53960
 3516.00000    8.85110   -9999.25   45.94540   -9999.25   47.94680   52.30770   89.40110    0.07440    0.00750   31.78560    0.15650    3.01590    2.54090
 3516.50000    8.85170   -9999.25   45.94250   -9999.25   50.66490   52.48870   88.79250    0.07850    0.01430   32.57180    0.16910    2.98410    2.54730
 3517.00000    8.85860   -9999.25   45.93960   -9999.25   52.24850   52.76020   88.18390    0.07900    0.02160   33.20040    0.17540    2.95240    2.55470
 3517.50000    8.88290   -9999.25   46.57560   -9999.25   54.61480   53.66520   87.57530    0.08310    0.02110   33.51340    0.17980    2.88890    2.56240
 3518.00000    8.89370   -9999.25   47.48260   -9999.25   62.77860   57.60390   86.96660    0.09800    0.01480   32.88000    0.18420    2.82540    2.56720
 3518.50000    8.91410   -9999.25   47.08010   -9999.25   48.31150   57.08840   86.96220    0.10040    0.00700   31.77350    0.18740    2.76190    2.56600
 3519.00000    8.91470   -9999.25   46.37250   -9999.25   43.77450   55.30940   86.97990    0.09390    0.00120   30.35150    0.18670    2.69840    2.56450
 3519.50000    8.91530   -9999.25   45.22000   -9999.25   40.68600   55.02260   87.55770    0.08830    0.00070   29.08750    0.18420    2.69840    2.56110
 3520.00000    8.88600   -9999.25   44.71300   -9999.25   51.38350   54.93210   87.91530    0.08180    0.00430   27.82330    0.18420    2.77250    2.55650
 3520.50000    8.88660   -9999.25   44.71000   -9999.25   55.00800   54.93210   88.53440    0.07710    0.00640   27.82100    0.18610    2.95230    2.55190
 3521.00000    8.85710   -9999.25   44.70690   -9999.25   55.11780   55.02260   88.94980    0.08540    0.00640   28.29180    0.18860    2.96300    2.54800
 3521.50000    8.85770   -9999.25   44.70340   -9999.25   54.19060   55.20360   89.58750    0.08960    0.00640   28.76260    0.19180    2.97350    2.54410
