~Version ---------------------------------------------------
VERS.   2.0 : CWLS log ASCII Standard -VERSION 2.0
WRAP.    NO : One line per depth step
DLM . SPACE : Column Data Section Delimiter
~Well ------------------------------------------------------
STRT .F                  38.0 : START DEPTH
STOP .F                4498.0 : STOP DEPTH
STEP .F                   0.5 : STEP
NULL .               -9999.25 : NULL VALUE
COMP .                        : COMPANY
WELL .                        : WELL
FLD  .                        : FIELD
LOC  .                        : LOCATION
PROV .                        : PROVINCE
CNTY .                        : COUNTY
STAT .                        : STATE
CTRY .                        : COUNTRY
SRVC .                        : SERVICE COMPANY
DATE .                        : DATE
UWI  .                        : UNIQUE WELL ID
API  .                        : API NUMBER
SLAT .WGS84 1.044339074201499 : SURFACE LATITUDE
SLON .WGS84 6.369237990173005 : SURFACE LONGITUDE
DATUM.F                2698.0 : DEPTH DATUM ELEV
~Curve Information -----------------------------------------
DEPT   .F     : 
CALS   .IN    : CALIPER FROM SONIC LOG
DT     .US/F  : DELTA-T (INTERVAL TRANSIT TIME)
DTCO   .US/F  : DELTA-T COMPRESSIONAL
DTL    .US/F  : DELTA-T LONG SPACING
DTLF   .B     : DELTA-T LONG SPACING FAR
DTLN   .US/F  : DELTA-T LONG SPACING NEAR
DTSM   .US/F  : DELTA-T SHEAR
DPHI_LS.DEC   : DENSITY POROSITY LIMESTONE
DRHO   .G/C3  : BULK DENSITY CORRECTION
GRD    .GAPI  : GAMMA RAY FROM DENSITY LOG
NPHI_LS.DEC   : NEUTRON POROSITY LIMESTONE
PEF    .B/E   : PHOTOELECTRIC FACTOR
RHOB   .G/C3  : BULK DENSITY
~Params ----------------------------------------------------
~Other -----------------------------------------------------
~ASCII -----------------------------------------------------
# ...
 3106.00000    9.01920   -9999.25   52.65210   -9999.25   55.24590   55.38460  100.95380    0.05380   -0.00500   19.43550    0.17030    3.31180    2.61380
 3106.50000    9.01980   -9999.25   52.34710   -9999.25   55.57240   55.65610  100.94800    0.05500   -0.00660   17.86810    0.17620    3.43830    2.61490
 3107.00000    9.02040   -9999.25   52.04210   -9999.25   55.61480   55.65610  100.94220    0.05690   -0.00820   16.92790    0.17560    3.53310    2.61540
 3107.50000    9.02100   -9999.25   51.73710   -9999.25   55.61660   55.65610  100.93640    0.05880   -0.00830   17.86830    0.16670    3.57550    2.61540
 3108.00000    9.02170   -9999.25   51.75020   -9999.25   55.61830   55.65610  100.62050    0.05820   -0.00360   18.80880    0.16250    3.44770    2.61510
 3108.50000    9.05230   -9999.25   52.11750   -9999.25   55.62010   55.65610  100.32020    0.05440    0.00260   20.68970    0.16410    3.09770    2.61380
 3109.00000    9.05290   -9999.25   52.70300   -9999.25   55.62180   55.65610   99.95240    0.05430    0.00730   21.63010    0.16860    2.96990    2.61120
 3109.50000    9.05350   -9999.25   52.93400   -9999.25   55.62360   55.68880   99.70390    0.05570    0.00880   22.10030    0.16850    3.09610    2.61070
 3110.00000    9.05410   -9999.25   52.62840   -9999.25   55.63150   55.83710   99.80860    0.05700    0.00410   22.10030    0.16480    3.25400    2.61290
 3110.50000    9.05470   -9999.25   52.62540   -9999.25   56.10820   56.10950  100.29610    0.05010    0.00090   20.68970    0.16410    3.31670    2.62490
 3111.00000    9.05530   -9999.25   53.27060   -9999.25   56.86870   56.67920  100.29000    0.03810    0.00400   17.86830    0.16730    3.31590    2.65010
 3111.50000    9.05590   -9999.25   57.45270   -9999.25   57.44350   57.28510  100.58610    0.02740    0.00550   17.86830    0.17260    3.28340    2.66410
 3112.00000    9.05650   -9999.25   58.65820   -9999.25   56.67910   57.46610  100.57920    0.02200    0.00550   17.86830    0.17710    3.34610    2.65930
 3112.50000    9.05710   -9999.25   57.44690   -9999.25   55.38520   56.74210  100.87610    0.02400    0.00540   17.86830    0.17660    3.18650    2.65230
 3113.00000    9.05770   -9999.25   56.23550   -9999.25   55.27370   55.83710  101.47400    0.03280    0.00540   17.86830    0.16720    3.05870    2.64580
 3113.50000    9.05840   -9999.25   54.71350   -9999.25   54.99940   55.11310  101.77030    0.04160    0.00540   18.80880    0.16060    3.05790    2.64060
 3114.00000    9.05900   -9999.25   52.30220   -9999.25   54.64290   54.93210  102.06660    0.04580    0.00530   19.74920    0.15620    3.18410    2.63540
 3114.50000    9.05950   -9999.25   53.42240   -9999.25   54.73570   54.93210  102.06040    0.03760    0.00690   20.68970    0.15450    3.27860    2.62790
 3115.00000    9.09010   -9999.25   55.78000   -9999.25   55.09990   55.15370  102.05440    0.03680    0.00530   20.68970    0.15790    3.34130    2.62460
 3115.50000    9.12070   -9999.25   56.22110   -9999.25   55.82680   55.71630  102.04830    0.04320    0.00520   20.68970    0.16070    3.37220    2.62410
 3116.00000    9.15140   -9999.25   54.74320   -9999.25   56.91610   56.48630  102.04230    0.04590    0.00520   18.80880    0.16390    3.30790    2.62590
 3116.50000    9.11940   -9999.25   54.70390   -9999.25   57.28040   57.11250  101.28960    0.04570    0.00360   17.86830    0.16670    3.14840    2.62820
 3117.00000    9.09240   -9999.25   54.39820   -9999.25   57.19160   57.28510  100.48520    0.04440    0.00040   19.74920    0.16920    3.05240    2.62950
 3117.50000    9.09310   -9999.25   53.18690   -9999.25   56.91100   57.19300   99.90830    0.04260   -0.00280   21.63010    0.17240    3.05160    2.62950
 3118.00000    9.09370   -9999.25   52.88190   -9999.25   56.50300   56.90860  100.80890    0.04140   -0.00440   22.57050    0.17460    3.20950    2.62750
 3118.50000    9.08180   -9999.25   53.48320   -9999.25   55.71150   56.47060  102.31370    0.04560   -0.00290   21.63010    0.16700    3.30390    2.62350
 3119.00000    9.06490   -9999.25   55.29300   -9999.25   55.56710   56.38010  102.00570    0.05330   -0.00130   21.63010    0.16730    3.30310    2.61650
 3119.50000    9.06550   -9999.25   57.40490   -9999.25   55.59920   56.56110  101.99990    0.06120    0.00330   21.63010    0.17090    3.27060    2.60670
 3120.00000    9.00610   -9999.25   57.36140   -9999.25   55.66160   56.83260  102.31640    0.06230    0.00640   21.63010    0.17500    3.11110    2.59970
 3120.50000    9.00670   -9999.25   56.66160   -9999.25   55.79650   57.28510  102.68390    0.05780    0.00950   21.63010    0.17940    3.01500    2.59610
 3121.00000    9.03730   -9999.25   55.39760   -9999.25   56.12510   57.64890  103.26170    0.05530    0.01100   20.68970    0.18200    3.04600    2.60140
 3121.50000    9.06790   -9999.25   54.55500   -9999.25   57.02690   58.01650  103.78950    0.05410    0.01100   19.74920    0.18260    3.17220    2.60850
 3122.00000    9.06850   -9999.25   53.47460   -9999.25   57.23930   58.19000  103.78250    0.05410    0.01250   18.80880    0.18040    3.29830    2.61190
 3122.50000    9.06910   -9999.25   52.98610   -9999.25   56.93980   58.19000  103.77640    0.05600    0.01250   18.80880    0.17870    3.36100    2.60960
 3123.00000    9.06970   -9999.25   53.15360   -9999.25   56.76010   58.13620  103.59610    0.06170    0.01090   17.86830    0.17760    3.30740    2.58870
 3123.50000    9.07030   -9999.25   54.96340   -9999.25   56.67130   57.81860  102.55490    0.07300    0.00930   17.86830    0.17760    3.27490    2.58210
 3124.00000    9.07090   -9999.25   57.07530   -9999.25   56.85440   57.38640  102.24700    0.07180    0.00660   18.33860    0.17670    3.26350    2.59070
 3124.50000    9.07150   -9999.25   58.58300   -9999.25   56.85200   57.19460  102.24120    0.06550    0.00610   18.80880    0.17510    3.20980    2.59910
 3125.00000    9.07210   -9999.25   59.48640   -9999.25   54.86930   57.28510  102.53750    0.06050    0.00600   18.80880    0.17590    3.12440    2.59180
 3125.50000    9.04260   -9999.25   59.78560   -9999.25   48.26070   57.31630  102.53170    0.06490    0.00600   18.80880    0.17640    3.01770    2.57610
 3126.00000    9.04330   -9999.25   59.73020   -9999.25   45.71340   57.19460  101.86910    0.07120    0.00700   18.33860    0.17510    3.04870    2.58890
 3126.50000    9.01380   -9999.25   59.09660   -9999.25   50.97220   57.10410  100.55080    0.07500    0.01010   17.86830    0.17510    3.16430    2.59480
 3127.00000    9.01450   -9999.25   57.75430   -9999.25   50.72150   57.01360   99.19030    0.06620    0.01160   16.92790    0.17450    3.14230    2.61390
 3127.50000    9.01500   -9999.25   56.62130   -9999.25   45.56340   57.01360   99.18430    0.06370    0.01580   16.92790    0.17380    3.04630    2.65160
 3128.00000    9.01560   -9999.25   56.44710   -9999.25   40.10150   57.10410   99.48040    0.06680    0.01780   16.92790    0.17050    3.22540    2.70580
 3128.50000    9.01620   -9999.25   57.95410   -9999.25   40.79340   57.01360   99.77640    0.02780    0.02200   17.24130    0.15340    3.55260    2.79280
 3129.00000    9.04680   -9999.25   59.15970   -9999.25   51.52540   56.89490   99.46710   -0.03770    0.02400   17.86830    0.13980    3.94330    2.81050
 3129.50000    9.04740   -9999.25   59.15680   -9999.25   54.24620   56.51970   99.46130   -0.06230    0.02870   17.55490    0.13040    4.32350    2.72940
 3130.00000    9.05810   -9999.25   58.24750   -9999.25   47.81290   55.90940   98.85130   -0.06450    0.02610   16.61450    0.10780    4.30160    2.64490
 3130.50000    9.07870   -9999.25   57.03620   -9999.25   47.18220   55.31740   97.93910   -0.03640    0.01040   14.42030    0.09270    3.54960    2.60470
 3131.00000    9.07930   -9999.25   56.73120   -9999.25   48.82200   54.77170   97.02700   -0.00680   -0.00010   12.69590    0.08960    3.17830    2.57300
 3131.50000    9.08000   -9999.25   56.65170   -9999.25   43.92090   54.11490   96.71900    0.06750   -0.00380   13.47950    0.09150    3.15630    2.57610
