~Version ---------------------------------------------------
VERS.   2.0 : CWLS log ASCII Standard -VERSION 2.0
WRAP.    NO : One line per depth step
DLM . SPACE : Column Data Section Delimiter
~Well ------------------------------------------------------
STRT .F                  38.0 : START DEPTH
STOP .F                4498.0 : STOP DEPTH
STEP .F                   0.5 : STEP
NULL .               -9999.25 : NULL VALUE
COMP .                        : COMPANY
WELL .                        : WELL
FLD  .                        : FIELD
LOC  .                        : LOCATION
PROV .                        : PROVINCE
CNTY .                        : COUNTY
STAT .                        : STATE
CTRY .                        : COUNTRY
SRVC .                        : SERVICE COMPANY
DATE .                        : DATE
UWI  .                        : UNIQUE WELL ID
API  .                        : API NUMBER
SLAT .WGS84 1.044339074201499 : SURFACE LATITUDE
SLON .WGS84 6.369237990173005 : SURFACE LONGITUDE
DATUM.F                2698.0 : DEPTH DATUM ELEV
~Curve Information -----------------------------------------
DEPT   .F     : 
CALS   .IN    : CALIPER FROM SONIC LOG
DT     .US/F  : DELTA-T (INTERVAL TRANSIT TIME)
DTCO   .US/F  : DELTA-T COMPRESSIONAL
DTL    .US/F  : DELTA-T LONG SPACING
DTLF   .B     : DELTA-T LONG SPACING FAR
DTLN   .US/F  : DELTA-T LONG SPACING NEAR
DTSM   .US/F  : DELTA-T SHEAR
DPHI_LS.DEC   : DENSITY POROSITY LIMESTONE
DRHO   .G/C3  : BULK DENSITY CORRECTION
GRD    .GAPI  : GAMMA RAY FROM DENSITY LOG
NPHI_LS.DEC   : NEUTRON POROSITY LIMESTONE
PEF    .B/E   : PHOTOELECTRIC FACTOR
RHOB   .G/C3  : BULK DENSITY
~Params ----------------------------------------------------
~Other -----------------------------------------------------
~ASCII -----------------------------------------------------
# ...
 2742.00000    9.39280   -9999.25   49.43440   -9999.25   48.97120   50.36460   92.62240    0.00030   -0.00600   11.43220    0.10090    2.92060    2.71510
 2742.50000    9.39340   -9999.25   46.42710   -9999.25   50.18040   51.90990   93.17220   -0.00090   -0.00130   12.13720    0.10490    2.92060    2.71200
 2743.00000    9.39400   -9999.25   45.17820   -9999.25   51.41890   52.88970   93.26380    0.00570    0.00420   12.13240    0.10670    3.04760    2.70890
 2743.50000    9.39460   -9999.25   45.17520   -9999.25   52.65040   53.07110   93.77640   -0.00070    0.01040   11.89100    0.10480    2.92060    2.70220
 2744.00000    9.39520   -9999.25   47.28700   -9999.25   53.13840   53.07150   93.77640   -0.01950    0.01820   11.41300    0.10270    2.75140    2.69900
 2744.50000    9.39580   -9999.25   46.82340   -9999.25   53.29310   52.89100   93.77640   -0.03120    0.02370   11.25080    0.09770    2.83600    2.70790
 2745.00000    9.39640   -9999.25   46.37460   -9999.25   53.25520   52.80090   93.77640   -0.03360    0.02370   10.93070    0.09200    3.13220    2.72930
 2745.50000    9.42710   -9999.25   46.37110   -9999.25   53.06720   52.52990   93.47430   -0.03480    0.01820   11.39900    0.08740    3.41790    2.74600
 2746.00000    9.42760   -9999.25   46.36810   -9999.25   52.69430   51.98480   93.47430   -0.03090    0.00940   11.86740    0.08180    3.57670    2.75850
 2746.50000    9.42830   -9999.25   46.36520   -9999.25   52.17090   51.23280   93.17220   -0.02030    0.00360   11.86260    0.07600    3.47100    2.76430
 2747.00000    9.42890   -9999.25   46.36230   -9999.25   51.11060   50.42630   93.17220   -0.00850   -0.00060   11.85780    0.07080    3.11120    2.76010
 2747.50000    9.42950   -9999.25   49.07840   -9999.25   50.47490   50.17870   93.17220    0.00030    0.00150   11.22210    0.06890    2.67730    2.72770
 2748.00000    9.41620   -9999.25   50.88810   -9999.25   50.29230   50.22490   92.56800   -0.00470    0.00460   10.42950    0.07170    2.84650    2.71450
 2748.50000    9.40060   -9999.25   51.18730   -9999.25   50.20030   50.54160   91.96370   -0.01220    0.00720   10.42470    0.07510    3.07940    2.71310
 2749.00000    9.40120   -9999.25   50.85180   -9999.25   50.01770   50.41740   91.04430   -0.01850    0.00880   11.83940    0.07950    3.26990    2.71750
 2749.50000    9.40180   -9999.25   49.63790   -9999.25   49.83520   50.06150   90.75530   -0.01970    0.00720   12.78100    0.08430    3.39690    2.72310
 2750.00000    9.40240   -9999.25   48.71100   -9999.25   47.93050   49.59260   90.75530   -0.02410    0.00560   13.72260    0.08730    3.44440    2.73080
 2750.50000    9.40300   -9999.25   48.08600   -9999.25   44.08590   49.17480   91.49740   -0.03790    0.00560   14.19100    0.08900    3.46030    2.74350
 2751.00000    9.40360   -9999.25   47.84940   -9999.25   40.00000   49.27700   92.74320   -0.04920    0.00560   14.18620    0.08620    3.44440    2.75620
 2751.50000    9.40420   -9999.25   53.31430   -9999.25   40.00000   49.45840   93.98880   -0.06240    0.00880   14.65460    0.08060    3.42860    2.76890
 2752.00000    9.40480   -9999.25   58.41690   -9999.25   40.43810   49.48180   94.80750   -0.07490    0.01030   14.64980    0.07620    3.54500    2.78420
 2752.50000    9.40540   -9999.25   59.76080   -9999.25   45.25220   49.18780   94.98490   -0.09000    0.01340   14.17180    0.07180    3.85190    2.80520
 2753.00000    9.40600   -9999.25   60.22360   -9999.25   49.87990   48.82630   94.52080   -0.09870    0.01190   14.16700    0.06620    4.05290    2.81860
 2753.50000    9.40670   -9999.25   56.58820   -9999.25   51.14070   48.73620   94.07860   -0.09810    0.01030   14.16220    0.05810    3.89410    2.83340
 2754.00000    9.40730   -9999.25   53.87260   -9999.25   51.59210   48.73670   93.77640   -0.09060    0.00710   13.21100    0.04920    3.72480    2.85340
 2754.50000    9.40790   -9999.25   52.66120   -9999.25   50.97800   48.54620   92.56800   -0.07930    0.00400   12.73300    0.04230    3.56610    2.86960
 2755.00000    9.40850   -9999.25   51.75190   -9999.25   42.20670   48.26400   91.05740   -0.07070    0.00240   12.25510    0.03730    3.47090    2.87510
 2755.50000    9.40910   -9999.25   50.84260   -9999.25   40.00000   48.01400   90.15110   -0.06080    0.00240   11.77790    0.03470    3.42860    2.86570
 2756.00000    9.40960   -9999.25   49.93330   -9999.25   40.00000   48.03620   90.75530   -0.04830    0.00400   11.77310    0.03850    3.55560    2.85890
 2756.50000    9.41020   -9999.25   48.41980   -9999.25   40.02750   48.25060   92.87010   -0.03380    0.00550   11.76830    0.04290    3.68250    2.84460
 2757.00000    9.41080   -9999.25   46.30210   -9999.25   44.55790   48.37740   92.86100   -0.02160    0.00550   11.76350    0.05110    3.84130    2.81670
 2757.50000    9.41140   -9999.25   45.07820   -9999.25   47.27560   48.24890   91.93610   -0.02790    0.00290   12.07410    0.06120    3.96830    2.77780
 2758.00000    9.41200   -9999.25   44.78560   -9999.25   47.73850   48.01860   91.22080   -0.02730   -0.00030   12.22710    0.06430    3.90480    2.75110
 2758.50000    9.41260   -9999.25   46.64310   -9999.25   46.80260   47.60510   90.02140   -0.03010    0.00030   12.53770    0.06620    3.42860    2.74740
 2759.00000    9.41320   -9999.25   47.19670   -9999.25   45.44440   50.64170   89.54680   -0.03870    0.00240   12.45450    0.06810    3.65080    2.74810
 2759.50000    9.41380   -9999.25   47.57850   -9999.25   45.27630   52.27110   90.15530   -0.04420    0.00390   11.50330    0.06930    3.71430    2.75310
 2760.00000    9.41440   -9999.25   51.52050   -9999.25   45.45630   52.45250   93.05110   -0.04610    0.00130   10.31550    0.07120    3.55560    2.76200
 2760.50000    9.41500   -9999.25   52.13950   -9999.25   46.81790   52.36240   93.19560   -0.04480    0.00080    9.83760    0.07440    3.74600    2.77470
 2761.00000    9.41560   -9999.25   52.45610   -9999.25   47.50180   52.00090   92.10760   -0.04480    0.00080   10.06930    0.07810    3.84130    2.78360
 2761.50000    9.41620   -9999.25   53.37720   -9999.25   48.50290   51.63940   91.48470   -0.04490   -0.00480   10.53770    0.08150    3.74600    2.78850
 2762.00000    9.41690   -9999.25   53.99600   -9999.25   50.50460   51.36830   90.15110   -0.02480   -0.01100   11.47930    0.08780    3.55560    2.78890
 2762.50000    9.41750   -9999.25   54.12390   -9999.25   50.16240   51.64400   89.24470    0.00600   -0.01410   12.34250    0.09660    3.42860    2.78590
 2763.00000    9.41810   -9999.25   51.09920   -9999.25   47.92020   51.83100   88.94260    0.02980   -0.01490   13.12630    0.10780    3.33330    2.78160
 2763.50000    9.41870   -9999.25   50.49210   -9999.25   46.17150   52.12350   90.15110    0.06050   -0.01100   13.12150    0.11930    3.14290    2.76980
 2764.00000    9.38920   -9999.25   50.42900   -9999.25   45.98890   52.67010   91.35950    0.07680    0.00080   12.48570    0.13450    3.02650    2.74630
 2764.50000    9.38980   -9999.25   51.99680   -9999.25   46.16890   54.44950   91.96370    0.07930    0.00380   11.53450    0.14850    2.94180    2.70530
 2765.00000    9.35990   -9999.25   52.90020   -9999.25   48.07090   55.57500   92.87500    0.07550    0.00380   11.53000    0.16050    2.99470    2.66080
 2765.50000    9.29850   -9999.25   53.19940   -9999.25   51.42300   56.95590   93.82380    0.06680    0.00380   12.31370    0.16790    3.15340    2.62520
 2766.00000    9.26730   -9999.25   53.17620   -9999.25   55.86280   59.36800   95.11150    0.05360    0.00640   13.25530    0.17090    3.23810    2.58610
 2766.50000    9.21200   -9999.25   52.25910   -9999.25   59.84940   61.19460   96.91920    0.03480    0.01170   13.56670    0.16940    3.26980    2.57920
 2767.00000    9.18250   -9999.25   51.37760   -9999.25   60.58040   61.05620   98.62570    0.01470    0.02050   13.56190    0.14650    3.26980    2.58000
 2767.50000    9.15310   -9999.25   51.00970   -9999.25   60.75310   60.51360  101.01900   -0.00090    0.02730   12.61070    0.12000    3.30160    2.58950
