~Version ---------------------------------------------------
VERS.   2.0 : CWLS log ASCII Standard -VERSION 2.0
WRAP.    NO : One line per depth step
DLM . SPACE : Column Data Section Delimiter
~Well ------------------------------------------------------
STRT .F                  38.0 : START DEPTH
STOP .F                4498.0 : STOP DEPTH
STEP .F                   0.5 : STEP
NULL .               -9999.25 : NULL VALUE
COMP .                        : COMPANY
WELL .                        : WELL
FLD  .                        : FIELD
LOC  .                        : LOCATION
PROV .                        : PROVINCE
CNTY .                        : COUNTY
STAT .                        : STATE
CTRY .                        : COUNTRY
SRVC .                        : SERVICE COMPANY
DATE .                        : DATE
UWI  .                        : UNIQUE WELL ID
API  .                        : API NUMBER
SLAT .WGS84 1.044339074201499 : SURFACE LATITUDE
SLON .WGS84 6.369237990173005 : SURFACE LONGITUDE
DATUM.F                2698.0 : DEPTH DATUM ELEV
~Curve Information -----------------------------------------
DEPT   .F     : 
CALS   .IN    : CALIPER FROM SONIC LOG
DT     .US/F  : DELTA-T (INTERVAL TRANSIT TIME)
DTCO   .US/F  : DELTA-T COMPRESSIONAL
DTL    .US/F  : DELTA-T LONG SPACING
DTLF   .B     : DELTA-T LONG SPACING FAR
DTLN   .US/F  : DELTA-T LONG SPACING NEAR
DTSM   .US/F  : DELTA-T SHEAR
DPHI_LS.DEC   : DENSITY POROSITY LIMESTONE
DRHO   .G/C3  : BULK DENSITY CORRECTION
GRD    .GAPI  : GAMMA RAY FROM DENSITY LOG
NPHI_LS.DEC   : NEUTRON POROSITY LIMESTONE
PEF    .B/E   : PHOTOELECTRIC FACTOR
RHOB   .G/C3  : BULK DENSITY
~Params ----------------------------------------------------
~Other -----------------------------------------------------
~ASCII -----------------------------------------------------
# ...
 2612.00000    8.74890   -9999.25   50.73110   -9999.25   53.95770   53.39370   95.85490    0.41690   -9999.25   22.33970    0.25410   -9999.25    2.01120
 2612.50000    8.74920   -9999.25   50.72510   -9999.25   54.15400   53.48420   95.85350    0.38220   -9999.25   22.66120    0.26430   -9999.25    2.20570
 2613.00000    8.77960   -9999.25   50.71900   -9999.25   55.13600   55.47510   95.89330    0.34220   -9999.25   22.82570    0.26950   -9999.25    2.46520
 2613.50000    8.77990   -9999.25   50.40990   -9999.25   56.70300   56.65160   96.59470    0.29580   -9999.25   22.83230    0.27170   -9999.25    2.67380
 2614.00000    8.79580   -9999.25   50.40410   -9999.25   56.49550   57.46610   98.45710    0.20430   -0.05000   23.07530    0.26830    3.00000    2.73810
 2614.50000    8.84060   -9999.25   50.39840   -9999.25   56.13290   56.51460  100.88890    0.03060   -0.02860   23.31840    0.26350    3.16810    2.76600
 2615.00000    8.96100   -9999.25   51.29890   -9999.25   54.22960   54.45000  104.60710   -0.03590   -0.02890   23.79720    0.25360    3.24920    2.77610
 2615.50000    9.17150   -9999.25   53.14950   -9999.25   53.32330   53.25050  104.62210   -0.04280   -0.03040   25.69120    0.21530    3.23320    2.78050
 2616.00000    9.23180   -9999.25   54.30860   -9999.25   54.13900   52.69140  104.29010   -0.04090   -0.02730   29.94360    0.18020    3.21710    2.78950
 2616.50000    9.26220   -9999.25   54.30210   -9999.25   53.85080   52.16040  103.61480   -0.04460   -0.02340   32.46600    0.13800    3.34400    2.80820
 2617.00000    9.26250   -9999.25   53.89030   -9999.25   53.34410   51.78760  102.04530   -0.05440   -0.01790   33.25930    0.11390    3.59770    2.77050
 2617.50000    9.26280   -9999.25   52.54810   -9999.25   51.98800   51.50530   99.28360   -0.06380   -0.01320   32.32280    0.10520    3.78280    2.74050
 2618.00000    9.27030   -9999.25   47.98170   -9999.25   51.02100   50.54590   94.12060   -0.06680   -0.00930   28.87070    0.10520    3.65550    2.71800
 2618.50000    9.29340   -9999.25   46.42190   -9999.25   50.21060   50.17620   92.50320   -0.01780   -0.00610   23.84630    0.10580    3.38030    2.70260
 2619.00000    9.29370   -9999.25   46.41620   -9999.25   50.15110   50.13570   91.60390    0.01120   -0.00710   19.45110    0.10650    3.45430    2.68370
 2619.50000    9.27870   -9999.25   46.41040   -9999.25   50.15110   50.13570   90.69620    0.01910   -0.01290   15.21300    0.10940    3.48590    2.65590
 2620.00000    9.26430   -9999.25   45.19620   -9999.25   50.15110   50.13570   90.39260    0.03690   -0.01760   11.76130    0.12050    3.47510    2.63980
 2620.50000    9.23450   -9999.25   44.58610   -9999.25   50.15110   50.40720   90.39120    0.04540   -0.02130   10.66680    0.14570    3.40090    2.63820
 2621.00000    9.23490   -9999.25   44.65870   -9999.25   50.15110   50.95020   90.38970    0.04530   -0.02340    9.73060    0.15060    3.32670    2.65950
 2621.50000    9.26520   -9999.25   46.05850   -9999.25   50.24170   52.21720   91.01840    0.03260   -0.01810    8.79440    0.15060    3.32650    2.69630
 2622.00000    9.26550   -9999.25   48.78540   -9999.25   53.59520   53.66520   92.06050    0.01090   -0.00660    8.32990    0.15060    3.48510    2.71860
 2622.50000    9.29730   -9999.25   52.41690   -9999.25   54.68280   54.66970   93.73910   -0.01250   -0.00090    7.86540    0.14810    3.83410    2.72720
 2623.00000    9.32610   -9999.25   52.71300   -9999.25   55.40790   55.02260   96.04540   -0.02320   -0.00140    6.92910    0.14370    3.80220    2.73330
 2623.50000    9.32640   -9999.25   52.82130   -9999.25   55.04530   53.93030   97.02870   -0.02320   -0.00770    6.93630    0.13810    3.57980    2.73270
 2624.00000    9.32670   -9999.25   52.39800   -9999.25   54.37790   52.86390   96.08440   -0.02310   -0.00920    6.94350    0.13050    3.64320    2.72640
 2624.50000    9.31470   -9999.25   51.78800   -9999.25   52.53300   52.00300   94.00430   -0.02320   -0.00610    6.95070    0.12050    3.64300    2.72020
 2625.00000    9.29730   -9999.25   51.17800   -9999.25   51.73720   51.31210   92.49230   -0.01880    0.00020    6.95780    0.10980    3.57940    2.72800
 2625.50000    9.29770   -9999.25   51.17220   -9999.25   51.26680   50.78850   92.18870   -0.00310    0.00490    6.49330    0.09780    3.45220    2.74270
 2626.00000    9.29790   -9999.25   50.45890   -9999.25   50.56210   50.58820   92.18730   -0.00690    0.00960    6.02880    0.09220    3.35680    2.76070
 2626.50000    9.32830   -9999.25   48.61510   -9999.25   50.15110   50.58820   91.87320   -0.02000    0.01430    6.03600    0.09030    3.42020    2.77890
 2627.00000    9.35860   -9999.25   48.13380   -9999.25   50.15110   50.58820   91.58010   -0.03820    0.01740    6.04320    0.09030    3.57870    2.79500
 2627.50000    9.35890   -9999.25   48.73230   -9999.25   50.28550   50.49770   91.57860   -0.04910    0.01270    6.04910    0.08990    3.61030    2.80800
 2628.00000    9.35800   -9999.25   47.96780   -9999.25   50.38180   50.40720   91.57700   -0.05580    0.00640    6.05630    0.08830    3.51490    2.82110
 2628.50000    9.32940   -9999.25   46.30100   -9999.25   50.78550   50.40720   91.57550   -0.05640    0.00170    6.37790    0.08330    3.35600    2.81660
 2629.00000    9.29970   -9999.25   45.69100   -9999.25   50.69490   50.40720   91.57400   -0.06140    0.00020    6.54240    0.07460    3.32410    2.78530
 2629.50000    9.30000   -9999.25   45.68520   -9999.25   50.33230   50.31670   91.57220   -0.06570   -0.00140    7.02120    0.06680    3.45090    2.73510
 2630.00000    9.33030   -9999.25   46.28370   -9999.25   49.87920   49.59280   90.96660   -0.06830   -0.00140    7.65710    0.06120    3.56720    2.70750
 2630.50000    9.33060   -9999.25   46.88220   -9999.25   48.88220   48.95930   89.15240   -0.03320   -0.00140    8.29340    0.05900    3.57760    2.70870
 2631.00000    9.34840   -9999.25   48.11360   -9999.25   47.97580   48.59730   89.15100   -0.00300   -0.00030    9.40070    0.06240    3.45050    2.73250
 2631.50000    9.36130   -9999.25   47.96050   -9999.25   47.97580   48.60760   89.75380    0.00510    0.00230   10.11530    0.07930    3.29160    2.75950
 2632.00000    9.33160   -9999.25   45.90480   -9999.25   48.36250   49.20300   91.66110   -0.01620    0.00850   10.12260    0.10170    3.43960    2.77750
 2632.50000    9.33190   -9999.25   44.74320   -9999.25   49.22810   50.22020   92.77200   -0.03240    0.01840    9.18630    0.11110    3.51350    2.79700
 2633.00000    9.33210   -9999.25   44.73720   -9999.25   50.76030   50.84870   92.77040   -0.04270    0.03050    7.54260    0.11470    3.52920    2.80320
 2633.50000    9.30240   -9999.25   46.84470   -9999.25   51.32930   51.13120   92.76890   -0.04900    0.02780    6.13470    0.11690    3.62430    2.78490
 2634.00000    9.30270   -9999.25   48.65170   -9999.25   51.23870   50.87550   92.76740   -0.05490    0.02310    5.19790    0.11050    3.97340    2.74910
 2634.50000    9.30930   -9999.25   48.64590   -9999.25   50.99030   50.50250   93.23570   -0.05700    0.01790    5.20500    0.10270    4.03670    2.71200
 2635.00000    9.33330   -9999.25   48.64010   -9999.25   50.35660   50.08150   93.97260   -0.05490    0.01350    5.21220    0.09850    3.95710    2.69420
 2635.50000    9.33360   -9999.25   48.03020   -9999.25   49.51850   49.77380   94.27320   -0.03680    0.01190    5.21940    0.09480    3.60770    2.67290
 2636.00000    9.33390   -9999.25   47.04550   -9999.25   49.06340   49.77380   93.96970   -0.01390    0.00960    5.22660    0.09240    3.24250    2.67190
 2636.50000    9.33420   -9999.25   45.60120   -9999.25   49.06340   49.86430   93.66610   -0.00030    0.00960    5.23370    0.10760    3.18420    2.67710
 2637.00000    9.33460   -9999.25   46.28290   -9999.25   49.06340   49.86430   93.36250    0.01460    0.00960    5.24030    0.11450    3.17350    2.68390
 2637.50000    9.33490   -9999.25   46.79870   -9999.25   49.06340   50.04520   93.36100    0.02650    0.00960    5.24750    0.12080    3.31080    2.68270
