~Version ---------------------------------------------------
VERS.   2.0 : CWLS log ASCII Standard -VERSION 2.0
WRAP.    NO : One line per depth step
DLM . SPACE : Column Data Section Delimiter
~Well ------------------------------------------------------
STRT .F                  38.0 : START DEPTH
STOP .F                4498.0 : STOP DEPTH
STEP .F                   0.5 : STEP
NULL .               -9999.25 : NULL VALUE
COMP .                        : COMPANY
WELL .                        : WELL
FLD  .                        : FIELD
LOC  .                        : LOCATION
PROV .                        : PROVINCE
CNTY .                        : COUNTY
STAT .                        : STATE
CTRY .                        : COUNTRY
SRVC .                        : SERVICE COMPANY
DATE .                        : DATE
UWI  .                        : UNIQUE WELL ID
API  .                        : API NUMBER
SLAT .WGS84 1.044339074201499 : SURFACE LATITUDE
SLON .WGS84 6.369237990173005 : SURFACE LONGITUDE
DATUM.F                2698.0 : DEPTH DATUM ELEV
~Curve Information -----------------------------------------
DEPT   .F     : 
CALS   .IN    : CALIPER FROM SONIC LOG
DT     .US/F  : DELTA-T (INTERVAL TRANSIT TIME)
DTCO   .US/F  : DELTA-T COMPRESSIONAL
DTL    .US/F  : DELTA-T LONG SPACING
DTLF   .B     : DELTA-T LONG SPACING FAR
DTLN   .US/F  : DELTA-T LONG SPACING NEAR
DTSM   .US/F  : DELTA-T SHEAR
DPHI_LS.DEC   : DENSITY POROSITY LIMESTONE
DRHO   .G/C3  : BULK DENSITY CORRECTION
GRD    .GAPI  : GAMMA RAY FROM DENSITY LOG
NPHI_LS.DEC   : NEUTRON POROSITY LIMESTONE
PEF    .B/E   : PHOTOELECTRIC FACTOR
RHOB   .G/C3  : BULK DENSITY
~Params ----------------------------------------------------
~Other -----------------------------------------------------
~ASCII -----------------------------------------------------
# ...
 2976.00000    9.04560   -9999.25   63.31890   -9999.25   40.00000   99.65970   98.28790    0.00180    0.01070   32.53620    0.13230    3.45910    2.69600
 2976.50000    9.02080   -9999.25   58.51340   -9999.25   40.00000   93.50540   98.90740    0.02810    0.00600   32.53860    0.13240    3.45840    2.67410
 2977.00000    9.02130   -9999.25   57.12740   -9999.25   40.52330   63.64070   99.02720    0.03190   -0.00190   32.06780    0.13570    3.45780    2.65430
 2977.50000    9.02180   -9999.25   57.42510   -9999.25   47.43570   51.87550   99.31910    0.03810   -0.00820   31.12380    0.14240    3.41480    2.64180
 2978.00000    8.99220   -9999.25   56.59410   -9999.25   47.90520   44.99730   99.61250    0.05570   -0.01450   30.65300    0.16180    3.31890    2.63120
 2978.50000    8.99260   -9999.25   56.20700   -9999.25   45.46080   41.45780   99.60380    0.08080   -0.01450   29.23580    0.17480    3.20190    2.61030
 2979.00000    8.98350   -9999.25   55.90030   -9999.25   40.36820   40.47150   99.59500    0.10960   -0.00980   28.29180    0.18280    3.01070    2.57250
 2979.50000    8.96350   -9999.25   56.19700   -9999.25   40.01860   40.82540   99.58610    0.13470   -0.00360   26.87460    0.18780    2.86200    2.51640
 2980.00000    8.96400   -9999.25   58.30740   -9999.25   40.05440   51.29680   99.23450    0.13560    0.00160   24.98420    0.19030    2.74490    2.49510
 2980.50000    8.93440   -9999.25   59.51150   -9999.25   43.94210   61.06480   98.89930    0.12910    0.00840   23.09390    0.19410    2.79720    2.50100
 2981.00000    8.93480   -9999.25   58.90290   -9999.25   60.95910   61.46520   98.65260    0.12100    0.01150   22.62300    0.19720    2.89180    2.50930
 2981.50000    8.93530   -9999.25   57.99220   -9999.25   71.34590   60.90780   98.34140    0.11340    0.00940   23.09860    0.20160    2.91240    2.50900
 2982.00000    8.90570   -9999.25   57.08150   -9999.25   78.17330   60.91160   97.89320    0.11420    0.00620   23.57420    0.20230    2.91170    2.50390
 2982.50000    8.87610   -9999.25   56.47280   -9999.25   83.73630   61.23830   96.79250    0.11670    0.00150   24.99610    0.19600    2.91120    2.50020
 2983.00000    8.84650   -9999.25   56.80560   -9999.25   78.53500   61.42440   96.19770    0.11850   -0.00170   24.99850    0.19720    3.13280    2.49740
 2983.50000    8.85780   -9999.25   57.37050   -9999.25   75.09040   61.46290   96.49240    0.12010   -0.00220   25.00090    0.20540    3.13210    2.49670
 2984.00000    8.87750   -9999.25   57.28480   -9999.25   69.10810   61.46240   97.69090    0.12520    0.00150   25.00320    0.21610    3.06800    2.50040
 2984.50000    8.87790   -9999.25   56.75680   -9999.25   61.85690   61.46190   98.89060    0.12790    0.00610   23.58610    0.22180    3.00390    2.51330
 2985.00000    8.90850   -9999.25   56.75230   -9999.25   61.49090   61.28050  100.69460    0.12260    0.00870   24.53480    0.21930    2.97150    2.51450
 2985.50000    8.93900   -9999.25   56.74770   -9999.25   61.76750   61.09910  100.98800    0.11760    0.00870   25.48350    0.21300    2.93910    2.51490
 2986.00000    8.93940   -9999.25   56.74320   -9999.25   61.66710   60.91760  100.97890    0.11600    0.00760   25.01270    0.20790    2.93840    2.51550
 2986.50000    8.93980   -9999.25   56.73790   -9999.25   61.37720   60.91720  100.96980    0.11600    0.00440   23.12240    0.21050    3.03300    2.51750
 2987.00000    8.94030   -9999.25   56.43140   -9999.25   60.91330   60.91670  100.65860    0.11610    0.00230   21.70520    0.21550    3.09590    2.52280
 2987.50000    8.97070   -9999.25   56.12490   -9999.25   60.44940   60.89370  100.64960    0.11380    0.00070   20.76120    0.21870    3.09530    2.52860
 2988.00000    9.00120   -9999.25   55.51630   -9999.25   59.98550   60.52010  100.33840    0.10650    0.00180   21.23670    0.21740    2.93590    2.53660
 2988.50000    9.00170   -9999.25   55.20980   -9999.25   59.52160   60.14640  100.02720    0.09660    0.00650   22.65870    0.21430    2.93520    2.54640
 2989.00000    9.00210   -9999.25   55.51730   -9999.25   58.98150   59.77290   99.71600    0.08740    0.00770   23.60740    0.21170    3.06160    2.55730
 2989.50000    9.00260   -9999.25   56.40960   -9999.25   58.41690   59.43290  100.00750    0.08410    0.00300   24.08300    0.20990    3.12440    2.56670
 2990.00000    8.97290   -9999.25   56.05260   -9999.25   57.94870   59.24590  100.30090    0.09480   -0.00250   23.61220    0.20860    3.15550    2.55980
 2990.50000    8.97340   -9999.25   55.72300   -9999.25   57.50100   59.05890  100.59520    0.10630   -0.00800   24.56090    0.20610    3.02790    2.53900
 2991.00000    8.97390   -9999.25   55.18730   -9999.25   57.40990   58.92220  100.58560    0.10820   -0.00810   24.56330    0.20420    2.93200    2.52280
 2991.50000    8.97440   -9999.25   54.88070   -9999.25   57.50010   59.01210   99.97270    0.10640   -0.00490   23.61930    0.20040    3.05840    2.52280
 2992.00000    8.97480   -9999.25   54.43310   -9999.25   57.95280   59.64520   99.96370    0.08870   -0.00340   23.93670    0.20190    3.21650    2.52280
 2992.50000    8.97530   -9999.25   54.10380   -9999.25   58.58680   60.18770   99.95470    0.06950    0.00050   24.88540    0.20710    3.21580    2.55880
 2993.00000    8.97570   -9999.25   53.65780   -9999.25   58.58640   59.82530   99.94560    0.05990    0.00280   26.62270    0.20740    3.18350    2.58270
 2993.50000    8.97610   -9999.25   53.65340   -9999.25   58.13280   59.37240   99.84780    0.05190    0.00600   28.51780    0.20500    3.21460    2.60210
 2994.00000    8.97540   -9999.25   53.64900   -9999.25   57.67920   58.73840   99.21060    0.03690    0.00830   29.15120    0.19650    3.30920    2.62800
 2994.50000    8.94700   -9999.25   53.64470   -9999.25   57.48960   58.19500   98.43600    0.03200    0.00910   28.20750    0.18460    3.43550    2.65460
 2995.00000    8.94740   -9999.25   54.24450   -9999.25   57.29770   57.55200   97.93550    0.03020    0.00980   26.31720    0.17340    3.43490    2.65570
 2995.50000    8.94790   -9999.25   54.24020   -9999.25   57.02920   57.26890   98.08590    0.03090    0.00980   25.21530    0.16430    3.45550    2.65700
 2996.00000    8.93750   -9999.25   53.59150   -9999.25   56.73220   57.00150   98.07720    0.03090    0.00900   24.27130    0.15990    3.68760    2.66050
 2996.50000    8.91880   -9999.25   52.59190   -9999.25   56.21940   56.74530   98.37160    0.02820    0.00740   24.11590    0.15650    3.80340    2.66800
 2997.00000    8.91920   -9999.25   51.20540   -9999.25   55.41250   56.66440   98.66460    0.02180    0.00580   23.80280    0.15180    3.81340    2.67660
 2997.50000    8.91980   -9999.25   51.20090   -9999.25   54.81790   56.13660   98.65530    0.01450    0.00500   25.22450    0.14780    3.81270    2.67770
 2998.00000    8.95020   -9999.25   50.89430   -9999.25   54.28220   55.76300   98.64650    0.01220    0.00650   27.59280    0.14400    3.81210    2.67590
 2998.50000    8.95070   -9999.25   50.88970   -9999.25   53.86910   55.21170   98.33540    0.02520    0.00650   29.17260    0.14050    3.71630    2.66130
 2999.00000    8.95110   -9999.25   51.04110   -9999.25   53.49580   54.17770   98.32630    0.05170    0.00650   29.96380    0.13850    3.37700    2.62580
 2999.50000    8.95150   -9999.25   51.18280   -9999.25   53.14240   53.48450   98.31720    0.07990    0.00700   28.38910    0.13750    2.96370    2.57930
 3000.00000    8.95200   -9999.25   51.17820   -9999.25   53.50450   53.60480   98.00560    0.07120    0.00800   26.02550    0.14080    2.93120    2.58030
 3000.50000    8.95240   -9999.25   51.17670   -9999.25   54.59160   54.35130   98.60690    0.05240    0.00800   24.45050    0.16040    3.25860    2.60160
 3001.00000    8.95290   -9999.25   50.72820   -9999.25   55.22560   55.59420   98.90610    0.04170    0.00750   23.66410    0.17530    3.46960    2.62010
 3001.50000    8.95330   -9999.25   50.73670   -9999.25   56.04090   56.20430   99.20530    0.03610    0.00430   24.77030    0.18220    3.55360    2.63140
