~Version ---------------------------------------------------
VERS.   2.0 : CWLS log ASCII Standard -VERSION 2.0
WRAP.    NO : One line per depth step
DLM . SPACE : Column Data Section Delimiter
~Well ------------------------------------------------------
STRT .F                  38.0 : START DEPTH
STOP .F                4498.0 : STOP DEPTH
STEP .F                   0.5 : STEP
NULL .               -9999.25 : NULL VALUE
COMP .                        : COMPANY
WELL .                        : WELL
FLD  .                        : FIELD
LOC  .                        : LOCATION
PROV .                        : PROVINCE
CNTY .                        : COUNTY
STAT .                        : STATE
CTRY .                        : COUNTRY
SRVC .                        : SERVICE COMPANY
DATE .                        : DATE
UWI  .                        : UNIQUE WELL ID
API  .                        : API NUMBER
SLAT .WGS84 1.044339074201499 : SURFACE LATITUDE
SLON .WGS84 6.369237990173005 : SURFACE LONGITUDE
DATUM.F                2698.0 : DEPTH DATUM ELEV
~Curve Information -----------------------------------------
DEPT   .F     : 
CALS   .IN    : CALIPER FROM SONIC LOG
DT     .US/F  : DELTA-T (INTERVAL TRANSIT TIME)
DTCO   .US/F  : DELTA-T COMPRESSIONAL
DTL    .US/F  : DELTA-T LONG SPACING
DTLF   .B     : DELTA-T LONG SPACING FAR
DTLN   .US/F  : DELTA-T LONG SPACING NEAR
DTSM   .US/F  : DELTA-T SHEAR
DPHI_LS.DEC   : DENSITY POROSITY LIMESTONE
DRHO   .G/C3  : BULK DENSITY CORRECTION
GRD    .GAPI  : GAMMA RAY FROM DENSITY LOG
NPHI_LS.DEC   : NEUTRON POROSITY LIMESTONE
PEF    .B/E   : PHOTOELECTRIC FACTOR
RHOB   .G/C3  : BULK DENSITY
~Params ----------------------------------------------------
~Other -----------------------------------------------------
~ASCII -----------------------------------------------------
# ...
 4484.00000    7.56100   48.91010   48.35010   49.53110   49.55290   50.04520   89.43700   -9999.25   -9999.25   -9999.25   -9999.25   -9999.25   -9999.25
 4484.50000    7.56130   48.81890   48.34420   48.97700   48.80550   49.39860   89.43120   -9999.25   -9999.25   -9999.25   -9999.25   -9999.25   -9999.25
 4485.00000    7.56160   48.81850   48.64050   48.51500   48.62380   48.75100   89.72810   -9999.25   -9999.25   -9999.25   -9999.25   -9999.25   -9999.25
 4485.50000    7.56190   48.42470   48.61440   48.15540   48.62340   48.38670   90.32630   -9999.25   -9999.25   -9999.25   -9999.25   -9999.25   -9999.25
 4486.00000    7.56220   47.41970   47.64160   47.98850   48.07910   48.23530   90.92420   -9999.25   -9999.25   -9999.25   -9999.25   -9999.25   -9999.25
 4486.50000    7.56250   47.09240   46.80970   47.96190   47.53490   48.23530   91.52250   -9999.25   -9999.25   -9999.25   -9999.25   -9999.25   -9999.25
 4487.00000    7.56280   47.23140   46.72260   47.80630   47.53440   48.23530   91.20840   -9999.25   -9999.25   -9999.25   -9999.25   -9999.25   -9999.25
 4487.50000    7.56310   47.66640   45.69020   47.80590   47.53770   48.23530   90.57930   -9999.25   -9999.25   -9999.25   -9999.25   -9999.25   -9999.25
 4488.00000    7.56340   47.72660   44.43500   47.80540   47.71480   48.19190   90.25170   -9999.25   -9999.25   -9999.25   -9999.25   -9999.25   -9999.25
 4488.50000    7.56370   47.67800   44.04630   47.80500   44.53940   48.09560   89.68580   -9999.25   -9999.25   -9999.25   -9999.25   -9999.25   -9999.25
 4489.00000    7.56400   47.65380   46.21550   47.62320   43.90730   47.78280   89.67980   -9999.25   -9999.25   -9999.25   -9999.25   -9999.25   -9999.25
 4489.50000    7.56430   47.31340   47.37650   47.44150   46.03150   47.60180   89.67370   -9999.25   -9999.25   -9999.25   -9999.25   -9999.25   -9999.25
 4490.00000    7.56460   47.54300   47.06850   47.44100   47.35050   47.60180   89.66770   -9999.25   -9999.25   -9999.25   -9999.25   -9999.25   -9999.25
 4490.50000    7.56490   47.54260   46.76050   47.44060   47.47970   47.87330   89.38200   -9999.25   -9999.25   -9999.25   -9999.25   -9999.25   -9999.25
 4491.00000    7.56520   47.54220   45.84840   47.62140   48.07290   48.23530   88.73280   -9999.25   -9999.25   -9999.25   -9999.25   -9999.25   -9999.25
 4491.50000    7.56550   48.26790   45.23830   48.16480   48.43670   48.59730   87.83570   -9999.25   -9999.25   -9999.25   -9999.25   -9999.25   -9999.25
 4492.00000    7.56580   47.99510   44.62820   47.98310   47.89240   48.05430   87.52770   -9999.25   -9999.25   -9999.25   -9999.25   -9999.25   -9999.25
 4492.50000    7.56610   47.17780   44.32020   47.60640   47.25750   47.31210   87.52180   -9999.25   -9999.25   -9999.25   -9999.25   -9999.25   -9999.25
 4493.00000    7.56640   46.42700   44.63640   47.04520   46.62260   46.76690   88.12020   -9999.25   -9999.25   -9999.25   -9999.25   -9999.25   -9999.25
 4493.50000    7.56670   45.89400   46.20130   46.46730   46.25960   46.42530   89.62490   -9999.25   -9999.25   -9999.25   -9999.25   -9999.25   -9999.25
 4494.00000    7.56700   45.81480   47.38350   45.98730   46.07790   46.64980   90.52540   -9999.25   -9999.25   -9999.25   -9999.25   -9999.25   -9999.25
 4494.50000    7.56730   45.83860   47.92220   45.98690   46.16810   47.19590   91.12380   -9999.25   -9999.25   -9999.25   -9999.25   -9999.25   -9999.25
 4495.00000    7.56760   46.29810   46.50550   46.23420   46.63250   48.31090   92.03450   -9999.25   -9999.25   -9999.25   -9999.25   -9999.25   -9999.25
 4495.50000    7.56790   48.31750   46.09670   47.41100   48.39470   49.19240   92.95370   -9999.25   -9999.25   -9999.25   -9999.25   -9999.25   -9999.25
 4496.00000    7.56820   49.49800   46.53410   49.51640   47.41170   49.77760   93.57130   -9999.25   -9999.25   -9999.25   -9999.25   -9999.25   -9999.25
 4496.50000    7.58180   49.07450   47.45380   48.65200   41.96190   48.78710   94.12150   -9999.25   -9999.25   -9999.25   -9999.25   -9999.25   -9999.25
 4497.00000    7.56880   47.71820   48.19220   47.70660   40.54660   47.42080   94.02840   -9999.25   -9999.25   -9999.25   -9999.25   -9999.25   -9999.25
 4497.50000    7.56910   46.81010   49.69690   47.55820   43.75790   47.87330   93.80660   -9999.25   -9999.25   -9999.25   -9999.25   -9999.25   -9999.25
 4498.00000    7.56940   50.08350   51.34340   50.17210   42.66750   49.34140   93.37390   -9999.25   -9999.25   -9999.25   -9999.25   -9999.25   -9999.25
