~Version ---------------------------------------------------
VERS.   2.0 : CWLS log ASCII Standard -VERSION 2.0
WRAP.    NO : One line per depth step
DLM . SPACE : Column Data Section Delimiter
~Well ------------------------------------------------------
STRT .F                  38.0 : START DEPTH
STOP .F                4498.0 : STOP DEPTH
STEP .F                   0.5 : STEP
NULL .               -9999.25 : NULL VALUE
COMP .                        : COMPANY
WELL .                        : WELL
FLD  .                        : FIELD
LOC  .                        : LOCATION
PROV .                        : PROVINCE
CNTY .                        : COUNTY
STAT .                        : STATE
CTRY .                        : COUNTRY
SRVC .                        : SERVICE COMPANY
DATE .                        : DATE
UWI  .                        : UNIQUE WELL ID
API  .                        : API NUMBER
SLAT .WGS84 1.044339074201499 : SURFACE LATITUDE
SLON .WGS84 6.369237990173005 : SURFACE LONGITUDE
DATUM.F                2698.0 : DEPTH DATUM ELEV
~Curve Information -----------------------------------------
DEPT   .F     : 
CALS   .IN    : CALIPER FROM SONIC LOG
DT     .US/F  : DELTA-T (INTERVAL TRANSIT TIME)
DTCO   .US/F  : DELTA-T COMPRESSIONAL
DTL    .US/F  : DELTA-T LONG SPACING
DTLF   .B     : DELTA-T LONG SPACING FAR
DTLN   .US/F  : DELTA-T LONG SPACING NEAR
DTSM   .US/F  : DELTA-T SHEAR
DPHI_LS.DEC   : DENSITY POROSITY LIMESTONE
DRHO   .G/C3  : BULK DENSITY CORRECTION
GRD    .GAPI  : GAMMA RAY FROM DENSITY LOG
NPHI_LS.DEC   : NEUTRON POROSITY LIMESTONE
PEF    .B/E   : PHOTOELECTRIC FACTOR
RHOB   .G/C3  : BULK DENSITY
~Params ----------------------------------------------------
~Other -----------------------------------------------------
~ASCII -----------------------------------------------------
# ...
 3860.00000    9.04800   -9999.25   50.21110   -9999.25   48.62830   49.87010   96.85710    0.00200    0.00650   18.92740    0.09310    3.40950    2.75200
 3860.50000    9.04830   -9999.25   49.60400   -9999.25   48.53640   49.40520   96.24860   -0.00680    0.00650   19.55840    0.09380    3.28240    2.75570
 3861.00000    9.04360   -9999.25   49.60110   -9999.25   48.53500   49.13850   95.03570   -0.02630    0.01270   19.87380    0.09190    3.40920    2.73220
 3861.50000    9.01890   -9999.25   49.90030   -9999.25   48.53370   48.88280   94.12500   -0.04390    0.01820   19.87380    0.08430    3.53600    2.71780
 3862.00000    8.98910   -9999.25   50.19950   -9999.25   48.62300   48.70050   93.81860   -0.04710    0.02050   19.87380    0.07680    3.53590    2.72280
 3862.50000    8.98950   -9999.25   49.49130   -9999.25   48.62160   48.60860   93.51210   -0.04710    0.01420   19.87380    0.07490    3.44050    2.74280
 3863.00000    8.95980   -9999.25   48.60610   -9999.25   48.73150   48.47720   93.20540   -0.05280    0.01040   19.87380    0.07360    3.66250    2.75910
 3863.50000    8.93000   -9999.25   48.37810   -9999.25   49.00790   48.37980   93.20090   -0.06090    0.01420   20.03160    0.07170    3.94810    2.77450
 3864.00000    8.93040   -9999.25   49.10760   -9999.25   52.87760   48.28240   92.82180   -0.06220    0.01820   20.34700    0.07040    4.04320    2.78390
 3864.50000    8.93070   -9999.25   49.58010   -9999.25   51.92990   48.15040   92.09230   -0.06220    0.01900   20.34700    0.06850    3.78900    2.79240
 3865.00000    8.93100   -9999.25   49.27430   -9999.25   50.54820   48.05860   90.40790   -0.06410    0.01500   20.50480    0.06560    3.47140    2.79770
 3865.50000    8.96130   -9999.25   48.96930   -9999.25   47.86910   48.05730   88.66300   -0.06600    0.01120   20.82020    0.06250    3.28080    2.80090
 3866.00000    8.96160   -9999.25   48.96640   -9999.25   47.50270   48.05600   88.64650   -0.06720    0.00960   21.29340    0.06030    3.21710    2.80600
 3866.50000    8.96190   -9999.25   48.96350   -9999.25   48.42920   48.05470   88.75070   -0.06540    0.01810   21.76660    0.05920    3.40750    2.81060
 3867.00000    8.96220   -9999.25   48.35640   -9999.25   48.42790   48.05330   88.33470   -0.06410    0.02210   21.76660    0.05920    3.59780    2.81470
 3867.50000    8.96250   -9999.25   47.73940   -9999.25   48.06400   48.05200   88.33040   -0.06350    0.01810   21.76660    0.05950    3.78810    2.81760
 3868.00000    8.97270   -9999.25   47.14200   -9999.25   47.88150   46.10690   88.02390   -0.06350    0.01350   21.76660    0.06010    3.91490    2.81840
 3868.50000    8.99310   -9999.25   47.13900   -9999.25   47.88010   44.41610   88.01950   -0.06280    0.01500   21.76660    0.06080    4.04170    2.81820
 3869.00000    8.99340   -9999.25   47.22460   -9999.25   47.87880   42.98020   88.01510   -0.06160    0.01580   21.76660    0.06170    3.78760    2.81680
 3869.50000    8.99370   -9999.25   47.55000   -9999.25   47.87750   43.26350   88.01060   -0.06410    0.01580   21.76660    0.06260    3.53350    2.81560
 3870.00000    8.99400   -9999.25   47.73410   -9999.25   47.88210   45.44790   88.00600   -0.06220    0.01500   21.60880    0.06490    3.69210    2.81520
 3870.50000    8.99430   -9999.25   48.33530   -9999.25   48.15820   47.24460   88.00150   -0.05400    0.01190   20.18920    0.06740    3.75540    2.81520
 3871.00000    8.99460   -9999.25   49.23820   -9999.25   48.43410   47.99030   87.99700   -0.02760    0.01270   18.61180    0.06960    3.69170    2.81390
 3871.50000    9.02490   -9999.25   49.53780   -9999.25   48.64180   48.21930   87.99240   -0.02820    0.01580   17.35010    0.07150    3.59630    2.80840
 3872.00000    9.05530   -9999.25   49.83690   -9999.25   48.89550   48.45130   88.14510   -0.02880    0.01580   17.03470    0.07400    3.46920    2.78380
 3872.50000    9.08810   -9999.25   49.22950   -9999.25   49.08080   48.76220   88.88890   -0.02940    0.01500   17.35040    0.07490    3.34210    2.77240
 3873.00000    9.12090   -9999.25   48.32020   -9999.25   49.35680   48.94190   89.48940   -0.03070    0.01190   18.76990    0.07490    3.27840    2.76500
 3873.50000    9.10870   -9999.25   48.31720   -9999.25   49.58630   49.21200   89.78700   -0.03130    0.00880   19.87380    0.07430    3.34170    2.76430
 3874.00000    9.04640   -9999.25   48.31420   -9999.25   49.77700   49.39170   89.48000   -0.03130    0.00720   19.40060    0.07400    3.59550    2.76670
 3874.50000    9.00920   -9999.25   48.76280   -9999.25   49.94820   49.48090   88.87140   -0.02880    0.00640   18.69080    0.07550    3.78590    2.76810
 3875.00000    9.04210   -9999.25   49.61720   -9999.25   50.03780   49.57010   87.65860   -0.01870    0.00880   18.21770    0.07830    3.78570    2.76810
 3875.50000    9.08740   -9999.25   50.11780   -9999.25   50.12690   49.56880   88.02890   -0.01560    0.00960   17.98110    0.08200    3.65860    2.75910
 3876.00000    9.11780   -9999.25   49.65970   -9999.25   50.12550   49.74840   90.26040   -0.01870    0.00490   17.98110    0.08490    3.59490    2.74930
 3876.50000    9.14810   -9999.25   48.90270   -9999.25   50.13820   49.84680   91.87510   -0.02060    0.00170   18.21770    0.08630    3.69000    2.74450
 3877.00000    9.17840   -9999.25   48.59770   -9999.25   50.03230   50.03200   91.96670   -0.02060    0.00650   18.69080    0.08560    3.78510    2.74450
 3877.50000    9.20870   -9999.25   48.89690   -9999.25   49.94030   50.12660   92.59060   -0.02130    0.00960   18.92740    0.08100    3.88020    2.74600
 3878.00000    9.20900   -9999.25   49.80040   -9999.25   49.84590   50.19570   92.76740   -0.03070    0.00720   19.40060    0.07730    3.97520    2.74910
 3878.50000    9.17430   -9999.25   50.09970   -9999.25   49.66570   49.98160   92.76280   -0.04200    0.00250   19.40060    0.07450    4.07030    2.75600
 3879.00000    9.11450   -9999.25   50.09670   -9999.25   49.57370   49.66610   92.45540   -0.05090    0.00250   19.87380    0.07120    4.03840    2.77010
 3879.50000    9.08980   -9999.25   50.05950   -9999.25   49.48170   49.51530   91.84680   -0.05840    0.00720   19.87380    0.06760    3.84780    2.79140
 3880.00000    9.13010   -9999.25   49.48640   -9999.25   49.48040   49.37560   90.02980   -0.05460    0.00910   19.40060    0.06450    3.59360    2.80250
 3880.50000    9.19300   -9999.25   49.18130   -9999.25   49.47900   49.37390   88.81700   -0.04650    0.00380   18.92740    0.06140    3.40300    2.80490
 3881.00000    9.21080   -9999.25   48.87610   -9999.25   49.38700   49.37260   88.81260   -0.04490    0.00070   18.92740    0.05800    3.40280    2.80380
 3881.50000    9.21110   -9999.25   49.15130   -9999.25   49.38570   49.37130   88.80820   -0.05590    0.00590   18.92740    0.05380    3.68840    2.80130
 3882.00000    9.18140   -9999.25   49.77640   -9999.25   49.29370   49.37000   89.10600   -0.05930    0.00800   18.92740    0.05170    3.78350    2.79740
 3882.50000    9.18170   -9999.25   49.47080   -9999.25   49.29230   49.45920   89.10120   -0.05210    0.00440   18.92740    0.05330    3.78330    2.78990
 3883.00000    9.15200   -9999.25   48.56150   -9999.25   49.29070   49.54840   89.09670   -0.04270    0.00120   18.92740    0.05520    3.65620    2.78990
 3883.50000    9.12220   -9999.25   48.25650   -9999.25   49.28940   49.72810   88.79000   -0.04140    0.00330   18.92740    0.05690    3.40210    2.79410
 3884.00000    9.09250   -9999.25   48.25360   -9999.25   49.28810   49.72670   88.78550   -0.04280    0.01270   18.92740    0.05750    3.27490    2.79690
 3884.50000    9.09280   -9999.25   48.85500   -9999.25   49.19610   49.72530   88.78100   -0.04430    0.02000   18.92740    0.05880    3.59220    2.80010
 3885.00000    9.09810   -9999.25   49.15420   -9999.25   49.28540   49.72400   89.98400   -0.04690    0.02630   18.92740    0.06020    4.03650    2.80610
 3885.50000    9.13090   -9999.25   48.24470   -9999.25   49.19350   49.74180   90.37920   -0.05180    0.02890   18.92740    0.06200    4.09980    2.81030
