~Version ---------------------------------------------------
VERS.   2.0 : CWLS log ASCII Standard -VERSION 2.0
WRAP.    NO : One line per depth step
DLM . SPACE : Column Data Section Delimiter
~Well ------------------------------------------------------
STRT .F                  38.0 : START DEPTH
STOP .F                4498.0 : STOP DEPTH
STEP .F                   0.5 : STEP
NULL .               -9999.25 : NULL VALUE
COMP .                        : COMPANY
WELL .                        : WELL
FLD  .                        : FIELD
LOC  .                        : LOCATION
PROV .                        : PROVINCE
CNTY .                        : COUNTY
STAT .                        : STATE
CTRY .                        : COUNTRY
SRVC .                        : SERVICE COMPANY
DATE .                        : DATE
UWI  .                        : UNIQUE WELL ID
API  .                        : API NUMBER
SLAT .WGS84 1.044339074201499 : SURFACE LATITUDE
SLON .WGS84 6.369237990173005 : SURFACE LONGITUDE
DATUM.F                2698.0 : DEPTH DATUM ELEV
~Curve Information -----------------------------------------
DEPT   .F     : 
CALS   .IN    : CALIPER FROM SONIC LOG
DT     .US/F  : DELTA-T (INTERVAL TRANSIT TIME)
DTCO   .US/F  : DELTA-T COMPRESSIONAL
DTL    .US/F  : DELTA-T LONG SPACING
DTLF   .B     : DELTA-T LONG SPACING FAR
DTLN   .US/F  : DELTA-T LONG SPACING NEAR
DTSM   .US/F  : DELTA-T SHEAR
DPHI_LS.DEC   : DENSITY POROSITY LIMESTONE
DRHO   .G/C3  : BULK DENSITY CORRECTION
GRD    .GAPI  : GAMMA RAY FROM DENSITY LOG
NPHI_LS.DEC   : NEUTRON POROSITY LIMESTONE
PEF    .B/E   : PHOTOELECTRIC FACTOR
RHOB   .G/C3  : BULK DENSITY
~Params ----------------------------------------------------
~Other -----------------------------------------------------
~ASCII -----------------------------------------------------
# ...
 3366.00000    8.99160   -9999.25   58.39070   -9999.25   59.87980   60.75290  105.65570    0.09310    0.01160   18.92740    0.19630    3.00480    2.52760
 3366.50000    9.02190   -9999.25   58.06690   -9999.25   59.87930   60.84440  104.85500    0.09960    0.00960   18.92740    0.19590    3.06860    2.52320
 3367.00000    9.02230   -9999.25   57.92420   -9999.25   60.33190   61.59100  104.85200    0.10720    0.00960   18.45430    0.19900    3.04790    2.52150
 3367.50000    9.02260   -9999.25   58.52690   -9999.25   60.78470   62.52940  104.84890    0.11080    0.01220   17.98110    0.20150    2.93170    2.52280
 3368.00000    9.05290   -9999.25   59.43180   -9999.25   60.87490   63.01890  105.14750    0.10790    0.01480   18.45430    0.19620    2.76280    2.53560
 3368.50000    9.05320   -9999.25   59.43040   -9999.25   60.78380   62.65880  105.44710    0.10260    0.01850   19.40060    0.19170    2.75250    2.54960
 3369.00000    9.05350   -9999.25   59.12680   -9999.25   60.51150   62.09240  106.04800    0.09630    0.02160   20.34700    0.18940    2.78450    2.56420
 3369.50000    9.05380   -9999.25   59.12530   -9999.25   60.32550   61.52570  106.04500    0.08740    0.02370   20.34700    0.18890    2.86950    2.56800
 3370.00000    9.05410   -9999.25   59.12390   -9999.25   60.04530   60.94130  106.04210    0.07970    0.02520   20.66240    0.18960    2.92270    2.56020
 3370.50000    9.05440   -9999.25   59.12240   -9999.25   59.85570   60.48970  105.43490    0.07870    0.02680   21.13560    0.18940    3.00770    2.55280
 3371.00000    9.05470   -9999.25   59.12080   -9999.25   59.69400   60.12860  104.52570    0.08460    0.02570   20.97800    0.18900    3.02920    2.55910
 3371.50000    9.05500   -9999.25   58.81720   -9999.25   59.69350   59.94850  104.22050    0.08840    0.02310   19.87410    0.18790    3.01900    2.56560
 3372.00000    9.05530   -9999.25   58.81570   -9999.25   59.69310   59.94930  104.21750    0.08940    0.01790   18.13890    0.18190    2.97690    2.57170
 3372.50000    9.05560   -9999.25   58.91480   -9999.25   59.69260   59.95020  104.21450    0.08820    0.01580   17.98110    0.17730    2.99840    2.57110
 3373.00000    9.05590   -9999.25   59.11510   -9999.25   59.69210   60.05430  104.21150    0.08430    0.02110   18.76960    0.17640    2.95640    2.56130
 3373.50000    9.05620   -9999.25   59.55640   -9999.25   59.69160   60.13300  104.20850    0.07860    0.02520   18.92740    0.17760    2.86150    2.54810
 3374.00000    9.05650   -9999.25   59.71600   -9999.25   59.69120   60.13390  104.20540    0.08090    0.02310   19.40060    0.17740    2.80890    2.54550
 3374.50000    9.05680   -9999.25   59.71420   -9999.25   59.87200   60.13480  104.20240    0.08810    0.01740   19.08520    0.17490    2.77750    2.54490
 3375.00000    9.05710   -9999.25   59.71270   -9999.25   60.23410   60.13570  104.19940    0.09500    0.01040   18.13890    0.17180    2.77780    2.54570
 3375.50000    9.05740   -9999.25   59.71130   -9999.25   60.59620   60.13680  104.19640    0.09760    0.00330   18.29650    0.16950    2.77810    2.54740
 3376.00000    9.08770   -9999.25   59.70980   -9999.25   60.41450   60.40920  104.19280    0.09340    0.00020   19.24280    0.17820    2.74670    2.54980
 3376.50000    9.08800   -9999.25   60.01050   -9999.25   60.41400   60.77200  104.18990    0.09130    0.00020   19.40060    0.18550    2.74700    2.55120
 3377.00000    9.08830   -9999.25   61.82170   -9999.25   60.47640   61.04440  104.18690    0.09150    0.00020   18.92740    0.18840    2.81080    2.54760
 3377.50000    9.08860   -9999.25   61.51810   -9999.25   60.87840   60.68330  104.18400    0.09540    0.00100   18.13890    0.18910    2.95930    2.54190
 3378.00000    9.10320   -9999.25   61.21450   -9999.25   60.68460   60.68780  103.87900    0.10090    0.00250   17.98110    0.18960    2.97020    2.53360
 3378.50000    9.11920   -9999.25   60.91090   -9999.25   60.68410   60.90130  103.87610    0.10280    0.00720   18.45430    0.18900    2.74830    2.52290
 3379.00000    9.11950   -9999.25   60.54660   -9999.25   60.77430   61.35920  103.87310    0.10580    0.01120   19.87380    0.18630    2.62160    2.51120
 3379.50000    9.11980   -9999.25   59.92080   -9999.25   61.04570   61.85710  103.87010    0.11330    0.01740   21.05680    0.18130    2.63250    2.49780
 3380.00000    9.15020   -9999.25   59.39580   -9999.25   61.49850   62.22620  103.86710    0.12130    0.01900   20.58360    0.18020    2.75980    2.48790
 3380.50000    9.15830   -9999.25   59.39430   -9999.25   62.08500   62.09230  104.64720    0.12580    0.00880   20.34700    0.18160    2.84470    2.47630
 3381.00000    9.18080   -9999.25   59.53370   -9999.25   62.03420   61.90400  106.43500    0.13200   -0.00060   20.34700    0.18670    2.94030    2.46840
 3381.50000    9.19260   -9999.25   62.31100   -9999.25   61.84820   61.86700  107.58120    0.13770   -0.00140   20.34700    0.19410    2.94060    2.46770
 3382.00000    9.22480   -9999.25   63.31720   -9999.25   61.67790   62.13950  107.78300    0.14050    0.00880   20.34700    0.19910    2.87740    2.47420
 3382.50000    9.24170   -9999.25   62.71120   -9999.25   62.07660   62.86430  107.77950    0.13660    0.02050   19.87380    0.19970    2.84600    2.47940
 3383.00000    9.24200   -9999.25   62.70980   -9999.25   64.51870   65.03710  107.77640    0.13360    0.02520   18.92740    0.19530    2.81460    2.47440
 3383.50000    9.27240   -9999.25   63.01040   -9999.25   65.57880   65.67150  108.55200    0.13560    0.02420   18.21770    0.19220    2.81490    2.46960
 3384.00000    9.27270   -9999.25   63.61320   -9999.25   65.20010   65.27780  108.97890    0.13990    0.01690   18.45430    0.19280    2.84700    2.47160
 3384.50000    9.24290   -9999.25   63.30960   -9999.25   64.75720   64.63980  109.27790    0.13860    0.00700   19.87380    0.19790    2.84730    2.48140
 3385.00000    9.18320   -9999.25   63.00600   -9999.25   64.48480   64.26240  109.27460    0.13230   -0.00030   20.82020    0.20920    2.87930    2.48830
 3385.50000    9.15350   -9999.25   62.70240   -9999.25   64.30310   64.51400  108.66740    0.12540   -0.00090   21.92440    0.21610    2.94320    2.49070
 3386.00000    9.12370   -9999.25   62.35860   -9999.25   64.12140   65.04250  107.75820    0.12100    0.00070   21.92410    0.21620    3.00700    2.49240
 3386.50000    9.06400   -9999.25   62.09520   -9999.25   63.84910   64.94030  105.94250    0.12290    0.00330   20.82020    0.21240    2.91200    2.49500
 3387.00000    9.06240   -9999.25   61.79150   -9999.25   63.56210   64.41100  105.63750    0.11790    0.00490   20.18920    0.20980    2.81710    2.50070
 3387.50000    9.03450   -9999.25   61.79000   -9999.25   63.27430   64.04990  105.93670    0.11160    0.00640   19.40060    0.20670    2.88090    2.51060
 3388.00000    9.07050   -9999.25   61.78850   -9999.25   62.94140   63.59830  105.93350    0.10840    0.00640   18.92740    0.20420    2.94470    2.51500
 3388.50000    9.12520   -9999.25   61.64610   -9999.25   62.81950   63.14660  105.93050    0.11540    0.00640   18.76960    0.20100    2.97680    2.51050
 3389.00000    9.13480   -9999.25   60.71790   -9999.25   62.68190   62.87600  105.84490    0.12420    0.00640   17.98110    0.19660    2.88190    2.50370
 3389.50000    9.15590   -9999.25   59.97100   -9999.25   62.44030   62.97740  105.52050    0.12860    0.00590   18.29670    0.19470    2.81870    2.50490
 3390.00000    9.15620   -9999.25   59.96950   -9999.25   62.30500   63.14930  105.19640    0.12860    0.00490   19.08520    0.20170    2.81900    2.51150
 3390.50000    9.15650   -9999.25   59.96810   -9999.25   62.21400   63.05960  104.71000    0.12800    0.00490   20.34700    0.20550    2.88280    2.49610
 3391.00000    9.15680   -9999.25   59.96660   -9999.25   62.12290   62.93580  104.70690    0.12610    0.00490   20.34700    0.20480    2.94670    2.49610
 3391.50000    9.12700   -9999.25   59.66300   -9999.25   62.03180   62.70500  105.30760    0.12040    0.00490   19.71600    0.19980    3.01050    2.49920
