~Version ---------------------------------------------------
VERS.   2.0 : CWLS log ASCII Standard -VERSION 2.0
WRAP.    NO : One line per depth step
DLM . SPACE : Column Data Section Delimiter
~Well ------------------------------------------------------
STRT .F                  38.0 : START DEPTH
STOP .F                4498.0 : STOP DEPTH
STEP .F                   0.5 : STEP
NULL .               -9999.25 : NULL VALUE
COMP .                        : COMPANY
WELL .                        : WELL
FLD  .                        : FIELD
LOC  .                        : LOCATION
PROV .                        : PROVINCE
CNTY .                        : COUNTY
STAT .                        : STATE
CTRY .                        : COUNTRY
SRVC .                        : SERVICE COMPANY
DATE .                        : DATE
UWI  .                        : UNIQUE WELL ID
API  .                        : API NUMBER
SLAT .WGS84 1.044339074201499 : SURFACE LATITUDE
SLON .WGS84 6.369237990173005 : SURFACE LONGITUDE
DATUM.F                2698.0 : DEPTH DATUM ELEV
~Curve Information -----------------------------------------
DEPT   .F     : 
CALS   .IN    : CALIPER FROM SONIC LOG
DT     .US/F  : DELTA-T (INTERVAL TRANSIT TIME)
DTCO   .US/F  : DELTA-T COMPRESSIONAL
DTL    .US/F  : DELTA-T LONG SPACING
DTLF   .B     : DELTA-T LONG SPACING FAR
DTLN   .US/F  : DELTA-T LONG SPACING NEAR
DTSM   .US/F  : DELTA-T SHEAR
DPHI_LS.DEC   : DENSITY POROSITY LIMESTONE
DRHO   .G/C3  : BULK DENSITY CORRECTION
GRD    .GAPI  : GAMMA RAY FROM DENSITY LOG
NPHI_LS.DEC   : NEUTRON POROSITY LIMESTONE
PEF    .B/E   : PHOTOELECTRIC FACTOR
RHOB   .G/C3  : BULK DENSITY
~Params ----------------------------------------------------
~Other -----------------------------------------------------
~ASCII -----------------------------------------------------
# ...
 4224.00000    9.20220   -9999.25   44.76120   -9999.25   73.92280   40.77090   88.65260   -0.00010    0.00450   33.48270    0.14100    3.12640    2.71420
 4224.50000    9.25170   -9999.25   44.75970   -9999.25   71.53000   50.36280   88.77650   -0.00020    0.00600   33.95350    0.13510    3.12670    2.71510
 4225.00000    9.23720   -9999.25   47.17520   -9999.25   65.82190   49.99990   89.24470    0.00240    0.00600   33.95110    0.12650    3.06350    2.70870
 4225.50000    9.22280   -9999.25   46.87160   -9999.25   63.08370   49.81800   89.71330    0.00610    0.00550   33.23900    0.12130    3.06380    2.69920
 4226.00000    9.19350   -9999.25   46.25130   -9999.25   65.39270   49.99810   90.44000    0.01120    0.00400   31.58050    0.11790    3.22290    2.69160
 4226.50000    9.19410   -9999.25   45.62660   -9999.25   70.19960   53.16470   91.34050    0.01810    0.00440   30.63170    0.11730    3.44540    2.68250
 4227.00000    9.16460   -9999.25   45.35650   -9999.25   72.37350   60.86270   91.63750    0.02020    0.00860   36.30750    0.11680    3.57270    2.68450
 4227.50000    9.13510   -9999.25   45.50020   -9999.25   74.18490   60.01590   91.63100    0.01010    0.01330   38.19790    0.11760    3.65770    2.69490
 4228.00000    9.10570   -9999.25   47.25870   -9999.25   73.63980   56.95600   91.62510    0.00140    0.01700   38.43220    0.11920    3.49930    2.70930
 4228.50000    9.10630   -9999.25   47.46700   -9999.25   67.56590   54.45150   91.61930   -0.00550    0.01800   31.56860    0.12380    3.27730    2.71960
 4229.00000    9.07690   -9999.25   46.12520   -9999.25   61.40150   51.43620   91.31120   -0.01170    0.01490   28.01730    0.12780    3.25650    2.73270
 4229.50000    9.07750   -9999.25   45.80150   -9999.25   54.96250   48.13790   91.00300   -0.01570    0.01220   28.25150    0.12940    3.32030    2.73050
 4230.00000    9.07810   -9999.25   45.51860   -9999.25   45.40720   45.87700   90.99700   -0.01460    0.01220   30.37850    0.12900    3.42650    2.72090
 4230.50000    9.07870   -9999.25   45.94990   -9999.25   40.89890   44.01500   90.99090    0.00030    0.01380   31.55910    0.12710    3.47970    2.71080
 4231.00000    9.07930   -9999.25   47.45900   -9999.25   40.77920   41.87070   90.98490    0.00540    0.01530   31.08350    0.12540    3.43770    2.70750
 4231.50000    9.07990   -9999.25   48.06180   -9999.25   40.61180   40.48580   90.12690   -0.00740    0.01850   28.47860    0.12490    3.28980    2.72630
 4232.00000    9.08050   -9999.25   48.06030   -9999.25   40.45680   40.75640   89.31730   -0.01690    0.02320   28.47630    0.12610    3.19490    2.73670
 4232.50000    9.08110   -9999.25   46.54830   -9999.25   40.45540   42.02250   88.85200   -0.01920    0.02000   29.89350    0.13570    3.49150    2.73880
 4233.00000    9.08170   -9999.25   46.24470   -9999.25   40.45410   44.28410   88.84480   -0.01360    0.01060   31.31070    0.14060    3.64000    2.73570
 4233.50000    9.08230   -9999.25   46.86760   -9999.25   40.45270   50.70860   88.83900   -0.00860    0.00430   31.54490    0.13660    3.54510    2.73210
 4234.00000    9.08300   48.46900   48.35660   48.63930   40.45110   50.34570   89.13600   -0.00580    0.00590   31.77910    0.13560    3.40780    2.72950
 4234.50000    9.05350   48.46670   48.65720   48.63840   40.44980   48.33190   89.12940   -0.01010    0.00750   31.77680    0.13610    3.28120    2.72940
 4235.00000    9.05410   48.46450   47.98560   48.63750   40.44850   47.71950   89.42600   -0.01380    0.00900   31.53780    0.13950    3.23910    2.72850
 4235.50000    9.02460   48.46220   46.97380   48.16420   41.26290   48.24830   89.41990   -0.00900    0.00900   31.06220    0.13860    3.22890    2.72850
 4236.00000    8.99520   47.79180   46.53780   47.82010   48.05920   51.70810   89.41390   -0.00850    0.00740   30.35010    0.13660    3.22920    2.72970
 4236.50000    8.96580   46.46070   46.66070   48.25130   40.00000   60.57980   89.40790   -0.01210    0.00740   30.34770    0.13400    3.25070    2.73100
 4237.00000    8.93630   46.53590   47.42640   48.86400   40.00000   61.10970   89.40180   -0.01350    0.00580   31.29170    0.13300    3.29330    2.73480
 4237.50000    8.93690   47.18230   48.81190   48.98040   40.00000   58.05790   89.39580   -0.01250    0.00580   31.52590    0.13330    3.37300    2.73270
 4238.00000    8.93750   47.97150   48.94860   48.81310   40.25380   55.88750   89.38970   -0.00860    0.00580   31.05040    0.13710    3.46850    2.72080
 4238.50000    8.93810   48.35740   49.55110   48.72160   49.77510   55.11470   89.38370   -0.00080    0.00580   30.81140    0.14070    3.50060    2.70740
 4239.00000    8.96880   48.44630   48.94540   48.72080   52.40170   61.55820   89.37760    0.00160    0.00740   30.57240    0.14300    3.37400    2.70740
 4239.50000    8.99940   48.44380   48.33970   48.71990   44.53700   64.81530   89.37160   -0.00070    0.00890   30.80670    0.14210    3.35840    2.70740
 4240.00000    9.01200   48.44160   48.33830   48.80970   40.00000   58.47950   89.66650   -0.00240    0.01050   31.51430    0.13920    3.50150    2.71050
 4240.50000    9.06070   48.43940   48.33680   48.62670   40.00000   45.08500   89.66070   -0.00430    0.01050   31.98510    0.13800    3.40670    2.71510
 4241.00000    9.09130   47.97950   48.03320   47.88830   40.00000   41.01170   89.65480   -0.00650    0.01520   31.82500    0.13870    3.18480    2.72150
 4241.50000    9.12200   47.70890   47.38980   47.71930   40.00000   42.28720   89.64900   -0.01080    0.02620   31.50720    0.14070    3.16920    2.73060
 4242.00000    9.12260   48.73400   46.48120   47.97740   40.00000   48.04770   89.64320   -0.02160    0.03550   31.03160    0.14530    3.26480    2.74350
 4242.50000    9.15320   48.88450   45.91400   48.98650   40.00000   54.95970   89.63730   -0.02310    0.04180   30.55600    0.15270    3.29680    2.74680
 4243.00000    9.15380   48.79120   46.59410   48.86280   40.51740   58.91210   89.32930   -0.01390    0.03080   29.92280    0.15630    3.26540    2.74570
 4243.50000    9.12430   48.78900   47.31290   48.80330   43.41640   59.54450   89.02110   -0.01050    0.02460   29.60490    0.15810    3.21810    2.74140
 4244.00000    9.12500   48.82790   48.02450   48.84720   55.48220   60.50860   88.66470   -0.01310    0.02300   29.44490    0.15730    3.13910    2.73690
 4244.50000    9.12550   48.96600   46.40400   49.03390   68.16860   63.04390   88.40480   -0.01500    0.02610   29.12700    0.15280    3.09180    2.73560
 4245.00000    9.12610   48.69090   45.45800   48.80040   74.13760   54.58100   88.39880   -0.01700    0.03130   29.91330    0.14720    3.04450    2.73910
 4245.50000    9.12670   48.05330   47.43720   48.34640   67.85300   47.42760   88.80660   -0.01950    0.03660   31.64590    0.14210    3.04480    2.74810
 4246.00000    9.12730   48.14190   49.83060   48.43620   63.67180   44.32450   89.42600   -0.02200    0.03970   32.90540    0.13780    3.20390    2.75550
 4246.50000    9.12790   48.59360   49.52700   49.06970   62.89490   45.43640   89.58910   -0.02370    0.01880   32.90300    0.13600    3.41050    2.75670
 4247.00000    9.11990   48.95450   48.92130   49.16740   67.14730   41.22680   89.58310   -0.02100    0.00990   32.90070    0.14060    3.55360    2.75280
 4247.50000    9.09900   48.95230   47.71140   48.79610   72.62860   40.18550   89.57600   -0.01460    0.00570   32.26740    0.15120    3.73380    2.73910
 4248.00000    9.09970   48.85190   47.10570   48.33250   72.61410   40.18460   89.57020   -0.00270    0.00670   31.31870    0.15550    3.46960    2.72610
 4248.50000    9.07030   48.45290   47.10420   47.96740   63.43280   42.53650   89.26220    0.00210    0.00880   30.84310    0.15290    3.48060    2.71790
 4249.00000    9.07090   47.60700   47.09170   47.79650   54.73060   48.14650   88.65220   -0.00240    0.01040   30.36750    0.14850    3.68190    2.71580
 4249.50000    9.07160   47.12780   46.49700   47.93380   49.20060   51.80800   88.34420   -0.00490    0.00880   30.20740    0.14540    3.73510    2.71830
