~Version ---------------------------------------------------
VERS.   2.0 : CWLS log ASCII Standard -VERSION 2.0
WRAP.    NO : One line per depth step
DLM . SPACE : Column Data Section Delimiter
~Well ------------------------------------------------------
STRT .F                  38.0 : START DEPTH
STOP .F                4498.0 : STOP DEPTH
STEP .F                   0.5 : STEP
NULL .               -9999.25 : NULL VALUE
COMP .                        : COMPANY
WELL .                        : WELL
FLD  .                        : FIELD
LOC  .                        : LOCATION
PROV .                        : PROVINCE
CNTY .                        : COUNTY
STAT .                        : STATE
CTRY .                        : COUNTRY
SRVC .                        : SERVICE COMPANY
DATE .                        : DATE
UWI  .                        : UNIQUE WELL ID
API  .                        : API NUMBER
SLAT .WGS84 1.044339074201499 : SURFACE LATITUDE
SLON .WGS84 6.369237990173005 : SURFACE LONGITUDE
DATUM.F                2698.0 : DEPTH DATUM ELEV
~Curve Information -----------------------------------------
DEPT   .F     : 
CALS   .IN    : CALIPER FROM SONIC LOG
DT     .US/F  : DELTA-T (INTERVAL TRANSIT TIME)
DTCO   .US/F  : DELTA-T COMPRESSIONAL
DTL    .US/F  : DELTA-T LONG SPACING
DTLF   .B     : DELTA-T LONG SPACING FAR
DTLN   .US/F  : DELTA-T LONG SPACING NEAR
DTSM   .US/F  : DELTA-T SHEAR
DPHI_LS.DEC   : DENSITY POROSITY LIMESTONE
DRHO   .G/C3  : BULK DENSITY CORRECTION
GRD    .GAPI  : GAMMA RAY FROM DENSITY LOG
NPHI_LS.DEC   : NEUTRON POROSITY LIMESTONE
PEF    .B/E   : PHOTOELECTRIC FACTOR
RHOB   .G/C3  : BULK DENSITY
~Params ----------------------------------------------------
~Other -----------------------------------------------------
~ASCII -----------------------------------------------------
# ...
 3730.00000    9.04810   -9999.25   56.43480   -9999.25   57.94810   56.57000  101.17820    0.05910    0.00080   16.87650    0.12450    3.18410    2.63580
 3730.50000    9.04870   -9999.25   56.43180   -9999.25   57.55540   57.25750  102.07730    0.06340    0.00860   19.55810    0.11920    3.35360    2.62070
 3731.00000    9.04930   -9999.25   55.82470   -9999.25   57.55490   57.22960  100.09590    0.06930    0.01640   19.87380    0.11040    3.44900    2.60670
 3731.50000    9.04990   -9999.25   54.91540   -9999.25   57.01070   56.96560   98.07410    0.07470    0.01170   19.08520    0.10190    3.52320    2.59810
 3732.00000    9.06630   -9999.25   53.99000   -9999.25   56.37580   56.48630   97.82480    0.07860    0.00070   18.92740    0.09490    3.55510    2.59340
 3732.50000    9.08110   -9999.25   53.70110   -9999.25   56.19410   56.44110   97.81720    0.08050   -0.00190   18.13890    0.09390    3.52350    2.58400
 3733.00000    9.08170   -9999.25   55.06990   -9999.25   56.19370   56.35020   98.89740    0.08100   -0.00140   17.98110    0.09750    3.33320    2.57900
 3733.50000    9.05220   -9999.25   56.18520   -9999.25   56.07950   55.98770  102.27350    0.07130    0.00430   17.66570    0.10480    3.25930    2.57200
 3734.00000    9.05290   -9999.25   56.59600   -9999.25   55.88880   55.89680  103.83690    0.06170    0.01060   17.50790    0.10770    3.36520    2.57570
 3734.50000    9.05350   -9999.25   58.25370   -9999.25   55.73910   55.80590  103.52570    0.06250    0.01530   17.50790    0.11020    3.61940    2.58590
 3735.00000    9.05410   -9999.25   59.12390   -9999.25   55.73870   55.89600  102.91420    0.08330    0.01790   17.50790    0.10850    3.76770    2.58710
 3735.50000    9.02460   -9999.25   58.81870   -9999.25   55.73810   55.89550  102.60480    0.09860    0.01580   17.50790    0.10410    3.83660    2.55730
 3736.00000    9.02520   -9999.25   57.87280   -9999.25   55.73770   55.89500  102.59750    0.09040    0.00690   17.50790    0.10180    3.80500    2.55060
 3736.50000    9.02590   -9999.25   56.69730   -9999.25   55.73730   56.02320  102.59010    0.08150   -0.00100   17.50790    0.10290    3.61470    2.55700
 3737.00000    9.02650   -9999.25   57.29860   -9999.25   55.91810   56.49300  102.58280    0.07110   -0.00830   17.98110    0.10710    3.23400    2.57220
 3737.50000    8.99700   -9999.25   58.20210   -9999.25   57.73420   57.61300  101.97130    0.06430   -0.00890   18.21770    0.11800    2.93250    2.58690
 3738.00000    8.99770   -9999.25   58.80340   -9999.25   57.72990   57.97470  101.96370    0.05870   -0.00160   18.69080    0.12130    3.10730    2.59340
 3738.50000    8.99820   -9999.25   58.49830   -9999.25   57.48350   57.79320  101.95620    0.06450    0.00730   19.16400    0.12060    3.25030    2.60100
 3739.00000    8.99880   -9999.25   58.19330   -9999.25   56.85130   57.34030  101.94860    0.07330    0.01150   20.58360    0.12060    3.29810    2.60480
 3739.50000    8.99940   -9999.25   58.18950   -9999.25   56.10890   56.69770  101.86050    0.08330    0.01200   22.00320    0.12080    3.26650    2.60460
 3740.00000    9.00000   -9999.25   57.58310   -9999.25   55.77640   56.11460  101.22860    0.09170    0.00720   24.36910    0.12230    3.20840    2.59610
 3740.50000    9.00060   -9999.25   57.58010   -9999.25   55.73360   55.61950  100.59680    0.09040    0.00360   26.02520    0.12640    3.16630    2.57660
 3741.00000    9.00120   -9999.25   57.63550   -9999.25   55.73320   55.86100  100.10570    0.08790    0.00120   25.07880    0.13470    3.29340    2.56510
 3741.50000    9.00180   -9999.25   58.17860   -9999.25   56.00460   56.20130   99.79610    0.08670    0.00120   24.60570    0.14460    3.34650    2.55720
 3742.00000    9.00240   -9999.25   57.58270   -9999.25   56.27610   56.57900  100.08920    0.08680    0.00430   24.60570    0.15140    3.30430    2.55500
 3742.50000    9.01450   -9999.25   54.50170   -9999.25   56.73780   57.15600  100.68610    0.09120    0.00510   25.31540    0.15430    3.28330    2.55630
 3743.00000    9.03360   -9999.25   53.50250   -9999.25   57.39650   57.60810  101.58510    0.09430    0.00510   25.31540    0.15540    3.28350    2.55760
 3743.50000    9.03420   -9999.25   53.48660   -9999.25   58.07740   58.42210  101.88070    0.09110    0.00350   24.60570    0.15660    3.28360    2.55890
 3744.00000    9.03480   -9999.25   54.75500   -9999.25   58.68880   59.23620  101.87260    0.09110    0.00190   24.60570    0.15770    3.35790    2.55630
 3744.50000    9.06560   -9999.25   55.24880   -9999.25   59.15930   59.96850  101.86530    0.09370    0.00030   25.31540    0.15850    3.42150    2.55370
 3745.00000    9.06620   -9999.25   55.13550   -9999.25   59.49240   60.14030  102.46220    0.09810   -0.00130   26.26180    0.15900    3.49580    2.54820
 3745.50000    9.06670   -9999.25   55.43470   -9999.25   59.53580   60.13980  104.91180    0.10630   -0.00360   27.44480    0.15900    3.57000    2.53780
 3746.00000    9.06730   -9999.25   56.03600   -9999.25   59.53530   60.04890  105.77090    0.11570   -0.00520   28.39120    0.15710    3.69710    2.52220
 3746.50000    9.06790   -9999.25   58.75210   -9999.25   59.44420   59.95790  105.46070    0.12330   -0.00680   29.10100    0.15050    3.57030    2.50390
 3747.00000    9.06850   -9999.25   59.65550   -9999.25   59.26250   59.95750  105.53370    0.12140   -0.00680   29.81070    0.14360    3.41170    2.49920
 3747.50000    9.03900   -9999.25   59.95470   -9999.25   58.99020   59.95690  106.45280    0.11200   -0.00340   26.97130    0.14070    3.34840    2.50920
 3748.00000    9.03960   -9999.25   60.25390   -9999.25   58.98970   59.95650  107.25220    0.10630    0.00180   24.60570    0.14420    3.28510    2.52170
 3748.50000    9.04020   -9999.25   60.25080   -9999.25   58.98930   60.22760  107.54530    0.10380    0.01010   24.60570    0.14870    3.25350    2.52810
 3749.00000    9.04080   -9999.25   59.94560   -9999.25   59.34340   60.67960  107.69890    0.10440    0.01120   25.23670    0.15440    3.28540    2.53060
 3749.50000    9.04140   -9999.25   59.33840   -9999.25   60.18590   61.05300  108.43510    0.10440    0.00910   26.18300    0.15930    3.34900    2.53060
 3750.00000    9.04200   -9999.25   58.93250   -9999.25   61.25380   61.43290  109.63620    0.09940    0.00440   27.44510    0.16290    3.41270    2.53480
 3750.50000    9.04260   -9999.25   58.72810   -9999.25   61.61580   61.69800  109.62890    0.09860   -0.00090   28.70660    0.16540    3.53980    2.53460
 3751.00000    9.04320   -9999.25   59.02720   -9999.25   61.70600   61.85440  109.62160    0.10440   -0.00660   27.12910    0.16780    3.54000    2.53310
 3751.50000    9.04380   -9999.25   59.02420   -9999.25   61.61490   61.81110  109.61430    0.10320   -0.00880   26.65620    0.16900    3.44490    2.53750
 3752.00000    9.04440   -9999.25   58.71900   -9999.25   61.34260   61.65910  109.60700    0.09430   -0.00360   27.76050    0.16370    3.38160    2.55260
 3752.50000    9.04510   -9999.25   58.71550   -9999.25   61.16090   61.30990  109.59970    0.08740    0.00060   29.18000    0.16260    3.28650    2.55740
 3753.00000    9.04570   -9999.25   58.71260   -9999.25   61.16040   61.58090  109.57200    0.08490    0.00370   30.75740    0.16470    3.19140    2.55980
 3753.50000    9.04630   -9999.25   59.31390   -9999.25   61.25060   61.58050  108.55660    0.08360    0.00840   33.12330    0.16990    3.15990    2.56040
 3754.00000    9.04690   -9999.25   59.31090   -9999.25   61.06890   61.48960  105.70920    0.08300    0.01100   34.70040    0.17540    3.19180    2.56080
 3754.50000    9.04750   -9999.25   58.40170   -9999.25   61.06840   61.30080  103.52720    0.08370    0.01520   35.33120    0.17710    3.25540    2.56200
 3755.00000    9.04810   -9999.25   57.49240   -9999.25   61.06800   61.21720  103.51960    0.08810    0.01930   33.75370    0.17170    3.28730    2.56200
 3755.50000    9.04860   -9999.25   56.26280   -9999.25   60.97680   61.10040  103.51210    0.10380    0.02350   32.64980    0.16380    3.30860    2.56310
