~Version ---------------------------------------------------
VERS.   2.0 : CWLS log ASCII Standard -VERSION 2.0
WRAP.    NO : One line per depth step
DLM . SPACE : Column Data Section Delimiter
~Well ------------------------------------------------------
STRT .F                  38.0 : START DEPTH
STOP .F                4498.0 : STOP DEPTH
STEP .F                   0.5 : STEP
NULL .               -9999.25 : NULL VALUE
COMP .                        : COMPANY
WELL .                        : WELL
FLD  .                        : FIELD
LOC  .                        : LOCATION
PROV .                        : PROVINCE
CNTY .                        : COUNTY
STAT .                        : STATE
CTRY .                        : COUNTRY
SRVC .                        : SERVICE COMPANY
DATE .                        : DATE
UWI  .                        : UNIQUE WELL ID
API  .                        : API NUMBER
SLAT .WGS84 1.044339074201499 : SURFACE LATITUDE
SLON .WGS84 6.369237990173005 : SURFACE LONGITUDE
DATUM.F                2698.0 : DEPTH DATUM ELEV
~Curve Information -----------------------------------------
DEPT   .F     : 
CALS   .IN    : CALIPER FROM SONIC LOG
DT     .US/F  : DELTA-T (INTERVAL TRANSIT TIME)
DTCO   .US/F  : DELTA-T COMPRESSIONAL
DTL    .US/F  : DELTA-T LONG SPACING
DTLF   .B     : DELTA-T LONG SPACING FAR
DTLN   .US/F  : DELTA-T LONG SPACING NEAR
DTSM   .US/F  : DELTA-T SHEAR
DPHI_LS.DEC   : DENSITY POROSITY LIMESTONE
DRHO   .G/C3  : BULK DENSITY CORRECTION
GRD    .GAPI  : GAMMA RAY FROM DENSITY LOG
NPHI_LS.DEC   : NEUTRON POROSITY LIMESTONE
PEF    .B/E   : PHOTOELECTRIC FACTOR
RHOB   .G/C3  : BULK DENSITY
~Params ----------------------------------------------------
~Other -----------------------------------------------------
~ASCII -----------------------------------------------------
# ...
 3990.00000    8.94590   -9999.25   48.48920   -9999.25   47.26870   47.96980   87.25090   -0.06960    0.00470    8.56460    0.04620    3.83490    2.82280
 3990.50000    8.94620   -9999.25   47.88350   -9999.25   46.36150   47.79140   87.51850   -0.06470    0.00670    7.61580    0.04410    3.81400    2.82770
 3991.00000    8.94650   -9999.25   47.27780   -9999.25   46.17940   47.79100   87.21150   -0.06710    0.00830    8.08660    0.04320    3.85670    2.83280
 3991.50000    8.94680   -9999.25   47.27640   -9999.25   46.54100   47.79050   86.90480   -0.06960    0.01060    8.08420    0.04320    3.97340    2.83400
 3992.00000    8.94710   -9999.25   47.88710   -9999.25   47.26520   47.91310   86.59820   -0.07170    0.01220    9.02820    0.04180    4.10070    2.82910
 3992.50000    8.94750   -9999.25   48.51450   -9999.25   47.72280   48.06110   86.59370   -0.07460    0.01290    9.97220    0.03930    3.88950    2.81890
 3993.00000    8.94780   -9999.25   49.08470   -9999.25   47.80730   48.01330   86.76130   -0.06970    0.01450    9.96980    0.03780    3.59340    2.80700
 3993.50000    8.94810   -9999.25   49.00110   -9999.25   47.80630   47.78860   87.18810   -0.06070    0.01600    9.96740    0.03710    3.66780    2.80480
 3994.00000    8.94840   -9999.25   48.26360   -9999.25   47.80540   47.78820   88.09000   -0.06110    0.01680    9.96510    0.03680    3.90090    2.80550
 3994.50000    8.94860   -9999.25   47.26740   -9999.25   47.69610   47.78770   88.68990   -0.06140    0.01680    9.96310    0.04020    3.77430    2.80750
 3995.00000    8.94890   -9999.25   46.96370   -9999.25   46.85930   47.96830   88.98790   -0.06020    0.01520    9.48750    0.04800    3.60530    2.80860
 3995.50000    8.94920   -9999.25   47.26440   -9999.25   46.35260   48.23930   88.98330   -0.05500    0.01440    9.48510    0.05250    3.55270    2.79910
 3996.00000    8.94950   -9999.25   46.65840   -9999.25   46.71410   48.51040   88.97890   -0.04050    0.01440    9.48280    0.05020    3.63770    2.77690
 3996.50000    8.93800   -9999.25   46.05270   -9999.25   47.89140   48.13930   88.63630   -0.03760    0.01440    9.79580    0.04530    3.68030    2.77660
 3997.00000    8.92010   -9999.25   46.05120   -9999.25   48.21070   47.82800   88.00400   -0.04350    0.01670    9.95120    0.04550    3.60650    2.78630
 3997.50000    8.92040   -9999.25   46.04980   -9999.25   47.34590   47.42310   87.15260   -0.05190    0.02010   10.42200    0.05090    3.45870    2.79740
 3998.00000    8.92080   -9999.25   45.43980   -9999.25   47.61690   47.42260   87.55690   -0.06990    0.02420   10.41960    0.05520    3.36380    2.80840
 3998.50000    8.92110   -9999.25   43.90530   -9999.25   47.60180   47.60320   88.18020   -0.07740    0.02530    9.94410    0.05560    3.54400    2.83200
 3999.00000    8.92130   -9999.25   43.32640   -9999.25   47.20820   47.60270   88.49540   -0.07620    0.02530    9.15310    0.05220    3.49140    2.83090
 3999.50000    8.92160   -9999.25   43.77870   -9999.25   46.34640   47.51170   88.34200   -0.06480    0.02320    8.20430    0.04970    3.31180    2.81830
 4000.00000    8.95190   -9999.25   44.63190   -9999.25   44.86410   47.42070   88.64050   -0.05400    0.02050    9.30590    0.04930    3.59780    2.80590
 4000.50000    8.92220   -9999.25   45.50340   -9999.25   44.71160   47.23880   88.63750   -0.05630    0.01850    9.77670    0.05030    3.84160    2.80350
 4001.00000    8.95260   -9999.25   47.38030   -9999.25   44.71030   47.23790   88.58520   -0.05850    0.01530    9.93220    0.05200    3.86310    2.80220
 4001.50000    8.95290   -9999.25   49.08840   -9999.25   45.51010   47.32760   87.87930   -0.05650    0.01270    9.92980    0.05180    3.55660    2.79330
 4002.00000    8.95320   -9999.25   49.64950   -9999.25   47.24510   47.59820   87.41990   -0.05220    0.01260    9.92740    0.05030    3.32400    2.79420
 4002.50000    8.98350   -9999.25   46.62320   -9999.25   47.57180   47.68780   87.84240   -0.06030    0.01470    9.92500    0.04830    3.59940    2.80250
 4003.00000    9.01380   -9999.25   43.89990   -9999.25   47.15180   47.67720   88.01810   -0.06890    0.01730    9.92280    0.04640    3.94900    2.81600
 4003.50000    9.01410   -9999.25   45.40610   -9999.25   47.33180   47.59550   88.01510   -0.07560    0.01890   10.15700    0.04370    3.81180    2.83100
 4004.00000    9.01440   -9999.25   46.34000   -9999.25   47.33050   47.57170   88.01160   -0.06980    0.01680   10.62780    0.04120    3.54750    2.83520
 4004.50000    9.04590   -9999.25   45.08110   -9999.25   47.23850   47.38320   87.70660   -0.06660    0.01360   10.86210    0.03890    3.49490    2.83040
 4005.00000    9.07510   -9999.25   44.18450   -9999.25   47.05140   47.06790   87.70370   -0.06660    0.01200   11.33290    0.03700    3.48470    2.82150
 4005.50000    9.07540   -9999.25   45.19280   -9999.25   46.77160   46.69160   88.00290   -0.06650    0.01100   11.80370    0.03520    3.54850    2.81240
 4006.00000    9.11390   -9999.25   46.29060   -9999.25   46.50940   46.59550   88.00000   -0.06650    0.00780   12.51110    0.03410    3.66520    2.80500
 4006.50000    9.13600   -9999.25   45.48170   -9999.25   46.50800   46.59440   87.99700   -0.06630    0.00620   13.45510    0.03510    3.76080    2.79880
 4007.00000    9.13630   -9999.25   45.07250   -9999.25   46.50660   46.77450   87.99400   -0.06270    0.00310   13.68910    0.03690    3.87740    2.79440
 4007.50000    9.13660   -9999.25   45.96450   -9999.25   46.59620   47.04510   87.99090   -0.05400    0.00310   11.32090    0.03920    3.90720    2.78990
 4008.00000    9.13700   -9999.25   45.59540   -9999.25   46.86280   47.40630   87.98790   -0.04040    0.00460    9.89900    0.04210    3.84380    2.78210
 4008.50000    9.13730   -9999.25   44.64710   -9999.25   47.47760   47.85790   87.98490   -0.03620    0.00620    9.42350    0.04460    3.90750    2.77770
 4009.00000    9.13760   -9999.25   45.96010   -9999.25   48.04170   48.21900   87.98190   -0.04650    0.00930    9.89430    0.04610    3.78060    2.78210
 4009.50000    9.13790   -9999.25   47.46630   -9999.25   48.22170   48.40460   87.97890   -0.05290    0.01080    9.89190    0.04780    3.49510    2.79610
 4010.00000    9.13820   -9999.25   47.15980   -9999.25   48.22040   48.48870   87.97530   -0.05640    0.01080   10.36270    0.04970    3.40000    2.80070
 4010.50000    9.13840   -9999.25   45.64490   -9999.25   46.95020   48.46910   87.97240   -0.05830    0.01080   11.30670    0.05220    3.74940    2.78900
 4011.00000    9.13870   -9999.25   46.26310   -9999.25   46.58630   48.30590   87.96950   -0.05300    0.01240   11.77760    0.05470    3.65430    2.77560
 4011.50000    9.13900   -9999.25   47.44890   -9999.25   47.58200   48.27300   87.96660   -0.03700    0.01550   12.24840    0.05640    3.36870    2.76830
 4012.00000    9.13930   -9999.25   47.08970   -9999.25   48.03390   48.17500   87.96370   -0.03240    0.02490   13.19240    0.05310    3.62290    2.77470
 4012.50000    9.13960   -9999.25   46.23110   -9999.25   46.74200   48.07690   87.97330   -0.05950    0.04050   13.66320    0.04960    3.68650    2.80390
 4013.00000    9.13990   -9999.25   45.82560   -9999.25   44.85890   47.88840   88.26000   -0.07620    0.06400   13.18760    0.04680    3.52800    2.83310
 4013.50000    9.14020   -9999.25   44.76990   -9999.25   45.76560   47.75820   88.25680   -0.08030    0.04360   12.23890    0.04450    3.52810    2.83900
 4014.00000    9.14050   -9999.25   43.65550   -9999.25   47.06220   47.75730   88.25380   -0.07580    0.02010   11.76340    0.04380    3.65530    2.83410
 4014.50000    9.11090   -9999.25   43.19180   -9999.25   47.21160   47.75650   88.25080   -0.06690    0.01010   11.28780    0.04530    3.78240    2.82320
 4015.00000    9.08110   -9999.25   44.39500   -9999.25   46.90370   47.84610   88.24770   -0.05750    0.00600   10.33910    0.04990    3.88840    2.80770
 4015.50000    9.08140   -9999.25   45.29690   -9999.25   44.77180   48.11670   88.24470   -0.05180    0.00960   10.33670    0.05900    3.77210    2.80080
