~Version ---------------------------------------------------
VERS.   2.0 : CWLS log ASCII Standard -VERSION 2.0
WRAP.    NO : One line per depth step
DLM . SPACE : Column Data Section Delimiter
~Well ------------------------------------------------------
STRT .F                  38.0 : START DEPTH
STOP .F                4498.0 : STOP DEPTH
STEP .F                   0.5 : STEP
NULL .               -9999.25 : NULL VALUE
COMP .                        : COMPANY
WELL .                        : WELL
FLD  .                        : FIELD
LOC  .                        : LOCATION
PROV .                        : PROVINCE
CNTY .                        : COUNTY
STAT .                        : STATE
CTRY .                        : COUNTRY
SRVC .                        : SERVICE COMPANY
DATE .                        : DATE
UWI  .                        : UNIQUE WELL ID
API  .                        : API NUMBER
SLAT .WGS84 1.044339074201499 : SURFACE LATITUDE
SLON .WGS84 6.369237990173005 : SURFACE LONGITUDE
DATUM.F                2698.0 : DEPTH DATUM ELEV
~Curve Information -----------------------------------------
DEPT   .F     : 
CALS   .IN    : CALIPER FROM SONIC LOG
DT     .US/F  : DELTA-T (INTERVAL TRANSIT TIME)
DTCO   .US/F  : DELTA-T COMPRESSIONAL
DTL    .US/F  : DELTA-T LONG SPACING
DTLF   .B     : DELTA-T LONG SPACING FAR
DTLN   .US/F  : DELTA-T LONG SPACING NEAR
DTSM   .US/F  : DELTA-T SHEAR
DPHI_LS.DEC   : DENSITY POROSITY LIMESTONE
DRHO   .G/C3  : BULK DENSITY CORRECTION
GRD    .GAPI  : GAMMA RAY FROM DENSITY LOG
NPHI_LS.DEC   : NEUTRON POROSITY LIMESTONE
PEF    .B/E   : PHOTOELECTRIC FACTOR
RHOB   .G/C3  : BULK DENSITY
~Params ----------------------------------------------------
~Other -----------------------------------------------------
~ASCII -----------------------------------------------------
# ...
 3600.00000    9.13210   -9999.25   50.27120   -9999.25   55.77040   55.71620  100.72580    0.08520    0.01900   14.66880    0.16880    2.88890    2.55340
 3600.50000    9.13240   -9999.25   54.49700   -9999.25   55.77770   55.83710  101.04670    0.09650    0.01110   14.66640    0.17280    2.76190    2.57830
 3601.00000    9.13270   -9999.25   53.88780   -9999.25   56.07120   56.10860  101.67070    0.08960    0.00640   14.66400    0.17570    2.82540    2.58990
 3601.50000    9.10300   -9999.25   53.85390   -9999.25   56.44850   56.38010  102.21830    0.07070    0.00170   14.66170    0.17740    2.98410    2.60170
 3602.00000    9.07320   -9999.25   54.48340   -9999.25   57.00660   56.65160  102.10880    0.05750    0.00020   14.81710    0.17990    3.01590    2.61540
 3602.50000    9.06030   -9999.25   53.21800   -9999.25   57.03930   56.83260  101.47260    0.05490   -0.00140   15.13010    0.18260    2.92060    2.59730
 3603.00000    9.04380   -9999.25   51.71390   -9999.25   56.94860   56.83260  101.13890    0.06690   -0.00140   15.12780    0.18550    2.79370    2.57710
 3603.50000    9.01410   -9999.25   51.44910   -9999.25   56.94860   56.83260  100.98370    0.08140   -0.00140   15.28320    0.18990    2.79370    2.55780
 3604.00000    9.01450   -9999.25   52.82990   -9999.25   56.94860   56.85670  100.97790    0.09090    0.00170   16.22720    0.19710    2.92060    2.54120
 3604.50000    9.01470   -9999.25   54.79760   -9999.25   57.22050   57.19680  100.97210    0.09780    0.00800   17.01340    0.20530    2.98410    2.52890
 3605.00000    9.01500   -9999.25   56.37450   -9999.25   57.58310   57.66960  100.96630    0.09970    0.01740   17.01100    0.20760    2.92060    2.52590
 3605.50000    9.04530   -9999.25   58.25390   -9999.25   58.03630   58.36810  100.96050    0.09780    0.02210   17.00870    0.20830    2.85710    2.52370
 3606.00000    9.07570   -9999.25   60.18650   -9999.25   58.58010   59.02860  100.95470    0.09780    0.02050   17.00630    0.20950    2.95240    2.52040
 3606.50000    9.04590   -9999.25   59.57790   -9999.25   59.22530   59.63800  100.94860    0.10350    0.01270   16.37300    0.21000    3.04760    2.51600
 3607.00000    9.03910   -9999.25   59.87560   -9999.25   59.57700   59.81900  101.30200    0.11040    0.00020   15.58200    0.21000    3.07940    2.50970
 3607.50000    9.01650   -9999.25   60.47550   -9999.25   59.57700   59.90950  102.86240    0.11170   -0.00610   15.26430    0.21000    3.01590    2.49760
 3608.00000    9.00440   -9999.25   61.07540   -9999.25   59.57700   60.00000  106.82780    0.11550   -0.00770   15.73510    0.20930    2.92060    2.48650
 3608.50000    8.97200   -9999.25   61.37310   -9999.25   59.60970   60.09050  109.51800    0.12680   -0.00300   16.67910    0.21130    2.82540    2.48540
 3609.00000    8.95740   -9999.25   61.06650   -9999.25   60.05920   60.36830  109.51940    0.14070    0.00490   17.62310    0.21760    2.76190    2.49740
 3609.50000    8.95770   -9999.25   60.96810   -9999.25   60.76270   61.21810  108.76630    0.12620    0.01430   18.40930    0.22280    2.92060    2.50670
 3610.00000    8.95800   -9999.25   60.08050   -9999.25   61.48040   61.82510  108.45840    0.11740    0.01900   18.88010    0.22510    2.98410    2.48990
 3610.50000    9.01830   -9999.25   59.44810   -9999.25   61.66160   61.78810  108.75470    0.11800    0.01430   18.87780    0.21850    3.01590    2.46940
 3611.00000    9.01860   -9999.25   59.23560   -9999.25   61.48040   61.60030  109.95730    0.12500    0.01110   18.87540    0.21750    2.95240    2.46830
 3611.50000    9.01890   -9999.25   59.37250   -9999.25   61.20850   61.53850  109.95150    0.12620    0.00960   18.39980    0.22230    2.86280    2.47110
 3612.00000    8.98920   -9999.25   59.52870   -9999.25   61.11780   61.53850  109.64350    0.13250    0.01060   18.39750    0.22910    2.86010    2.47630
 3612.50000    8.95940   -9999.25   59.52330   -9999.25   61.11780   61.53850  109.63750    0.14070    0.01220   17.92190    0.23470    2.93390    2.48220
 3613.00000    8.92970   -9999.25   59.51900   -9999.25   61.23030   61.81000  109.93410    0.14320    0.01270   17.91960    0.23900    2.94410    2.49140
 3613.50000    8.93000   -9999.25   59.81720   -9999.25   61.91520   62.62440  110.62080    0.14010    0.01530   18.54820    0.23540    2.94380    2.50020
 3614.00000    8.94450   -9999.25   59.81240   -9999.25   62.49920   63.25790  111.13100    0.12870    0.01850   19.17690    0.23160    2.94350    2.50830
 3614.50000    8.97750   -9999.25   59.50590   -9999.25   62.65860   63.61990  110.98340    0.12120    0.02000   20.43620    0.22890    2.92200    2.51740
 3615.00000    9.05110   -9999.25   58.58540   -9999.25   62.40480   63.61990  110.01520    0.11550    0.02160   20.77310    0.22890    2.87940    2.52520
 3615.50000    9.05140   -9999.25   57.32470   -9999.25   62.07130   63.52940  108.08960    0.10730    0.02470   20.34700    0.23050    2.90020    2.52750
 3616.00000    9.05170   -9999.25   56.41900   -9999.25   62.02420   63.63200  108.00000    0.10920    0.02730   17.50790    0.23330    2.94220    2.49140
 3616.50000    9.05200   -9999.25   56.16460   -9999.25   62.20540   64.03330  108.38010    0.12250    0.02910   16.56150    0.23820    2.96310    2.47430
 3617.00000    9.05230   -9999.25   56.96370   -9999.25   62.56800   64.54450  108.07220    0.13190    0.02580   16.56150    0.24190    2.97330    2.46610
 3617.50000    9.05260   -9999.25   57.96920   -9999.25   63.11180   64.70590  108.06640    0.13890    0.01850   17.03470    0.24480    2.95180    2.46470
 3618.00000    9.05290   -9999.25   57.35950   -9999.25   63.38370   64.52490  107.11780    0.14330    0.01380   18.45430    0.24390    2.94090    2.46730
 3618.50000    9.05320   -9999.25   57.05290   -9999.25   63.11180   64.65540  105.85170    0.14580    0.00910   19.40060    0.24270    2.94060    2.47890
 3619.00000    9.05350   -9999.25   56.74540   -9999.25   62.93050   64.98040  104.95760    0.14830    0.00640   19.87380    0.24150    2.96150    2.49700
 3619.50000    9.05380   -9999.25   56.43900   -9999.25   63.04290   65.42990  104.41780    0.14770    0.00800   19.87380    0.24220    3.02470    2.51090
 3620.00000    9.05410   -9999.25   56.43460   -9999.25   63.38370   65.61090  105.55900    0.13570    0.01900   20.34700    0.24220    3.01370    2.52310
 3620.50000    9.08440   -9999.25   56.12810   -9999.25   62.71290   65.42990  106.07090    0.12500    0.02520   20.82020    0.24080    2.95530    2.53240
 3621.00000    9.08470   -9999.25   56.12380   -9999.25   62.17280   65.79190  105.73730    0.12120    0.02990   20.82020    0.23890    2.92320    2.53690
 3621.50000    9.14510   -9999.25   56.44230   -9999.25   62.02420   66.96830  105.60020    0.12310    0.03150   20.82020    0.23780    3.01810    2.52280
 3622.00000    9.14540   -9999.25   57.35750   -9999.25   62.62620   67.42080  106.80290    0.10930    0.03150   20.82020    0.23860    3.06540    2.52160
 3622.50000    9.17570   -9999.25   57.92340   -9999.25   63.92750   67.13430  108.91190    0.09730    0.02840   21.29340    0.24280    3.00160    2.52650
 3623.00000    9.17600   -9999.25   58.30210   -9999.25   64.10880   66.38310  108.90610    0.10300    0.02050   21.29340    0.25030    2.89020    2.54150
 3623.50000    9.14620   -9999.25   58.72850   -9999.25   64.10880   65.72260  108.59820    0.10800    0.01430   20.82020    0.25290    2.81050    2.57440
 3624.00000    9.10930   -9999.25   59.85090   -9999.25   63.92750   65.15840  108.29000    0.11180    0.02520   20.82020    0.24590    3.03240    2.63560
 3624.50000    9.07690   -9999.25   60.92910   -9999.25   63.47430   65.15840  108.28400    0.10800    0.03150   20.82020    0.23760    3.36540    2.68600
 3625.00000    9.04460   -9999.25   62.00400   -9999.25   62.83990   65.15840  108.35360    0.09540    0.03150   19.40060    0.23360    3.68250    2.70280
 3625.50000    9.02730   -9999.25   62.42750   -9999.25   62.65130   65.02340  108.77640    0.07780    0.02680   18.92740    0.22650    3.90440    2.69820
