~Version ---------------------------------------------------
VERS.   2.0 : CWLS log ASCII Standard -VERSION 2.0
WRAP.    NO : One line per depth step
DLM . SPACE : Column Data Section Delimiter
~Well ------------------------------------------------------
STRT .F                   76.0 : START DEPTH
STOP .F                 3189.0 : STOP DEPTH
STEP .F                    0.5 : STEP
NULL .                -9999.25 : NULL VALUE
COMP .                         : COMPANY
WELL .                         : WELL
FLD  .                         : FIELD
LOC  .                         : LOCATION
PROV .                         : PROVINCE
CNTY .                         : COUNTY
STAT .                         : STATE
CTRY .                         : COUNTRY
SRVC .                         : SERVICE COMPANY
DATE .                         : DATE
UWI  .                         : UNIQUE WELL ID
API  .                         : API NUMBER
SLAT .WGS84 1.9388502765871003 : SURFACE LATITUDE
SLON .WGS84     9.844045768472 : SURFACE LONGITUDE
DATUM.F                 3999.8 : DEPTH DATUM ELEV
~Curve Information -----------------------------------------
DEPT   .F     : 
DTCO   .US/F  : DELTA-T COMPRESSIONAL
DTRP   .US/F  : DELTA-T COMPRESSIONAL, RECEIVER ARRAY - MONOPOLE P & S
DTRS   .US/F  : DELTA-T SHEAR, RECEIVER ARRAY - MONOPOLE P & S
DTSM   .US/F  : DELTA-T SHEAR
DT2R   .US/F  : DELTA-T SHEAR, RECEIVER ARRAY - UPPER DIPOLE
HDRA   .G/C3  : HRDD SPINE AND RIBS DENSITY CORRECTION
PEFZ   .B/E   : HRDD STANDARD RESOLUTION FORMATION PHOTOELECTRIC FACTOR
TNPH_LS.DEC   : THERMAL NEUTRON POROSITY [LIMESTONE]
DPHZ_LS.DEC   : HGRD STANDARD RESOLUTION DENSITY POROSITY
HSGRD  .GAPI  : HNGS STANDARD GAMMA RAY FROM DENSITY LOG
RHOZ   .G/C3  : HRDD STANDARD RESOLUTION FORMATION DENSITY
AT10   .OHMM  : ARRAY INDUCTION TWO FOOT RESISTIVITY A10
AT30   .OHMM  : ARRAY INDUCTION TWO FOOT RESISTIVITY A30
AT90   .OHMM  : ARRAY INDUCTION TWO FOOT RESISTIVITY A90
HCALR  .IN    : HRCC CALIPER CALIBRATED FROM RESISTIVITY LOG
~Params ----------------------------------------------------
~Other -----------------------------------------------------
~ASCII -----------------------------------------------------
# ...
 2307.00000   48.16540   50.52890   94.75960   90.63500   92.77170   -0.00230    4.65330   -0.00700   -0.00610   13.41010    2.71890   -9999.25 1840.20080 1387.48560    8.51560
 2307.50000   48.21050   50.39160   94.78380   91.53440   93.25360   -0.00310    4.66080   -0.00730   -0.00760   13.08860    2.71600   -9999.25 1854.47990 1436.18300    8.48670
 2308.00000   48.30080   49.97870   95.10710   91.98390   94.18660   -0.00310    4.66840   -0.00670   -0.00790   13.06830    2.71760   -9999.25 1878.55960 1496.88110    8.47130
 2308.50000   48.39100   49.70340   95.13200   92.88340   95.12340   -0.00230    4.70950   -0.00550   -0.00790   13.34670    2.72050   -9999.25 1878.48130 1561.18800    8.47090
 2309.00000   48.57140   49.43420   95.75910   93.48290   96.50760   -0.00110    4.79570   -0.00490   -0.00670   13.77560    2.72160   -9999.25 1878.41870 1603.79870    8.45540
 2309.50000   48.79700   49.45830   95.78320   93.48220   96.09110   -0.00090    4.81820   -0.00520   -0.00430   13.90590    2.72030   -9999.25 1852.61610 1592.77200    8.45510
 2310.00000   49.15790   49.78040   95.80740   93.18140   95.67070   -0.00010    4.75840   -0.00550   -0.00310   13.88550    2.71830   -9999.25 1802.12930 1528.18540    8.43950
 2310.50000   49.05980   49.80790   95.83150   93.03070   95.25030   -0.00020    4.66130   -0.00580   -0.00520   13.26280    2.71830   -9999.25 1777.37460 1456.13710    8.42400
 2311.00000   48.75190   50.44600   95.85560   93.63010   94.83000   -0.00020    4.55660   -0.00640   -0.00640   12.48950    2.71990   -9999.25 1777.31370 1466.21800    8.42370
 2311.50000   48.39100   50.75840   95.87980   93.92970   95.76300   -0.00020    4.48190   -0.00670   -0.00190   11.33710    2.72130   -9999.25 1801.94910 1486.58950    8.42330
 2312.00000   47.98500   50.34600   96.20330   94.52910   97.14710   -0.00020    4.54930   -0.00760   -0.00040   10.93770    2.72060   -9999.25 1826.92440 1486.58950    8.42290
 2312.50000   47.66920   50.20460   96.23310   97.22910   98.53130   -0.00020    4.61170   -0.00820   -0.00310   11.36920    2.71280   -9999.25 1814.28800 1445.30460    8.42260
 2313.00000   47.57890   49.93010   96.25720   98.27870   99.01700   -0.00020    4.65420   -0.00880   -0.01030   11.65010    2.72060   -9999.25 1777.06370 1377.94620    8.42210
 2313.50000   47.66920   49.65520   96.28140   96.47740   97.69440   -0.00050    4.69160   -0.00910   -0.01450   11.93100    2.73030   -9999.25 1764.78700 1349.71940    8.42180
 2314.00000   47.48760   49.68060   96.30550   94.82630   95.47330   -0.00100    4.73660   -0.00910   -0.01290   12.51310    2.73330   -9999.25 1801.63400 1349.71940    8.40630
 2314.50000   47.12190   49.70560   96.32960   93.92540   95.50410   -0.00030    4.76660   -0.00910   -0.00790   12.49270    2.73030   -9999.25 1879.10360 1387.48560    8.39080
 2315.00000   47.26320   49.73050   96.05380   93.47470   96.43710   -0.00030    4.76290   -0.00940   -0.00940   12.46990    2.72780   -9999.25 1956.99210 1456.13710    8.37540
 2315.50000   47.75940   50.05910   95.77980   93.02390   95.56560   -0.00030    4.74430   -0.00940   -0.01090   11.84460    2.72810   -9999.25 1943.47230 1538.76500    8.34480
 2316.00000   48.16540   50.08320   95.80470   92.87320   95.14520    0.00010    4.71440   -0.00910   -0.01120   11.82430    2.72740   -9999.25 1930.04590 1637.33900    8.32920
 2316.50000   48.03010   50.40670   96.13330   92.87250   94.27380    0.00040    4.66960   -0.00890   -0.01090   12.25580    2.72590   -9999.25 1916.71220 1731.93790    8.29870
 2317.00000   47.98500   51.02960   96.45640   93.02190   94.75560    0.00040    4.64730   -0.00920   -0.00850   13.44030    2.72140   -9999.25 1890.38350 1815.86020    8.28320
 2317.50000   47.98500   51.35310   96.48050   93.47120   95.23750    0.00040    4.66980   -0.00920   -0.00130   14.62480    2.70810   -9999.25 1776.51610 1706.53870    8.26770
 2318.00000   48.43610   52.12570   96.50470   94.52080   96.85110    0.00110    4.70720   -0.00920    0.00600   15.50810    2.69670 1671.58080  979.82780 1097.37700    8.26740
 2318.50000   49.08330   52.64100   96.52880   96.77070   99.81800    0.00110    4.71110   -0.00880    0.00360   15.18400    2.69750  777.21840  639.86880  695.99010    8.25190
 2319.00000   51.00750   53.82670   96.85190  102.92160  104.36010    0.00050    4.60270   -0.00620    0.00090   14.40810    2.69920  799.04350  403.02070  466.46630    8.23630
 2319.50000   54.88720   55.94660   97.77290  105.77160  109.35320    0.00110    4.46810   -0.00110    0.00150   16.94800    2.70150  322.18450  246.93280  233.98860    8.23600
 2320.00000   57.23310   57.76710   99.02660  109.07180  112.09070    0.00100    4.28120    0.01300    0.01800   23.25300    2.70200  107.30450  127.32800   87.84690    8.23560
 2320.50000   59.57890   60.18650  101.11570  116.94580  112.57260    0.00100    4.01950    0.02040    0.07370   35.73270    2.70110   60.10800   60.02300   59.55910    8.23530
 2321.00000   63.77440   63.80340  104.72730  124.97910  113.95680    0.00030    3.75030    0.02790    0.07400   42.33890    2.69570   55.71520   70.34240   65.29620    8.21980
 2321.50000   66.79700   68.01910  114.61690  132.47550  115.34090    0.00030    3.51850    0.04200    0.06830   47.81300    2.68040   70.44440   89.16560   75.99850    8.20420
 2322.00000   69.32330   72.90080  124.20760  140.36390  118.07840   -0.00050    3.27930    0.05970    0.06670   62.92570    2.63930   69.00140   49.47380   58.87680    8.20390
 2322.50000   75.10560   76.45660  134.99400  143.57690  123.75220   -0.00050    3.09240    0.07340    0.06800   92.27280    2.57940   39.73350   30.94680   36.32500    8.17330
 2323.00000   80.11500   79.17530  143.98680  144.02650  130.54980   -0.00130    2.99520    0.11380    0.07670  117.55460    2.50460   29.10760   27.90370   28.33620    8.17290
 2323.50000   85.15790   82.49290  150.89730  144.62580  138.93030   -0.00280    2.93550    0.14910    0.10650  161.80880    2.47950   32.30500   33.38460   29.73820    8.15750
 2324.00000   85.69920   85.51100  153.90050  147.77600  144.82570   -0.00280    2.98790    0.17840    0.14260  200.79450    2.46500   30.57030   33.61480   34.61240    8.14200
 2324.50000   85.38350   86.73270  152.13700  148.67570  151.62340   -0.00280    3.04780    0.21550    0.14590  199.42050    2.47620   30.15140   31.80850   34.36400    8.14150
 2325.00000   84.48120   86.15800  150.36740  144.32380  154.81200   -0.00210    3.07780    0.21670    0.13940  182.83130    2.49460   30.57030   31.58870   35.34140    8.14120
 2325.50000   81.59400   83.41350  141.42290  139.66200  155.29390   -0.00140    3.03300    0.21370    0.12210  156.75420    2.50920   37.34140   39.93800   45.29870    8.14080
 2326.00000   78.12030   79.32600  135.16910  134.29480  153.06900   -0.00210    2.99570    0.19720    0.11280  146.94480    2.51670   59.28440   54.47580   55.71520    8.14050
 2326.50000   76.18050   76.65550  130.70890  130.66820  144.07720   -0.00290    3.08550    0.17660    0.11040  116.65340    2.52330   77.38560   69.35190   71.91760    8.15520
 2327.00000   75.25710   74.27840  129.12210  129.01720  123.36000   -0.00510    3.21270    0.16340    0.10500  110.45830    2.53150   86.64310   82.40430   73.42160    8.15480
 2327.50000   74.60150   77.60200  128.24660  129.61660  115.27040   -0.00630    3.25770    0.15740    0.09810  107.72720    2.53840   84.28480   87.68100   74.44170    8.15440
 2328.00000   74.19550   80.62010  127.37110  130.36630  115.75620   -0.00670    3.22780    0.15770    0.09540  106.80320    2.54300   78.66590   84.70440   71.42310    8.13890
 2328.50000   73.11280   77.94960  126.92080  128.26500  119.39590   -0.00590    3.22790    0.15860    0.09500  106.40390    2.54910   72.91680   79.48050   65.70720    8.13860
 2329.00000   69.95490   74.31570  125.74940  122.56290  126.64470   -0.00220    3.24290    0.15890    0.09390  107.96230    2.55260   70.44440   72.27030   59.50700    8.13820
 2329.50000   67.47370   67.52480  124.58380  114.05080  130.28450    0.00000    3.28790    0.15440    0.09000  107.33960    2.55600   68.05580   68.38730   56.48930    8.15290
