~Version ---------------------------------------------------
VERS.   2.0 : CWLS log ASCII Standard -VERSION 2.0
WRAP.    NO : One line per depth step
DLM . SPACE : Column Data Section Delimiter
~Well ------------------------------------------------------
STRT .F                   76.0 : START DEPTH
STOP .F                 3189.0 : STOP DEPTH
STEP .F                    0.5 : STEP
NULL .                -9999.25 : NULL VALUE
COMP .                         : COMPANY
WELL .                         : WELL
FLD  .                         : FIELD
LOC  .                         : LOCATION
PROV .                         : PROVINCE
CNTY .                         : COUNTY
STAT .                         : STATE
CTRY .                         : COUNTRY
SRVC .                         : SERVICE COMPANY
DATE .                         : DATE
UWI  .                         : UNIQUE WELL ID
API  .                         : API NUMBER
SLAT .WGS84 1.9388502765871003 : SURFACE LATITUDE
SLON .WGS84     9.844045768472 : SURFACE LONGITUDE
DATUM.F                 3999.8 : DEPTH DATUM ELEV
~Curve Information -----------------------------------------
DEPT   .F     : 
DTCO   .US/F  : DELTA-T COMPRESSIONAL
DTRP   .US/F  : DELTA-T COMPRESSIONAL, RECEIVER ARRAY - MONOPOLE P & S
DTRS   .US/F  : DELTA-T SHEAR, RECEIVER ARRAY - MONOPOLE P & S
DTSM   .US/F  : DELTA-T SHEAR
DT2R   .US/F  : DELTA-T SHEAR, RECEIVER ARRAY - UPPER DIPOLE
HDRA   .G/C3  : HRDD SPINE AND RIBS DENSITY CORRECTION
PEFZ   .B/E   : HRDD STANDARD RESOLUTION FORMATION PHOTOELECTRIC FACTOR
TNPH_LS.DEC   : THERMAL NEUTRON POROSITY [LIMESTONE]
DPHZ_LS.DEC   : HGRD STANDARD RESOLUTION DENSITY POROSITY
HSGRD  .GAPI  : HNGS STANDARD GAMMA RAY FROM DENSITY LOG
RHOZ   .G/C3  : HRDD STANDARD RESOLUTION FORMATION DENSITY
AT10   .OHMM  : ARRAY INDUCTION TWO FOOT RESISTIVITY A10
AT30   .OHMM  : ARRAY INDUCTION TWO FOOT RESISTIVITY A30
AT90   .OHMM  : ARRAY INDUCTION TWO FOOT RESISTIVITY A90
HCALR  .IN    : HRCC CALIPER CALIBRATED FROM RESISTIVITY LOG
~Params ----------------------------------------------------
~Other -----------------------------------------------------
~ASCII -----------------------------------------------------
# ...
 2422.00000   49.65400   89.12620   89.48280  184.20400  184.75790    0.34940    2.69670    0.33680    0.20210  101.93080    2.40820   10.37200   11.82390   11.63650    8.64680
 2422.50000   47.12690   -9999.25   90.41320  187.67120  187.47350    0.42720    2.48730    0.33260    0.20450  104.87190    2.37240    9.81700   11.42360   11.24200    9.29650
 2423.00000   46.13370   -9999.25   92.66310  189.04710  191.54240    0.44970    2.50960    0.32630    0.12870  109.09370    2.46180    9.88700   11.03670   10.86080    9.55330
 2423.50000   47.30550   -9999.25   95.53780  190.64610  195.61130    0.43390    2.65920    0.32540    0.08840  110.00170    2.54650    9.88900   10.73670   10.49250    9.02470
 2424.00000   54.11670   -9999.25   93.76720  191.09410  194.49330    0.35830    2.84610    0.33020    0.08510  110.00610    2.56790    9.82250   10.51740   10.34870    8.64710
 2424.50000   53.80010   -9999.25   91.39880  190.64030  193.14870    0.24650    3.04790    0.33050    0.10440  108.20330    2.55730    9.55750   10.44560   10.64060    8.48100
 2425.00000   53.52880   -9999.25   90.22620  190.18730  192.03080    0.17040    3.15260    0.32720    0.12840  105.04500    2.49680    9.29920   10.36750   10.94850    8.38920
 2425.50000   54.52020   -9999.25   86.66190  190.18440  195.64860    0.14500    3.15630    0.32630    0.14800  102.94090    2.42280    8.96940   10.23270   11.01170    8.37540
 2426.00000   58.18010   -9999.25   81.30390  191.23180  199.71750    0.16290    3.01780    0.32900    0.17410  101.96690    2.37580    8.38880   10.02360   10.71200    8.40580
 2426.50000   57.49580   -9999.25   80.72920  202.84410  204.68870    0.17120    2.87560    0.34220    0.19340  102.42310    2.33660    7.93990    9.95500   10.93600    8.61730
 2427.00000   56.50250   -9999.25   85.34140  208.23030  211.46440    0.14790    2.70350    0.38110    0.23640  103.25640    2.25800    7.67220   10.30500   10.93600    9.22160
 2427.50000   55.68960   -9999.25   87.95620  216.57860  217.33780    0.13670    2.50900    0.43280    0.30470  103.11020    2.19260    7.62060   10.37670   10.92470    8.81380
 2428.00000   53.20750   45.06590   89.47420  218.37620  223.66240    0.16330    2.38920    0.47530    0.30560  102.21100    2.21280    7.62250   10.16480   11.55650    9.43320
 2428.50000   53.34200   46.58780   89.49740  221.67410  229.53700    0.19280    2.36670    0.47590    0.29330  101.46230    2.26350    7.73000   10.09540   12.47830    9.99250
 2429.00000   54.06300   48.10510   91.91220  223.47240  233.38020    0.20480    2.47880    0.46450    0.25330  101.46670    2.31510    8.12550   10.62270   12.64090   10.20000
 2429.50000   53.97190   49.92180   96.71860  219.41770  230.00670    0.21680    2.56850    0.44030    0.21180  101.77230    2.38360    8.93910   11.51060   13.73200    9.32770
 2430.00000   53.50960   51.13980  101.52500  212.51310  222.79740    0.22430    2.63570    0.40980    0.17690  102.52970    2.47290    9.38330   11.67110   16.65820    8.91990
 2430.50000   52.79710   51.16010  106.03290  205.02260  217.39270    0.21380    2.70300    0.39180    0.15400  105.17020    2.51740    9.71460   11.83380   16.88970   10.03780
 2431.00000   52.07450   49.98280  102.17510  198.40300  211.98790    0.19130    2.78520    0.37870    0.10890  108.71420    2.54370    9.78380   11.99880   16.65820    9.34310
 2431.50000   50.44960   48.80550   96.81710  194.34910  201.16960    0.17140    2.89730    0.37210    0.08150  109.92340    2.56720    9.78570   13.03510   15.87290    7.99870
 2432.00000   47.92240   48.85820   94.44870  188.34470  190.35130    0.14560    3.06930    0.36720    0.07700  109.62660    2.57420    9.92370   14.25890   15.22100    8.04410
 2432.50000   47.65110   49.15060   96.86350  181.59010  183.59320    0.12470    3.36460    0.36070    0.07910  105.11290    2.57860   11.55260   15.07630   15.76370    8.12000
 2433.00000   47.51470   48.57210   95.39190  177.68620  179.54290    0.10890    3.44310    0.35240    0.08880  102.70770    2.57930   15.55520   16.29230   17.60350    8.15000
 2433.50000   46.83720   47.39480   91.82770  170.93160  174.59040    0.08800    3.44300    0.33500    0.09120   99.64740    2.54850   18.47650   17.90730   18.99140    8.10480
 2434.00000   47.03910   46.51190   90.65470  159.82590  152.04280    0.05580    3.45790    0.30580    0.09540   95.27700    2.55480   20.35420   19.72410   20.91730    8.01420
 2434.50000   48.77510   46.83660   93.09240  141.43460  134.45750    0.02550    3.52510    0.28440    0.07460   81.87050    2.60460   24.02430   23.11700   25.02700    7.92360
 2435.00000   51.97730   51.64740   94.89250  125.76090  126.34600    0.01610    3.63720    0.19680    0.05120   60.63270    2.64720   37.36780   34.25620   33.43880    7.86330
 2435.50000   55.72080   56.45810   96.70940  117.20580  116.43000    0.01080    3.67460    0.09240    0.03340   45.87070    2.66230   66.72220   68.29450   65.57350    7.80290
 2436.00000   57.38920   60.97010   99.12420  110.75130  112.82970    0.00630    3.59970    0.06250    0.02830   41.04810    2.66370  125.89620  105.48010  109.54860    7.75770
 2436.50000   57.97480   60.09160  101.53910  108.34780  112.83850    0.00180    3.41640    0.05710    0.03380   42.55090    2.66260  160.38780  132.64790  121.49280    7.72700
 2437.00000   60.04910   62.81160  105.44860  107.74470  114.20070    0.00180    3.13580    0.05650    0.04580   49.77700    2.65940  153.85080  144.89220   89.06750    7.68230
 2437.50000   62.80020   65.82590  109.95610  107.74180  117.14290    0.01080    2.86650    0.06480    0.06140   59.86440    2.62630  114.37940  134.30950   71.42310    7.65220
 2438.00000   69.83680   67.94200  113.86570  109.68940  122.79180    0.01150    2.64200    0.08910    0.09480   75.37360    2.53090   85.62330  104.05580   60.94320    7.62200
 2438.50000   70.55780   70.95630  120.24500  124.16800  130.01860    0.00260    2.52980    0.11150    0.12280   97.65980    2.48350   61.49770   78.42250   52.72340    7.60700
 2439.00000   70.05550   73.37190  125.87600  131.43830  140.40340    0.00110    2.50730    0.13930    0.12880  109.55420    2.48720   42.67210   57.89300   47.21320    7.57690
 2439.50000   68.84180   75.19040  129.18770  133.23660  144.47230    0.00930    2.53710    0.17230    0.12880  113.24110    2.49490   41.76790   45.16290   43.68400    7.56190
 2440.00000   74.34480   76.44700  129.50980  130.68230  143.57880    0.01680    2.57810    0.19290    0.11890  113.76490    2.51240   45.42390   43.00690   43.16310    7.56190
 2440.50000   71.05050   77.62950  125.94560  127.07850  137.72290    0.01980    2.64170    0.19470    0.11050  100.43380    2.56350   56.53080   47.83830   45.92810    7.56200
 2441.00000   69.01960   75.85340  121.18550  124.82500  129.61140    0.01680    2.71640    0.17940    0.09390   92.37380    2.57570   63.28500   55.55670   50.23770    7.56210
 2441.50000   68.16160   72.28090  115.82750  123.47180  125.56000    0.01340    2.77610    0.14410    0.08190   75.12650    2.58310   67.35250   62.90570   57.27420    7.56220
 2442.00000   67.21340   69.60660  112.86110  121.96850  125.34440    0.01000    2.87330    0.10610    0.07200   65.56000    2.58750   69.25100   70.73710   70.93210    7.56220
 2442.50000   65.99450   67.23170  111.36050  120.42050  124.22640    0.00700    2.95550    0.10310    0.07290   62.99690    2.59010   68.78860   76.84540   80.31110    7.57740
 2443.00000   65.09000   65.75500  110.51590  118.96120  121.97950    0.01000    3.03770    0.11150    0.07450   63.59640    2.59510   54.04240   68.81820   78.03210    7.57750
 2443.50000   64.65980   64.87710  109.34900  117.90800  117.02590    0.02870    3.08620    0.11300    0.06800   67.81030    2.60240   55.18370   65.57670   75.99850    7.59270
 2444.00000   63.60080   63.99930  108.47540  114.00410  111.17000    0.03920    3.05250    0.10570    0.06020   69.16290    2.60730   67.01890   75.28290   79.21050    7.60790
 2444.50000   63.78040   63.72020  107.89480  107.84970  107.56970    0.03540    2.97020    0.09300    0.06120   63.81320    2.61070   68.37390   85.43820   84.86830    7.60790
