~Version ---------------------------------------------------
VERS.   2.0 : CWLS log ASCII Standard -VERSION 2.0
WRAP.    NO : One line per depth step
DLM . SPACE : Column Data Section Delimiter
~Well ------------------------------------------------------
STRT .F                   76.0 : START DEPTH
STOP .F                 3189.0 : STOP DEPTH
STEP .F                    0.5 : STEP
NULL .                -9999.25 : NULL VALUE
COMP .                         : COMPANY
WELL .                         : WELL
FLD  .                         : FIELD
LOC  .                         : LOCATION
PROV .                         : PROVINCE
CNTY .                         : COUNTY
STAT .                         : STATE
CTRY .                         : COUNTRY
SRVC .                         : SERVICE COMPANY
DATE .                         : DATE
UWI  .                         : UNIQUE WELL ID
API  .                         : API NUMBER
SLAT .WGS84 1.9388502765871003 : SURFACE LATITUDE
SLON .WGS84     9.844045768472 : SURFACE LONGITUDE
DATUM.F                 3999.8 : DEPTH DATUM ELEV
~Curve Information -----------------------------------------
DEPT   .F     : 
DTCO   .US/F  : DELTA-T COMPRESSIONAL
DTRP   .US/F  : DELTA-T COMPRESSIONAL, RECEIVER ARRAY - MONOPOLE P & S
DTRS   .US/F  : DELTA-T SHEAR, RECEIVER ARRAY - MONOPOLE P & S
DTSM   .US/F  : DELTA-T SHEAR
DT2R   .US/F  : DELTA-T SHEAR, RECEIVER ARRAY - UPPER DIPOLE
HDRA   .G/C3  : HRDD SPINE AND RIBS DENSITY CORRECTION
PEFZ   .B/E   : HRDD STANDARD RESOLUTION FORMATION PHOTOELECTRIC FACTOR
TNPH_LS.DEC   : THERMAL NEUTRON POROSITY [LIMESTONE]
DPHZ_LS.DEC   : HGRD STANDARD RESOLUTION DENSITY POROSITY
HSGRD  .GAPI  : HNGS STANDARD GAMMA RAY FROM DENSITY LOG
RHOZ   .G/C3  : HRDD STANDARD RESOLUTION FORMATION DENSITY
AT10   .OHMM  : ARRAY INDUCTION TWO FOOT RESISTIVITY A10
AT30   .OHMM  : ARRAY INDUCTION TWO FOOT RESISTIVITY A30
AT90   .OHMM  : ARRAY INDUCTION TWO FOOT RESISTIVITY A90
HCALR  .IN    : HRCC CALIPER CALIBRATED FROM RESISTIVITY LOG
~Params ----------------------------------------------------
~Other -----------------------------------------------------
~ASCII -----------------------------------------------------
# ...
 2537.00000   82.72490  100.45510  144.37670  180.98790  192.24730    0.05180    3.15080    0.41610    0.16520  117.82840    2.49880    7.59990    6.77120    7.82010    8.51480
 2537.50000   75.17660  100.77840  143.21970  176.12130  186.39130    0.04210    3.09840    0.39010    0.10950  117.53620    2.51620    8.29870    9.36340    9.62020    8.01660
 2538.00000   71.43150   99.60880  140.86000  171.91880  181.88870    0.05360    3.01600    0.36140    0.07840  116.49110    2.54520    8.89140    9.89370    9.60820    8.15280
 2538.50000   69.35550   98.59680  138.20130  168.76660  178.73950    0.07130    3.03090    0.34370    0.06990  113.48820    2.58030    9.72570    9.68940    9.67410    8.00210
 2539.00000   68.81350   96.66110  132.55310  166.96470  176.04150    0.08170    3.08310    0.33800    0.06990  113.34660    2.58340   10.27760   10.16750   10.95250    7.85140
 2539.50000   68.76760   94.28900  130.18540  166.66310  173.11890    0.06980    3.16540    0.34400    0.07110  114.25940    2.58410    9.92910   11.99680   11.89710    7.75910
 2540.00000   69.98490   92.51570  130.22530  176.13510  173.80540    0.04880    3.20270    0.37130    0.07500  115.77560    2.58340    9.20350   12.76360   11.81450    7.73110
 2540.50000   71.83380   91.34130  130.25720  187.36510  186.89680    0.02410    3.10540    0.37360    0.08520  117.44250    2.57660    8.76960   11.45520   11.08950    7.73150
 2541.00000   73.06670   91.36530  130.58890  182.56240  199.98820    0.00760    2.98560    0.37240    0.08820  118.35520    2.56120    8.76960    9.95360   10.29020    7.73180
 2541.50000   72.32840   91.69270  130.62790  178.35990  189.16980   -0.00060    2.84350    0.38080    0.08270  118.81610    2.54530    8.76960    9.61480   10.07880    7.73200
 2542.00000   71.06460   92.15440  130.95880  176.25790  181.96040    0.00950    2.80600    0.38340    0.07830  119.42760    2.55470    8.83030    9.61350   10.00880    7.76260
 2542.50000   69.62020   92.63720  130.99070  175.20620  177.90900    0.02190    2.81340    0.38160    0.07770  120.49090    2.56560    8.95300    9.61220   10.00810    7.77790
 2543.00000   69.25880   92.95980  130.72360  174.65070  176.11430    0.01740    2.77590    0.37270    0.09150  121.55420    2.56710    8.95300    9.67780   10.00750    7.79340
 2543.50000   69.43850   92.98290  130.75550  174.00290  175.22180    0.01140    2.72350    0.36430    0.11050  122.99510    2.54560    8.89140    9.67620   10.00680    7.79370
 2544.00000   69.39250   93.00610  130.78740  172.50110  175.23050    0.01210    2.71590    0.36280    0.11320  130.91200    2.49830    8.70930    9.60830   10.00610    7.79400
 2544.50000   69.66550   92.56180  130.81910  171.59940  175.69030    0.02260    2.71590    0.36340    0.10600  131.82470    2.50530    8.70930    9.60670    9.93650    7.77910
 2545.00000   70.45070   92.11580  130.85200  173.12950  176.60120    0.04280    2.74570    0.36810    0.10270  132.13500    2.51520    8.64940    9.47380    9.93590    7.76430
 2545.50000   72.32240   91.57850  130.89110  177.21850  177.96330    0.06230    2.77930    0.38190    0.10150  130.93930    2.52080    8.53090    9.27850    9.86690    7.73450
 2546.00000   73.85550   91.60740  130.92300  187.64870  182.03320    0.06900    2.82040    0.40460    0.09760  125.52660    2.52310    8.29870    8.96270    9.53170    7.71960
 2546.50000   73.26830   92.22940  131.25390  196.64950  188.80990    0.06000    2.88010    0.42320    0.09520  121.92130    2.52750    7.79900    8.59810    9.08170    7.71990
 2547.00000   72.90670   93.15070  131.28580  200.99910  196.03660    0.04660    2.91740    0.42670    0.09460  122.15750    2.53430    7.22910    8.24840    8.58390    7.72030
 2547.50000   72.81580   94.07210  131.01070  201.74820  201.91000    0.02340    2.93230    0.42450    0.09940  122.39350    2.53870    6.79390    7.96760    8.01990    7.73570
 2548.00000   72.13830   95.65590  131.05060  199.79590  205.07660    0.00390    2.94720    0.41480    0.10180  121.19780    2.53680    6.65470    7.63650    7.64130    7.75110
 2548.50000   70.80580   96.81870  130.78320  191.54240  205.53640   -0.00510    2.93220    0.40100    0.10050  121.95990    2.52240    6.93590    7.38310    7.33100    7.76650
 2549.00000   69.42990   95.04550  130.81610  169.86240  203.28940   -0.00810    2.90970    0.38180    0.09790  124.98110    2.52300    7.60430    7.28100    7.18040    7.76680
 2549.50000   67.26380   91.77520  130.85530  153.57960  184.57750   -0.00620    2.93950    0.35220    0.09700  126.34560    2.52620    9.33130    7.74640    8.41450    7.73690
 2550.00000   66.12570   89.00420  130.88190  151.92810  157.06560    0.00240    2.96180    0.31070    0.09220  126.20410    2.52990   10.78100   10.99370   12.69050    7.70690
 2550.50000   65.65410   86.56520  130.91480  153.72670  151.41780    0.00540    2.87200    0.28580    0.08770  117.02870    2.53930   13.26930   14.40940   15.71930    7.67500
 2551.00000   65.50230   84.12620  130.94770  155.97580  152.76030    0.00090    2.84200    0.25260    0.08680  113.57510    2.54870   14.82090   16.88500   17.97430    7.66220
 2551.50000   66.89990   82.41860  130.68710  159.12520  156.58270   -0.00210    2.87190    0.24210    0.09280  113.13480    2.54990   14.92650   18.93560   18.99560    7.64740
 2552.00000   70.05710   82.16730  130.11320  163.17470  161.30740   -0.00210    2.99150    0.24360    0.09880  113.74750    2.54850   13.55560   20.47710   18.35270    7.64780
 2552.50000   71.90600   84.34320  131.34900  166.92420  166.71010    0.00540    3.17090    0.26000    0.10810  114.66130    2.52550   12.56740   17.11230   13.64240    7.64810
 2553.00000   72.08570   86.20370  136.76220  173.80420  172.56400    0.03640    3.34280    0.31980    0.13250  115.87640    2.15720   11.57120   13.53250   11.40290    7.60300
 2553.50000   72.09110   88.72670  145.46390  185.82570  177.96670    0.06150    3.26050    0.37100    0.19270  116.18780    1.96930   10.36390   11.30880    8.53280    7.54290
 2554.00000   73.39230   92.33600  153.86660  188.67490  184.27170    0.07200    2.87900    0.42990    0.43060  115.14380    1.96690    7.86610    8.94310    6.75080    7.51300
 2554.50000   75.55700   95.69350  157.48610  190.77400  191.92870    0.05550    2.69190    0.45740    0.39510  115.38130    1.97900    5.64970    6.82260    6.25790    7.54360
 2555.00000   79.12020   97.55400  158.71450  194.52350  198.23230    0.04510    2.59460    0.46350    0.30220  116.52100    2.39700    5.98590    7.36990    8.71540    7.67980
 2555.50000   81.37510   98.81570  157.79890  199.17320  201.37940    0.05100    2.72170    0.46460    0.15000  118.03850    2.53310    9.68120   11.86170   11.40690    7.87360
 2556.00000   89.31420   97.08340  155.49750  199.18780  203.17310    0.06750    2.96100    0.45500    0.07540  119.40420    2.57480   10.02300   14.89240   13.83860    8.08610
 2556.50000   91.88490   95.05170  152.54000  197.50190  203.16220    0.09300    3.11260    0.41790    0.06670  120.31800    2.58630    9.95610   15.73590   15.24290    8.22180
 2557.00000   93.95940   94.21760  150.47940  193.47910  202.24920    0.10980    3.08360    0.38590    0.06820  120.62950    2.59000    9.82110   15.73330   14.82780    8.35760
 2557.50000   94.00380   95.47930  150.51140  189.71470  199.98140    0.11540    3.03140    0.37450    0.07600  120.33850    2.59230    9.36040   14.95390   13.51620    8.37250
 2558.00000   92.46900   96.74250  152.33720  186.56240  197.71360    0.11980    2.97920    0.36880    0.07450  120.34870    2.59010    9.23400   12.78800   12.39580    8.37240
 2558.50000   91.47580   95.02470  154.46190  182.51000  195.89820    0.08540    2.93450    0.36430    0.08830  121.26260    2.57680    9.70680   11.06170   11.89400    8.37210
 2559.00000   89.98640   92.69360  156.58660  176.05690  191.37610    0.04190    3.03190    0.36070    0.09980  124.88860    2.55340    9.96600   10.18150   11.73150    8.37190
 2559.50000   88.99320   90.36250  159.32510  165.28830  187.30520    0.03370    3.13670    0.35660    0.09890  128.21330    2.52800    9.49860   11.93070   12.92230    8.28110
