~Version ---------------------------------------------------
VERS.   2.0 : CWLS log ASCII Standard -VERSION 2.0
WRAP.    NO : One line per depth step
DLM . SPACE : Column Data Section Delimiter
~Well ------------------------------------------------------
STRT .F                   76.0 : START DEPTH
STOP .F                 3189.0 : STOP DEPTH
STEP .F                    0.5 : STEP
NULL .                -9999.25 : NULL VALUE
COMP .                         : COMPANY
WELL .                         : WELL
FLD  .                         : FIELD
LOC  .                         : LOCATION
PROV .                         : PROVINCE
CNTY .                         : COUNTY
STAT .                         : STATE
CTRY .                         : COUNTRY
SRVC .                         : SERVICE COMPANY
DATE .                         : DATE
UWI  .                         : UNIQUE WELL ID
API  .                         : API NUMBER
SLAT .WGS84 1.9388502765871003 : SURFACE LATITUDE
SLON .WGS84     9.844045768472 : SURFACE LONGITUDE
DATUM.F                 3999.8 : DEPTH DATUM ELEV
~Curve Information -----------------------------------------
DEPT   .F     : 
DTCO   .US/F  : DELTA-T COMPRESSIONAL
DTRP   .US/F  : DELTA-T COMPRESSIONAL, RECEIVER ARRAY - MONOPOLE P & S
DTRS   .US/F  : DELTA-T SHEAR, RECEIVER ARRAY - MONOPOLE P & S
DTSM   .US/F  : DELTA-T SHEAR
DT2R   .US/F  : DELTA-T SHEAR, RECEIVER ARRAY - UPPER DIPOLE
HDRA   .G/C3  : HRDD SPINE AND RIBS DENSITY CORRECTION
PEFZ   .B/E   : HRDD STANDARD RESOLUTION FORMATION PHOTOELECTRIC FACTOR
TNPH_LS.DEC   : THERMAL NEUTRON POROSITY [LIMESTONE]
DPHZ_LS.DEC   : HGRD STANDARD RESOLUTION DENSITY POROSITY
HSGRD  .GAPI  : HNGS STANDARD GAMMA RAY FROM DENSITY LOG
RHOZ   .G/C3  : HRDD STANDARD RESOLUTION FORMATION DENSITY
AT10   .OHMM  : ARRAY INDUCTION TWO FOOT RESISTIVITY A10
AT30   .OHMM  : ARRAY INDUCTION TWO FOOT RESISTIVITY A30
AT90   .OHMM  : ARRAY INDUCTION TWO FOOT RESISTIVITY A90
HCALR  .IN    : HRCC CALIPER CALIBRATED FROM RESISTIVITY LOG
~Params ----------------------------------------------------
~Other -----------------------------------------------------
~ASCII -----------------------------------------------------
# ...
 1801.00000   53.30830   52.36730   98.25490  102.39350   -9999.25   -0.00410    4.30800    0.02680   -0.01070   38.08980    2.73160   -9999.25  486.11320  720.41760    8.14440
 1801.50000   53.53380   51.50990   98.29690  103.28360   -9999.25   -0.00070    4.23680    0.02680   -0.01250   41.84910    2.73540   -9999.25  800.13340 1152.39590    8.14410
 1802.00000   53.71430   51.85020   97.99920  106.12410   -9999.25    0.00310    4.21060    0.02620   -0.01280   45.90950    2.73510   -9999.25  875.13990 1245.91420    8.15900
 1802.50000   54.03010   53.38800   97.47870  109.86490   -9999.25    0.00230    4.21800    0.02740   -0.01040   49.21700    2.73080   -9999.25  839.58310  965.02000    8.17380
 1803.00000   54.31190   54.62640   97.21960  112.14730   -9999.25   -0.00140    4.27030    0.02950    0.01030   51.16900    2.69010   -9999.25  667.35550  913.08660    8.18850
 1803.50000   54.52630   55.26610   98.17020  113.44290   -9999.25   -0.00590    4.33750    0.03040    0.01570   51.76560    2.67820   -9999.25  696.76010 1077.28760    8.20330
 1804.00000   54.16540   55.00600   98.50670  113.58530   -9999.25   -0.00820    4.42720    0.02680    0.01120   51.45790    2.67860   -9999.25  746.46520 1077.10820    8.21810
 1804.50000   53.39850   54.15010   98.55160  112.67230   -9999.25   -0.00300    4.50200    0.02470    0.00610   49.64410    2.68630   -9999.25  783.33420 1062.21530    8.23300
 1805.00000   52.81200   53.55250   98.59070  111.01170   -9999.25    0.00080    4.56540    0.02440    0.00490   45.87330    2.69900   -9999.25  805.18540 1169.68710    8.24780
 1805.50000   52.49620   52.43880   98.03350  109.20110   -9999.25   -0.00080    4.56160    0.02470    0.01090   42.70480    2.70270   -9999.25  794.08530 1270.43480    8.24740
 1806.00000   52.45110   52.18700   97.47460  107.09040   -9999.25   -0.00300    4.50920    0.02550    0.01210   36.97610    2.69430   -9999.25  772.40640 1153.22600    8.26220
 1806.50000   52.45110   51.78380   97.52560  104.82970   -9999.25    0.00890    4.46420    0.02820    0.01030   33.35580    2.68850   -9999.25  806.10960 1083.66210    8.26190
 1807.00000   52.54140   51.36020   98.16610  102.98680   -9999.25    0.04040    4.47910    0.03060    0.00110   32.44640    2.69160   -9999.25  874.37340 1314.31230    8.26160
 1807.50000   52.67670   51.41130   98.20680  101.65600   -9999.25    0.06950    4.56130    0.03030   -0.01560   32.74180    2.71880   -9999.25  838.84770 1168.66460    8.26130
 1808.00000   52.76690   51.44910   98.84730  100.59550   -9999.25    0.07930    4.61360    0.03030   -0.01470   31.83090    2.73770   -9999.25  740.82270 1039.15710    8.27610
 1808.50000   52.81200   51.79040   99.26800  100.13520   -9999.25    0.04930    4.47890    0.03390   -0.00750   30.46970    2.73900   -9999.25  658.78200  936.83910    8.27580
 1809.00000   52.99250   52.13260  100.12830  100.12500   -9999.25    0.01860    4.21700    0.03960    0.00000   30.01350    2.71910   -9999.25  598.07820  832.17120    8.27550
 1809.50000   53.21800   52.77250  100.77220  100.56500   -9999.25    0.01560    4.03000    0.04220    0.00300   34.37380    2.70470   -9999.25  569.83340  969.35650    8.29030
 1810.00000   53.35340   52.98400  101.40930  101.00520   -9999.25    0.05070    3.99250    0.04070   -0.00360   39.63900    2.71570   -9999.25  618.96590 1200.31460    8.29000
 1810.50000   53.35340   53.15570  101.78620  100.99470   -9999.25    0.09640    4.10460    0.03740   -0.01090   44.15060    2.73090   -9999.25  783.01900 1426.03150    8.28970
 1811.00000   53.26320   53.19760  103.00030  100.34820   -9999.25    0.12260    4.20180    0.03650   -0.01230   44.59730    2.72880   -9999.25  676.91860 1312.50730    8.28940
 1811.50000   52.94740   53.24510  102.44140   99.32140   -9999.25    0.10310    4.15310    0.03830    0.00660   43.23460    2.71300   -9999.25  601.95480  820.88830    8.28910
 1812.00000   52.72180   53.28590   99.78360   98.86110   -9999.25    0.04020    4.07450    0.03920    0.01320   42.02400    2.68810   -9999.25  681.49110  800.67390    8.28880
 1812.50000   52.72180   53.01710   98.14580   98.70090   -9999.25    0.00950    4.04450    0.03950    0.00990   41.86760    2.68360   -9999.25  735.16150  969.79440    8.27340
 1813.00000   52.76690   53.06820   97.15630   98.84330   -9999.25   -0.00020    4.07430    0.03680   -0.00030   41.25940    2.69050   -9999.25  740.20470 1126.87740    8.25800
 1813.50000   52.72180   52.73260   97.20730   98.98320   -9999.25    0.00050    4.10420    0.03350   -0.00780   40.35000    2.70230   -9999.25  735.03880 1232.41110    8.24260
 1814.00000   52.36000   52.40320   98.14760   99.12080   -9999.25    0.00030    4.10410    0.03200   -0.01110   39.43980    2.71400   -9999.25  704.20640 1338.56150    8.24220
 1814.50000   52.54820   52.29250   99.39580   99.11030   -9999.25   -0.00030    4.10400    0.03170   -0.01150   41.99350    2.72290   -9999.25  635.78080 1424.07300    8.22680
 1815.00000   52.99250   52.65470  100.05480   99.09980   -9999.25   -0.00250    4.21620    0.03170   -0.00630   45.60220    2.72460   -9999.25  605.75550 1394.66910    8.22650
 1815.50000   53.44360   53.28250  100.46800   98.63730   -9999.25   -0.00520    4.37310    0.03170    0.00210   47.40500    2.72340   -9999.25  593.29720 1248.70190    8.21120
 1816.00000   53.26320   53.37930  101.01960   98.02690   -9999.25   -0.00630    4.54510    0.03370    0.00960   39.86770    2.71160   -9999.25  577.10000 1063.86850    8.19580
 1816.50000   53.44360   54.33520  101.06720   96.81650   -9999.25   -0.00710    4.28320    0.04690    0.01290   38.05460    2.69460   -9999.25  557.48550  842.38280    8.19550
 1817.00000   54.34590   54.90200  101.40100   96.65620   -9999.25   -0.00610    3.97650    0.06540    0.01200   35.78900    2.69270 1859.98280  527.50590  666.13840    8.19520
 1817.50000   55.74440   55.84100  101.74170   97.69630   -9999.25   -0.00490    3.66230    0.09490    0.01240   30.13570    2.68940 1401.28530  488.91370  530.41490    8.19480
 1818.00000   56.65660   56.18130  102.08230  100.38680   -9999.25   -0.00290    3.32570    0.12710    0.01980   25.08400    2.67510 1034.14780  439.21310  416.55700    8.19450
 1818.50000   57.50380   56.22210  102.12310  103.38630   -9999.25   -0.00080    3.18350    0.12290    0.02730   25.68200    2.66140  823.37460  363.33880  360.31370    8.19420
 1819.00000   57.68420   58.05990  102.16490  105.03930   -9999.25   -0.00040    3.27310    0.11630    0.03000   27.48200    2.65860  661.13020  287.34450  282.96940    8.19390
 1819.50000   57.23310   58.40120  102.21490  105.75760   -9999.25   -0.00340    3.68440    0.11570    0.02880   31.69300    2.67800  385.26970  248.56800  255.01770    8.19360
 1820.00000   56.64660   58.14100  101.84320  104.69460   -9999.25   -0.00420    4.37250    0.11860    0.01070   37.41010    2.71110  328.65650  204.88670  272.98900    8.19340
 1820.50000   56.06020   57.89260  101.39690  102.73400   -9999.25   -0.00350    4.89600    0.11830   -0.01400   35.74690    2.75730  328.57420  230.36360  322.42830    8.20820
 1821.00000   55.65410   55.22860  101.07680  100.77330   -9999.25    0.00030    4.85850    0.11680   -0.02770   28.81270    2.76090  323.99050  262.60710  336.01330    8.22300
 1821.50000   55.42860   58.57310  100.27910   99.41280   -9999.25    0.00620    4.34980    0.11920   -0.02930   28.05390    2.76140  308.63820  242.95110  313.54760    8.22260
 1822.00000   55.72450   59.50190  100.00980   98.80250   -9999.25    0.00920    3.60180    0.12730    0.00140   29.25290    2.75550  265.10830  217.93460  265.65690    8.20720
 1822.50000   56.36520   56.85830   99.76100   98.49210   -9999.25    0.01150    3.20530    0.13180    0.02660   30.45190    2.72220  201.12430  203.38890  223.53340    8.20690
 1823.00000   57.25740   56.29940   99.80210   98.80570   -9999.25    0.01220    3.08560    0.13180    0.02990   31.80150    2.66430  182.56110  197.83630  211.49490    8.19150
 1823.50000   57.57280   57.53890  100.14390   99.66960   -9999.25    0.00920    3.12290    0.12600    0.02780   33.75360    2.65750  196.89330  204.76280  228.88820    8.19120
