~Version ---------------------------------------------------
VERS.   2.0 : CWLS log ASCII Standard -VERSION 2.0
WRAP.    NO : One line per depth step
DLM . SPACE : Column Data Section Delimiter
~Well ------------------------------------------------------
STRT .F                   76.0 : START DEPTH
STOP .F                 3189.0 : STOP DEPTH
STEP .F                    0.5 : STEP
NULL .                -9999.25 : NULL VALUE
COMP .                         : COMPANY
WELL .                         : WELL
FLD  .                         : FIELD
LOC  .                         : LOCATION
PROV .                         : PROVINCE
CNTY .                         : COUNTY
STAT .                         : STATE
CTRY .                         : COUNTRY
SRVC .                         : SERVICE COMPANY
DATE .                         : DATE
UWI  .                         : UNIQUE WELL ID
API  .                         : API NUMBER
SLAT .WGS84 1.9388502765871003 : SURFACE LATITUDE
SLON .WGS84     9.844045768472 : SURFACE LONGITUDE
DATUM.F                 3999.8 : DEPTH DATUM ELEV
~Curve Information -----------------------------------------
DEPT   .F     : 
DTCO   .US/F  : DELTA-T COMPRESSIONAL
DTRP   .US/F  : DELTA-T COMPRESSIONAL, RECEIVER ARRAY - MONOPOLE P & S
DTRS   .US/F  : DELTA-T SHEAR, RECEIVER ARRAY - MONOPOLE P & S
DTSM   .US/F  : DELTA-T SHEAR
DT2R   .US/F  : DELTA-T SHEAR, RECEIVER ARRAY - UPPER DIPOLE
HDRA   .G/C3  : HRDD SPINE AND RIBS DENSITY CORRECTION
PEFZ   .B/E   : HRDD STANDARD RESOLUTION FORMATION PHOTOELECTRIC FACTOR
TNPH_LS.DEC   : THERMAL NEUTRON POROSITY [LIMESTONE]
DPHZ_LS.DEC   : HGRD STANDARD RESOLUTION DENSITY POROSITY
HSGRD  .GAPI  : HNGS STANDARD GAMMA RAY FROM DENSITY LOG
RHOZ   .G/C3  : HRDD STANDARD RESOLUTION FORMATION DENSITY
AT10   .OHMM  : ARRAY INDUCTION TWO FOOT RESISTIVITY A10
AT30   .OHMM  : ARRAY INDUCTION TWO FOOT RESISTIVITY A30
AT90   .OHMM  : ARRAY INDUCTION TWO FOOT RESISTIVITY A90
HCALR  .IN    : HRCC CALIPER CALIBRATED FROM RESISTIVITY LOG
~Params ----------------------------------------------------
~Other -----------------------------------------------------
~ASCII -----------------------------------------------------
# ...
 3043.00000   50.42110   50.21640   94.54980   92.96320   97.01300    0.00920    3.92980    0.02960   -0.01160   15.36500    2.73240 1973.09520  295.56540  965.61180    7.85000
 3043.50000   51.54890   49.47680   90.39620   92.51310   97.94230    0.01670    3.92960    0.02850   -0.01220   14.37500    2.73360 1906.17290  228.99230  694.76170    7.80400
 3044.00000   51.95490   48.96660   87.43840   92.34490   98.87150    0.02640    3.92940    0.02820   -0.00040   13.46150    2.73360 1794.57570  206.49330  545.78910    7.77330
 3044.50000   51.72930   48.72050   87.17120   94.14720  100.25190    0.03320    3.89930    0.02850    0.00740   13.37930    2.72930 1652.64720  222.78900  478.79970    7.77290
 3045.00000   51.23310   48.77780   88.70560   94.29830  100.36110    0.02870    3.83170    0.03060    0.00920   13.67610    2.71260 1298.62780  264.74570  453.13470    7.78760
 3045.50000   50.68600   49.12280   90.23220   92.49970   99.01650    0.01590    3.74180    0.03210    0.00050   14.57790    2.69550 1204.20190  330.17030  513.13570    7.77190
 3046.00000   49.78950   49.17550   90.56290   91.00080   97.22080    0.00470    3.66670    0.03210   -0.01120   15.17720    2.70960 1056.68100  420.24230  609.81280    7.71100
 3046.50000   49.15790   49.22460   87.00710   91.18240   94.97390    0.01290    3.59170    0.03120   -0.01600   15.17140    2.72710  753.87760  463.04100  690.82450    7.65010
 3047.00000   48.84210   48.95520   83.75040   94.15480   93.17820    0.01740    3.54660    0.03070   -0.01560   14.63540    2.73740  511.88420  482.64280  731.44540    7.61920
 3047.50000   48.25560   48.43700   81.98840   95.80670   91.60910    0.01220    3.51650    0.03040   -0.01620   14.40180    2.74250  338.94200  510.06410  755.55930    7.58850
 3048.00000   47.39850   48.18670   82.04870   90.55680   90.94120    0.00390    3.53120    0.03040   -0.02470   14.39600    2.74830  238.50080  535.33720  750.46470    7.58810
 3048.50000   47.16860   47.63700   82.95670   86.65730   90.95110   -0.00020    3.67310    0.03100   -0.02850   14.08760    2.75540  212.19100  557.99950  735.18960    7.55740
 3049.00000   46.89600   47.07510   83.58640   86.35830   90.95990   -0.00210    3.75510    0.03190   -0.02610   13.62790    2.75960  171.40220  577.62270  577.54830    7.55690
 3049.50000   46.27070   46.40760   82.42230   86.62980   91.41980    0.00020    3.77360    0.03370   -0.01460   12.71430    2.76140  141.34970  581.66960  489.48140    7.55640
 3050.00000   46.09020   45.53890   80.95930   78.55960   92.33080    0.00500    3.77710    0.03760   -0.00590   11.64950    2.75770  123.02990  539.19570  456.91090    7.54080
 3050.50000   47.35340   44.45690   79.19730   75.86040   93.24190    0.01140    3.67960    0.04590   -0.00430   11.11350    2.71650  102.62230  356.45120  447.17840    7.52520
 3051.00000   49.47370   42.50580   77.73430   79.31310   95.05520    0.01880    3.55230    0.06550    0.01340   10.87990    2.60110   83.14220  304.04090  293.85380    7.52460
 3051.50000   51.45860   41.65670   76.86920   89.96720   96.86840    0.02140    3.50720    0.08310    0.05810   10.87410    2.59660   73.43750  242.50910  241.32230    7.52410
 3052.00000   53.26320   40.00000   77.20780  104.22220   99.58510    0.02860    3.65660    0.09900    0.05680   11.01950    2.61920   63.10000  191.44880  155.79040    7.52360
 3052.50000   54.95220   40.00000   76.04380  112.77580  103.20290    0.05250    3.71620    0.11070    0.03190   11.46760    2.64370   52.37930  137.45950  119.04620    7.52310
 3053.00000   58.54140   40.53810   73.98280  126.58070  108.62630    0.06520    3.64490    0.11970    0.02680   12.06690    2.66200   45.00600   85.38370   96.13030    7.52260
 3053.50000   64.22560   41.89710   72.22090  129.43290  114.49970    0.05020    3.44980    0.12490    0.03610   12.66620    2.66560   44.69960   62.15690   79.24910    7.55240
 3054.00000   64.22560   44.28310   71.64680  131.42510  119.47090    0.03680    3.05500    0.12940    0.06690   13.34040    2.66470   47.23920   60.04140   69.51750    7.58240
 3054.50000   64.27070   47.05360   72.28440  135.43770  126.24660    0.04360    2.92760    0.13390    0.08300   13.86330    2.57220   41.43900   59.21070   62.54960    7.59670
 3055.00000   66.79700   46.79110   73.57220  139.79020  131.21780    0.09220    2.83010    0.13670    0.07850   14.31140    2.58090   55.37090   66.94560   70.98190    7.59610
 3055.50000   69.32330   47.75070   78.93280  142.19220  134.83560    0.14240    2.81480    0.13610    0.06130   14.45680    2.62550  109.63250   96.60600  123.27550    7.59560
 3056.00000   75.58620   58.57830   85.84040  141.89360  137.55120    0.14460    2.87430    0.13430    0.03640   14.60230    2.65900  211.16040  119.62720  155.87570    7.62530
 3056.50000   80.37590   70.30410   98.72720  139.79460  136.43330    0.11320    2.90400    0.13250    0.02730   14.74770    2.66360  175.41720  134.50020  148.53650    7.67020
 3057.00000   78.88720   78.73900  116.39720  135.59500  133.50960    0.07120    2.91120    0.13190    0.04230   14.59060    2.66580  137.09080  113.17340  136.74360    7.76030
 3057.50000   73.33830   79.68380  120.60640  128.69470  129.00830    0.01890    2.85850    0.13030    0.04380   14.58400    2.64440   98.76440   90.74160  126.64580    7.85040
 3058.00000   69.09770   70.76320  114.36800  118.58470  123.60350    0.00760    2.81340    0.12980    0.05910   15.03130    2.61080   49.94800   78.49230   72.49640    7.94190
 3058.50000   66.06120   67.20720  109.28740  110.99350  116.84540    0.03680    2.80560    0.13010    0.06570   15.63060    2.58580   31.68070   54.71210   61.86310    8.12650
 3059.00000   64.40600   68.46620  108.75140  111.44510  109.63610    0.08920    2.84280    0.13220    0.07630   16.38120    2.57830   25.23170   35.24780   63.59830    7.92530
 3059.50000   69.77440   70.31180  109.09000  112.64680  107.38930    0.16560    2.93970    0.13760    0.07380   17.13180    2.58300   20.51580   26.74380   60.18720    7.77380
 3060.00000   70.22560   73.65430  107.62700  111.59800  107.39810    0.20300    2.98430    0.14260    0.06660   17.27720    2.58950   24.88930   24.11220   45.99160    7.74320
 3060.50000   68.24060   74.30230  106.16400  109.19890  108.76020    0.17900    2.89420    0.14440    0.07440   16.51500    2.56970   37.17310   43.93780   55.01280    7.75790
 3061.00000   65.57890   68.73340  101.41250  107.39990  108.77010    0.11840    2.80420    0.14110    0.10150   15.37380    2.49740   60.30740   85.78610  132.18150    7.75520
 3061.50000   61.65410   61.23920   97.55780  105.88090  108.32770    0.07650    2.77400    0.13930    0.13360   14.53510    2.46760   55.42070  125.35830  168.29390    7.69640
 3062.00000   53.76290   57.71000   78.91010  106.20280  107.88650    0.06680    2.77000    0.13940    0.14060   15.13440    2.45740   76.65220  164.80810  159.26750    7.63560
 3062.50000   49.60900   55.86830   79.84000  106.50400  107.44420    0.06080    2.78100    0.13810    0.14230   15.73370    2.40400   81.00590  300.98670  349.72690    7.62000
 3063.00000   47.80450   54.97010   81.95900  105.75560  106.55070    0.04880    2.82560    0.12850    0.14710   16.33300    2.38460   79.35180  579.60690  404.27720    7.63480
 3063.50000   47.44360   53.45250   84.07810  103.65660  105.65720    0.03680    2.86830    0.11600    0.16880   16.62980    2.39130   94.29730  717.72760  290.32720    7.64940
 3064.00000   47.26320   52.23520   85.30030  100.80730  103.86150    0.04880    2.89980    0.10880    0.19140   16.32070    2.43430  106.78200  656.07040  223.38050    7.66410
 3064.50000   46.81200   51.07780   86.22350   97.20780  102.06580    0.07760    2.92690    0.11030    0.16830   15.70890    2.50960  105.09160  494.36330  189.31490    7.61820
 3065.00000   46.80110   51.37720   86.54880   94.35860  100.27000    0.09150    2.94410    0.11120    0.06740   14.94670    2.60190  103.88040  393.65150  194.62500    7.57240
 3065.50000   48.81110   51.67660   87.47210   92.51970   98.92540    0.09450    2.95880    0.10400   -0.01920   13.57930    2.69780  106.06160  344.46800  231.27770    7.52670
