~Version ---------------------------------------------------
VERS.   2.0 : CWLS log ASCII Standard -VERSION 2.0
WRAP.    NO : One line per depth step
DLM . SPACE : Column Data Section Delimiter
~Well ------------------------------------------------------
STRT .F                   76.0 : START DEPTH
STOP .F                 3189.0 : STOP DEPTH
STEP .F                    0.5 : STEP
NULL .                -9999.25 : NULL VALUE
COMP .                         : COMPANY
WELL .                         : WELL
FLD  .                         : FIELD
LOC  .                         : LOCATION
PROV .                         : PROVINCE
CNTY .                         : COUNTY
STAT .                         : STATE
CTRY .                         : COUNTRY
SRVC .                         : SERVICE COMPANY
DATE .                         : DATE
UWI  .                         : UNIQUE WELL ID
API  .                         : API NUMBER
SLAT .WGS84 1.9388502765871003 : SURFACE LATITUDE
SLON .WGS84     9.844045768472 : SURFACE LONGITUDE
DATUM.F                 3999.8 : DEPTH DATUM ELEV
~Curve Information -----------------------------------------
DEPT   .F     : 
DTCO   .US/F  : DELTA-T COMPRESSIONAL
DTRP   .US/F  : DELTA-T COMPRESSIONAL, RECEIVER ARRAY - MONOPOLE P & S
DTRS   .US/F  : DELTA-T SHEAR, RECEIVER ARRAY - MONOPOLE P & S
DTSM   .US/F  : DELTA-T SHEAR
DT2R   .US/F  : DELTA-T SHEAR, RECEIVER ARRAY - UPPER DIPOLE
HDRA   .G/C3  : HRDD SPINE AND RIBS DENSITY CORRECTION
PEFZ   .B/E   : HRDD STANDARD RESOLUTION FORMATION PHOTOELECTRIC FACTOR
TNPH_LS.DEC   : THERMAL NEUTRON POROSITY [LIMESTONE]
DPHZ_LS.DEC   : HGRD STANDARD RESOLUTION DENSITY POROSITY
HSGRD  .GAPI  : HNGS STANDARD GAMMA RAY FROM DENSITY LOG
RHOZ   .G/C3  : HRDD STANDARD RESOLUTION FORMATION DENSITY
AT10   .OHMM  : ARRAY INDUCTION TWO FOOT RESISTIVITY A10
AT30   .OHMM  : ARRAY INDUCTION TWO FOOT RESISTIVITY A30
AT90   .OHMM  : ARRAY INDUCTION TWO FOOT RESISTIVITY A90
HCALR  .IN    : HRCC CALIPER CALIBRATED FROM RESISTIVITY LOG
~Params ----------------------------------------------------
~Other -----------------------------------------------------
~ASCII -----------------------------------------------------
# ...
 1318.00000   -9999.25   -9999.25   -9999.25   -9999.25   -9999.25   -9999.25   -9999.25    0.24350   -9999.25   56.77270   -9999.25   -9999.25   -9999.25   -9999.25   -9999.25
 1318.50000   -9999.25   -9999.25   -9999.25   -9999.25   -9999.25   -9999.25   -9999.25    0.25640   -9999.25   47.43120   -9999.25   -9999.25   -9999.25   -9999.25   -9999.25
 1319.00000   -9999.25   -9999.25   -9999.25   -9999.25   -9999.25   -9999.25   -9999.25    0.26350   -9999.25   31.31260   -9999.25   -9999.25   -9999.25   -9999.25   -9999.25
 1319.50000   -9999.25   -9999.25   -9999.25   -9999.25   -9999.25   -9999.25   -9999.25    0.26500   -9999.25   25.88670   -9999.25   -9999.25   -9999.25   -9999.25   -9999.25
 1320.00000   -9999.25   -9999.25   -9999.25   -9999.25   -9999.25   -9999.25   -9999.25    0.25760   -9999.25   22.19230   -9999.25   -9999.25   -9999.25   -9999.25   -9999.25
 1320.50000   -9999.25   -9999.25   -9999.25   -9999.25   -9999.25   -9999.25   -9999.25    0.23540   -9999.25   20.75690   -9999.25   -9999.25   -9999.25   -9999.25   -9999.25
 1321.00000   -9999.25   -9999.25   -9999.25   -9999.25   -9999.25   -9999.25   -9999.25    0.19660   -9999.25   19.99980   -9999.25   -9999.25   -9999.25   -9999.25   -9999.25
 1321.50000   -9999.25   -9999.25   -9999.25   -9999.25   -9999.25   -9999.25   -9999.25    0.18010   -9999.25   19.39320   -9999.25   -9999.25   -9999.25   -9999.25   -9999.25
 1322.00000   55.30720   54.82850   96.83960   98.26450   -9999.25    0.19540    4.97050    0.18760   -9999.25   19.38900   -9999.25   -9999.25   -9999.25   -9999.25   -9999.25
 1322.50000   56.93060   56.71690   99.23520  100.05390   -9999.25    0.16660    4.95550    0.21000   -0.24480   20.74030    2.72680  649.22040  150.46470  299.95770    8.00910
 1323.00000   58.41870   59.02900  102.83050  107.26300   -9999.25    0.07860    4.81330    0.21280    0.10400   23.74820    2.53370  649.13060  150.46470  299.95770    8.06950
 1323.50000   60.35780   60.83100  104.96830  112.07150   -9999.25    0.07190    4.65620    0.20560    0.14350   28.26160    2.47610  644.59620  150.46470  299.95770    8.25080
 1324.00000   62.16480   61.43290  108.82100  121.08100   -9999.25    0.09130    4.48410    0.19870    0.14440   28.55920    2.45270  644.52480  150.46470  299.95770    8.46220
 1324.50000   63.04510   59.63740  111.81660  122.88870   -9999.25    0.11750    4.40170    0.19750    0.15130   27.19860    2.42060  640.02260  150.46470  299.95770    8.58310
 1325.00000   63.69400   57.24150  113.61280  123.49620   -9999.25    0.11750    4.37170    0.22420    0.16660   25.38720    2.38890  626.84270  151.50630  297.89530    8.67370
 1325.50000   63.64820   55.74520  111.21110  122.15310   -9999.25    0.12120    4.31180    0.25010    0.18800   24.02760    2.36540  613.74400  152.55520  295.84720    8.70390
 1326.00000   63.51210   58.21090  108.50960  119.70990   -9999.25    0.12270    4.21450    0.25290    0.20680   23.42110    2.35610  580.88680  152.55520  291.79310    8.74920
 1326.50000   63.33100   60.54930  106.70760  116.31810   -9999.25    0.12190    4.04240    0.24330    0.20930   23.26630    2.35580  557.27040  153.61130  287.79450    8.79460
 1327.00000   63.60100   61.15190  107.62610  114.22480   -9999.25    0.15710    3.87780    0.22600    0.20780   23.56340    2.36880  527.28800  156.82380  283.85070    8.93050
 1327.50000   63.51010   62.35420  110.59910  111.53140   -9999.25    0.19370    3.71320    0.20980    0.19520   24.01000    2.48050  488.69850  157.90950  279.96090    9.47170
 1328.00000   62.76410   61.75740  113.59470  109.73830   -9999.25    0.23560    3.48120    0.18380    0.14410   24.45760    2.52310  459.22620  160.10350  278.03610   10.07850
 1328.50000   61.20780   59.96120  115.39170  108.39520   -9999.25    0.26630    3.24930    0.15480    0.09420   24.60510    2.56290  411.18610  161.21190  289.78690    9.95770
 1329.00000   59.35750   59.64210  113.88880  107.95060   -9999.25    0.25880    3.03610    0.13360    0.08240   24.44930    2.56750  370.37800  162.32790  304.12520    9.85200
 1329.50000   58.99610   60.88560  111.78700  108.40980   -9999.25    0.23560    3.08460    0.13000    0.09840   24.29460    2.56380  355.63870  161.21190  317.19640    9.89730
 1330.00000   61.20580   62.06950  109.68510  109.46740   -9999.25    0.20560    3.41360    0.13480    0.10440   24.29040    2.53350  331.89320  172.72670  321.38270    9.95770
 1330.50000   62.69380   65.67060  109.70520  108.93710   -9999.25    0.17860    3.63790    0.14770    0.10470   24.28580    2.53270  269.81280  202.42930  304.12520   10.18430
 1331.00000   63.41490   71.67050  111.57710  104.68260   -9999.25    0.15240    3.72010    0.15160    0.10440   24.73290    2.53370  251.79790  142.38510  254.18500   10.06340
 1331.50000   63.36900   70.47400  113.87360  100.18870   -9999.25    0.13590    3.71260    0.16280    0.10080   25.03100    2.53930  206.11640  116.56630  202.11390    9.85200
 1332.00000   62.60460   68.07810  115.07080   95.99500   -9999.25    0.12170    3.57040    0.16560    0.09290   25.92940    2.57670  167.33130  107.30450  166.87000   10.15410
 1332.50000   61.42770   66.28190  116.26660   94.20180   -9999.25    0.11720    3.27860    0.16210    0.07130   26.67830    2.64640  152.11400  105.83410  152.55520    9.97280
 1333.00000   61.51730   69.30120  118.36270   93.45710   -9999.25    0.11340    2.99430    0.14530    0.03220   27.72830    2.69310  126.24730  112.61380  168.02530    9.84890
 1333.50000   63.14070   72.37870  122.25780   93.76630   -9999.25    0.09320    2.90450    0.12230    0.00880   28.77840    2.70290  118.63370  119.36170  181.27310    9.73110
 1334.00000   67.33550   74.68720  127.42390   99.62500   -9999.25    0.06180    2.81470    0.10700    0.00130   29.07540    2.70650  121.10120  146.36910  170.35980    9.65560
 1334.50000   69.90620   76.48920  129.44840  106.74440   -9999.25    0.02610    2.79220    0.09900    0.02050   27.26300    2.70490  166.31380  243.87780  187.63530    9.85200
 1335.00000   71.48450   80.09030  130.64420  112.54390   -9999.25   -0.00340    2.86690    0.09330    0.08640   25.60220    2.56240  309.41630  499.78450  453.76940   11.63440
 1335.50000   72.83720   81.59240  132.14130  116.90300   -9999.25   -0.01840    2.92290    0.09630    0.09180   25.29690    2.55890 1427.71840  602.11810 1128.08250   11.87610
 1336.00000   64.98670   78.59680  129.13920  116.76030   -9999.25   -0.00120    2.87420    0.10260    0.04760   25.59390    2.65460 2000.00000  460.07410 1369.73160   10.80360
 1336.50000   61.51230   70.50380  119.54110  114.96710   -9999.25    0.01450    2.78440    0.10290    0.01120   25.74040    2.67270 1711.81980  267.45100  700.80830   10.09370
 1337.00000   57.49660   64.00600  107.84400  110.17320   -9999.25    0.00770    2.82920    0.10230    0.01330   25.73620    2.68280  529.72040  173.92250  392.56710    9.76130
 1337.50000   54.83430   57.31690   99.92080  104.92920   -9999.25   -0.00320    2.91140    0.09580    0.02020   25.88270    2.69610  369.99290  125.75690  293.81310    9.58010
 1338.00000   55.14940   56.41950   95.84350  102.08580   -9999.25   -0.00240    2.90380    0.08260    0.00580   27.23290    2.70920  497.71900  120.65750  193.35480    9.45920
 1338.50000   57.17880   57.92240   95.54080  102.09310   -9999.25    0.01440    2.79160    0.08080   -0.00960   31.44560    2.72450  506.13890  166.87000  150.46470    9.36680
 1339.00000   59.25330   59.72440   97.93670  103.18090   -9999.25    0.04510    2.87000    0.08110    0.00520   32.94850    2.72830  595.35880  195.56550  227.61970    9.30820
 1339.50000   62.70000   60.92670  101.83180  105.11020   -9999.25    0.11470    2.96340    0.08500    0.04130   30.83490    2.70740  359.75270  208.09350  304.12520    9.29310
 1340.00000   65.29690   62.42880  112.02380  106.31780   -9999.25    0.13340    2.93340    0.09130    0.04310   27.51750    2.63600  390.76080  177.64480  224.50050    9.33840
 1340.50000   66.42400   63.65230  121.91600  107.67540   -9999.25    0.12140    2.88100    0.10490    0.03080   26.60970    2.65030  500.87360  136.61140  129.27570    9.39880
