~Version ---------------------------------------------------
VERS.   2.0 : CWLS log ASCII Standard -VERSION 2.0
WRAP.    NO : One line per depth step
DLM . SPACE : Column Data Section Delimiter
~Well ------------------------------------------------------
STRT .F                   76.0 : START DEPTH
STOP .F                 3189.0 : STOP DEPTH
STEP .F                    0.5 : STEP
NULL .                -9999.25 : NULL VALUE
COMP .                         : COMPANY
WELL .                         : WELL
FLD  .                         : FIELD
LOC  .                         : LOCATION
PROV .                         : PROVINCE
CNTY .                         : COUNTY
STAT .                         : STATE
CTRY .                         : COUNTRY
SRVC .                         : SERVICE COMPANY
DATE .                         : DATE
UWI  .                         : UNIQUE WELL ID
API  .                         : API NUMBER
SLAT .WGS84 1.9388502765871003 : SURFACE LATITUDE
SLON .WGS84     9.844045768472 : SURFACE LONGITUDE
DATUM.F                 3999.8 : DEPTH DATUM ELEV
~Curve Information -----------------------------------------
DEPT   .F     : 
DTCO   .US/F  : DELTA-T COMPRESSIONAL
DTRP   .US/F  : DELTA-T COMPRESSIONAL, RECEIVER ARRAY - MONOPOLE P & S
DTRS   .US/F  : DELTA-T SHEAR, RECEIVER ARRAY - MONOPOLE P & S
DTSM   .US/F  : DELTA-T SHEAR
DT2R   .US/F  : DELTA-T SHEAR, RECEIVER ARRAY - UPPER DIPOLE
HDRA   .G/C3  : HRDD SPINE AND RIBS DENSITY CORRECTION
PEFZ   .B/E   : HRDD STANDARD RESOLUTION FORMATION PHOTOELECTRIC FACTOR
TNPH_LS.DEC   : THERMAL NEUTRON POROSITY [LIMESTONE]
DPHZ_LS.DEC   : HGRD STANDARD RESOLUTION DENSITY POROSITY
HSGRD  .GAPI  : HNGS STANDARD GAMMA RAY FROM DENSITY LOG
RHOZ   .G/C3  : HRDD STANDARD RESOLUTION FORMATION DENSITY
AT10   .OHMM  : ARRAY INDUCTION TWO FOOT RESISTIVITY A10
AT30   .OHMM  : ARRAY INDUCTION TWO FOOT RESISTIVITY A30
AT90   .OHMM  : ARRAY INDUCTION TWO FOOT RESISTIVITY A90
HCALR  .IN    : HRCC CALIPER CALIBRATED FROM RESISTIVITY LOG
~Params ----------------------------------------------------
~Other -----------------------------------------------------
~ASCII -----------------------------------------------------
# ...
 3158.00000   45.86470   46.58680   77.20210   83.86380   92.31570   -0.00140    2.88470    0.05020    0.00300   -9999.25    2.72850  933.74660 1340.43960 1315.39000    7.60140
 3158.50000   45.86470   46.58680   77.52760   83.85800   92.31930   -0.00660    2.85830   -9999.25    0.00360   -9999.25    2.69160  993.39810 1466.79140 1315.57180    7.61540
 3159.00000   45.86470   46.58680   77.55460   83.85220   92.32290   -0.00730    2.92180   -9999.25    0.00200   -9999.25    2.69200  979.62240 1519.44270 1352.53200    7.62950
 3159.50000   45.86470   46.58680   77.58680   83.99790   92.77820   -0.00730    2.98140   -9999.25   -0.00280   -9999.25    2.70090 1093.77190 1560.14450 1390.53060    7.64370
 3160.00000   45.86470   46.58680   77.30940   83.99060   93.68450   -0.00580    3.02620   -9999.25   -0.01780   -9999.25    2.72130 1392.27050 1538.76500 1439.49400    7.64260
 3160.50000   45.86470   46.58680   77.33630   83.98500   94.13930   -0.00510    3.00360   -9999.25   -0.03890   -9999.25    2.76680 1911.96220 1067.50720 1459.65550    7.64170
 3161.00000   45.86470   46.58680   77.36320   83.97900   94.59400   -0.00370    2.94360   -9999.25   -0.05000   -9999.25    2.78620 1924.87930  761.29740 1220.13450    7.62570
 3161.50000   45.90980   46.54190   77.39340   83.97300   94.59770   -0.00150    2.89110   -9999.25   -0.05600   -9999.25    2.79880 1924.48000  585.72890  965.12400    7.60970
 3162.00000   45.95490   46.28740   77.41980   83.96590   94.60130    0.00090    2.85730   -9999.25   -0.05690   -9999.25    2.80730 1924.16090  456.91090  674.25760    7.59360
 3162.50000   46.00000   46.28740   77.44400   84.26020   94.60500    0.00160    2.85340   -9999.25   -0.05330   -9999.25    2.81210 1923.84170  293.63780  490.96010    7.57760
 3163.00000   46.00000   46.28740   77.47250   84.25440   94.60900    0.00160    2.88320   -9999.25   -0.05480   -9999.25    2.81630 1910.29750  263.10620  388.34840    7.57650
 3163.50000   46.00000   46.28740   77.49780   84.24860   94.61270    0.00090    2.94290   -9999.25   -0.05350   -9999.25    2.81250 1870.85520  295.84720  530.48190    7.57560
 3164.00000   45.95490   46.34730   77.52470   84.24280   94.61680    0.00360    2.98010   -9999.25   -0.04190   -9999.25    2.79560 1813.46330  321.38270  591.69930    7.57470
 3164.50000   45.95490   46.58680   77.55170   84.08700   94.62040    0.00640    3.03230   -9999.25   -0.03890   -9999.25    2.77970 1409.39140  353.97300  579.62660    7.57380
 3165.00000   45.95490   46.58680   77.57850   83.99850   94.62410    0.00710    3.04710   -9999.25   -0.04160   -9999.25    2.77050 1202.39100  420.60690  638.49260    7.57280
 3165.50000   45.95490   46.58680   77.60540   83.92390   94.62770    0.00760    2.91230   -9999.25   -0.04250   -9999.25    2.77140 1161.42820  499.78450  865.04570    7.57190
 3166.00000   46.00000   46.58680   77.33330   83.91810   94.63140    0.00690    2.83740   -9999.25   -0.03860   -9999.25    2.77750  977.26860  563.28150 1000.01930    7.57100
 3166.50000   45.95490   46.58680   77.36480   83.91300   94.93590    0.00540    2.85970   -9999.25   -0.03920   -9999.25    2.78010  668.57150  610.48390 1086.45430    7.58520
 3167.00000   46.00000   46.58680   77.39120   83.75690   95.54140    0.00460    2.88200   -9999.25   -0.02960   -9999.25    2.77610  443.00060  627.56570  898.59150    7.58410
 3167.50000   46.00000   46.58680   77.41410   83.75060   95.99660    0.00310    2.88180   -9999.25   -0.03110   -9999.25    2.76260  323.87620  627.56570  718.36340    7.59850
 3168.00000   46.00000   46.58680   77.44100   83.74480   96.00020    0.00110    2.85420   -9999.25   -0.02960   -9999.25    2.75750  257.88760  623.25100  652.29590    7.59740
 3168.50000   46.00000   46.58680   77.47030   83.58890   96.00390    0.00050    2.83660   -9999.25   -0.03620   -9999.25    2.75730  234.10510  618.96590  613.09300    7.59650
 3169.00000   46.00000   46.58680   77.49670   83.58170   96.00750   -0.00130    2.82900   -9999.25   -0.04040   -9999.25    2.76520  232.45700  636.28500  617.40570    7.59550
 3169.50000   46.00000   46.58680   77.52170   83.57590   96.01110   -0.00430    2.85880   -9999.25   -0.04160   -9999.25    2.77420  250.74330  743.17070  754.24070    7.59440
 3170.00000   46.00000   46.58680   77.54950   83.72160   96.01480   -0.00650    2.90150   -9999.25   -0.03830   -9999.25    2.78320  292.78900  850.14780 1031.56160    7.60880
 3170.50000   46.00000   46.58680   77.57550   83.71440   96.01840   -9999.25   -9999.25   -9999.25   -9999.25   -9999.25   -9999.25  348.97890  923.52670 1514.39700    7.60770
 3171.00000   46.00000   46.58680   77.60240   83.70850   96.02260   -9999.25   -9999.25   -9999.25   -9999.25   -9999.25   -9999.25  453.43420  949.36780 1556.94320    7.60680
 3171.50000   46.00000   46.58680   77.62930   83.70280   96.02660   -9999.25   -9999.25   -9999.25   -9999.25   -9999.25   -9999.25  462.80280  691.20480 1310.43180    7.60590
 3172.00000   46.00000   46.58680   77.65720   83.69690   95.57910   -9999.25   -9999.25   -9999.25   -9999.25   -9999.25   -9999.25  420.02010  469.69560  860.38100    7.62010
 3172.50000   46.00000   46.58680   77.68800   83.69090   95.58280   -9999.25   -9999.25   -9999.25   -9999.25   -9999.25   -9999.25  408.45320  361.37560  580.70070    7.61910
 3173.00000   46.00000   46.58680   77.71000   83.68390   95.13530   -9999.25   -9999.25   -9999.25   -9999.25   -9999.25   -9999.25  440.47660  305.99510  434.66800    7.61800
 3173.50000   46.00000   46.58680   77.74070   83.67810   95.13890   -9999.25   -9999.25   -9999.25   -9999.25   -9999.25   -9999.25  580.27030  349.12230  597.09770    7.61710
 3174.00000   46.00000   46.58680   77.95690   83.67230   94.69140   -9999.25   -9999.25   -9999.25   -9999.25   -9999.25   -9999.25  836.15950  524.51340  922.26860    7.63150
 3174.50000   46.00000   46.58680   78.08970   83.66650   94.69570   -9999.25   -9999.25   -9999.25   -9999.25   -9999.25   -9999.25 1364.20780  672.39080 1338.76150    7.63040
 3175.00000   45.95490   46.58680   78.11660   83.36060   94.69920   -9999.25   -9999.25   -9999.25   -9999.25   -9999.25   -9999.25 1925.53130  771.87480 1692.87080    7.62950
 3175.50000   45.77440   46.58680   78.14520   83.05470   94.70330   -9999.25   -9999.25   -9999.25   -9999.25   -9999.25   -9999.25 1951.64330  750.86490 1826.54610    7.62860
 3176.00000   45.36840   46.58680   78.17040   82.43260   94.70690   -9999.25   -9999.25   -9999.25   -9999.25   -9999.25   -9999.25 1964.50900  715.46440 1644.15520    7.62760
 3176.50000   45.04140   46.58680   78.19730   80.94110   94.71050   -9999.25   -9999.25   -9999.25   -9999.25   -9999.25   -9999.25 1950.20100  710.54530 1321.03610    7.64190
 3177.00000   44.60150   46.63080   78.22430   79.73500   95.16530   -9999.25   -9999.25   -9999.25   -9999.25   -9999.25   -9999.25 1909.62430  805.52160  935.72870    7.64070
 3177.50000   44.78200   46.88620   78.25110   80.02930   95.16900   -9999.25   -9999.25   -9999.25   -9999.25   -9999.25   -9999.25 1757.31750  989.49140 1030.73140    7.63980
 3178.00000   45.72930   46.88620   78.28150   81.22380   95.17260   -9999.25   -9999.25   -9999.25   -9999.25   -9999.25   -9999.25  811.13170  838.49770  879.58870    7.63890
 3178.50000   46.04510   46.88620   78.30490   83.31850   95.62790   -9999.25   -9999.25   -9999.25   -9999.25   -9999.25   -9999.25  827.89090  409.15840  392.43330    7.63800
 3179.00000   46.04510   46.88620   78.33420   83.76290   95.63160   -9999.25   -9999.25   -9999.25   -9999.25   -9999.25   -9999.25  805.02560  285.81580  255.75630    7.63710
 3179.50000   46.04510   46.88620   78.35870   83.75690   95.63500   -9999.25   -9999.25   -9999.25   -9999.25   -9999.25   -9999.25  677.26820  272.08020  235.58030    7.63600
 3180.00000   46.04510   46.88620   78.38570   83.74980   95.63920   -9999.25   -9999.25   -9999.25   -9999.25   -9999.25   -9999.25  542.92250  312.63490  363.88410    7.63520
 3180.50000   46.00000   46.88620   78.41560   83.74400   96.09400   -9999.25   -9999.25   -9999.25   -9999.25   -9999.25   -9999.25  384.36760  401.56740  681.82080    7.63410
