~Version ---------------------------------------------------
VERS.   2.0 : CWLS log ASCII Standard -VERSION 2.0
WRAP.    NO : One line per depth step
DLM . SPACE : Column Data Section Delimiter
~Well ------------------------------------------------------
STRT .F                   76.0 : START DEPTH
STOP .F                 3189.0 : STOP DEPTH
STEP .F                    0.5 : STEP
NULL .                -9999.25 : NULL VALUE
COMP .                         : COMPANY
WELL .                         : WELL
FLD  .                         : FIELD
LOC  .                         : LOCATION
PROV .                         : PROVINCE
CNTY .                         : COUNTY
STAT .                         : STATE
CTRY .                         : COUNTRY
SRVC .                         : SERVICE COMPANY
DATE .                         : DATE
UWI  .                         : UNIQUE WELL ID
API  .                         : API NUMBER
SLAT .WGS84 1.9388502765871003 : SURFACE LATITUDE
SLON .WGS84     9.844045768472 : SURFACE LONGITUDE
DATUM.F                 3999.8 : DEPTH DATUM ELEV
~Curve Information -----------------------------------------
DEPT   .F     : 
DTCO   .US/F  : DELTA-T COMPRESSIONAL
DTRP   .US/F  : DELTA-T COMPRESSIONAL, RECEIVER ARRAY - MONOPOLE P & S
DTRS   .US/F  : DELTA-T SHEAR, RECEIVER ARRAY - MONOPOLE P & S
DTSM   .US/F  : DELTA-T SHEAR
DT2R   .US/F  : DELTA-T SHEAR, RECEIVER ARRAY - UPPER DIPOLE
HDRA   .G/C3  : HRDD SPINE AND RIBS DENSITY CORRECTION
PEFZ   .B/E   : HRDD STANDARD RESOLUTION FORMATION PHOTOELECTRIC FACTOR
TNPH_LS.DEC   : THERMAL NEUTRON POROSITY [LIMESTONE]
DPHZ_LS.DEC   : HGRD STANDARD RESOLUTION DENSITY POROSITY
HSGRD  .GAPI  : HNGS STANDARD GAMMA RAY FROM DENSITY LOG
RHOZ   .G/C3  : HRDD STANDARD RESOLUTION FORMATION DENSITY
AT10   .OHMM  : ARRAY INDUCTION TWO FOOT RESISTIVITY A10
AT30   .OHMM  : ARRAY INDUCTION TWO FOOT RESISTIVITY A30
AT90   .OHMM  : ARRAY INDUCTION TWO FOOT RESISTIVITY A90
HCALR  .IN    : HRCC CALIPER CALIBRATED FROM RESISTIVITY LOG
~Params ----------------------------------------------------
~Other -----------------------------------------------------
~ASCII -----------------------------------------------------
# ...
 1939.00000   73.16440   74.56270  137.75110  130.71810   -9999.25    0.45000    3.19370    0.18480    0.06120  140.96390    2.63550   45.18230   38.38630   40.34650   10.12720
 1939.50000   71.54580   72.16160  132.95350  128.92010   -9999.25    0.45000    3.28350    0.16240    0.02630  139.90960    2.66140   49.40730   41.12810   41.75980   10.02130
 1940.00000   70.14650   70.33920  127.85610  126.67190   -9999.25    0.28610    3.38820    0.14080    0.02900  143.22290    2.66940   54.05050   45.76340   45.99140   10.15710
 1940.50000   68.97270   69.15570  122.15890  124.12370   -9999.25    0.19070    3.45550    0.13860    0.02750  146.23490    2.66870   61.20550   55.33220   54.66560   10.12670
 1941.00000   66.58090   68.84920  118.26090  121.87560   -9999.25    0.12550    3.38820    0.13150    0.03080  147.59040    2.65870   73.24040   72.41550   70.93360    9.65830
 1941.50000   64.73050   67.64580  114.04230  119.62740   -9999.25    0.06640    3.26850    0.11920    0.06450  147.43980    2.61490   93.90170  108.04740  119.14230    9.51850
 1942.00000   63.51160   65.84350  112.86360  117.31280   -9999.25    0.02520    3.08150    0.10970    0.07380  144.12650    2.58180  146.04670  146.36910  160.27880    9.41630
 1942.50000   62.96950   64.04130  113.46330  115.13170   -9999.25    0.01020    3.05160    0.10250    0.07440  138.70480    2.57970  252.00910  176.33900  193.08380    9.37080
 1943.00000   63.78050   63.13870  113.76310  113.78380   -9999.25    0.00350    3.12640    0.09950    0.07260  138.55420    2.58200 1787.56580  194.22090  206.86150    9.35560
 1943.50000   64.54660   64.03100  113.16340  112.43590   -9999.25   -0.00030    3.21990    0.09850    0.07170  142.77110    2.58340 2000.00000  202.42930  204.01310    9.32520
 1944.00000   64.09460   64.32340  111.96400  111.38800   -9999.25   -0.00330    3.29840    0.10300    0.07320  147.74100    2.58440 1634.65550  173.93470  171.68120    9.32510
 1944.50000   63.32690   64.31730  109.56520  110.79030   -9999.25   -0.00480    3.50040    0.10990    0.07590  149.39760    2.58510  699.75290  111.83960  104.66570    9.30980
 1945.00000   62.51400   62.80450  108.06600  110.78440   -9999.25   -0.00560    3.67240    0.11200    0.07380  149.69880    2.58510  443.86370  121.49280   72.96630    9.30970
 1945.50000   62.24250   61.23340  110.16490  112.64580   -9999.25   -0.00330    3.71730    0.10790    0.07530  149.39760    2.58420  295.48020  102.24550   62.25570    9.32460
 1946.00000   63.23420   59.50790  114.06300  119.20030   -9999.25   -0.00190    3.53780    0.10330    0.08800  149.54820    2.56720  213.25320   90.30500   59.31760    9.33960
 1946.50000   65.48450   60.69960  118.56070  122.80360   -9999.25    0.00260    3.35830    0.10440    0.10540  151.12950    2.52850  148.26300   94.12160   64.43220    9.36960
 1947.00000   67.83390   62.78960  122.56280  125.80680   -9999.25    0.00630    3.23480    0.11220    0.10930  152.78610    2.52530   61.74000   94.49530   46.58540    9.49030
 1947.50000   70.35940   64.58010  126.35680  131.96070   -9999.25    0.01080    3.18620    0.12360    0.10150  155.12050    2.53360   70.39680   38.79340   27.76530    9.71680
 1948.00000   73.33600   66.96950  128.15590  134.51380   -9999.25    0.01160    3.26850    0.13280    0.08500  157.83130    2.56630  107.98870   33.43880   35.26150    9.92810
 1948.50000   73.38050   69.95770  129.95500  134.67870   -9999.25    0.00780    3.35080    0.13430    0.06720  159.33740    2.59890  114.92180   42.86630   39.46800   10.01860
 1949.00000   73.42480   71.14940  132.05400  134.20190   -9999.25    0.00330    3.38070    0.13670    0.05670  160.24100    2.61290  113.08720   44.06580   39.19410   10.03350
 1949.50000   73.78460   72.34120  134.45280  133.02120   -9999.25    0.00250    3.38070    0.14350    0.05730  161.44580    2.61470   84.27540   41.98820   38.65440   10.07870
 1950.00000   76.85150   74.13170  136.85160  132.57300   -9999.25    0.00850    3.36570    0.15310    0.07010  163.85540    2.61520   74.84840   39.46040   38.12220   10.25980
 1950.50000   78.59210   76.30840  139.55020  133.98190   -9999.25    0.03170    3.32830    0.16020    0.09320  166.64160    2.59250   66.65690   39.18910   38.91680   10.80360
 1951.00000   80.45870   78.60960  145.24740  136.62420   -9999.25    0.06760    3.27600    0.16750    0.11920  167.46990    2.38040   61.78130   41.98820   41.98240   11.25680
 1951.50000   82.21730   80.69960  147.94600  140.37510   -9999.25    0.10350    3.21620    0.17150    0.14760  164.00600    2.34310   49.06790   46.53680   44.97810   11.75530
 1952.00000   84.11120   82.78950  154.85860  142.62570   -9999.25    0.12480    3.14880    0.19410    0.19440  160.69280    2.32880   39.63550   43.42580   39.17770   12.29910
 1952.50000   84.33610   83.68190  153.80820  143.97600   -9999.25    0.13420    3.08150    0.23030    0.21700  159.03610    2.37440   37.58650   31.67030   30.14070   12.72210
 1953.00000   82.75610   83.97690  148.24590  145.02630   -9999.25    0.13110    2.99930    0.23900    0.21490  157.07830    2.43030   38.90310   23.65280   24.67360   12.98000
 1953.50000   79.23650   83.07140  140.44980  144.27610   -9999.25    0.15210    2.96930    0.23930    0.18960  152.71080    2.46840   44.04410   27.33490   27.74210   12.52570
 1954.00000   75.71690   80.67030  134.45280  142.59530   -9999.25    0.21350    3.04410    0.22040    0.15620  150.30120    2.53750   48.50720   36.76790   37.06410   12.61630
 1954.50000   74.70960   78.56870  130.55470  140.12340   -9999.25    0.33540    3.10150    0.19020    0.11140  152.18370    2.59970   51.61120   39.11550   38.89550   13.09970
 1955.00000   74.13610   76.76640  131.15440  137.37430   -9999.25    0.38030    3.11890    0.17490    0.04870  156.62650    2.63210   54.91370   39.65110   38.91080   12.78250
 1955.50000   73.77440   74.60800  132.98200  135.27380   -9999.25    0.28720    3.11140    0.17260    0.03680  158.28310    2.64830   56.05840   43.36300   41.66730   11.57400
 1956.00000   73.68340   72.86250  135.65220  133.62340   -9999.25    0.22980    3.08900    0.17280    0.06720  159.63850    2.62830   56.05450   47.46600   44.94960   11.71000
 1956.50000   73.59230   73.75340  138.05100  132.57320   -9999.25    0.15350    3.05160    0.17400    0.06210  163.85540    2.60070   53.77710   48.40460   42.24060   12.35950
 1957.00000   71.96740   74.64580  139.86190  136.32410   -9999.25    0.14520    3.02170    0.17670    0.05880  167.46990    2.58030   48.15360   40.44600   35.54640   12.18710
 1957.50000   69.35010   75.53810  142.31870  138.87470   -9999.25    0.12730    3.01420    0.18150    0.07290  168.22290    2.49810   46.83970   34.03160   31.82920   12.31420
 1958.00000   67.45450   76.13250  145.24740  140.69900   -9999.25    0.09360    3.08150    0.19590    0.16500  165.58730    2.39120   42.52440   31.97640   32.04740   12.75230
 1958.50000   67.97670   76.12520  147.94600  141.42540   -9999.25    0.08760    3.15250    0.23030    0.18150  162.72590    2.36640   43.11230   32.63860   33.63090   13.02420
 1959.00000   68.35510   75.52060  150.94450  140.37510   -9999.25    0.17890    3.11140    0.22850    0.20170  163.70480    2.34240   44.96660   32.85800   27.72090   13.43200
 1959.50000   67.99320   74.91590  153.04350  139.02470   -9999.25    0.25370    3.05160    0.22010    0.21010  168.82530    2.26150   43.70550   30.65990   25.16690   14.45920
 1960.00000   67.63150   74.61080  153.94300  137.82450   -9999.25    0.27310    3.06660    0.21410    0.26210  170.48190    2.23710   44.51620   29.61440   24.14480   14.76130
 1960.50000   66.86370   74.30540  152.74360  136.62420   -9999.25    0.21550    3.08150    0.21290    0.27740  163.25300    2.24260   57.98510   33.75550   29.08670   12.93350
 1961.00000   65.19370   74.59900  148.84560  135.57390   -9999.25    0.20650    3.03660    0.21290    0.27170  157.53010    2.26210   59.19480   39.82610   37.02830   13.56120
 1961.50000   62.98240   74.89250  140.44980  134.67370   -9999.25    0.21770    2.96190    0.21890    0.24560  153.16260    2.39200   52.27750   42.95760   42.50400   14.21030
