~Version ---------------------------------------------------
VERS.   2.0 : CWLS log ASCII Standard -VERSION 2.0
WRAP.    NO : One line per depth step
DLM . SPACE : Column Data Section Delimiter
~Well ------------------------------------------------------
STRT .F                   76.0 : START DEPTH
STOP .F                 3189.0 : STOP DEPTH
STEP .F                    0.5 : STEP
NULL .                -9999.25 : NULL VALUE
COMP .                         : COMPANY
WELL .                         : WELL
FLD  .                         : FIELD
LOC  .                         : LOCATION
PROV .                         : PROVINCE
CNTY .                         : COUNTY
STAT .                         : STATE
CTRY .                         : COUNTRY
SRVC .                         : SERVICE COMPANY
DATE .                         : DATE
UWI  .                         : UNIQUE WELL ID
API  .                         : API NUMBER
SLAT .WGS84 1.9388502765871003 : SURFACE LATITUDE
SLON .WGS84     9.844045768472 : SURFACE LONGITUDE
DATUM.F                 3999.8 : DEPTH DATUM ELEV
~Curve Information -----------------------------------------
DEPT   .F     : 
DTCO   .US/F  : DELTA-T COMPRESSIONAL
DTRP   .US/F  : DELTA-T COMPRESSIONAL, RECEIVER ARRAY - MONOPOLE P & S
DTRS   .US/F  : DELTA-T SHEAR, RECEIVER ARRAY - MONOPOLE P & S
DTSM   .US/F  : DELTA-T SHEAR
DT2R   .US/F  : DELTA-T SHEAR, RECEIVER ARRAY - UPPER DIPOLE
HDRA   .G/C3  : HRDD SPINE AND RIBS DENSITY CORRECTION
PEFZ   .B/E   : HRDD STANDARD RESOLUTION FORMATION PHOTOELECTRIC FACTOR
TNPH_LS.DEC   : THERMAL NEUTRON POROSITY [LIMESTONE]
DPHZ_LS.DEC   : HGRD STANDARD RESOLUTION DENSITY POROSITY
HSGRD  .GAPI  : HNGS STANDARD GAMMA RAY FROM DENSITY LOG
RHOZ   .G/C3  : HRDD STANDARD RESOLUTION FORMATION DENSITY
AT10   .OHMM  : ARRAY INDUCTION TWO FOOT RESISTIVITY A10
AT30   .OHMM  : ARRAY INDUCTION TWO FOOT RESISTIVITY A30
AT90   .OHMM  : ARRAY INDUCTION TWO FOOT RESISTIVITY A90
HCALR  .IN    : HRCC CALIPER CALIBRATED FROM RESISTIVITY LOG
~Params ----------------------------------------------------
~Other -----------------------------------------------------
~ASCII -----------------------------------------------------
# ...
 2905.00000   78.75190   97.51910  176.59560  159.55720  176.29060   -0.00390    3.38000    0.32210    0.15830  299.75450    2.43690   65.29620   65.70310   64.89240    7.66620
 2905.50000   80.46620   98.30230  177.24840  160.75530  175.43770   -0.00030    3.31260    0.32210    0.16310  299.75990    2.43280   63.95860   65.69760   64.89670    7.65140
 2906.00000   82.00000   98.98000  177.60240  165.55430  173.23130    0.00310    3.26760    0.32450    0.16250  299.76540    2.42930   63.51890   65.24160   64.45470    7.65190
 2906.50000   83.37310   99.80710  177.65920  167.95270  163.80690    0.00540    3.27500    0.33250    0.16010  299.77080    2.42670   63.95860   65.23720   64.45920    7.65230
 2907.00000   83.57890  100.20960  177.72570  166.87480  162.50290    0.00690    3.29740    0.35680    0.16250  299.77620    2.42210   64.84720   65.23280   64.97890    7.65280
 2907.50000   82.63160  100.53520  177.78060  164.94710  162.55220    0.00910    3.31600    0.36870    0.17320  299.78170    2.41360   66.20340   65.68020   67.19350    7.63790
 2908.00000   82.00000  100.89580  177.23750  163.14440  163.50370    0.00910    3.34210    0.36240    0.17780  299.78710    2.40880   68.52700   66.58820   69.55650    7.63840
 2908.50000   82.04510  100.95710  176.39560  161.04170  164.00410    0.00800    3.38690    0.36510    0.17810  299.79260    2.40690   71.48060   68.53840   71.50750    7.63890
 2909.00000   82.45110  100.41950  175.25460  159.83920  164.50450    0.00350    3.44670    0.37590    0.17420  299.79800    2.41210   74.95710   71.33360   74.53470    7.62410
 2909.50000   82.94740   99.58250  174.11370  159.68700  164.55390    0.00010    3.53260    0.37830    0.16280  299.80350    2.42540   78.66590   73.32460   76.62530    7.62450
 2910.00000   82.84500   99.04500  173.23370  159.98500  164.60310    0.00240    3.65590    0.36480    0.15020  299.80890    2.44470   79.21050   76.41850   78.23300    7.62500
 2910.50000   81.63910   97.30980  172.44350  160.28280  164.20130    0.00540    3.73810    0.34330    0.14320  299.81430    2.46290   75.47600   76.41340   79.91010    7.61020
 2911.00000   80.46620   95.56650  171.58770  159.66770  162.89720    0.00310    3.75300    0.33040    0.14530  299.81980    2.46780   73.42160   75.36120   82.11620    7.61070
 2911.50000   78.12030   93.54010  171.34370  157.87730  162.04430   -0.00280    3.71560    0.32260    0.14350  299.82520    2.47350   79.21050   74.32350   83.26270    7.61120
 2912.00000   77.17290   92.11960  171.09960  155.92520  161.64240   -0.00920    3.64820    0.31570    0.13840  299.83070    2.47930   81.99060   75.35110   85.00970    7.61160
 2912.50000   77.75940   91.26730  170.57030  162.37400  160.78950   -0.01110    3.58080    0.31360    0.13600  299.83610    2.47560   81.42690   78.57520   85.60390    7.61210
 2913.00000   78.97740   91.34390  163.45030  184.57740  160.83880   -0.01030    3.52340    0.31420    0.13810  299.84150    2.44830   71.91760   81.84390   85.60960    7.61250
 2913.50000   80.10930   93.50090  159.91770  200.92990  160.43690   -0.00580    3.46840    0.32470    0.15160  299.84700    2.42850   53.82610   69.34900   84.44210    7.59770
 2914.00000   80.42110   95.35860  160.28530  193.72530  160.03510   -0.00060    3.41230    0.35670    0.16610  299.85240    2.41850   49.89230   54.84520   71.06930    7.58290
 2914.50000   80.33080   97.51570  161.53600  183.22050  160.98660    0.00460    3.36360    0.35850    0.17120  299.85780    2.40680   54.95170   49.44990   58.99460    7.58340
 2915.00000   80.37590   99.37330  162.78670  181.86800  165.99840    0.00910    3.32610    0.35050    0.16850  299.86330    2.40090   57.27420   54.83780   69.14520    7.58380
 2915.50000   80.51130  101.23100  164.33630  195.21860  199.88220    0.01250    3.29860    0.33960    0.17270  299.86870    2.39690   56.88040   62.08460   76.16210    7.58430
 2916.00000   80.69170  102.51510  165.58700  206.46930  202.18720    0.01440    3.27360    0.33690    0.18440  299.87420    2.39180   57.67070   68.37580   81.04650    7.58480
 2916.50000   80.91730  103.16510  166.23980  221.62080  191.86050    0.00910    3.25110    0.33990    0.18620  299.87960    2.38290   58.06990   72.28510   85.06220    7.61580
 2917.00000   81.09770  103.68100  166.59490  223.56920  190.10530    0.00460    3.23600    0.35420    0.18530  299.88500    2.37590   59.28440   74.26630   88.05360    7.66200
 2917.50000   81.18800  103.87730  166.66220  221.46640  190.15460    0.00090    3.19860    0.35630    0.19190  299.89050    2.36870   60.52420   74.77550   88.66910    7.70810
 2918.00000   80.64660  103.94770  167.01610  217.11320  194.71520   -0.00210    3.15360    0.37940    0.21010  299.89590    2.35600   62.64840   74.77050   88.67510    7.76960
 2918.50000   80.42110  103.99360  166.75830  211.55960  205.59150   -0.00060    3.10870    0.39040    0.21690  299.90140    2.34300   66.66170   75.28430   88.07130    7.77000
 2919.00000   80.33080  103.05990  166.51420  208.03220  223.68590    0.00350    3.05630    0.38080    0.21030  299.90680    2.33580   72.41550   75.79920   87.47160    7.74000
 2919.50000   80.10530  101.73620  165.68590  204.05280  229.59990    0.00690    3.01580    0.37310    0.20450  299.91220    2.33870   77.21410   77.91490   89.30830    7.69470
 2920.00000   78.30080   99.40220  164.24600  200.44970  229.64920    0.00690    2.98880    0.37190    0.20300  299.91770    2.34800   79.21050   81.76460   92.44900    7.67990
 2920.50000   78.34590   98.25440  162.18750  198.04700  226.77230    0.00390    2.95880    0.37220    0.20330  299.92310    2.35970   75.99850   84.11230   95.04220    7.68030
 2921.00000   79.22280   97.72830  160.18420  196.84450  220.50590    0.00090    2.95120    0.37270    0.20240  299.92860    2.36940   71.91760   86.98930   90.56730    7.68080
 2921.50000   81.00750   99.60120  159.92640  195.04180  213.11150   -0.00430    2.95860    0.37360    0.19970  299.93400    2.38750   66.66170   87.58720   85.70970    7.69660
 2922.00000   82.36090  101.45890  160.59290  193.38930  206.84500   -0.00880    2.99600    0.37390    0.19250  296.48570    2.41490   58.71520   88.18760   86.34010    7.72750
 2922.50000   79.47370  102.11890  162.14250  191.88670  201.93190   -0.01040    3.04570    0.37040    0.17170  290.48730    2.43820   45.29870   87.57400   85.72270    7.77370
 2923.00000   79.24810   99.48560  164.58910  190.23410  198.37210    0.00610    3.09310    0.36080    0.15820  299.33140    2.44550   35.58090   58.68990   54.37160    7.85040
 2923.50000   81.68420   98.93270  165.24180  191.13160  197.97040    0.01740    3.16780    0.35510    0.15610  299.77980    2.44250   33.67030   44.22700   51.10160    7.86610
 2924.00000   82.45590  100.80570  163.78710  194.43020  196.67240    0.02860    3.22000    0.35420    0.16750  299.92800    2.43090   34.85210   42.72450   51.45880    7.83590
 2924.50000   79.94370  101.46570  160.88100  197.87890  196.72170    0.04130    3.20500    0.35860    0.17710  299.77650    2.41230   36.32020   44.24690   55.13810    7.83650
 2925.00000   75.77490  100.02990  159.74010  207.77920  199.92890    0.05330    3.13760    0.36430    0.17530  297.52620    2.38650   37.87930   47.54200   59.22630    7.85220
 2925.50000   75.00750   97.60250  159.18330  213.62850  205.39180    0.05550    3.05530    0.37090    0.17580  262.74210    2.36500   37.34140   53.80180   55.66590    7.82210
 2926.00000   79.96990   93.58090  158.93930  217.97740  210.85460    0.04880    2.92810    0.37330    0.19970  253.29540    2.34020   32.75380   47.85050   49.38150    7.76140
 2926.50000   81.36840   92.14510  159.00790  219.62570  215.86630    0.03760    2.81580    0.37420    0.22500  246.09750    2.32220   27.94780   41.97380   43.73340    7.76360
 2927.00000   76.27070   93.70340  160.25850  215.44850  219.52460    0.02190    2.74090    0.37240    0.22560  233.50240    2.31970   28.18130   36.96620   41.38890    7.80830
 2927.50000   74.46620   97.05800  162.12700  207.61770  222.28070    0.02710    2.72590    0.36520    0.20840  209.36280    2.32470   30.46580   35.08460   42.55110    7.80880
