~Version ---------------------------------------------------
VERS.   2.0 : CWLS log ASCII Standard -VERSION 2.0
WRAP.    NO : One line per depth step
DLM . SPACE : Column Data Section Delimiter
~Well ------------------------------------------------------
STRT .F                   76.0 : START DEPTH
STOP .F                 3189.0 : STOP DEPTH
STEP .F                    0.5 : STEP
NULL .                -9999.25 : NULL VALUE
COMP .                         : COMPANY
WELL .                         : WELL
FLD  .                         : FIELD
LOC  .                         : LOCATION
PROV .                         : PROVINCE
CNTY .                         : COUNTY
STAT .                         : STATE
CTRY .                         : COUNTRY
SRVC .                         : SERVICE COMPANY
DATE .                         : DATE
UWI  .                         : UNIQUE WELL ID
API  .                         : API NUMBER
SLAT .WGS84 1.9388502765871003 : SURFACE LATITUDE
SLON .WGS84     9.844045768472 : SURFACE LONGITUDE
DATUM.F                 3999.8 : DEPTH DATUM ELEV
~Curve Information -----------------------------------------
DEPT   .F     : 
DTCO   .US/F  : DELTA-T COMPRESSIONAL
DTRP   .US/F  : DELTA-T COMPRESSIONAL, RECEIVER ARRAY - MONOPOLE P & S
DTRS   .US/F  : DELTA-T SHEAR, RECEIVER ARRAY - MONOPOLE P & S
DTSM   .US/F  : DELTA-T SHEAR
DT2R   .US/F  : DELTA-T SHEAR, RECEIVER ARRAY - UPPER DIPOLE
HDRA   .G/C3  : HRDD SPINE AND RIBS DENSITY CORRECTION
PEFZ   .B/E   : HRDD STANDARD RESOLUTION FORMATION PHOTOELECTRIC FACTOR
TNPH_LS.DEC   : THERMAL NEUTRON POROSITY [LIMESTONE]
DPHZ_LS.DEC   : HGRD STANDARD RESOLUTION DENSITY POROSITY
HSGRD  .GAPI  : HNGS STANDARD GAMMA RAY FROM DENSITY LOG
RHOZ   .G/C3  : HRDD STANDARD RESOLUTION FORMATION DENSITY
AT10   .OHMM  : ARRAY INDUCTION TWO FOOT RESISTIVITY A10
AT30   .OHMM  : ARRAY INDUCTION TWO FOOT RESISTIVITY A30
AT90   .OHMM  : ARRAY INDUCTION TWO FOOT RESISTIVITY A90
HCALR  .IN    : HRCC CALIPER CALIBRATED FROM RESISTIVITY LOG
~Params ----------------------------------------------------
~Other -----------------------------------------------------
~ASCII -----------------------------------------------------
# ...
 2790.00000   59.62850   61.07780  103.33840  104.63640  101.26330   -0.00090    3.35370    0.03570    0.05980   20.85840    2.60900  492.74370  279.57550  413.92130    7.63440
 2790.50000   59.35760   60.95070  103.22430  103.43750  101.26770    0.00060    3.40240    0.03570    0.05560   21.15960    2.60860  652.56570  281.52980  450.64960    7.63430
 2791.00000   58.59050   60.19560  102.89000  102.08870  100.82100    0.00400    3.40990    0.03510    0.04780   21.38550    2.60940  719.36360  295.48410  489.54660    7.63410
 2791.50000   57.68800   59.68160  101.82620  101.49000  100.37430    0.00890    3.41750    0.03450    0.04210   21.23490    2.61390  771.57910  305.87510  520.90720    7.61890
 2792.00000   57.01110   58.99410  100.96720  100.44120  100.37880    0.01190    3.44740    0.03210    0.04390   21.08430    2.62130  860.07520  308.01310  489.54660    7.61870
 2792.50000   56.36240   58.42880  100.69660  101.34280  100.38320    0.00670    3.52220    0.02820    0.04460   20.78310    2.62960 1173.34520  348.76320  503.24450    7.60340
 2793.00000   55.61210   57.83830  100.43540  101.49430  100.38760   -0.00010    3.59710    0.02580    0.04000   20.33130    2.63740 1622.95940  405.95430  550.46580    7.60330
 2793.50000   55.20590   56.94930   99.88340   99.84580  101.29430   -0.00450    3.67570    0.02490    0.04120   19.57830    2.63860 1915.47130  434.97920  578.80540    7.60320
 2794.00000   54.75460   56.05570  100.22150   98.94700  101.29930   -0.00450    3.78410    0.02490    0.04180   18.67470    2.63940 1955.79050  433.59270  593.86690    7.60300
 2794.50000   54.48370   55.46980  100.85800   97.89820  101.75490    0.00110    3.82910    0.02520    0.03640   17.62050    2.64110 1914.34070  310.25360  510.23650    7.61800
 2795.00000   55.83680   55.81330  101.50230   97.29910  102.21100    0.00750    3.79920    0.02510    0.02620   17.99700    2.64590 1788.55080  264.74750  395.28480    7.63290
 2795.50000   57.95690   56.38770  102.43700   97.60100  102.21540    0.01350    3.70200    0.02600    0.02440   19.87950    2.65660 1558.23900  243.72810  344.33810    7.63280
 2796.00000   59.35520   57.29460  103.37160   99.55300  102.21980    0.01800    3.51500    0.02820    0.02830   23.19280    2.66430 1311.55240  224.37750  321.38270    7.63260
 2796.50000   60.08240   58.20160  103.70840  100.15460  102.22430    0.01950    3.26820    0.03650    0.05580   27.71080    2.66930 1066.48780  206.56330  274.22600    7.63250
 2797.00000   60.21190   58.80910  103.74620   98.95570  102.22870    0.01280    3.15230    0.04490    0.06790   29.51810    2.66860  837.80870  193.98320  223.02600    7.61720
 2797.50000   59.12890   58.81780  103.48500   97.57680  101.78200    0.00530    3.08130    0.04570    0.06870   29.06630    2.63350  667.30800  190.17600  180.02680    7.60200
 2798.00000   57.82040   57.92840  102.62480   96.55810  101.78640    0.00040    3.08140    0.04450    0.05850   27.10840    2.59530  618.17010  243.81310  172.72670    7.57160
 2798.50000   56.73750   57.33590  101.16900   99.56060  101.33970   -0.00060    3.20860    0.03850    0.04850   24.84940    2.59510  636.03770  304.06470  299.95770    7.57140
 2799.00000   55.47410   56.41540   99.68060  100.31230  101.34410    0.00010    3.38060    0.02980    0.03440   20.55720    2.60030  750.67300  429.34610  426.45080    7.58730
 2799.50000   54.48140   56.15820   98.85290   99.41350  101.34860    0.00160    3.50780    0.02600    0.01460   16.79220    2.62100  804.39860  558.07680  636.28500    7.58520
 2800.00000   54.88720   56.16910   98.68460   97.91460  100.45080    0.01590    3.57520    0.02680    0.00700   16.86750    2.66910  602.13150  500.94440  815.67450    7.60060
 2800.50000   56.18390   55.57690   98.33690   97.31550  100.00410    0.02560    3.39880    0.03460    0.02300   18.07230    2.68980  610.55850  346.72190  358.86320    7.60080
 2801.00000   57.36790   56.48600   98.37470   98.06760   99.55800    0.02040    3.29090    0.03730    0.03920   20.33130    2.68260  409.26300  312.63490  312.58980    7.60090
 2801.50000   58.58580   58.29120   99.01220   97.91640   98.43450    0.01170    3.13760    0.03820    0.04920   22.28920    2.62960  441.59000  291.70040  289.72580    7.60110
 2802.00000   58.17950   59.19810   99.98210   96.70210   97.76280    0.00390    3.13390    0.03790    0.05040   24.01260    2.61950  429.64020  346.43040  291.71220    7.60120
 2802.50000   57.54770   58.90720  101.18810   97.32210   97.76730   -0.00280    3.20120    0.03430    0.04770   24.16830    2.62590  366.60770  344.33810  299.99370    7.61660
 2803.00000   57.18660   58.01800  100.61860  100.17430   96.41830   -0.00430    3.31340    0.02800    0.03980   23.27450    2.64920  386.39800  356.42350  319.03680    7.60160
 2803.50000   57.05100   56.82910   99.47000  100.77590   96.42270    0.00460    3.41060    0.02290    0.03380   20.88150    2.67040  696.67910  414.84310  348.95000    7.60170
 2804.00000   56.32900   55.94180   99.50780   99.12690   98.23170    0.01590    3.50790    0.02160    0.03200   21.18710    2.67670 1185.22910  469.69560  384.31020    7.60180
 2804.50000   55.59010   55.34960   99.84450   97.32790  100.04060    0.01590    3.50790    0.02460    0.03710   22.84200    2.67240 1129.50070  496.34830  414.58330    7.61720
 2805.00000   55.96760   54.46230  100.48020   97.02900  101.39840    0.00430    3.37330    0.03180    0.05700   24.19780    2.63120  857.22390  297.89530  332.43190    7.61740
 2805.50000   57.14030   54.16950  100.81700   99.58140  100.50060   -0.00430    3.25360    0.03210    0.05910   24.35430    2.60800  741.70440  272.34060  268.40460    7.64800
 2806.00000   58.35820   54.18040  101.75970  101.99140   95.99380   -0.00810    3.26100    0.03180    0.05520   23.16070    2.61260  746.93880  351.53920  426.56030    7.64820
 2806.50000   58.89930   54.78790  102.72900  101.71030   92.38920   -0.00280    3.33580    0.03610    0.05280   21.81710    2.61850  658.10500  272.34060  268.36440    7.64830
 2807.00000   58.98940   55.69490  103.63040   98.53590   91.04020    0.00310    3.26850    0.05060    0.05430   22.27270    2.62590  311.09360  238.88210  222.73940    7.64850
 2807.50000   57.95150   56.60180  104.26610   97.78720   92.17300    0.00610    3.10400    0.05330    0.06120   25.42690    2.60600  326.52980  226.05470  194.01850    7.66390
 2808.00000   56.73320   56.58320  103.39760   97.48820   93.98190    0.00390    3.01420    0.05230    0.06390   25.80820    2.59610  445.46360  245.56620  202.20490    7.66400
 2808.50000   55.61660   55.42390  102.54790   98.99040   95.56530   -0.00280    3.09280    0.04870    0.06080   24.39040    2.60660  611.92460  361.37560  389.40990    7.64890
 2809.00000   54.52220   54.53440  102.27730  100.79230   97.82600   -0.00810    3.20870    0.04690    0.05520   22.74700    2.61700  707.41970  663.17670  648.78530    7.64910
 2809.50000   54.79270   54.24160  102.92250  102.14410   99.18380   -0.00430    3.32090    0.04780    0.05610   22.75280    2.61530  612.08790  526.01130  666.89440    7.66450
 2810.00000   55.51430   54.25250  104.15610  103.19580  100.09040    0.01140    3.26850    0.05260    0.05910   23.05840    2.60510  369.29700  299.95770  312.20000    7.64940
 2810.50000   56.05540   54.26130  105.11880  103.79740  101.44830    0.02560    3.08150    0.05230    0.05880   28.01170    2.60560  131.45570  266.76180  219.58110    7.61910
 2811.00000   56.59650   54.56940  106.67280  103.94900  101.90380    0.03680    3.14880    0.05250    0.05160   30.86600    2.61710  112.17830  252.43730  225.71020    7.58870
 2811.50000   58.44590   55.17690  108.76320  103.35060  102.35940    0.05820    3.24980    0.05460    0.04800   31.92200    2.62970  115.33640  252.43730  232.01420    7.54310
 2812.00000   58.31040   55.68190  110.59470  102.60190  102.81490    0.07950    3.35830    0.05910    0.05220   31.02890    2.62350  124.44660  270.46810  230.39980    7.54330
 2812.50000   57.37980   56.41750  111.23040  102.15290  102.36820    0.08250    3.44050    0.06570    0.05820   30.58490    2.61450  128.83160  308.35070  219.52270    7.55870
