~Version ---------------------------------------------------
VERS.   2.0 : CWLS log ASCII Standard -VERSION 2.0
WRAP.    NO : One line per depth step
DLM . SPACE : Column Data Section Delimiter
~Well ------------------------------------------------------
STRT .F                   76.0 : START DEPTH
STOP .F                 3189.0 : STOP DEPTH
STEP .F                    0.5 : STEP
NULL .                -9999.25 : NULL VALUE
COMP .                         : COMPANY
WELL .                         : WELL
FLD  .                         : FIELD
LOC  .                         : LOCATION
PROV .                         : PROVINCE
CNTY .                         : COUNTY
STAT .                         : STATE
CTRY .                         : COUNTRY
SRVC .                         : SERVICE COMPANY
DATE .                         : DATE
UWI  .                         : UNIQUE WELL ID
API  .                         : API NUMBER
SLAT .WGS84 1.9388502765871003 : SURFACE LATITUDE
SLON .WGS84     9.844045768472 : SURFACE LONGITUDE
DATUM.F                 3999.8 : DEPTH DATUM ELEV
~Curve Information -----------------------------------------
DEPT   .F     : 
DTCO   .US/F  : DELTA-T COMPRESSIONAL
DTRP   .US/F  : DELTA-T COMPRESSIONAL, RECEIVER ARRAY - MONOPOLE P & S
DTRS   .US/F  : DELTA-T SHEAR, RECEIVER ARRAY - MONOPOLE P & S
DTSM   .US/F  : DELTA-T SHEAR
DT2R   .US/F  : DELTA-T SHEAR, RECEIVER ARRAY - UPPER DIPOLE
HDRA   .G/C3  : HRDD SPINE AND RIBS DENSITY CORRECTION
PEFZ   .B/E   : HRDD STANDARD RESOLUTION FORMATION PHOTOELECTRIC FACTOR
TNPH_LS.DEC   : THERMAL NEUTRON POROSITY [LIMESTONE]
DPHZ_LS.DEC   : HGRD STANDARD RESOLUTION DENSITY POROSITY
HSGRD  .GAPI  : HNGS STANDARD GAMMA RAY FROM DENSITY LOG
RHOZ   .G/C3  : HRDD STANDARD RESOLUTION FORMATION DENSITY
AT10   .OHMM  : ARRAY INDUCTION TWO FOOT RESISTIVITY A10
AT30   .OHMM  : ARRAY INDUCTION TWO FOOT RESISTIVITY A30
AT90   .OHMM  : ARRAY INDUCTION TWO FOOT RESISTIVITY A90
HCALR  .IN    : HRCC CALIPER CALIBRATED FROM RESISTIVITY LOG
~Params ----------------------------------------------------
~Other -----------------------------------------------------
~ASCII -----------------------------------------------------
# ...
 1571.00000   59.48980   59.69540  106.29690  105.50340   -9999.25   -0.00240    2.88820    0.15580    0.09130   24.42140    2.60680  188.93430  157.92520  153.58090    8.41420
 1571.50000   59.39190   59.70710  106.61170  106.10180   -9999.25   -0.00700    2.88060    0.16180    0.09130   27.12940    2.56680  227.61970  153.53330  150.42020    8.42770
 1572.00000   59.52660   59.71880  107.52910  106.10030   -9999.25   -0.00920    2.89540    0.16240    0.08500   31.64450    2.55340  270.46810  142.41440  153.54810    8.42720
 1572.50000   59.34540   59.13080  107.84110  105.49870   -9999.25   -0.00700    2.93650    0.16140    0.06570   33.29830    2.55740  321.38270  134.77350  176.24970    8.44180
 1573.00000   58.35220   57.34340  108.15800  104.74710   -9999.25   -0.00320    2.99990    0.15580    0.05280   34.34960    2.57070  387.18760  140.47620  188.82070    8.44140
 1573.50000   57.49440   56.13970  107.87400  103.39530   -9999.25   -0.00240    3.07820    0.13690    0.04440   35.40090    2.60410  500.20570  166.92830  191.43050    8.44090
 1574.00000   56.54640   56.16790  107.28770  102.34360   -9999.25   -0.00320    3.21640    0.11720    0.03700   36.15100    2.63850  663.17670  206.74470  215.22660    8.44260
 1574.50000   55.64350   56.18210  105.20340  101.28070   -9999.25   -0.00620    3.37340    0.10070    0.02510   35.24370    2.65110  917.17710  247.37610  266.80890    8.45520
 1575.00000   54.69550   56.49370  103.71880  100.06510   -9999.25   -0.00850    3.59760    0.08340    0.01520   34.78900    2.66740 1397.09120  291.09620  370.83350    8.45460
 1575.50000   54.42410   56.50540  102.99300   98.88800   -9999.25   -0.00250    3.89660    0.06040    0.00980   34.63630    2.68300 1671.58080  356.62000  569.15920    8.45420
 1576.00000   54.75350   56.21730  102.39280   98.13630   -9999.25   -0.00020    4.16580    0.04660    0.01070   35.38560    2.68780 1648.67430  420.85890  781.66420    8.45380
 1576.50000   55.77600   56.22900  101.96350   97.53470   -9999.25   -0.00470    4.31890    0.03880    0.01580   35.83450    2.68980 1603.14840  500.10770  891.06180    8.46840
 1577.00000   56.22650   56.24070  101.67830   96.93310   -9999.25   -0.00850    4.31500    0.04540    0.02630   35.37940    2.68980 1494.43770  566.25440  561.97780    8.46800
 1577.50000   56.27110   56.25250  101.69420   96.78200   -9999.25   -0.00920    4.27000    0.04900    0.03290   33.94590    2.68960 1367.29250  493.75590  720.41760    8.46750
 1578.00000   56.08990   56.86390  101.70920   98.28060   -9999.25   -0.00630    4.25490    0.04930    0.03350   32.51190    2.65910 1173.87340  493.59170  725.40500    8.46700
 1578.50000   55.68320   56.27590  101.53250   99.51400   -9999.25   -0.00330    4.28470    0.04780    0.02900   31.75590    2.64660 1285.45910  500.32490  810.06640    8.46650
 1579.00000   55.18630   55.96400  101.14070  100.52820   -9999.25   -0.00400    4.28450    0.04240    0.02150   30.84940    2.64560 1435.72360  528.49590  910.87120    8.46610
 1579.50000   54.55410   55.39980  100.85180   99.92620   -9999.25   -0.00480    4.25450    0.04060    0.01930   29.64170    2.65290 1559.90590  546.86980  969.22200    8.48090
 1580.00000   53.69320   54.81470  100.86960   99.02460   -9999.25    0.00270    4.22440    0.04120    0.03560   24.97010    2.67120 1803.40060  550.46580  989.49140    8.48030
 1580.50000   53.42480   54.52370  100.58480   98.12290   -9999.25    0.02290    4.25410    0.04030    0.04070   25.34330    2.67850   -9999.25  658.01390  973.18470    8.47990
 1581.00000   53.33390   53.93570  100.40400   96.92110   -9999.25    0.03190    4.31380    0.03640    0.03880   26.16840    2.66830   -9999.25  700.34250  879.98580    8.46440
 1581.50000   52.65650   53.05080   99.70190   95.86940   -9999.25    0.03340    4.38100    0.03100    0.02200   26.46740    2.65760   -9999.25  614.04640  810.06640    8.46380
 1582.00000   51.97920   52.75970   99.38830   95.71790   -9999.25    0.02740    4.49300    0.02510    0.00460   25.25900    2.65910   -9999.25  553.49400  761.29740    8.46340
 1582.50000   51.48230   52.17180   98.74190   95.56640   -9999.25    0.02060    4.70230    0.01760    0.00340   24.65370    2.66250   -9999.25  605.22920  923.52670    8.46300
 1583.00000   51.21090   51.58670   98.56070   95.71500   -9999.25    0.01240    4.73960    0.01270    0.00430   24.50090    2.68750   -9999.25 1141.38170 1397.09120    8.46730
 1583.50000   51.12010   51.29830   98.76990   96.16330   -9999.25    0.00340    4.67210    0.01190    0.00060   26.45510    2.70540   -9999.25 1413.57340 1572.16920    8.47720
 1584.00000   51.21200   50.71060   99.49140   96.61200   -9999.25   -0.00110    4.63450    0.01370    0.00000   30.44280    2.71170   -9999.25 1309.27560 1228.11230    8.47670
 1584.50000   51.43440   50.42250   99.80580   96.76090   -9999.25   -0.00560    4.62690    0.01400    0.00060   32.47270    2.71590   -9999.25  946.37380 1128.08250    8.47630
 1585.00000   51.70440   50.13430   99.95500   96.45900   -9999.25   -0.00560    4.64920    0.01220   -0.00120   30.66250    2.71210   -9999.25  841.36020 1368.47220    8.47570
 1585.50000   52.01950   51.04850  100.45280   96.30750   -9999.25   -0.00220    4.67150    0.01190   -0.00270   28.85240    2.70820   -9999.25  870.60040 1476.36850    8.49040
 1586.00000   52.37980   52.55950  100.76150   96.00600   -9999.25    0.00190    4.64140    0.01220    0.00900   26.43990    2.70770   -9999.25  864.32720 1549.41800    8.49000
 1586.50000   52.83020   53.47080  101.06450   95.85450   -9999.25    0.00780    4.56650    0.01310    0.01570   24.93090    2.70920   -9999.25  817.64310 1496.88110    8.48950
 1587.00000   53.19050   53.78240  101.16380   96.45290   -9999.25    0.01610    4.54390    0.01670    0.01530   24.32520    2.71080   -9999.25  800.62770 1368.47220    8.48910
 1587.50000   54.04700   54.39380  101.46180   97.65170   -9999.25    0.02050    4.52880    0.02360    0.01560   24.17170    2.70990   -9999.25  811.41420 1438.07100    8.48870
 1588.00000   55.13450   54.70530  101.80680   98.85050   -9999.25    0.01750    4.36410    0.03070    0.01770   24.52010    2.69300   -9999.25  757.06930 1476.36850    8.48820
 1588.50000   55.54910   55.31680  102.02400  101.24970   -9999.25    0.01160    4.13210    0.03670    0.01830   24.61810    2.67920   -9999.25  615.32370 1120.32650    8.48780
 1589.00000   55.66910   55.62830  102.33880  102.44850   -9999.25    0.00140    3.95240    0.04030    0.00930   24.76580    2.67920   -9999.25  528.49600  923.52670    8.47210
 1589.50000   55.66830   55.94000  102.46600  103.04720   -9999.25   -0.00720    3.68680    0.04390    0.00690   24.61160    2.68120   -9999.25  453.92030  777.21840    8.47170
 1590.00000   55.75780   56.29170  102.97120  103.04580   -9999.25   -0.00640    3.50340    0.04830    0.01650   24.00630    2.68590   -9999.25  379.25610  663.17670    8.45610
 1590.50000   55.98270   56.56600  103.28340  102.59390   -9999.25   -0.00270    3.30130    0.05770    0.01950   23.17470    2.69570   -9999.25  321.84850  492.93570    8.44060
 1591.00000   56.43320   56.87760  103.29830  101.99230   -9999.25   -0.00570    3.26370    0.06660    0.01980   22.64430    2.69790   -9999.25  274.02090  420.24120    8.42510
 1591.50000   56.92880   57.18910  103.31330  101.39070   -9999.25   -0.00870    3.29350    0.07380    0.01170   22.94260    2.67920   -9999.25  253.91040  369.83960    8.37930
 1592.00000   57.20000   57.20080  103.33070  100.93910   -9999.25   -0.00420    3.32330    0.07620    0.00370   23.84330    2.67810   -9999.25  241.85910  323.60760    8.31840
 1592.50000   57.38530   57.51240  103.34330  100.48750   -9999.25   -0.00610    3.33060    0.07680    0.00020   25.79830    2.67970   -9999.25  236.82590  281.89910    8.30280
 1593.00000   57.33270   57.52410  103.35830  100.03590   -9999.25   -0.00870    3.34170    0.07410    0.00080   30.61460    2.68970   -9999.25  240.03650  247.26620    8.31760
 1593.50000   56.88090   57.53590  103.37330   99.58440   -9999.25   -0.00350    3.39010    0.07290    0.00410   33.77440    2.70370   -9999.25  250.27010  257.71660    8.34720
