~Version ---------------------------------------------------
VERS.   2.0 : CWLS log ASCII Standard -VERSION 2.0
WRAP.    NO : One line per depth step
DLM . SPACE : Column Data Section Delimiter
~Well ------------------------------------------------------
STRT .F                   76.0 : START DEPTH
STOP .F                 3189.0 : STOP DEPTH
STEP .F                    0.5 : STEP
NULL .                -9999.25 : NULL VALUE
COMP .                         : COMPANY
WELL .                         : WELL
FLD  .                         : FIELD
LOC  .                         : LOCATION
PROV .                         : PROVINCE
CNTY .                         : COUNTY
STAT .                         : STATE
CTRY .                         : COUNTRY
SRVC .                         : SERVICE COMPANY
DATE .                         : DATE
UWI  .                         : UNIQUE WELL ID
API  .                         : API NUMBER
SLAT .WGS84 1.9388502765871003 : SURFACE LATITUDE
SLON .WGS84     9.844045768472 : SURFACE LONGITUDE
DATUM.F                 3999.8 : DEPTH DATUM ELEV
~Curve Information -----------------------------------------
DEPT   .F     : 
DTCO   .US/F  : DELTA-T COMPRESSIONAL
DTRP   .US/F  : DELTA-T COMPRESSIONAL, RECEIVER ARRAY - MONOPOLE P & S
DTRS   .US/F  : DELTA-T SHEAR, RECEIVER ARRAY - MONOPOLE P & S
DTSM   .US/F  : DELTA-T SHEAR
DT2R   .US/F  : DELTA-T SHEAR, RECEIVER ARRAY - UPPER DIPOLE
HDRA   .G/C3  : HRDD SPINE AND RIBS DENSITY CORRECTION
PEFZ   .B/E   : HRDD STANDARD RESOLUTION FORMATION PHOTOELECTRIC FACTOR
TNPH_LS.DEC   : THERMAL NEUTRON POROSITY [LIMESTONE]
DPHZ_LS.DEC   : HGRD STANDARD RESOLUTION DENSITY POROSITY
HSGRD  .GAPI  : HNGS STANDARD GAMMA RAY FROM DENSITY LOG
RHOZ   .G/C3  : HRDD STANDARD RESOLUTION FORMATION DENSITY
AT10   .OHMM  : ARRAY INDUCTION TWO FOOT RESISTIVITY A10
AT30   .OHMM  : ARRAY INDUCTION TWO FOOT RESISTIVITY A30
AT90   .OHMM  : ARRAY INDUCTION TWO FOOT RESISTIVITY A90
HCALR  .IN    : HRCC CALIPER CALIBRATED FROM RESISTIVITY LOG
~Params ----------------------------------------------------
~Other -----------------------------------------------------
~ASCII -----------------------------------------------------
# ...
 1686.00000   52.86320   51.86590  102.24760   99.02380   -9999.25    0.01070    4.29470    0.02360    0.03240   29.00000    2.65140   -9999.25  582.68650  771.87480    8.43800
 1686.50000   52.99760   51.58860  100.46680   98.71820   -9999.25    0.00770    4.21970    0.02540    0.03390   31.10560    2.65070   -9999.25  519.94370  691.20480    8.43730
 1687.00000   53.13220   51.90660   98.08260  100.50960   -9999.25    0.00470    3.98760    0.02870    0.02940   34.26530    2.65160   -9999.25  452.96040  596.48270    8.43650
 1687.50000   53.26690   52.52090   93.89930  102.90280   -9999.25    0.00250    3.87530    0.03200    0.01370   38.47890    2.67760   -9999.25  492.08970  531.80100    8.43580
 1688.00000   53.49170   52.83520   90.31570  104.84600   -9999.25    0.00240    3.83770    0.03370    0.00500   43.37060    2.69920   -9999.25  622.22280  546.68120    8.40480
 1688.50000   53.80680   53.14960   92.12940  104.53740   -9999.25    0.00390    3.93100    0.03380    0.01690   45.85290    2.70090   -9999.25  749.67620  636.28500    8.40390
 1689.00000   54.31020   53.16410   95.74220  103.78090   -9999.25    0.00540    4.03180    0.03070    0.02030   41.02990    2.69270   -9999.25  909.48980  782.59910    8.38810
 1689.50000   54.57220   53.17860   99.43950  103.17190   -9999.25    0.00470    4.24850    0.02630    0.01850   37.86440    2.67970   -9999.25 1181.60710 1082.33910    8.37230
 1690.00000   54.57130   53.19320  102.37170  102.56440   -9999.25    0.00390    4.41280    0.02480    0.01430   37.10920    2.67630   -9999.25 1612.69480 1496.88110    8.37150
 1690.50000   54.57060   52.30810  102.68620  102.40710   -9999.25    0.00160    4.43520    0.02570    0.00280   39.66570    2.70250   -9999.25 1739.93360 1868.79900    8.37080
 1691.00000   54.43450   52.02280  101.79760  102.54980   -9999.25    0.00010    4.38260    0.02620   -0.00620   44.18090    2.71660   -9999.25 1111.25150 1377.94620    8.37010
 1691.50000   53.84730   52.34080  100.91630  103.74280   -9999.25   -0.00170    4.33750    0.02530   -0.00740   43.72620    2.72130   -9999.25  916.10700 1031.31080    8.36930
 1692.00000   53.07970   52.35530  101.83050  104.93580   -9999.25   -0.00290    4.34480    0.02320   -0.00470   38.37650    2.72050   -9999.25  814.77710  955.94020    8.36840
 1692.50000   52.94360   52.36980  103.34430  106.72900   -9999.25   -0.00290    4.41200    0.02000   -0.00170   35.36150    2.71810   -9999.25  803.39010 1581.82100    8.35260
 1693.00000   53.22760   52.68420  103.95860  107.17180   -9999.25   -0.00250    4.50150    0.01720   -0.00380   34.37930    2.70930   -9999.25  881.79270 1581.82100    8.33680
 1693.50000   53.70890   52.39890  101.87430  107.01430   -9999.25   -0.00220    4.56860    0.01460   -0.00560   33.32220    2.70420   -9999.25  981.82000 1706.53870    8.33600
 1694.00000   53.99480   52.41380   98.25880  106.98780   -9999.25   -0.00070    4.59090    0.01340   -0.00290   30.75900    2.70420   -9999.25  849.45330 1828.64110    8.32020
 1694.50000   54.16540   52.12810   96.15890  106.59110   -9999.25    0.00000    4.59820    0.01400    0.00190   27.29220    2.70740   -9999.25  755.49590 1813.93080    8.30440
 1695.00000   53.53380   51.84270   96.82430  106.49710   -9999.25    0.00120    4.62040    0.01570    0.00130   28.34350    2.72000   -9999.25  714.97540 1637.33900    8.27340
 1695.50000   52.72180   50.66150   98.93780  106.04330   -9999.25    0.00670    4.69130    0.01600   -0.00690   32.25620    2.73070   -9999.25  705.21300 1406.76320    8.27060
 1696.00000   52.00000   49.17680   99.55210  104.99020   -9999.25    0.04120    4.74720    0.01390   -0.01650   38.42800    2.73650   -9999.25  710.15440 1251.07890    8.25670
 1696.50000   50.87220   48.29170   99.56670  104.38410   -9999.25    0.05390    4.76200    0.01120   -0.01290   40.23230    2.73650   -9999.25  730.29190 1159.64720    8.25590
 1697.00000   49.47370   48.00600   99.28150  103.91000   -9999.25    0.04490    4.64210    0.00850    0.00170   33.90330    2.72640   -9999.25  760.99270 1128.08250    8.25520
 1697.50000   49.02260   47.41630   98.39290  103.33030   -9999.25    0.03330    4.63110    0.00740    0.00020   28.77990    2.70290   -9999.25  720.17730 1089.83200    8.25450
 1698.00000   49.27320   46.53620   97.21170  103.02740   -9999.25    0.03010    4.70020    0.00700   -0.00430   26.96980    2.72690 1852.80100  573.57740 1059.32230    8.25370
 1698.50000   49.87970   46.85420   96.92650  102.72440   -9999.25    0.08550    4.75760    0.00660   -0.01910   26.51500    2.73970 1659.43960  686.31520 1089.83200    8.26810
 1699.00000   50.46620   47.76830   97.57700  102.42140   -9999.25    0.07500    4.75730    0.00650   -0.02240   27.41570    2.74640 1496.49670  942.71470 1718.35300    8.29760
 1699.50000   50.60150   48.98220   99.05830  102.56850   -9999.25    0.03830    4.75340    0.00710   -0.02180   28.91880    2.74720 1349.55370 1159.56980 1918.90050    8.32690
 1700.00000   50.73680   49.89630  100.27230  103.01580   -9999.25    0.00840    4.74950    0.00800   -0.01040   30.87370    2.73730 1175.77230 1200.34790 1815.86020    8.36250
 1700.50000   50.91730   50.51050  101.48630  103.93410   -9999.25   -0.00730    4.79410    0.00920    0.00110   31.05740    2.71210 1032.30080 1359.25880 1754.28910    8.38640
 1701.00000   51.18800   50.82490  102.40050  104.95970   -9999.25   -0.01110    4.81640    0.01130    0.00680   30.86400    2.69950  904.87930 1615.34810 1892.60490    8.21990
 1701.50000   51.46140   50.52240  103.01480  105.55700   -9999.25   -0.00880    4.70390    0.01430    0.01160   30.85970    2.69170  658.90180 1697.23580 2000.00000    8.17430
 1702.00000   51.77440   49.65810  101.63730  106.15420   -9999.25   -0.00510    4.56160    0.01850    0.01550   29.95170    2.67550  398.24640 1437.00890 1841.08970    8.14380
 1702.50000   52.22560   49.67260   99.74560  106.30210   -9999.25   -0.00280    4.39680    0.02350    0.02330   28.59190    2.66390  337.52000  810.63980  809.47320    8.14350
 1703.00000   52.76690   49.38370   98.56880  106.59860   -9999.25    0.00020    4.19460    0.03070    0.03120   27.08150    2.63420  278.26730  528.58860  412.34180    8.14320
 1703.50000   53.21800   50.30140   97.35220  106.74570   -9999.25    0.02340    3.95500    0.04060    0.04530   24.36630    2.58810  199.37870  457.35570  451.09330    8.14290
 1704.00000   53.80450   53.01460   96.79090  106.91070   -9999.25    0.13870    3.71550    0.04890    0.09650   22.70530    2.45020  178.98530  412.44670  547.29200    8.14260
 1704.50000   54.84210   55.42790   98.00860  107.63940   -9999.25    0.18290    3.52080    0.05730    0.19780   25.41130    2.35250  182.75880  384.44100  628.35030    8.21840
 1705.00000   55.56390   56.94170   99.74510  108.38670   -9999.25    0.19930    3.24380    0.06630    0.20550   28.41830    2.45650  151.71800  372.00920  628.72520    8.32930
 1705.50000   57.08890   58.15590  101.03630  109.13390   -9999.25    0.19180    3.25860    0.07590    0.14960   30.67300    2.59400  142.59830  385.11690  610.63050    8.44380
 1706.00000   57.95490   58.77340  102.13290  109.58190   -9999.25    0.15670    3.34810    0.08900    0.07980   32.62650    2.66920  179.08650  430.12060  650.68430    8.41320
 1706.50000   57.68420   59.08780  103.46430  109.72900   -9999.25    0.11850    3.44510    0.09410    0.02310   33.52680    2.67280  252.89100  529.09730  881.58290    8.33740
 1707.00000   56.46620   59.10230  104.37840  108.67510   -9999.25    0.06840    3.38510    0.09380    0.03210   33.82260    2.67110  261.80170  762.77180 1062.23270    8.26160
 1707.50000   55.65410   58.21360  104.69290  107.14180   -9999.25    0.02010    3.32120    0.08480    0.03360   34.11940    2.65910  242.70890  840.23320 1162.06020    8.20090
 1708.00000   54.97740   56.73260  104.08380  105.96790   -9999.25   -0.00010    3.37340    0.07290    0.02760   35.09340    2.64890  223.45420  789.77890 1203.00510    8.18550
 1708.50000   54.70680   54.94800  102.53600  105.06480   -9999.25   -0.00650    3.59380    0.06360    0.01830   36.82040    2.65560  207.15120  697.63870 1168.69630    8.18520
