~Version ---------------------------------------------------
VERS.   2.0 : CWLS log ASCII Standard -VERSION 2.0
WRAP.    NO : One line per depth step
DLM . SPACE : Column Data Section Delimiter
~Well ------------------------------------------------------
STRT .F                   76.0 : START DEPTH
STOP .F                 3189.0 : STOP DEPTH
STEP .F                    0.5 : STEP
NULL .                -9999.25 : NULL VALUE
COMP .                         : COMPANY
WELL .                         : WELL
FLD  .                         : FIELD
LOC  .                         : LOCATION
PROV .                         : PROVINCE
CNTY .                         : COUNTY
STAT .                         : STATE
CTRY .                         : COUNTRY
SRVC .                         : SERVICE COMPANY
DATE .                         : DATE
UWI  .                         : UNIQUE WELL ID
API  .                         : API NUMBER
SLAT .WGS84 1.9388502765871003 : SURFACE LATITUDE
SLON .WGS84     9.844045768472 : SURFACE LONGITUDE
DATUM.F                 3999.8 : DEPTH DATUM ELEV
~Curve Information -----------------------------------------
DEPT   .F     : 
DTCO   .US/F  : DELTA-T COMPRESSIONAL
DTRP   .US/F  : DELTA-T COMPRESSIONAL, RECEIVER ARRAY - MONOPOLE P & S
DTRS   .US/F  : DELTA-T SHEAR, RECEIVER ARRAY - MONOPOLE P & S
DTSM   .US/F  : DELTA-T SHEAR
DT2R   .US/F  : DELTA-T SHEAR, RECEIVER ARRAY - UPPER DIPOLE
HDRA   .G/C3  : HRDD SPINE AND RIBS DENSITY CORRECTION
PEFZ   .B/E   : HRDD STANDARD RESOLUTION FORMATION PHOTOELECTRIC FACTOR
TNPH_LS.DEC   : THERMAL NEUTRON POROSITY [LIMESTONE]
DPHZ_LS.DEC   : HGRD STANDARD RESOLUTION DENSITY POROSITY
HSGRD  .GAPI  : HNGS STANDARD GAMMA RAY FROM DENSITY LOG
RHOZ   .G/C3  : HRDD STANDARD RESOLUTION FORMATION DENSITY
AT10   .OHMM  : ARRAY INDUCTION TWO FOOT RESISTIVITY A10
AT30   .OHMM  : ARRAY INDUCTION TWO FOOT RESISTIVITY A30
AT90   .OHMM  : ARRAY INDUCTION TWO FOOT RESISTIVITY A90
HCALR  .IN    : HRCC CALIPER CALIBRATED FROM RESISTIVITY LOG
~Params ----------------------------------------------------
~Other -----------------------------------------------------
~ASCII -----------------------------------------------------
# ...
 1433.00000   77.97780   79.27550  144.33970  129.62050   -9999.25    0.00310    2.72510    0.17480    0.19470   25.62890    2.34320   67.12320   50.58550   69.00140   10.29560
 1433.50000   78.33800   78.68450  143.44830  132.77420   -9999.25    0.00160    2.68010    0.17180    0.21040   25.54660    2.35440   68.52700   47.54010   69.47910   10.12590
 1434.00000   77.97640   75.39490  143.14840  136.60940   -9999.25    0.00090    2.60510    0.16910    0.21140   24.25950    2.40100   72.91680   48.53430   72.41550    9.97880
 1434.50000   74.63740   73.90440  143.14840  142.53320   -9999.25    0.00230    2.56750    0.16700    0.18490   22.74720    2.44040   87.24300   54.19870   78.66590   10.02360
 1435.00000   70.89230   74.21300  144.04800  145.98700   -9999.25    0.00690    2.63090    0.16490    0.16750   21.83730    2.46480   98.87090   61.36510   83.70530   10.11370
 1435.50000   69.89930   77.38340  145.24740  148.54050   -9999.25    0.01140    2.67930    0.16200    0.14820   21.83110    2.47960  102.24550   66.66170   83.70530   10.09810
 1436.00000   78.51500   83.82780  146.74660  149.74370   -9999.25    0.01510    2.65670    0.15800    0.12960   22.57790    2.48830  102.24550   65.29620   83.12980   10.08250
 1436.50000   75.13080   81.73760  148.84560  150.49680   -9999.25    0.01060    2.61910    0.15540    0.12420   24.00160    2.49160   98.09950   67.58790   81.99060   10.06700
 1437.00000   69.71660   78.14810  152.19150  150.79980   -9999.25    0.00610    2.61890    0.15450    0.12260   24.82440    2.47180   81.42690   63.95860   79.21050   10.09670
 1437.50000   65.95490   79.95590  157.19040  150.20250   -9999.25    0.00540    2.62620    0.15420    0.13260   24.51540    2.42540   72.41550   58.87680   72.41550   10.18930
 1438.00000   65.11360   82.66330  162.93850  147.68500   -9999.25    0.00430    2.65600    0.15510    0.15240   23.60560    2.42650   65.74820   54.95170   62.21770   10.32220
 1438.50000   63.53400   79.97340  165.03750  143.30740   -9999.25   -0.00580    2.70070    0.15930    0.16150   23.29810    2.42800   61.73060   51.64340   58.06990   10.36710
 1439.00000   62.63100   76.98360  161.13940  141.95990   -9999.25   -0.01110    2.76780    0.17010    0.16300   23.74370    2.43210   59.69480   49.18620   56.88040   10.33630
 1439.50000   62.08910   74.59350  157.24140  142.26290   -9999.25   -0.01110    2.80500    0.18210    0.16000   24.49050    2.44200   60.10800   47.54010   59.69480   10.27540
 1440.00000   67.23120   76.10370  153.64320  146.01670   -9999.25   -0.00810    2.82730    0.18560    0.15270   24.93610    2.45410   69.00140   51.28840   66.66170   10.21450
 1440.50000   71.92220   82.10940  151.54420  149.62060   -9999.25   -0.00360    2.81960    0.18530    0.14720   24.70310    2.46720   77.05450   56.48930   80.86700   10.13840
 1441.00000   73.27490   86.61590  152.75970  150.08360   -9999.25   -0.00360    2.79690    0.18050    0.14280   23.71720    2.48150   79.21050   59.28440   94.77320   10.09260
 1441.50000   71.69300   86.32480  153.64320  145.79510   -9999.25   -0.00510    2.74690    0.16410    0.13770   23.10850    2.49520   82.12780   60.52420  108.04740   10.10780
 1442.00000   69.57410   83.03520  150.64470  139.27740   -9999.25   -0.00210    2.68440    0.14370    0.12780   22.95170    2.51580   96.75520   61.36510  123.18080   10.38670
 1442.50000   67.90430   74.64810  143.44830  132.97870   -9999.25    0.00310    2.62430    0.12700    0.10730   23.54940    2.53310  109.54860   64.10720  129.27570   10.60480
 1443.00000   66.50510   70.15900  133.55320  127.73030   -9999.25    0.01060    2.53440    0.11790    0.08560   23.39100    2.55150  117.37330   72.91680  127.50420    9.96970
 1443.50000   67.85780   67.46910  126.05700  127.28240   -9999.25    0.01890    2.44450    0.11140    0.08170   22.93300    2.56290  119.82790   79.21050  128.38690    9.77280
 1444.00000   69.66160   65.98080  126.05700  127.88620   -9999.25    0.02190    2.38450    0.11180    0.08170   23.82960    2.56810  119.82790   84.86830  132.89290    9.66660
 1444.50000   71.60080   67.18890  127.25640  128.78930   -9999.25    0.03460    2.46650    0.12400    0.07570   25.32860    2.57210  119.82790   87.24300  133.81300    9.63590
 1445.00000   73.19180   71.09570  127.85610  127.59190   -9999.25    0.06790    2.60470    0.12400    0.07180   27.12960    2.57480  117.26550   88.45510  115.76490    9.63540
 1445.50000   74.77120   74.10290  127.55620  124.94440   -9999.25    0.09150    2.76530    0.13000    0.07450   29.08120    2.56100   98.77860   83.70530   98.04670    9.66520
 1446.00000   76.42560   74.71130  126.05700  120.99680   -9999.25    0.10870    2.83990    0.14620    0.11570   31.03280    2.45320   73.92990   59.06450   80.81250    9.69590
 1446.50000   76.74070   72.92100  121.85910  118.29900   -9999.25    0.09070    2.80980    0.15300    0.14520   31.93170    2.43710   65.29620   45.61230   70.44440    9.75480
 1447.00000   76.64980   72.32980  117.66120  115.30120   -9999.25    0.06000    2.70490    0.15270    0.15210   29.66490    2.44410   62.21770   41.12810   64.84720    9.76940
 1447.50000   76.19800   74.75270  116.16190  114.70320   -9999.25    0.02560    2.65240    0.14150    0.15390   26.64580    2.46890   63.51890   45.92810   61.36510    9.75370
 1448.00000   75.38530   75.94600  121.25940  115.60700   -9999.25    0.01360    2.64470    0.13480    0.14640   23.92790    2.50520   70.98370   52.36100   65.74820    9.67770
 1448.50000   74.39210   74.45730  127.25640  117.56040   -9999.25    0.01960    2.70810    0.13330    0.12110   22.56630    2.52040   76.52470   57.67070   76.52470    9.60170
 1449.00000   73.23970   71.76740  129.65520  120.49450   -9999.25    0.00910    2.71920    0.13300    0.11240   22.10820    2.53520   79.21050   64.00300   83.12980    9.57100
 1449.50000   71.50340   68.77760  129.65520  127.08160   -9999.25    0.00390    2.68160    0.13390    0.09460   22.25260    2.56790   79.75890   69.96010   81.42690    9.57050
 1450.00000   68.25460   66.98720  129.35530  131.46520   -9999.25    0.00690    2.64400    0.13600    0.07950   24.65600    2.56510   83.12840   71.42310   80.86700    9.57000
 1450.50000   65.59230   64.89700  129.05550  133.47340   -9999.25    0.01440    2.61390    0.13840    0.09220   27.36060    2.53310   80.88060   68.05580   84.74320    9.56950
 1451.00000   63.15550   63.10660  128.15590  134.82370   -9999.25    0.04510    2.59130    0.13780    0.10030   26.82650    2.55220   88.49210   73.42160  104.39950    9.58410
 1451.50000   60.31270   61.30550  126.65670  135.72390   -9999.25    0.09220    2.62470    0.13390    0.10160   24.41060    2.56670   98.25530   77.07080  121.51920    9.59860
 1452.00000   58.19170   60.07800  122.45880  135.72390   -9999.25    0.14610    2.73300    0.13210    0.08150   21.91860    2.57010  102.33020   82.58120  136.65020    9.61320
 1452.50000   58.78760   58.93710  117.66120  134.67370   -9999.25    0.18350    2.77770    0.13450    0.07870   21.61120    2.56940   86.73590   79.78640  145.41380    9.62800
 1453.00000   60.67820   58.94580  113.46330  136.17400   -9999.25    0.15060    2.65030    0.14260    0.08680   22.35800    2.46030   81.52630   64.54610  133.86890    9.50650
 1453.50000   60.67070   59.85410  113.46330  139.77490   -9999.25    0.11540    2.49310    0.14680    0.10730   23.10470    2.42650   99.60890   61.81950  109.60170    9.56640
 1454.00000   61.25650   62.26160  115.86210  142.17550   -9999.25    0.08770    2.38070    0.14770    0.14750   24.00210    2.44070   86.78810  108.10820  151.71820    9.73420
 1454.50000   65.36110   65.26890  121.25940  143.82860   -9999.25    0.14240    2.42540    0.14800    0.16470   24.89950    2.48980   63.63790   98.16130  166.97370    9.56550
 1455.00000   67.43560   68.87580  125.15740  144.60110   -9999.25    0.21720    2.57850    0.14650    0.16440   25.34510    2.55600   63.12640   82.61580  166.98720    9.56240
 1455.50000   65.58530   71.88310  127.85610  144.57610   -9999.25    0.20600    2.82140    0.13780    0.11570   24.13240    2.66050   92.65110   90.99960  194.37030    9.44350
