~Version ---------------------------------------------------
VERS.   2.0 : CWLS log ASCII Standard -VERSION 2.0
WRAP.    NO : One line per depth step
DLM . SPACE : Column Data Section Delimiter
~Well ------------------------------------------------------
STRT .F                   76.0 : START DEPTH
STOP .F                 3189.0 : STOP DEPTH
STEP .F                    0.5 : STEP
NULL .                -9999.25 : NULL VALUE
COMP .                         : COMPANY
WELL .                         : WELL
FLD  .                         : FIELD
LOC  .                         : LOCATION
PROV .                         : PROVINCE
CNTY .                         : COUNTY
STAT .                         : STATE
CTRY .                         : COUNTRY
SRVC .                         : SERVICE COMPANY
DATE .                         : DATE
UWI  .                         : UNIQUE WELL ID
API  .                         : API NUMBER
SLAT .WGS84 1.9388502765871003 : SURFACE LATITUDE
SLON .WGS84     9.844045768472 : SURFACE LONGITUDE
DATUM.F                 3999.8 : DEPTH DATUM ELEV
~Curve Information -----------------------------------------
DEPT   .F     : 
DTCO   .US/F  : DELTA-T COMPRESSIONAL
DTRP   .US/F  : DELTA-T COMPRESSIONAL, RECEIVER ARRAY - MONOPOLE P & S
DTRS   .US/F  : DELTA-T SHEAR, RECEIVER ARRAY - MONOPOLE P & S
DTSM   .US/F  : DELTA-T SHEAR
DT2R   .US/F  : DELTA-T SHEAR, RECEIVER ARRAY - UPPER DIPOLE
HDRA   .G/C3  : HRDD SPINE AND RIBS DENSITY CORRECTION
PEFZ   .B/E   : HRDD STANDARD RESOLUTION FORMATION PHOTOELECTRIC FACTOR
TNPH_LS.DEC   : THERMAL NEUTRON POROSITY [LIMESTONE]
DPHZ_LS.DEC   : HGRD STANDARD RESOLUTION DENSITY POROSITY
HSGRD  .GAPI  : HNGS STANDARD GAMMA RAY FROM DENSITY LOG
RHOZ   .G/C3  : HRDD STANDARD RESOLUTION FORMATION DENSITY
AT10   .OHMM  : ARRAY INDUCTION TWO FOOT RESISTIVITY A10
AT30   .OHMM  : ARRAY INDUCTION TWO FOOT RESISTIVITY A30
AT90   .OHMM  : ARRAY INDUCTION TWO FOOT RESISTIVITY A90
HCALR  .IN    : HRCC CALIPER CALIBRATED FROM RESISTIVITY LOG
~Params ----------------------------------------------------
~Other -----------------------------------------------------
~ASCII -----------------------------------------------------
# ...
 2675.00000  100.38340   95.98800   -9999.25  205.34130  209.39850   -0.00250    3.06280    0.36780    0.15040  132.15360    2.45310   28.85400   25.55010   26.81410    8.80210
 2675.50000  102.12140   97.19170   -9999.25  219.49860  213.00310   -0.00510    3.02540    0.36600    0.15820  133.05000    2.44680   25.73210   22.56330   24.85120    8.81710
 2676.00000  104.00900   97.84420   -9999.25  227.54030  220.66780   -0.00430    3.04020    0.36770    0.16240  134.09710    2.44030   21.59960   20.76250   22.56010    8.80180
 2676.50000  105.97600   99.00080   -9999.25  225.28690  231.03930    0.00090    3.02520    0.36830    0.16330  134.39020    2.42930   20.44140   19.76610   21.05330    8.80170
 2677.00000  107.37410  100.20410   -9999.25  222.13320  234.64390    0.00920    2.97280    0.36860    0.17230  131.67130    2.41130   20.16260   19.51230   20.33400    8.81660
 2677.50000  109.22330  102.00610   -9999.25  219.57960  231.03050    0.00920    2.92030    0.37110    0.19180  127.74840    2.40020   20.30430   19.91700   20.19420    8.86180
 2678.00000  108.99730  103.89620   -9999.25  217.02610  225.38640    0.00620    2.89040    0.37460    0.20420  126.53640    2.38970   20.30610   20.47150   20.75580    8.90690
 2678.50000  108.13970  106.80920   -9999.25  215.37270  222.44960    0.00380    2.89770    0.38110    0.20750  127.88470    2.37560   20.87600   20.89690   21.63010    8.89170
 2679.00000  107.77830  109.21010   -9999.25  214.16950  220.86630    0.00180    2.92760    0.39700    0.20540  133.67480    2.35550   20.73420   21.47870   23.01270    8.61960
 2679.50000  107.91960  111.61090   -9999.25  220.71310  223.79360    0.00400    2.95740    0.40890    0.19250  139.46490    2.35450   19.75830   21.77430   24.82380    8.40800
 2680.00000  108.76980  113.11380   -9999.25  232.01810  229.65380    0.01230    2.97980    0.41070    0.17260  140.51190    2.35410   17.66480   20.71640   24.31200    8.40780
 2680.50000  109.62650  112.22240   -9999.25  229.01370  237.31860    0.02050    2.99470    0.40020    0.16240  137.64330    2.36460   16.51690   18.83180   22.07070    8.42280
 2681.00000  110.66370  111.03050   -9999.25  227.51050  237.76530    0.03100    3.00960    0.39600    0.16060  130.70840    2.41080   15.84850   17.21400   19.59410    8.43780
 2681.50000  111.88130  109.53960   -9999.25  232.30880  236.40750    0.04150    3.03940    0.39570    0.17650  124.75150    2.42980   14.49010   15.73520   17.33070    8.45270
 2682.00000  111.92610  108.91050   -9999.25  227.80470  235.04970    0.04420    3.10290    0.38880    0.18520  122.71030    2.41830   13.43230   14.58330   15.84190    8.49790
 2682.50000  112.19620  108.05480   -9999.25  222.10040  234.14300    0.05800    3.14400    0.38250    0.18250  122.70310    2.39470   13.06750   13.70350   14.48100    8.79980
 2683.00000  112.37760  108.65920   -9999.25  220.59710  232.33400    0.05580    3.18880    0.38040    0.17920  123.75020    2.39160   13.06880   13.23710   13.60730    8.87530
 2683.50000  111.53320  110.46130   -9999.25  217.71320  228.72060    0.04610    3.15880    0.38010    0.17950  130.21890    2.39480   13.44540   13.05390   15.08890    8.75420
 2684.00000  109.39780  111.66470  166.29050  212.54860  220.14470    0.03190    3.13630    0.39560    0.19260  141.73190    2.39640   14.79960   13.62630   17.92700    8.67850
 2684.50000  106.64550  111.97100  168.11230  207.08420  213.37340    0.01540    3.13620    0.41180    0.19570  157.76300    2.39340   15.21500   14.98080   18.94170    8.61800
 2685.00000  105.38190  112.57540  166.93890  202.88030  209.08270    0.01020    3.16230    0.41070    0.19600  199.77450    2.38540   14.49890   16.15980   18.52560    8.61780
 2685.50000  104.56940  111.08410  163.67290  195.52550  206.37150    0.00870    3.19590    0.40660    0.20440  215.73110    2.37300   14.20270   16.04660   17.07440    8.63280
 2686.00000  103.30580  106.78650  160.10780  181.56910  198.92290    0.00950    3.15090    0.40780    0.21830  215.42090    2.36090   14.20420   14.87190   16.60740    8.70810
 2686.50000   92.25270  100.01890  157.14640  167.31270  182.67790    0.01550    3.06860    0.42060    0.21900  199.60110    2.35120   13.07670   13.59430   17.06980    8.76840
 2687.00000   82.14700  100.32250  155.97300  158.60760  166.43280    0.02450    3.00870    0.45660    0.21470  185.43730    2.33610   10.64330   12.59910   17.78890    8.79850
 2687.50000   77.27440   98.53320  153.90270  157.85450  164.62390    0.03270    2.94880    0.47090    0.21410  166.30270    2.32860    9.85670   11.82880   18.53820    8.76810
 2688.00000   80.16120   93.65200  145.83440  165.51640  166.42400    0.04250    2.87020    0.47840    0.22670  154.99950    2.32790    9.45780   10.77080   16.59850    8.67290
 2688.50000   87.19830   87.46800  135.41810  186.65510  172.73530    0.05000    2.68680    0.49300    0.29470  145.65490    2.32800    8.70710    9.29640   14.35500    8.58650
 2689.00000   91.34830   88.37190  132.74440  203.45640  188.97150    0.08740    2.44740    0.52530    0.39330  132.69590    2.32570    7.90610    8.04150   13.67910    8.63170
 2689.50000   94.05460  106.04220  139.64830  223.40850  212.42570    0.11960    2.17810    0.57880    0.49180  122.29720    2.23310    6.93540    7.00410   15.06380    8.97900
 2690.00000   94.73080  117.04460  148.75890  231.65760  228.66190    0.14430    2.09570    0.61580    0.55510  113.55420    1.94460    5.67820    6.18530   15.91690   12.61930
 2690.50000   91.30170  129.70760  157.03810  230.30440  241.74020    0.13530    2.17050    0.60780    0.54970  114.75090    1.78370    6.29970    5.61510    9.10100   14.47720
 2691.00000   88.82010  129.71320  163.03960  218.59850  243.54020    0.06430    2.32000    0.56320    0.47000  121.82200    1.76470    9.99970    5.81140    6.95310   15.03640
 2691.50000   88.77460  125.22780  168.44330  183.33680  236.54280    0.04030    2.49940    0.54080    0.38680  127.23650    1.75690   10.93890   10.02290   11.99020   14.26540
 2692.00000   89.13500  116.15550  170.33100  166.37140  216.23760    0.03130    2.62650    0.54320    0.29340  129.03660    1.76680   10.71570   23.57160   22.61630    9.32570
 2692.50000   88.86390  108.17460  170.87980  149.27170  169.54140    0.05040    2.76850    0.55720    0.25550  128.20020    1.85850   10.00220   29.39080   28.98870    8.87230
 2693.00000   87.19430  101.89290  167.61930  147.01830  151.49130    0.06580    2.86570    0.56710    0.24110  124.20110    2.19230    9.08210   29.18480   28.39020    8.91750
 2693.50000   84.84800   97.40750  164.95120  150.16610  149.68240    0.06960    2.72350    0.56050    0.24050  123.13970    2.26550    8.18880   22.60670   24.38890    9.05330
 2694.00000   82.06640   94.69370  159.89700  156.91490  151.48250    0.08750    2.28960    0.54600    0.28320  124.48800    2.28980    8.51750   16.91750   17.27120    9.29490
 2694.50000   80.47100   91.43210  157.52780  159.01250  156.44040    0.11820    1.82960    0.54280    0.39780  132.16150    2.29060    7.38610   11.81610   11.57390   10.74950
 2695.00000   79.16230   89.04260  153.06600  165.46120  161.84960    0.15270    1.78080    0.54250    0.49550  173.26880    2.22730    5.23160    8.30180    8.36760   12.05890
 2695.50000   76.36490   86.35360  148.60410  170.40950  169.06320    0.16240    1.87050    0.53590    0.48950  218.74290    2.08780    5.96490    6.26170    7.04100   12.43640
 2696.00000   72.21410   83.93970  141.15830  172.80720  175.37450    0.15080    2.21450    0.50600    0.37910  282.28910    1.88360   20.65210   11.89270    9.15030   11.57520
 2696.50000   69.19110   80.97710  131.61420  168.11630  179.88140    0.12350    2.67820    0.42160    0.20170  282.43160    1.84710   30.64940   27.40130   17.72870    8.19140
 2697.00000   66.21320   79.48570  124.46180  158.39710  178.52360    0.09360    3.03710    0.32740    0.07390  262.54490    1.85760   27.59810   46.92670   31.66860    8.13080
 2697.50000   65.98720   78.29370  118.20620  152.39270  173.10560    0.07570    3.74380    0.26150    0.03990  151.35540    2.02970   28.37330   55.36970   42.30720    8.13060
