~Version ---------------------------------------------------
VERS.   2.0 : CWLS log ASCII Standard -VERSION 2.0
WRAP.    NO : One line per depth step
DLM . SPACE : Column Data Section Delimiter
~Well ------------------------------------------------------
STRT .F                   76.0 : START DEPTH
STOP .F                 3189.0 : STOP DEPTH
STEP .F                    0.5 : STEP
NULL .                -9999.25 : NULL VALUE
COMP .                         : COMPANY
WELL .                         : WELL
FLD  .                         : FIELD
LOC  .                         : LOCATION
PROV .                         : PROVINCE
CNTY .                         : COUNTY
STAT .                         : STATE
CTRY .                         : COUNTRY
SRVC .                         : SERVICE COMPANY
DATE .                         : DATE
UWI  .                         : UNIQUE WELL ID
API  .                         : API NUMBER
SLAT .WGS84 1.9388502765871003 : SURFACE LATITUDE
SLON .WGS84     9.844045768472 : SURFACE LONGITUDE
DATUM.F                 3999.8 : DEPTH DATUM ELEV
~Curve Information -----------------------------------------
DEPT   .F     : 
DTCO   .US/F  : DELTA-T COMPRESSIONAL
DTRP   .US/F  : DELTA-T COMPRESSIONAL, RECEIVER ARRAY - MONOPOLE P & S
DTRS   .US/F  : DELTA-T SHEAR, RECEIVER ARRAY - MONOPOLE P & S
DTSM   .US/F  : DELTA-T SHEAR
DT2R   .US/F  : DELTA-T SHEAR, RECEIVER ARRAY - UPPER DIPOLE
HDRA   .G/C3  : HRDD SPINE AND RIBS DENSITY CORRECTION
PEFZ   .B/E   : HRDD STANDARD RESOLUTION FORMATION PHOTOELECTRIC FACTOR
TNPH_LS.DEC   : THERMAL NEUTRON POROSITY [LIMESTONE]
DPHZ_LS.DEC   : HGRD STANDARD RESOLUTION DENSITY POROSITY
HSGRD  .GAPI  : HNGS STANDARD GAMMA RAY FROM DENSITY LOG
RHOZ   .G/C3  : HRDD STANDARD RESOLUTION FORMATION DENSITY
AT10   .OHMM  : ARRAY INDUCTION TWO FOOT RESISTIVITY A10
AT30   .OHMM  : ARRAY INDUCTION TWO FOOT RESISTIVITY A30
AT90   .OHMM  : ARRAY INDUCTION TWO FOOT RESISTIVITY A90
HCALR  .IN    : HRCC CALIPER CALIBRATED FROM RESISTIVITY LOG
~Params ----------------------------------------------------
~Other -----------------------------------------------------
~ASCII -----------------------------------------------------
# ...
 2054.00000   70.73890   74.72430  130.22480  124.93340   -9999.25   -0.00600    3.78030    0.17430    0.04290  165.36150    2.64080   69.96010   41.60960   43.18720    9.05260
 2054.50000   69.20440   73.56150  128.75760  122.53430   -9999.25   -0.00380    3.67920    0.15610    0.04560  164.15660    2.64200   77.58790   48.43420   49.58030    9.05270
 2055.00000   67.21880   71.50050  126.39080  118.63480   -9999.25   -0.00160    3.58940    0.13540    0.05020  162.34940    2.63830   95.42930   55.99060   55.75380    9.05290
 2055.50000   65.77450   69.43950  123.42440  115.78550   -9999.25    0.00070    3.50700    0.10340    0.05370  159.18670    2.62390  127.50420   70.92570   65.55530    9.05300
 2056.00000   63.60840   66.48030  120.15810  114.73670   -9999.25    0.00330    3.36480    0.08720    0.05520  155.27110    2.61220  177.55980  103.48440   87.92080    9.05180
 2056.50000   63.71170   63.22170  117.19160  115.55410   -9999.25    0.00550    3.33490    0.07650    0.05430  151.95780    2.61310  221.46230  130.85450  122.44500    8.97780
 2057.00000   65.42300   62.95720  113.92530  119.39110   -9999.25    0.00580    3.40210    0.07230    0.05130  148.79520    2.62200  227.61970  135.45690  133.02020    8.91750
 2057.50000   68.79420   65.39590  114.90840  125.24400   -9999.25    0.00580    3.43190    0.07620    0.05040  148.49400    2.62090  182.52800  110.90760   99.56600    8.85730
 2058.00000   73.93640   66.92770  119.69460  130.79690   -9999.25    0.00500    3.47670    0.09320    0.05100  150.75300    2.62040  131.97920   73.82850   54.63490    8.85740
 2058.50000   76.10120   68.37380  125.72360  136.19970   -9999.25    0.00350    3.55150    0.12850    0.05190  157.30420    2.61920   86.64310   50.52090   38.96570    8.90290
 2059.00000   77.63440   70.59020  133.25190  140.55220   -9999.25    0.00200    3.67850    0.16500    0.05220  159.78920    2.61760   53.45600   38.85040   33.25050    8.97860
 2059.50000   79.16760   72.72080  138.08160  144.00450   -9999.25   -0.00030    3.74580    0.20240    0.05100  159.33740    2.61620   44.06580   31.91960   30.82250    9.08620
 2060.00000   80.11430   75.15090  140.51240  144.39630   -9999.25   -0.00330    3.79810    0.21860    0.04650  158.13250    2.61730   41.12810   29.10080   30.19260    9.20550
 2060.50000   80.56470   77.58090  142.64340  143.94430   -9999.25   -0.00410    3.73070    0.21950    0.03750  156.92770    2.62090   41.20890   29.71220   30.40420    9.28110
 2061.00000   80.36500   78.85000  144.47450  142.74260   -9999.25   -0.00480    3.65580    0.21410    0.04050  156.02410    2.62800   44.37080   30.54650   30.85300    9.34170
 2061.50000   78.89410   79.75510  145.10630  140.49060   -9999.25    0.00260    3.68390    0.20630    0.03900  155.19580    2.63630   45.61230   31.62160   31.69390    9.38720
 2062.00000   76.95360   78.89170  144.23880  137.33830   -9999.25    0.01460    3.74360    0.20570    0.03690  155.12050    2.64360   44.37080   32.73460   33.03560    9.43260
 2062.50000   75.14840   77.42950  139.18140  134.88670   -9999.25    0.03180    3.81450    0.20750    0.02910  157.53010    2.64650   43.76280   34.12130   34.91250    9.46300
 2063.00000   73.61390   75.36850  137.57770  132.38380   -9999.25    0.03770    3.84800    0.20660    0.03060  159.78920    2.65050   45.29870   36.90270   37.15140    9.47820
 2063.50000   72.48540   73.00810  135.70120  130.58190   -9999.25    0.02720    3.82540    0.20030    0.03390  159.33740    2.65590   51.28840   40.27440   39.80770    9.50860
 2064.00000   71.22160   71.54600  133.28060  128.63000   -9999.25    0.01670    3.79540    0.17670    0.03240  152.25900    2.65670   56.64700   42.27120   41.81060    9.50880
 2064.50000   70.90210   70.98200  131.81340  127.57820   -9999.25    0.00250    3.76530    0.15810    0.03240  148.87050    2.65650   58.87680   44.06190   43.85100    9.52400
 2065.00000   71.08950   71.01800  130.64600  127.12670   -9999.25   -0.00350    3.72780    0.15690    0.03270  150.97890    2.65240   58.06990   44.98770   45.39310    9.53930
 2065.50000   71.27240   71.35970  130.37780  126.82510   -9999.25   -0.00430    3.69020    0.15720    0.04180  157.98190    2.64180   60.10800   45.93290   46.02680    9.53940
 2066.00000   71.39940   71.98800  130.11040  126.07350   -9999.25   -0.00060    3.66010    0.16140    0.05260  162.34940    2.62220   60.52420   46.57550   46.99250    9.53960
 2066.50000   71.48890   72.02390  130.15050  125.15080   -9999.25    0.02150    3.60760    0.16530    0.04810  163.85540    2.62140   60.10800   47.58080   47.97840    9.53980
 2067.00000   71.44310   72.06300  130.78220  123.96970   -9999.25    0.03230    3.52520    0.16620    0.03910  161.29520    2.63250   60.52420   48.89050   49.66570    9.52480
 2067.50000   71.08150   71.99750  131.11410  122.91800   -9999.25    0.02480    3.48020    0.16270    0.03690  158.13250    2.63880   62.32570   51.31440   51.92870    9.49470
 2068.00000   70.08840   71.83230  130.24660  122.31640   -9999.25    0.01360    3.46510    0.15360    0.04090  157.68070    2.64030   69.00140   57.30870   59.43250    9.44950
 2068.50000   69.36590   71.66660  129.78120  121.56470   -9999.25    0.00310    3.48740    0.14460    0.04080  159.63850    2.63550   77.58790   61.83310   61.52250    9.38930
 2069.00000   68.73370   71.30540  128.81150  120.81310   -9999.25   -0.00220    3.52460    0.13200    0.05020  159.78920    2.62150   86.04740   63.56930   61.95250    9.35920
 2069.50000   68.18130   70.95990  127.64410  120.21150   -9999.25   -0.00220    3.48700    0.12130    0.05780  157.68070    2.60840   94.12160   65.35420   63.69020    9.34430
 2070.00000   68.01060   70.13990  126.47680  119.91000   -9999.25   -0.00220    3.43450    0.11170    0.05620  153.91570    2.60700   99.46250   67.70030   66.84600    9.34440
 2070.50000   68.46090   69.91620  125.30940  119.90850   -9999.25   -0.00300    3.42690    0.10900    0.04780  152.56020    2.60850   94.12160   71.01040   69.67590    9.34460
 2071.00000   68.91130   69.65270  125.34950  120.20670   -9999.25   -0.00380    3.44170    0.11100    0.04270  155.49700    2.62000   96.91010   73.50970   70.16280    9.35980
 2071.50000   69.36180   69.69050  125.07370  120.50570   -9999.25   -0.00610    3.51640    0.12040    0.04330  159.33740    2.63160   98.77860   75.57380   69.68500    9.36000
 2072.00000   69.49670   70.02400  125.70920  120.80440   -9999.25   -0.00760    3.59850    0.12630    0.05080  162.95180    2.63050   96.75520   76.10420   69.21050    9.37520
 2072.50000   69.08980   70.35930  126.34520  120.65250   -9999.25   -0.00910    3.64320    0.12750    0.05350  164.45780    2.62140  104.38380   76.11150   69.21630    9.39050
 2073.00000   68.63800   70.99400  126.67710  120.20090   -9999.25   -0.00690    3.59820    0.12720    0.04870  165.96390    2.61870  115.76490   76.64570   70.18260    9.39060
 2073.50000   68.22320   71.33550  126.41190  119.59930   -9999.25   -0.00130    3.55170    0.12330    0.04810  167.31930    2.62110  129.27570   77.19120   72.68170    9.34550
 2074.00000   67.55380   71.37040  126.00110  118.69760   -9999.25    0.00880    3.48200    0.11700    0.05140  169.20180    2.62310  149.43010   80.70900   83.40660    9.23990
 2074.50000   67.10210   70.74850  124.95970  117.63930   -9999.25    0.01250    3.38830    0.10750    0.06980  167.31930    2.61930  182.25240   88.62240   95.78600    9.11920
 2075.00000   66.65030   70.53310  123.75800  116.71940   -9999.25    0.00580    3.23860    0.10150    0.08840  161.59640    2.59590  233.98860  101.04470  108.92590    8.99850
 2075.50000   66.06320   69.67850  122.33960  115.69220   -9999.25   -0.00000    3.15250    0.09640    0.09560  159.33740    2.55400  276.12450  110.53670  119.42490    8.92310
 2076.00000   65.79180   69.11380  121.77990  116.59090   -9999.25   -0.00550    3.18590    0.09430    0.10140  156.92770    2.53660  291.79310  116.01700  121.09020    8.86280
 2076.50000   65.92650   68.25110  121.50410  117.33970   -9999.25   -0.00960    3.23070    0.09370    0.10350  154.06630    2.53190  279.96090  112.09380   95.77940    8.86300
