~Version ---------------------------------------------------
VERS.   2.0 : CWLS log ASCII Standard -VERSION 2.0
WRAP.    NO : One line per depth step
DLM . SPACE : Column Data Section Delimiter
~Well ------------------------------------------------------
STRT .F                   76.0 : START DEPTH
STOP .F                 3189.0 : STOP DEPTH
STEP .F                    0.5 : STEP
NULL .                -9999.25 : NULL VALUE
COMP .                         : COMPANY
WELL .                         : WELL
FLD  .                         : FIELD
LOC  .                         : LOCATION
PROV .                         : PROVINCE
CNTY .                         : COUNTY
STAT .                         : STATE
CTRY .                         : COUNTRY
SRVC .                         : SERVICE COMPANY
DATE .                         : DATE
UWI  .                         : UNIQUE WELL ID
API  .                         : API NUMBER
SLAT .WGS84 1.9388502765871003 : SURFACE LATITUDE
SLON .WGS84     9.844045768472 : SURFACE LONGITUDE
DATUM.F                 3999.8 : DEPTH DATUM ELEV
~Curve Information -----------------------------------------
DEPT   .F     : 
DTCO   .US/F  : DELTA-T COMPRESSIONAL
DTRP   .US/F  : DELTA-T COMPRESSIONAL, RECEIVER ARRAY - MONOPOLE P & S
DTRS   .US/F  : DELTA-T SHEAR, RECEIVER ARRAY - MONOPOLE P & S
DTSM   .US/F  : DELTA-T SHEAR
DT2R   .US/F  : DELTA-T SHEAR, RECEIVER ARRAY - UPPER DIPOLE
HDRA   .G/C3  : HRDD SPINE AND RIBS DENSITY CORRECTION
PEFZ   .B/E   : HRDD STANDARD RESOLUTION FORMATION PHOTOELECTRIC FACTOR
TNPH_LS.DEC   : THERMAL NEUTRON POROSITY [LIMESTONE]
DPHZ_LS.DEC   : HGRD STANDARD RESOLUTION DENSITY POROSITY
HSGRD  .GAPI  : HNGS STANDARD GAMMA RAY FROM DENSITY LOG
RHOZ   .G/C3  : HRDD STANDARD RESOLUTION FORMATION DENSITY
AT10   .OHMM  : ARRAY INDUCTION TWO FOOT RESISTIVITY A10
AT30   .OHMM  : ARRAY INDUCTION TWO FOOT RESISTIVITY A30
AT90   .OHMM  : ARRAY INDUCTION TWO FOOT RESISTIVITY A90
HCALR  .IN    : HRCC CALIPER CALIBRATED FROM RESISTIVITY LOG
~Params ----------------------------------------------------
~Other -----------------------------------------------------
~ASCII -----------------------------------------------------
# ...
 2169.00000   64.76060   64.16170  116.78780  120.27010   -9999.25   -0.00450    3.63220    0.10580    0.03590  129.25290    2.64220   99.03850   58.06990   56.88040    9.37080
 2169.50000   65.06860   65.10260  117.43450  121.77040   -9999.25   -0.00380    3.60220    0.12650    0.01220  128.19580    2.66000   81.08520   54.93190   54.95170    9.45920
 2170.00000   66.38170   64.24720  118.09010  124.87120   -9999.25   -0.00390    3.53850    0.14080    0.00360  127.74110    2.67850   74.13430   52.72340   53.45600    9.53470
 2170.50000   68.36540   64.30080  118.43570  128.22210   -9999.25   -0.00420    3.47490    0.14600    0.00230  128.03940    2.69340   71.90850   50.93570   50.93570    9.62540
 2171.00000   70.03310   65.54120  120.58040  130.47260   -9999.25   -0.00470    3.43740    0.14920    0.00890  129.69270    2.70160   60.28330   45.29870   46.88860    9.70090
 2171.50000   72.01680   66.78160  123.62460  132.42310   -9999.25   -0.00480    3.42980    0.15300    0.01610  133.15340    2.69630   53.61540   40.00860   41.90920    9.77640
 2172.00000   73.32370   68.09360  126.66880  134.37360   -9999.25   -0.00480    3.46720    0.16060    0.02480  132.99980    2.67130   48.01510   35.82730   37.34140    9.86710
 2172.50000   74.49530   69.87210  130.32420  136.02400   -9999.25   -0.00490    3.54190    0.16990    0.03450  130.43670    2.65410   45.75450   32.75380   34.85210    9.94360
 2173.00000   75.30610   71.11250  132.76870  136.77420   -9999.25   -0.00490    3.61660    0.17890    0.03510  127.42170    2.64760   45.44210   31.86230   34.37450   10.03560
 2173.50000   75.93630   72.08970  135.81290  137.22430   -9999.25   -0.00490    3.69130    0.18280    0.03420  124.85860    2.64610   47.04100   33.43880   35.09330   10.12390
 2174.00000   76.52150   73.29400  137.95760  137.07430   -9999.25   -0.00500    3.79590    0.18040    0.03510  124.55450    2.64610   49.38970   35.33630   36.07530   10.19940
 2174.50000   76.10650   74.27830  139.50260  136.92420   -9999.25   -0.00580    3.93800    0.17410    0.03870  128.31630    2.64680   52.17770   36.32500   37.08730   10.27490
 2175.00000   75.27810   75.18680  140.15950  137.22430   -9999.25   -0.00580    3.94540    0.17050    0.03990  133.88530    2.64530   55.52400   37.08470   37.64330   10.33530
 2175.50000   74.71270   75.22960  139.29420  137.52440   -9999.25   -0.00510    3.87800    0.17170    0.03900  138.85230    2.63930   60.32040   37.34140   37.86030   10.38070
 2176.00000   74.39560   74.67370  137.85210  136.77420   -9999.25   -0.00520    3.81060    0.17920    0.03750  141.56020    2.63700   63.30930   36.32500   36.82970   10.41090
 2176.50000   72.81530   74.11770  135.79890  135.12380   -9999.25   -0.00630    3.83300    0.18520    0.03660  143.36450    2.63790   63.75070   34.06440   33.90340   10.45620
 2177.00000   68.52830   72.93210  135.24440  134.21660   -9999.25   -0.00790    3.87780    0.18640    0.03570  144.26520    2.63920   55.53880   30.36010   30.57030   10.48900
 2177.50000   64.28640   71.80820  135.59220  134.37360   -9999.25   -0.01060    3.88520    0.18700    0.03780  143.81050    2.63920   51.10500   27.94780   28.33620   10.54680
 2178.00000   65.68340   70.36470  136.00940  136.47410   -9999.25    0.00740    3.71310    0.18790    0.04900  143.05420    2.63780   48.05520   26.08470   26.22680   10.60730
 2178.50000   68.93020   69.79800  136.89280  143.67590   -9999.25    0.05900    3.42880    0.20020    0.06250  143.05100    2.62860   40.16670   26.63020   27.75570   10.71300
 2179.00000   71.59050   71.04920  138.13790  155.67890   -9999.25    0.12100    3.03230    0.22170    0.08110  143.65050    2.57830   35.72390   28.14130   30.99500   10.96980
 2179.50000   73.79970   72.63400  140.28260  164.53110   -9999.25    0.21160    2.75550    0.24470    0.10880  145.00300    2.51240   37.49400   30.57030   31.64320   11.87610
 2180.00000   73.52770   75.93600  143.10850  166.03150   -9999.25    0.23700    2.58340    0.28190    0.17080  147.10850    2.03690   42.16260   27.48490   23.03840   13.79460
 2180.50000   72.57900   79.27220  147.28200  162.58060   -9999.25    0.22460    2.50850    0.29380    0.43390  148.00920    1.96740   45.17710   19.25530   20.47340   14.79700
 2181.00000   70.68300   82.90790  150.32620  159.27980   -9999.25    0.22270    2.56080    0.29200    0.41410  149.51200    1.96320   50.85690   21.95230   24.21790   14.98790
 2181.50000   67.71530   85.64530  152.47090  153.87850   -9999.25    0.26120    2.76270    0.26960    0.32580  153.65070    1.96130   59.13310   26.81460   30.99500   13.11480
 2182.00000   63.19130   86.58680  153.71600  144.14230   -9999.25    0.31060    3.06930    0.21190    0.24690  163.81300    1.97180   57.92660   32.08290   36.07530   12.57100
 2182.50000   61.06970   85.44240  154.96120  139.47490   -9999.25    0.32960    3.63010    0.19420    0.07430  164.11130    2.54770   55.19920   34.13810   38.65200   12.69180
 2183.00000   59.94060   83.68880  151.42010  139.02470   -9999.25    0.29360    3.71230    0.19360    0.02910  160.49400    2.63480   47.42900   32.29570   34.13810   12.73720
 2183.50000   59.21780   81.33640  147.56780  143.37580   -9999.25    0.23440    3.71970    0.20050    0.02830  130.37060    2.65650   45.19520   29.43690   32.52860   12.19340
 2184.00000   59.75750   78.68460  143.71550  145.17630   -9999.25    0.19920    3.63740    0.20770    0.03790  109.58460    2.65920   44.57960   32.30500   36.57650   11.49850
 2184.50000   59.93670   76.33060  141.96210  145.62640   -9999.25    0.23060    3.48030    0.21760    0.05590  108.90350    2.64420   43.97160   37.08470   35.83070   11.18130
 2185.00000   60.65710   75.47690  142.96750  143.82600   -9999.25    0.32970    3.22960    0.22620    0.10290  116.35510    2.59420   48.23500   32.52860   29.12900   12.94860
 2185.50000   64.40010   76.12920  145.36340  141.85910   -9999.25    0.37570    3.18090    0.23040    0.13500  120.11730    2.50490   50.83450   27.75570   27.94780   14.58010
 2186.00000   72.51910   76.47150  146.30860  139.84690   -9999.25    0.38160    3.36040    0.22960    0.13690  115.89750    2.48420   57.16420   28.92870   32.08290   14.64050
 2186.50000   72.02130   76.51430  146.95410  137.07430   -9999.25    0.37110    3.56970    0.22090    0.11250  108.06330    2.54680   59.58310   35.92510   38.91960   14.62540
 2187.00000   70.66660   76.25750  146.10030  134.52360   -9999.25    0.33660    3.71170    0.21670    0.04990  100.59000    2.58630   56.38840   46.88860   46.56620   13.55290
 2187.50000   69.35700   75.11370  144.59820  132.12300   -9999.25    0.30220    3.86870    0.21250    0.03850   90.58710    2.60120   57.17560   59.69480   59.56450   12.84290
 2188.00000   68.04740   73.36010  142.42850  129.87250   -9999.25    0.26990    4.03320    0.20330    0.04060   80.64440    2.63640   85.31450   94.12160  113.39350   12.81210
 2188.50000   66.55740   71.60660  139.65960  127.47190   -9999.25    0.23510    4.16780    0.18080    0.02800   74.91860    2.64700   95.93740   99.46250  127.50420   12.81010
 2189.00000   65.42830   69.55360  136.69940  125.07130   -9999.25    0.20400    4.24990    0.16290    0.02380   69.79530    2.65400   92.69060   77.05450  121.49280   12.37460
 2189.50000   64.23320   68.09880  133.74660  122.57200   -9999.25    0.19050    4.32470    0.13920    0.01810   64.52130    2.66770  113.23040   78.12500  124.03360   11.75530
 2190.00000   63.35010   67.24410  131.03540  119.36980   -9999.25    0.16720    4.40690    0.12010    0.01150   63.46410    2.67320  142.18980   85.57580  131.97920   11.21150
 2190.50000   63.25890   66.69880  126.35320  119.82000   -9999.25    0.12000    4.41430    0.10810    0.00660   65.64470    2.68340  166.65230   94.12160  138.50950   10.95470
 2191.00000   64.20460   66.13210  122.50090  120.72020   -9999.25    0.06910    4.31700    0.10480    0.00520   72.49380    2.68930  190.00680   96.75520  136.61140   10.83380
 2191.50000   67.81230   66.48510  118.94850  121.62040   -9999.25    0.03760    4.17480    0.10620    0.01390  102.61160    2.69200  131.82460   86.04740   98.09950   10.74320
