~Version ---------------------------------------------------
VERS.   2.0 : CWLS log ASCII Standard -VERSION 2.0
WRAP.    NO : One line per depth step
DLM . SPACE : Column Data Section Delimiter
~Well ------------------------------------------------------
STRT .F                 4167.0 : START DEPTH
STOP .F                 7672.0 : STOP DEPTH
STEP .F                    0.5 : STEP
NULL .                -9999.25 : NULL VALUE
COMP .                         : COMPANY
WELL .                         : WELL
FLD  .                         : FIELD
LOC  .                         : LOCATION
PROV .                         : PROVINCE
CNTY .                         : COUNTY
STAT .                         : STATE
CTRY .                         : COUNTRY
SRVC .                         : SERVICE COMPANY
DATE .                         : DATE
UWI  .                         : UNIQUE WELL ID
API  .                         : API NUMBER
SLAT .WGS84 2.9138205011344027 : SURFACE LATITUDE
SLON .WGS84  6.360154750657998 : SURFACE LONGITUDE
DATUM.F                2904.99 : DEPTH DATUM ELEV
~Curve Information -----------------------------------------
DEPT.F     : 
DT  .US/F  : INTERVAL TRANSIT TIME
DTCO.US/F  : COMPRESSIONAL-WAVE INTERVAL TRANSIT TIME ACAUSTIC SLOWNESS
DTL .US/F  : ACOUSTIC TRANSIT TIME SLOWNESS, LONG SPACING
DTSM.US/F  : SHEAR-WAVE INTERVAL TRANSIT TIME DELTA-T
CALS.IN    : MICRO RESISTIVITY CALIPER
GRR .GAPI  : GAMMA RAY FROM RES.
LLS .OHMM  : LATEROLOG  SHALLOW
MSFL.OHMM  : MICRO SPHERICALLY FOCUSED
DPHI.V/V   : DENSITY POROSITY LIMESTONE
DRHO.G/C3  : DENSITY CORRECTION
NPHI.V/V   : NEUTRON POROSITY LIMESTONE
PEF .B/E   : PHOTOELECTRIC FACTOR
RHOB.G/C3  : BULK DENSITY
~Params ----------------------------------------------------
~Other -----------------------------------------------------
~ASCII -----------------------------------------------------
# ...
 5571.00000   -9999.25   -9999.25   -9999.25   -9999.25    8.69600   25.45050   18.98700   23.07270    0.06190    0.04680   -0.29750    3.89920   -9999.25
 5571.50000   -9999.25   -9999.25   -9999.25   -9999.25    8.69640   24.69790   18.34040   42.84080    0.07600    0.04300   -0.28460    4.00490   -9999.25
 5572.00000   -9999.25   -9999.25   -9999.25   -9999.25    8.69670   23.44490   19.13280   21.13930    0.08950    0.03500   -0.28190    4.15560   -9999.25
 5572.50000   -9999.25   -9999.25   -9999.25   -9999.25    8.69710   22.19190   20.08330   10.98400    0.08830    0.02200   -0.28310    4.33640   -9999.25
 5573.00000   -9999.25   -9999.25   -9999.25   -9999.25    8.70230   19.36940   19.89060   30.72530    0.08380    0.01900   -0.28730    4.42710   -9999.25
 5573.50000   -9999.25   -9999.25   -9999.25   -9999.25    8.71290   20.04500   19.38590   14.54400    0.08110    0.01600   -0.29490    4.32260   -9999.25
 5574.00000   -9999.25   -9999.25   -9999.25   -9999.25    8.71320   20.94590   20.20900   31.91480    0.07720    0.01300   -0.30750    4.09790   -9999.25
 5574.50000   -9999.25   -9999.25   -9999.25   -9999.25    8.71360   21.39640   22.26800   14.68400    0.06750    0.01150   -0.32100    4.00830   -9999.25
 5575.00000   -9999.25   -9999.25   -9999.25   -9999.25    8.71400   21.13380   24.36740    9.40180    0.06210    0.01760   -0.32410    3.97900   -9999.25
 5575.50000   -9999.25   -9999.25   -9999.25   -9999.25    8.71430   18.91890   26.48050   14.64510    0.05920    0.02370   -0.32030    3.87450   -9999.25
 5576.00000   -9999.25   -9999.25   -9999.25   -9999.25    8.71470   17.56760   27.99010   16.61780    0.06780    0.02220   -0.31240    3.80000   -9999.25
 5576.50000   -9999.25   -9999.25   -9999.25   -9999.25    8.71510   18.69370   28.18470   36.03040    0.08490    0.01990   -0.30690    3.78560   -9999.25
 5577.00000   -9999.25   -9999.25   -9999.25   -9999.25    8.71550   20.94590   27.03680   20.41980    0.07560    0.02680   -0.30960    3.97160   -9999.25
 5577.50000   -9999.25   -9999.25   -9999.25   -9999.25    8.71580   22.29730   25.22650   93.04630    0.05660    0.03740   -0.31060    4.27550   -9999.25
 5578.00000   -9999.25   -9999.25   -9999.25   -9999.25    8.71620   22.74770   25.05230    7.74460    0.04760    0.04110   -0.30970    4.40310   -9999.25
 5578.50000   -9999.25   -9999.25   -9999.25   -9999.25    8.71660   22.74770   26.66470   14.49640    0.05570    0.04040   -0.30850    4.32860   -9999.25
 5579.00000   -9999.25   -9999.25   -9999.25   -9999.25    8.71700   23.19820   28.18470   16.45550    0.06560    0.03740   -0.30730    4.68960   -9999.25
 5579.50000   -9999.25   -9999.25   -9999.25   -9999.25    8.71730   24.09910   30.41740  104.67120    0.05480    0.03290   -0.30580    6.79230   -9999.25
 5580.00000   -9999.25   -9999.25   -9999.25   -9999.25    8.71770   25.00000   31.92940   19.86200    0.02560    0.03140   -0.30070    7.84390   -9999.25
 5580.50000   -9999.25   -9999.25   -9999.25   -9999.25    8.71810   25.67570   32.82690  121.89680    0.01450    0.03520   -0.29040    6.62830   -9999.25
 5581.00000   -9999.25   -9999.25   -9999.25   -9999.25    8.71850   24.09910   33.28500   29.27140    0.02140    0.02590   -0.28740    4.66190   -9999.25
 5581.50000   -9999.25   -9999.25   -9999.25   -9999.25    8.71880   23.19820   33.28500   51.64880    0.05770    0.01940   -0.28930    4.15200   -9999.25
 5582.00000   -9999.25   -9999.25   -9999.25   -9999.25    8.71920   24.54950   32.71860   26.56670    0.05980    0.01640   -0.29290    4.02140   -9999.25
 5582.50000   -9999.25   -9999.25   -9999.25   -9999.25    8.71960   26.36230   32.14390  374.29190    0.05530    0.02250   -0.29470    4.21320   -9999.25
 5583.00000   -9999.25   -9999.25   -9999.25   -9999.25    8.72000   28.20400   31.56910  189.87750    0.05470    0.02330   -0.29290    4.19880   -9999.25
 5583.50000   -9999.25   -9999.25   -9999.25   -9999.25    8.72030   29.95500   30.99430  473.65930    0.06190    0.02250   -0.29300    4.33660   -9999.25
 5584.00000   -9999.25   -9999.25   -9999.25   -9999.25    8.72080   28.33640   30.41950  551.60920    0.06610    0.02330   -0.30550    4.59040   -9999.25
 5584.50000   -9999.25   -9999.25   -9999.25   -9999.25    8.72110   27.02700   29.38140  121.05560    0.06760    0.02480   -0.31270    4.47370   -9999.25
 5585.00000   -9999.25   -9999.25   -9999.25   -9999.25    8.72150   26.80180   27.79680   36.53290    0.07710    0.02790   -0.31060    4.21630   -9999.25
 5585.50000   -9999.25   -9999.25   -9999.25   -9999.25    8.72190   27.70270   26.66470   16.13600    0.07020    0.03170   -0.30730    4.11170   -9999.25
 5586.00000   -9999.25   -9999.25   -9999.25   -9999.25    8.72220   29.50450   26.29760   67.19640    0.06330    0.03620   -0.30830    4.77310   -9999.25
 5586.50000   -9999.25   -9999.25   -9999.25   -9999.25    8.72260   30.85590   27.03680   12.14750    0.06660    0.02940   -0.31520    4.47340   -9999.25
 5587.00000   -9999.25   -9999.25   -9999.25   -9999.25    8.72300   31.53150   27.99010   11.30780    0.05460    0.02490   -0.32660    4.26370   -9999.25
 5587.50000   -9999.25   -9999.25   -9999.25   -9999.25    8.72340   28.60360   29.79150   29.47480    0.04920    0.02480   -0.32630    4.23410   -9999.25
 5588.00000   -9999.25   -9999.25   -9999.25   -9999.25    8.72370   27.25230   32.15140   26.20130    0.05340    0.03250   -0.32030    4.15980   -9999.25
 5588.50000   -9999.25   -9999.25   -9999.25   -9999.25    8.72420   26.35140   32.42350   41.70740    0.06750    0.03940   -0.31820    3.99510   -9999.25
 5589.00000   -9999.25   -9999.25   -9999.25   -9999.25    8.72450   26.35140   28.77690   37.42820    0.05730    0.04320   -0.32180    4.73160   -9999.25
 5589.50000   -9999.25   -9999.25   -9999.25   -9999.25    8.72490   26.80180   27.41420   65.61200    0.04700    0.04320   -0.32420    4.58200   -9999.25
 5590.00000   -9999.25   -9999.25   -9999.25   -9999.25    8.72530   26.35140   27.82280   11.71240    0.04670    0.03190   -0.32000    4.14720   -9999.25
 5590.50000   -9999.25   -9999.25   -9999.25   -9999.25    8.72560   25.00000   29.45010   22.21780    0.07020    0.02430   -0.30660    3.93750   -9999.25
 5591.00000   -9999.25   -9999.25   -9999.25   -9999.25    8.72600   25.00000   31.55950  120.22020    0.08160    0.02130   -0.29590    4.00270   -9999.25
 5591.50000   -9999.25   -9999.25   -9999.25   -9999.25    8.72640   25.90090   30.41740   32.25140    0.08040    0.02510   -0.29150    4.04380   -9999.25
 5592.00000   -9999.25   -9999.25   -9999.25   -9999.25    8.72680   26.80180   28.77690   10.14600    0.07100    0.03120   -0.28580    4.26980   -9999.25
 5592.50000   -9999.25   -9999.25   -9999.25   -9999.25    8.72710   27.02700   28.38080   33.61970    0.05780    0.04110   -0.28430    4.55570   -9999.25
 5593.00000   -9999.25   -9999.25   -9999.25   -9999.25    8.72750   26.35140   30.20730  123.59690    0.05020    0.04710   -0.28460    4.34600   -9999.25
 5593.50000   -9999.25   -9999.25   -9999.25   -9999.25    8.72790   26.35140   30.20730   21.43410    0.05470    0.04560   -0.28460    4.10640   -9999.25
 5594.00000   -9999.25   -9999.25   -9999.25   -9999.25    8.72830   27.25230   27.99010   27.31290    0.07820    0.03430   -0.28730    4.12200   -9999.25
 5594.50000   -9999.25   -9999.25   -9999.25   -9999.25    8.72320   29.50450   27.03680   54.59090    0.07400    0.03360   -0.29600    4.12260   -9999.25
 5595.00000   -9999.25   -9999.25   -9999.25   -9999.25    8.71390   31.30630   26.85010   73.01900    0.06520    0.03360   -0.30930    4.06310   -9999.25
 5595.50000   -9999.25   -9999.25   -9999.25   -9999.25    8.72940   32.20720   26.66470    9.08180    0.06190    0.03140   -0.31620    4.19880   -9999.25
 5596.00000   -9999.25   -9999.25   -9999.25   -9999.25    8.72970   30.40540   27.22480   12.92870    0.06100    0.02910   -0.31320    4.48470   -9999.25
 5596.50000   -9999.25   -9999.25   -9999.25   -9999.25    8.73010   29.05410   28.57810   20.27890    0.06490    0.02610   -0.30270    4.23010   -9999.25
