~Version ---------------------------------------------------
VERS.   2.0 : CWLS log ASCII Standard -VERSION 2.0
WRAP.    NO : One line per depth step
DLM . SPACE : Column Data Section Delimiter
~Well ------------------------------------------------------
STRT .F                 4167.0 : START DEPTH
STOP .F                 7672.0 : STOP DEPTH
STEP .F                    0.5 : STEP
NULL .                -9999.25 : NULL VALUE
COMP .                         : COMPANY
WELL .                         : WELL
FLD  .                         : FIELD
LOC  .                         : LOCATION
PROV .                         : PROVINCE
CNTY .                         : COUNTY
STAT .                         : STATE
CTRY .                         : COUNTRY
SRVC .                         : SERVICE COMPANY
DATE .                         : DATE
UWI  .                         : UNIQUE WELL ID
API  .                         : API NUMBER
SLAT .WGS84 2.9138205011344027 : SURFACE LATITUDE
SLON .WGS84  6.360154750657998 : SURFACE LONGITUDE
DATUM.F                2904.99 : DEPTH DATUM ELEV
~Curve Information -----------------------------------------
DEPT.F     : 
DT  .US/F  : INTERVAL TRANSIT TIME
DTCO.US/F  : COMPRESSIONAL-WAVE INTERVAL TRANSIT TIME ACAUSTIC SLOWNESS
DTL .US/F  : ACOUSTIC TRANSIT TIME SLOWNESS, LONG SPACING
DTSM.US/F  : SHEAR-WAVE INTERVAL TRANSIT TIME DELTA-T
CALS.IN    : MICRO RESISTIVITY CALIPER
GRR .GAPI  : GAMMA RAY FROM RES.
LLS .OHMM  : LATEROLOG  SHALLOW
MSFL.OHMM  : MICRO SPHERICALLY FOCUSED
DPHI.V/V   : DENSITY POROSITY LIMESTONE
DRHO.G/C3  : DENSITY CORRECTION
NPHI.V/V   : NEUTRON POROSITY LIMESTONE
PEF .B/E   : PHOTOELECTRIC FACTOR
RHOB.G/C3  : BULK DENSITY
~Params ----------------------------------------------------
~Other -----------------------------------------------------
~ASCII -----------------------------------------------------
# ...
 7235.00000   75.06010   70.30860   73.79520  123.13250    8.59570   84.28440   12.89470   14.39050    0.11190    0.01550   -0.19670    2.71920   -9999.25
 7235.50000   76.14310   77.08360   75.64760  124.33730    8.59590   89.20500   12.37090    8.36160    0.10930    0.02540   -0.18360    2.61460   -9999.25
 7236.00000   76.23440   79.19340   76.32530  126.44580    8.59610   92.66750   12.55620   12.94860    0.10370    0.03370   -0.17360    2.85530   -9999.25
 7236.50000   75.51420   79.94880   75.60240  127.19880    8.59630   93.34650   13.00030   11.43470    0.09980    0.03370   -0.16900    2.93080   -9999.25
 7237.00000   74.70390   78.44690   74.60840  127.34940    8.59650   92.22480   13.26330   12.00840    0.10010    0.03450   -0.16630    2.84110   -9999.25
 7237.50000   74.93040   74.38670   74.51810  127.34940    8.59670   94.03220   13.35730   13.79930    0.10310    0.03750   -0.17500    2.70510   -9999.25
 7238.00000   75.51760   74.38960   75.06020  127.34940    8.59690   96.28890   13.45170    9.23370    0.10250    0.04210   -0.17290    2.66190   -9999.25
 7238.50000   76.05970   75.89750   75.78310  127.34940    8.59710   97.64460   13.64100    7.71320    0.10460    0.05270   -0.16630    2.73980   -9999.25
 7239.00000   76.42140   76.50240   76.32530  127.80120    8.59720   98.32370   13.83300    9.41090    0.11450    0.05580   -0.16210    2.72290   -9999.25
 7239.50000   76.78310   77.10740   76.32530  128.25300    8.59740   95.85170   14.32240   14.41030    0.11510    0.04670   -0.16450    2.64830   -9999.25
 7240.00000   77.19000   76.50840   76.37050  128.85540    8.59760   94.27960   15.03600    8.62980    0.10600    0.04440   -0.16090    2.60370   -9999.25
 7240.50000   77.70960   72.90000   76.59640  129.15660    8.59780   95.18490   15.67620    8.16650    0.10870    0.04670   -0.15520    2.54410   -9999.25
 7241.00000   77.35010   73.65540   76.59640  129.15660    8.59800   99.69380   16.57180    3.09440    0.12470    0.04440   -0.15400    2.51450   -9999.25
 7241.50000   76.83290   74.41090   76.73190  128.85540    8.59820  103.30190   17.27730    5.31720    0.13320    0.04140   -0.15490    2.49980   -9999.25
 7242.00000   76.20280   74.18800   76.64160  128.25300    8.59830  104.88290   18.90830   12.74480    0.12400    0.04170   -0.15310    2.48520   -9999.25
 7242.50000   74.06270   71.85880   75.82830  124.63860    8.59850  103.42110   21.27500    9.52900    0.10640    0.05210   -0.15740    2.53080   -9999.25
 7243.00000   71.47190   70.80840   73.16270  122.53010    8.59870   92.05420   25.12770   13.96000    0.09610    0.05960   -0.17750    2.78650   -9999.25
 7243.50000   70.52640   70.66090   71.03920  121.47590    8.59890   80.59980   28.46940   18.98980    0.09400    0.06270   -0.21150    3.46260   -9999.25
 7244.00000   69.85130   70.81430   70.00000  121.02410    8.59910   79.67540   28.15980  179.35540    0.08130    0.05510   -0.24910    5.02460   -9999.25
 7244.50000   71.65560   71.56980   70.27110  121.62650    8.59840   84.18550   18.80060  293.59280    0.08310    0.04530   -0.24550    5.10440   -9999.25
 7245.00000   73.32460   72.62610   71.80720  122.83130    8.59620   87.79350   15.19370   26.10450    0.10290    0.04160   -0.22380    3.44900   -9999.25
 7245.50000   74.36260   73.38160   73.25300  123.88550    8.59400   87.34750   13.28960   10.23920    0.10950    0.03860   -0.19680    2.89380   -9999.25
 7246.00000   74.54400   73.68550   73.88550  124.03610    8.59170   83.97350   12.40120    7.87010    0.10590    0.04010   -0.18780    2.74410   -9999.25
 7246.50000   74.36480   73.08650   73.43370  123.73490    8.58950   81.95090   12.48890    9.82980    0.11010    0.03860   -0.19360    2.74600   -9999.25
 7247.00000   73.46430   72.63800   72.98190  123.28310    8.58730   83.98240   13.11120   10.12510    0.11310    0.03030   -0.20290    2.77510   -9999.25
 7247.50000   72.69910   73.69440   72.53010  122.75600    8.58500   88.26610   13.66940    7.85780    0.10440    0.02430   -0.21220    2.74560   -9999.25
 7248.00000   73.78210   75.35280   72.39460  122.22890    8.58260   91.87420   13.86140    6.40210    0.09720    0.03190   -0.20670    2.73100   -9999.25
 7248.50000   76.48800   77.16160   73.47890  121.62650    8.56760   92.32790   12.75710    9.25080    0.09790    0.03570   -0.19830    2.70140   -9999.25
 7249.00000   84.01730   79.12100   78.76510  121.02410    8.56760   92.30480   10.80350   10.55810    0.10320    0.03340   -0.18570    2.67180   -9999.25
 7249.50000   85.68630   80.32790   83.73490  119.36750    8.56760   94.59020    8.53650    6.32220    0.13800    0.03120   -0.15170    2.62720   -9999.25
 7250.00000   86.27340   79.72910   85.94880  114.09640    8.56760   94.59460    8.41980    0.84640    0.17130    0.03500   -0.10140    2.50760   -9999.25
 7250.50000   83.43460   78.97960   83.82530  108.07380    8.56760   92.55780   10.58480    0.40310    0.20500    0.04190   -0.10030    2.44790   -9999.25
 7251.00000   80.28020   77.92920   80.39430  105.66560    8.56760   93.30940   14.06480    9.86660    0.18370    0.04950   -0.12670    2.41820   -9999.25
 7251.50000   78.16260   76.27670   76.28420  106.87190    8.56760   95.05950   17.07880    7.79720    0.12570    0.05390   -0.15890    2.67410   -9999.25
 7252.00000   77.44240   72.81840   75.78860  115.45770    8.56760   93.26210   19.35640   11.87440    0.11000    0.04260   -0.19510    2.77960   -9999.25
 7252.50000   77.39850   73.12240   75.92550  120.50450    8.56760   93.26650   19.62240   15.21440    0.13140    0.03200   -0.19750    2.81010   -9999.25
 7253.00000   77.62500   74.63060   75.97200  122.76510    8.56760   95.07280   18.78840    8.48510    0.12750    0.02450   -0.19510    2.73550   -9999.25
 7253.50000   78.21220   76.13840   76.06370  125.17620    8.56760  100.03220   18.06120    6.94200    0.11360    0.01920   -0.19420    2.66080   -9999.25
 7254.00000   80.44480   77.04470   76.33610  126.75920    8.58260  104.42270   18.31530    9.16520    0.11690    0.01620   -0.18490    2.72130   -9999.25
 7254.50000   81.55030   77.64960   79.63560  128.41730    8.58260  109.00900   19.09510   15.64030    0.12980    0.01320   -0.15180    2.81260   -9999.25
 7255.00000   81.30350   78.10400   81.12790  132.18380    8.58260  104.72970   19.90820   10.98520    0.14520    0.01480   -0.12560    2.87240   -9999.25
 7255.50000   78.26180   78.40790   80.13530  132.78770    8.58260   97.74770   19.91040   16.66120    0.15210    0.02010   -0.12320    2.82560   -9999.25
 7256.00000   75.60340   78.56140   75.95760  130.07830    8.58260   92.56760   19.63800    9.97680    0.13880    0.02080   -0.14160    2.72320   -9999.25
 7256.50000   75.87500   77.81190   75.21340  129.47740    8.58260   96.39640   19.64080   10.77210    0.12500    0.02090   -0.16110    2.67850   -9999.25
 7257.00000   78.98660   76.00890   77.02200  129.78010    8.58260  103.60360   19.77970   17.51140    0.11600    0.01860   -0.17560    2.93430   -9999.25
 7257.50000   80.47530   75.10900   78.24340  130.38390    8.59760  106.30630   19.78190   11.54500    0.12080    0.01710   -0.16870    3.02480   -9999.25
 7258.00000   77.81670   75.26240   75.98560  130.53600    8.61260   99.09910   17.95480   11.24350    0.14150    0.02240   -0.16480    2.98020   -9999.25
 7258.50000   74.12140   74.96440   72.86950  129.18230    8.61260   88.96400   16.87100   10.64210    0.16290    0.02620   -0.17980    2.80050   -9999.25
 7259.00000   70.33590   73.83910   71.19920  126.32230    8.61260   82.88290   16.29830    9.52720    0.14060    0.02620   -0.20240    2.68070   -9999.25
 7259.50000   69.75100   72.18660   69.98060  123.53760    8.61260   76.57660   15.96480    8.35520    0.11600    0.02850   -0.23940    2.60620   -9999.25
 7260.00000   69.57180   71.96420   69.39460  122.71100    8.61260   67.11710   15.42280    6.46610    0.08500    0.04630   -0.25140    2.62170   -9999.25
 7260.50000   69.39260   72.26810   69.35080  125.42330    8.61260   63.96400   14.47930    9.27880    0.06760    0.05900   -0.24780    2.56200   -9999.25
