~Version ---------------------------------------------------
VERS.   2.0 : CWLS log ASCII Standard -VERSION 2.0
WRAP.    NO : One line per depth step
DLM . SPACE : Column Data Section Delimiter
~Well ------------------------------------------------------
STRT .F                 4167.0 : START DEPTH
STOP .F                 7672.0 : STOP DEPTH
STEP .F                    0.5 : STEP
NULL .                -9999.25 : NULL VALUE
COMP .                         : COMPANY
WELL .                         : WELL
FLD  .                         : FIELD
LOC  .                         : LOCATION
PROV .                         : PROVINCE
CNTY .                         : COUNTY
STAT .                         : STATE
CTRY .                         : COUNTRY
SRVC .                         : SERVICE COMPANY
DATE .                         : DATE
UWI  .                         : UNIQUE WELL ID
API  .                         : API NUMBER
SLAT .WGS84 2.9138205011344027 : SURFACE LATITUDE
SLON .WGS84  6.360154750657998 : SURFACE LONGITUDE
DATUM.F                2904.99 : DEPTH DATUM ELEV
~Curve Information -----------------------------------------
DEPT.F     : 
DT  .US/F  : INTERVAL TRANSIT TIME
DTCO.US/F  : COMPRESSIONAL-WAVE INTERVAL TRANSIT TIME ACAUSTIC SLOWNESS
DTL .US/F  : ACOUSTIC TRANSIT TIME SLOWNESS, LONG SPACING
DTSM.US/F  : SHEAR-WAVE INTERVAL TRANSIT TIME DELTA-T
CALS.IN    : MICRO RESISTIVITY CALIPER
GRR .GAPI  : GAMMA RAY FROM RES.
LLS .OHMM  : LATEROLOG  SHALLOW
MSFL.OHMM  : MICRO SPHERICALLY FOCUSED
DPHI.V/V   : DENSITY POROSITY LIMESTONE
DRHO.G/C3  : DENSITY CORRECTION
NPHI.V/V   : NEUTRON POROSITY LIMESTONE
PEF .B/E   : PHOTOELECTRIC FACTOR
RHOB.G/C3  : BULK DENSITY
~Params ----------------------------------------------------
~Other -----------------------------------------------------
~ASCII -----------------------------------------------------
# ...
 5363.00000   -9999.25   -9999.25   -9999.25   -9999.25    8.78170   56.92340    9.44620    7.66550    0.08790    0.04270   -0.19290    3.12940   -9999.25
 5363.50000   -9999.25   -9999.25   -9999.25   -9999.25    8.78180   56.94530    9.31680    9.43710    0.09910    0.03440   -0.17590    3.06970   -9999.25
 5364.00000   -9999.25   -9999.25   -9999.25   -9999.25    8.78200   58.79210    8.93790   10.47120    0.10730    0.02760   -0.19260    3.28060   -9999.25
 5364.50000   -9999.25   -9999.25   -9999.25   -9999.25    8.78220   59.61950    8.93850    8.33340    0.10150    0.02390   -0.21860    3.46130   -9999.25
 5365.00000   -9999.25   -9999.25   -9999.25   -9999.25    8.78230   55.11220    9.31870    7.82550    0.08830    0.02240   -0.23040    3.61190   -9999.25
 5365.50000   -9999.25   -9999.25   -9999.25   -9999.25    8.78250   51.05590    9.98810    7.67100    0.08320    0.02240   -0.22910    3.56740   -9999.25
 5366.00000   -9999.25   -9999.25   -9999.25   -9999.25    8.78260   46.09870   10.55820    8.58100    0.09280    0.02400   -0.22740    3.44780   -9999.25
 5366.50000   -9999.25   -9999.25   -9999.25   -9999.25    8.78280   42.04250   10.85570   10.31650    0.09610    0.02480   -0.23040    3.37320   -9999.25
 5367.00000   -9999.25   -9999.25   -9999.25   -9999.25    8.78290   41.81560   10.70700   12.73630    0.10150    0.02330   -0.23370    3.32870   -9999.25
 5367.50000   -9999.25   -9999.25   -9999.25   -9999.25    8.78310   44.06510   10.13030    8.11260    0.10630    0.01800   -0.22530    3.22400   -9999.25
 5368.00000   -9999.25   -9999.25   -9999.25   -9999.25    8.78320   45.63940    9.58460    8.69550    0.10540    0.02410   -0.23410    3.25470   -9999.25
 5368.50000   -9999.25   -9999.25   -9999.25   -9999.25    8.78330   45.41200    9.58520   12.55320    0.09090    0.02870   -0.25750    3.51050   -9999.25
 5369.00000   -9999.25   -9999.25   -9999.25   -9999.25    8.78350   42.70700    9.99670   18.37500    0.08220    0.02640   -0.26480    3.31580   -9999.25
 5369.50000   -9999.25   -9999.25   -9999.25   -9999.25    8.78360   39.77690   10.57550    8.75950    0.09240    0.02420   -0.24290    2.89590   -9999.25
 5370.00000   -9999.25   -9999.25   -9999.25   -9999.25    8.78380   36.62150   11.16620   11.16360    0.10990    0.02480   -0.20180    2.83630   -9999.25
 5370.50000   -9999.25   -9999.25   -9999.25   -9999.25    8.78390   42.47510   10.58410   13.74320    0.11920    0.03790   -0.16240    2.92850   -9999.25
 5371.00000   -9999.25   -9999.25   -9999.25   -9999.25    8.78410   51.03150    8.88490   16.23040    0.11710    0.03640   -0.14030    3.01910   -9999.25
 5371.50000   -9999.25   -9999.25   -9999.25   -9999.25    8.78420   63.19140    7.73540    8.70380    0.10710    0.02890   -0.15340    3.08040   -9999.25
 5372.00000   -9999.25   -9999.25   -9999.25   -9999.25    8.78440   62.68130    7.57670    6.64470    0.09870    0.02140   -0.19320    3.21390   -9999.25
 5372.50000   -9999.25   -9999.25   -9999.25   -9999.25    8.78450   53.18620    8.46590    6.46410    0.09380    0.01690   -0.21740    3.40960   -9999.25
 5373.00000   -9999.25   -9999.25   -9999.25   -9999.25    8.78470   48.66330    9.32910    6.60070    0.09050    0.01690   -0.24230    3.74050   -9999.25
 5373.50000   -9999.25   -9999.25   -9999.25   -9999.25    8.78480   44.51730   10.13880    7.90390    0.08770    0.02070   -0.25170    4.04130   -9999.25
 5374.00000   -9999.25   -9999.25   -9999.25   -9999.25    8.78500   39.98160   11.01870    9.53030    0.08570    0.02600   -0.24840    3.84660   -9999.25
 5374.50000   -9999.25   -9999.25   -9999.25   -9999.25    8.78520   36.82620   11.72870    8.24150    0.08450    0.02980   -0.23040    3.47180   -9999.25
 5375.00000   -9999.25   -9999.25   -9999.25   -9999.25    8.78530   36.59870   12.31250    9.38060    0.08810    0.02760   -0.19700    3.06690   -9999.25
 5375.50000   -9999.25   -9999.25   -9999.25   -9999.25    8.80040   38.62350   12.74750   11.41540    0.09320    0.02540   -0.20000    2.99220   -9999.25
 5376.00000   -9999.25   -9999.25   -9999.25   -9999.25    8.78560   40.64830   13.01620   14.34830    0.09560    0.02240   -0.21330    3.17300   -9999.25
 5376.50000   -9999.25   -9999.25   -9999.25   -9999.25    8.78580   41.32230   13.19880   11.49790    0.09830    0.02320   -0.20670    3.05340   -9999.25
 5377.00000   -9999.25   -9999.25   -9999.25   -9999.25    8.78590   40.19340   12.83880   12.15450    0.12270    0.02320   -0.19590    2.96370   -9999.25
 5377.50000   -9999.25   -9999.25   -9999.25   -9999.25    8.78600   41.99300   11.98000   12.84860    0.13500    0.02780   -0.19110    3.18960   -9999.25
 5378.00000   -9999.25   -9999.25   -9999.25   -9999.25    8.78620   46.94580   11.10140   12.41310    0.12110    0.03610   -0.22570    3.52040   -9999.25
 5378.50000   -9999.25   -9999.25   -9999.25   -9999.25    8.78630   51.67330   11.34810    8.96570    0.06280    0.04300   -0.25060    3.62610   -9999.25
 5379.00000   -9999.25   -9999.25   -9999.25   -9999.25    8.78650   41.53590   12.52450    7.91600    0.07210    0.04220   -0.24970    3.68660   -9999.25
 5379.50000   -9999.25   -9999.25   -9999.25   -9999.25    8.78660   36.57870   13.99990    7.59470    0.09190    0.02860   -0.24190    3.71720   -9999.25
 5380.00000   -9999.25   -9999.25   -9999.25   -9999.25    8.78680   31.62150   15.81260   32.07350    0.10160    0.02260   -0.23950    3.74770   -9999.25
 5380.50000   -9999.25   -9999.25   -9999.25   -9999.25    8.78690   31.16890   14.75490   21.76630    0.10610    0.01870   -0.24710    3.79410   -9999.25
 5381.00000   -9999.25   -9999.25   -9999.25   -9999.25    8.78710   31.16670   13.67280    9.88520    0.10940    0.01910   -0.24530    3.85690   -9999.25
 5381.50000   -9999.25   -9999.25   -9999.25   -9999.25    8.78720   29.80680   13.48530    9.61400    0.10880    0.02280   -0.23510    3.94680   -9999.25
 5382.00000   -9999.25   -9999.25   -9999.25   -9999.25    8.78740   28.90990   13.58030   10.38300    0.10870    0.02200   -0.22640    3.73490   -9999.25
 5382.50000   -9999.25   -9999.25   -9999.25   -9999.25    8.78750   30.60530   13.77070   10.45260    0.12650    0.01910   -0.20860    3.05980   -9999.25
 5383.00000   -9999.25   -9999.25   -9999.25   -9999.25    8.78770   36.08150   13.96390    9.89060    0.14420    0.01760   -0.19990    2.91020   -9999.25
 5383.50000   -9999.25   -9999.25   -9999.25   -9999.25    8.78790   48.72250   14.55780   11.05140    0.15590    0.01990   -0.20870    2.88050   -9999.25
 5384.00000   -9999.25   -9999.25   -9999.25   -9999.25    8.78800   57.95460   15.71200   13.89070    0.13400    0.02290   -0.22820    3.43670   -9999.25
 5384.50000   -9999.25   -9999.25   -9999.25   -9999.25    8.78810   60.65500   16.95780   11.68370    0.11610    0.02370   -0.24210    3.81260   -9999.25
 5385.00000   -9999.25   -9999.25   -9999.25   -9999.25    8.78830   55.02220   18.17590   23.03520    0.10600    0.02220   -0.24840    3.87320   -9999.25
 5385.50000   -9999.25   -9999.25   -9999.25   -9999.25    8.78850   49.61460   18.94900   31.24510    0.10120    0.01930   -0.25660    3.87370   -9999.25
 5386.00000   -9999.25   -9999.25   -9999.25   -9999.25    8.78860   44.65740   19.34840   19.51330    0.09720    0.01700   -0.26110    3.85910   -9999.25
 5386.50000   -9999.25   -9999.25   -9999.25   -9999.25    8.78880   39.24980   18.82070   14.89690    0.09600    0.01630   -0.25540    3.90480   -9999.25
 5387.00000   -9999.25   -9999.25   -9999.25   -9999.25    8.78890   33.61690   17.44040   13.42850    0.09750    0.02310   -0.25630    3.95030   -9999.25
 5387.50000   -9999.25   -9999.25   -9999.25   -9999.25    8.78910   27.08310   16.73120   17.96460    0.09960    0.02850   -0.26140    3.84580   -9999.25
 5388.00000   -9999.25   -9999.25   -9999.25   -9999.25    8.78920   22.57640   16.50210   23.21420    0.09690    0.02620   -0.25810    3.39580   -9999.25
 5388.50000   -9999.25   -9999.25   -9999.25   -9999.25    8.78930   22.79940   16.61800   19.12510    0.10710    0.02250   -0.23500    3.21620   -9999.25
