~Version ---------------------------------------------------
VERS.   2.0 : CWLS log ASCII Standard -VERSION 2.0
WRAP.    NO : One line per depth step
DLM . SPACE : Column Data Section Delimiter
~Well ------------------------------------------------------
STRT .F                 4167.0 : START DEPTH
STOP .F                 7672.0 : STOP DEPTH
STEP .F                    0.5 : STEP
NULL .                -9999.25 : NULL VALUE
COMP .                         : COMPANY
WELL .                         : WELL
FLD  .                         : FIELD
LOC  .                         : LOCATION
PROV .                         : PROVINCE
CNTY .                         : COUNTY
STAT .                         : STATE
CTRY .                         : COUNTRY
SRVC .                         : SERVICE COMPANY
DATE .                         : DATE
UWI  .                         : UNIQUE WELL ID
API  .                         : API NUMBER
SLAT .WGS84 2.9138205011344027 : SURFACE LATITUDE
SLON .WGS84  6.360154750657998 : SURFACE LONGITUDE
DATUM.F                2904.99 : DEPTH DATUM ELEV
~Curve Information -----------------------------------------
DEPT.F     : 
DT  .US/F  : INTERVAL TRANSIT TIME
DTCO.US/F  : COMPRESSIONAL-WAVE INTERVAL TRANSIT TIME ACAUSTIC SLOWNESS
DTL .US/F  : ACOUSTIC TRANSIT TIME SLOWNESS, LONG SPACING
DTSM.US/F  : SHEAR-WAVE INTERVAL TRANSIT TIME DELTA-T
CALS.IN    : MICRO RESISTIVITY CALIPER
GRR .GAPI  : GAMMA RAY FROM RES.
LLS .OHMM  : LATEROLOG  SHALLOW
MSFL.OHMM  : MICRO SPHERICALLY FOCUSED
DPHI.V/V   : DENSITY POROSITY LIMESTONE
DRHO.G/C3  : DENSITY CORRECTION
NPHI.V/V   : NEUTRON POROSITY LIMESTONE
PEF .B/E   : PHOTOELECTRIC FACTOR
RHOB.G/C3  : BULK DENSITY
~Params ----------------------------------------------------
~Other -----------------------------------------------------
~ASCII -----------------------------------------------------
# ...
 5987.00000   -9999.25   -9999.25   -9999.25   -9999.25    8.54860   23.93230   30.69850   13.53080    0.07610    0.04250   -0.28730    4.39160   -9999.25
 5987.50000   -9999.25   -9999.25   -9999.25   -9999.25    8.54880   24.45630   41.51340   14.74010    0.07430    0.03200   -0.31890    4.39190   -9999.25
 5988.00000   -9999.25   -9999.25   -9999.25   -9999.25    8.54890   18.07210   54.77660   71.65510    0.06950    0.02520   -0.33810    4.25710   -9999.25
 5988.50000   -9999.25   -9999.25   -9999.25   -9999.25    8.54910   15.81760   63.80060  118.06310    0.05950    0.01740   -0.33360    3.89700   -9999.25
 5989.00000   -9999.25   -9999.25   -9999.25   -9999.25    8.54920   18.44340   58.71140  114.83280    0.06160    0.01240   -0.30750    3.77710   -9999.25
 5989.50000   -9999.25   -9999.25   -9999.25   -9999.25    8.54940   22.56940   45.11960  123.15870    0.06940    0.01550   -0.28820    3.76240   -9999.25
 5990.00000   -9999.25   -9999.25   -9999.25   -9999.25    8.54960   24.36900   39.28120   24.28660    0.07180    0.02610   -0.29120    3.71770   -9999.25
 5990.50000   -9999.25   -9999.25   -9999.25   -9999.25    8.54970   25.26820   37.16360   27.13690    0.07060    0.02850   -0.29450    3.61290   -9999.25
 5991.00000   -9999.25   -9999.25   -9999.25   -9999.25    8.54990   25.26550   36.65330   76.80110    0.07060    0.03080   -0.29540    3.68830   -9999.25
 5991.50000   -9999.25   -9999.25   -9999.25   -9999.25    8.55000   25.26330   35.16190   57.39330    0.07170    0.03460   -0.29300    3.88380   -9999.25
 5992.00000   -9999.25   -9999.25   -9999.25   -9999.25    8.55020   25.71150   33.26670   19.05220    0.07050    0.04600   -0.28280    3.85410   -9999.25
 5992.50000   -9999.25   -9999.25   -9999.25   -9999.25    8.55030   29.31290   31.04030   25.31860    0.05940    0.05730   -0.25570    3.61050   -9999.25
 5993.00000   -9999.25   -9999.25   -9999.25   -9999.25    8.55050   36.29270   29.98420   37.33480    0.06970    0.04910   -0.23350    3.38750   -9999.25
 5993.50000   -9999.25   -9999.25   -9999.25   -9999.25    8.55060   38.54270   31.47570   21.43630    0.08350    0.03630   -0.23570    3.59070   -9999.25
 5994.00000   -9999.25   -9999.25   -9999.25   -9999.25    8.55080   34.03600   35.16790   19.15760    0.08940    0.02650   -0.26990    4.15560   -9999.25
 5994.50000   -9999.25   -9999.25   -9999.25   -9999.25    8.55090   24.46080   42.74350   17.16980    0.07460    0.01820   -0.32130    4.15590   -9999.25
 5995.00000   -9999.25   -9999.25   -9999.25   -9999.25    8.55110   20.21900   48.43210   68.73450    0.05510    0.01980   -0.33090    4.08110   -9999.25
 5995.50000   -9999.25   -9999.25   -9999.25   -9999.25    8.55120   20.96580   41.71440  110.15240    0.04960    0.03280   -0.30480    3.87120   -9999.25
 5996.00000   -9999.25   -9999.25   -9999.25   -9999.25    8.55140   23.89150   32.59130   41.42810    0.05920    0.03810   -0.27980    3.54120   -9999.25
 5996.50000   -9999.25   -9999.25   -9999.25   -9999.25    8.55150   25.69110   29.78450   34.83320    0.06910    0.03880   -0.27740    3.36130   -9999.25
 5997.00000   -9999.25   -9999.25   -9999.25   -9999.25    8.55170   26.58980   27.59920   12.65420    0.05950    0.04570   -0.27800    3.25650   -9999.25
 5997.50000   -9999.25   -9999.25   -9999.25   -9999.25    8.55180   25.91190   25.93130   33.88020    0.05170    0.05170   -0.27860    3.19660   -9999.25
 5998.00000   -9999.25   -9999.25   -9999.25   -9999.25    8.55200   25.68450   23.86280   22.03930    0.05350    0.05710   -0.27740    3.64750   -9999.25
 5998.50000   -9999.25   -9999.25   -9999.25   -9999.25    8.55210   27.03360   22.26560   10.13560    0.06010    0.06090   -0.27680    3.97810   -9999.25
 5999.00000   -9999.25   -9999.25   -9999.25   -9999.25    8.55230   27.29440   23.37340   11.09050    0.06580    0.05190   -0.28100    4.05350   -9999.25
 5999.50000   -9999.25   -9999.25   -9999.25   -9999.25    8.55240   25.22740   24.87850   16.93330    0.06990    0.03980   -0.28770    4.00870   -9999.25
 6000.00000   -9999.25   -9999.25   -9999.25   -9999.25    8.55260   22.74770   26.29770   17.65280    0.07260    0.03760   -0.29190    3.99400   -9999.25
 6000.50000   -9999.25   -9999.25   -9999.25   -9999.25    8.55270   21.32480   27.99110   23.30020    0.06040    0.03620   -0.29510    4.45330   -9999.25
 6001.00000   -9999.25   -9999.25   -9999.25   -9999.25    8.55290   19.59460   29.58790   61.53260    0.06610    0.03170   -0.30180    4.90290   -9999.25
 6001.50000   -9999.25   -9999.25   -9999.25   -9999.25    8.55300   18.46850   29.62150   37.35050    0.07680    0.02790   -0.30540    5.03090   -9999.25
 6002.00000   -9999.25   -9999.25   -9999.25   -9999.25    8.55320   20.27030   28.18870   19.19550    0.08380    0.02500   -0.30210    4.23550   -9999.25
 6002.50000   -9999.25   -9999.25   -9999.25   -9999.25    8.55330   23.19820   28.98200   24.53620    0.08000    0.03100   -0.29910    4.02550   -9999.25
 6003.00000   -9999.25   -9999.25   -9999.25   -9999.25    8.55350   25.67570   30.21360   40.32800    0.07310    0.04260   -0.30420    4.17600   -9999.25
 6003.50000   -9999.25   -9999.25   -9999.25   -9999.25    8.55350   24.54950   29.35800   14.68200    0.06530    0.04700   -0.30270    4.02620   -9999.25
 6004.00000   -9999.25   -9999.25   -9999.25   -9999.25    8.55350   24.32430   28.19250   29.93790    0.07240    0.04100   -0.29070    3.45590   -9999.25
 6004.50000   -9999.25   -9999.25   -9999.25   -9999.25    8.55340   24.77480   28.19370  102.18770    0.08170    0.03650   -0.27690    3.23090   -9999.25
 6005.00000   -9999.25   -9999.25   -9999.25   -9999.25    8.55340   24.77480   30.00930   11.03080    0.08440    0.03280   -0.27840    3.66670   -9999.25
 6005.50000   -9999.25   -9999.25   -9999.25   -9999.25    8.55330   22.52250   33.68700   13.12100    0.06820    0.03360   -0.30910    3.95230   -9999.25
 6006.00000   -9999.25   -9999.25   -9999.25   -9999.25    8.55320   18.91890   38.79720   27.56220    0.04990    0.03740   -0.33610    4.11770   -9999.25
 6006.50000   -9999.25   -9999.25   -9999.25   -9999.25    8.55320   15.99100   43.95740   79.65560    0.03580    0.03750   -0.33490    3.87780   -9999.25
 6007.00000   -9999.25   -9999.25   -9999.25   -9999.25    8.55310   16.66670   43.92810  480.17110    0.05380    0.03600   -0.32030    3.65290   -9999.25
 6007.50000   -9999.25   -9999.25   -9999.25   -9999.25    8.55310   19.14410   35.14820  130.37370    0.06700    0.03530   -0.30400    3.71320   -9999.25
 6008.00000   -9999.25   -9999.25   -9999.25   -9999.25    8.55300   21.62160   31.04520   16.27930    0.06250    0.03530   -0.31130    4.11920   -9999.25
 6008.50000   -9999.25   -9999.25   -9999.25   -9999.25    8.55300   20.72070   30.24280   11.64430    0.05590    0.04290   -0.31210    4.09700   -9999.25
 6009.00000   -9999.25   -9999.25   -9999.25   -9999.25    8.55290   19.59100   30.66760  147.76940    0.06580    0.04600   -0.30160    3.98440   -9999.25
 6009.50000   -9999.25   -9999.25   -9999.25   -9999.25    8.55290   21.40510   31.31400  442.12710    0.07600    0.04150   -0.29740    4.33010   -9999.25
 6010.00000   -9999.25   -9999.25   -9999.25   -9999.25    8.55280   22.07210   31.97400   14.52500    0.07330    0.03850   -0.32470    4.97600   -9999.25
 6010.50000   -9999.25   -9999.25   -9999.25   -9999.25    8.55280   19.98380   34.03420   13.79290    0.06160    0.03390   -0.33710    4.85620   -9999.25
 6011.00000   -9999.25   -9999.25   -9999.25   -9999.25    8.55270   18.01800   37.76520  262.92740    0.05320    0.03880   -0.33380    4.36090   -9999.25
 6011.50000   -9999.25   -9999.25   -9999.25   -9999.25    8.55260   18.50570   35.73080   34.46390    0.05230    0.04850   -0.31300    3.97090   -9999.25
 6012.00000   -9999.25   -9999.25   -9999.25   -9999.25    8.55260   20.72070   30.68020   56.40000    0.06220    0.05310   -0.29350    3.57840   -9999.25
 6012.50000   -9999.25   -9999.25   -9999.25   -9999.25    8.55240   22.74770   30.46980   36.94910    0.07670    0.05080   -0.29050    3.43090   -9999.25
