~Version ---------------------------------------------------
VERS.   2.0 : CWLS log ASCII Standard -VERSION 2.0
WRAP.    NO : One line per depth step
DLM . SPACE : Column Data Section Delimiter
~Well ------------------------------------------------------
STRT .F                 4167.0 : START DEPTH
STOP .F                 7672.0 : STOP DEPTH
STEP .F                    0.5 : STEP
NULL .                -9999.25 : NULL VALUE
COMP .                         : COMPANY
WELL .                         : WELL
FLD  .                         : FIELD
LOC  .                         : LOCATION
PROV .                         : PROVINCE
CNTY .                         : COUNTY
STAT .                         : STATE
CTRY .                         : COUNTRY
SRVC .                         : SERVICE COMPANY
DATE .                         : DATE
UWI  .                         : UNIQUE WELL ID
API  .                         : API NUMBER
SLAT .WGS84 2.9138205011344027 : SURFACE LATITUDE
SLON .WGS84  6.360154750657998 : SURFACE LONGITUDE
DATUM.F                2904.99 : DEPTH DATUM ELEV
~Curve Information -----------------------------------------
DEPT.F     : 
DT  .US/F  : INTERVAL TRANSIT TIME
DTCO.US/F  : COMPRESSIONAL-WAVE INTERVAL TRANSIT TIME ACAUSTIC SLOWNESS
DTL .US/F  : ACOUSTIC TRANSIT TIME SLOWNESS, LONG SPACING
DTSM.US/F  : SHEAR-WAVE INTERVAL TRANSIT TIME DELTA-T
CALS.IN    : MICRO RESISTIVITY CALIPER
GRR .GAPI  : GAMMA RAY FROM RES.
LLS .OHMM  : LATEROLOG  SHALLOW
MSFL.OHMM  : MICRO SPHERICALLY FOCUSED
DPHI.V/V   : DENSITY POROSITY LIMESTONE
DRHO.G/C3  : DENSITY CORRECTION
NPHI.V/V   : NEUTRON POROSITY LIMESTONE
PEF .B/E   : PHOTOELECTRIC FACTOR
RHOB.G/C3  : BULK DENSITY
~Params ----------------------------------------------------
~Other -----------------------------------------------------
~ASCII -----------------------------------------------------
# ...
 7651.00000   80.59360   81.68860   79.39490  135.48190    7.99030   82.20000   21.14790   18.40850    0.11520    0.02100   -0.15410    3.06310   -9999.25
 7651.50000   80.93160   81.23860   79.84540  135.33130    7.97560   82.45660   21.59580   25.86230    0.11940    0.01570   -0.14930    3.06310   -9999.25
 7652.00000   81.17960   80.78860   80.83800  135.48190    7.97600   83.33330   21.44950   18.93140    0.13720    0.01270   -0.13700    3.06310   -9999.25
 7652.50000   81.06680   80.48910   80.92700  135.93370    7.97640   80.63060   21.45410   15.27100    0.15520    0.00970   -0.11620    3.09310   -9999.25
 7653.00000   80.32310   80.18960   80.47390  136.23490    7.97670   76.12610   22.06090   11.49300    0.15940    0.01420   -0.10640    3.15320   -9999.25
 7653.50000   79.98500   79.89010   79.88520  136.53610    7.96210   73.87390   22.68490   20.29930    0.14800    0.02630   -0.10900    3.21320   -9999.25
 7654.00000   80.43580   79.74110   80.01940  136.53610    7.96250   73.42340   22.37630   31.20950    0.13180    0.03240   -0.11440    3.12260   -9999.25
 7654.50000   80.84150   79.59210   80.51490  136.53610    7.93290   76.57660   21.32050   23.00460    0.12870    0.03690   -0.12110    2.97130   -9999.25
 7655.00000   81.24720   79.44310   80.82980  136.08430    7.91820   80.63060   20.88530   22.33960    0.12810    0.03620   -0.12470    2.98950   -9999.25
 7655.50000   81.42750   78.69210   80.69290  133.07230    7.90350   83.10810   21.47610   16.44520    0.12260    0.03390   -0.12410    3.09310   -9999.25
 7656.00000   80.61610   77.18870   79.74260  130.21080    7.90400   83.50380   22.08360   14.60650    0.11530    0.03390   -0.12200    3.03300   -9999.25
 7656.50000   78.63260   76.43780   78.29550  129.00600    7.88920   -9999.25   23.03920   23.33940    0.11100    0.03390   -0.12180    3.00300   -9999.25
 7657.00000   77.46060   76.43950   77.48090  128.85540    7.87470   -9999.25   24.20210   30.38130    0.10830    0.03320   -0.12500    3.04800   -9999.25
 7657.50000   77.41550   76.81720   77.29890  129.00600    7.89010   -9999.25   25.62400   29.34970    0.11280    0.03240   -0.12470    2.97300   -9999.25
 7658.00000   77.77610   77.11960   78.06560  129.45780    7.89040   -9999.25   26.83150   16.50630    0.12360    0.03490   -0.12230    2.73270   -9999.25
 7658.50000   78.36210   77.49750   78.56120  130.36150    7.89080   -9999.25   26.83700   42.39950    0.12120    0.04040   -0.11560    2.89790   -9999.25
 7659.00000   78.54240   77.80000   78.28880  131.26510    7.89120   -9999.25   26.84080   21.19410    0.11310    0.04530   -0.11020    3.03300   -9999.25
 7659.50000   77.82120   77.95190   77.42900  131.79220    7.90650   -9999.25   26.84540   28.76100    0.09740    0.03550   -0.10420    3.07810   -9999.25
 7660.00000   78.27200   78.25440   78.06020  132.16870    7.90690   -9999.25   26.85090   24.35420    0.10110    0.02790   -0.10270    3.03300   -9999.25
 7660.50000   79.62430   78.40640   79.05290  131.94280    7.90730   -9999.25   26.85550   29.76400    0.11810    0.02570   -0.10460    2.91290   -9999.25
 7661.00000   80.34560   78.10690   80.18110  131.11450    7.90770   -9999.25   26.85940   51.52190    0.12860    0.03100   -0.10890    3.22820   -9999.25
 7661.50000   80.61610   76.75400   80.27010  129.45780    7.90800   -9999.25   26.83570   25.40020    0.13420    0.03550   -0.11340    3.12310   -9999.25
 7662.00000   80.43580   75.25060   79.41030  126.26260    7.92340   -9999.25   26.68310   31.27930    0.12870    0.04010   -0.11620    2.85290   -9999.25
 7662.50000   78.54240   73.89760   78.09870  124.43610    7.92750   -9999.25   26.68780   18.46650    0.10560    0.04310   -0.11560    2.79280   -9999.25
 7663.00000   77.19010   72.99620   76.74200  122.07830    7.93920   -9999.25   26.69240   48.76920    0.07940    0.04010   -0.11320    3.15320   -9999.25
 7663.50000   76.58160   72.24520   76.37920  120.42170    7.93960   -9999.25   26.69740   97.59090    0.07760    0.02720   -9999.25    3.84380   -9999.25
 7664.00000   76.51390   71.64480   76.37770  119.66870    7.92490   -9999.25   26.70160  128.81010    0.10650    0.02420   -9999.25    4.08410   -9999.25
 7664.50000   -9999.25   -9999.25   -9999.25   -9999.25    7.92530   -9999.25   26.70630  179.71620    0.11610    0.02350   -9999.25    3.72370   -9999.25
 7665.00000   -9999.25   -9999.25   -9999.25   -9999.25    7.94080   -9999.25   26.71120   46.16200    0.12030    0.02350   -9999.25    3.28830   -9999.25
 7665.50000   -9999.25   -9999.25   -9999.25   -9999.25    7.94110   -9999.25   26.90160   28.02050    0.11010    0.02350   -9999.25    3.18320   -9999.25
 7666.00000   -9999.25   -9999.25   -9999.25   -9999.25    7.94150   -9999.25   26.90600   41.35130    0.10350    0.02270   -9999.25    3.24320   -9999.25
 7666.50000   -9999.25   -9999.25   -9999.25   -9999.25    7.94190   -9999.25   26.91120  106.88910    0.10200    0.02650   -9999.25    3.25830   -9999.25
 7667.00000   -9999.25   -9999.25   -9999.25   -9999.25    7.94220   -9999.25   26.91530   97.68340    0.10080    0.03570   -9999.25    3.11480   -9999.25
 7667.50000   -9999.25   -9999.25   -9999.25   -9999.25    7.94260   -9999.25   26.92000  212.44370    0.09560    0.04250   -9999.25    2.94290   -9999.25
 7668.00000   -9999.25   -9999.25   -9999.25   -9999.25    7.94300   -9999.25   26.92460  280.40430    0.09470    0.04550   -9999.25    3.07810   -9999.25
 7668.50000   -9999.25   -9999.25   -9999.25   -9999.25    7.94340   -9999.25   26.92930   28.04420    0.09360    0.04470   -9999.25    3.33330   -9999.25
 7669.00000   -9999.25   -9999.25   -9999.25   -9999.25    7.95870   -9999.25   26.93400   27.27970    0.08480    0.04240   -9999.25    3.57360   -9999.25
 7669.50000   -9999.25   -9999.25   -9999.25   -9999.25    7.97410   -9999.25   26.93860   15.77470    0.10140    0.05230   -9999.25    3.75380   -9999.25
 7670.00000   -9999.25   -9999.25   -9999.25   -9999.25    7.97450   -9999.25   26.94330   12.16070    0.11970    0.05880   -9999.25    3.90690   -9999.25
 7670.50000   -9999.25   -9999.25   -9999.25   -9999.25    7.97490   -9999.25   26.94890   20.25410   -9999.25   -9999.25   -9999.25   -9999.25   -9999.25
 7671.00000   -9999.25   -9999.25   -9999.25   -9999.25    7.97520   -9999.25   26.76620   29.66430   -9999.25   -9999.25   -9999.25   -9999.25   -9999.25
 7671.50000   -9999.25   -9999.25   -9999.25   -9999.25    7.79540   -9999.25   26.77190   16.11510   -9999.25   -9999.25   -9999.25   -9999.25   -9999.25
 7672.00000   -9999.25   -9999.25   -9999.25   -9999.25    7.45790   -9999.25   26.77580   53.13290   -9999.25   -9999.25   -9999.25   -9999.25   -9999.25
