~Version ---------------------------------------------------
VERS.   2.0 : CWLS log ASCII Standard -VERSION 2.0
WRAP.    NO : One line per depth step
DLM . SPACE : Column Data Section Delimiter
~Well ------------------------------------------------------
STRT .F                 4167.0 : START DEPTH
STOP .F                 7672.0 : STOP DEPTH
STEP .F                    0.5 : STEP
NULL .                -9999.25 : NULL VALUE
COMP .                         : COMPANY
WELL .                         : WELL
FLD  .                         : FIELD
LOC  .                         : LOCATION
PROV .                         : PROVINCE
CNTY .                         : COUNTY
STAT .                         : STATE
CTRY .                         : COUNTRY
SRVC .                         : SERVICE COMPANY
DATE .                         : DATE
UWI  .                         : UNIQUE WELL ID
API  .                         : API NUMBER
SLAT .WGS84 2.9138205011344027 : SURFACE LATITUDE
SLON .WGS84  6.360154750657998 : SURFACE LONGITUDE
DATUM.F                2904.99 : DEPTH DATUM ELEV
~Curve Information -----------------------------------------
DEPT.F     : 
DT  .US/F  : INTERVAL TRANSIT TIME
DTCO.US/F  : COMPRESSIONAL-WAVE INTERVAL TRANSIT TIME ACAUSTIC SLOWNESS
DTL .US/F  : ACOUSTIC TRANSIT TIME SLOWNESS, LONG SPACING
DTSM.US/F  : SHEAR-WAVE INTERVAL TRANSIT TIME DELTA-T
CALS.IN    : MICRO RESISTIVITY CALIPER
GRR .GAPI  : GAMMA RAY FROM RES.
LLS .OHMM  : LATEROLOG  SHALLOW
MSFL.OHMM  : MICRO SPHERICALLY FOCUSED
DPHI.V/V   : DENSITY POROSITY LIMESTONE
DRHO.G/C3  : DENSITY CORRECTION
NPHI.V/V   : NEUTRON POROSITY LIMESTONE
PEF .B/E   : PHOTOELECTRIC FACTOR
RHOB.G/C3  : BULK DENSITY
~Params ----------------------------------------------------
~Other -----------------------------------------------------
~ASCII -----------------------------------------------------
# ...
 4739.00000   68.72500   70.91130   68.68080  121.89460    8.63450   48.14900   11.95260   12.40260    0.08170    0.04040   -0.24550    3.28340    2.53030
 4739.50000   69.40310   70.91430   69.42620  123.10090    8.62130   50.17830   11.38580   12.06370    0.08080    0.04570   -0.22020    3.28450    2.52750
 4740.00000   69.58440   70.01500   69.74260  123.25300    8.60670   52.20750   11.30640   11.16920    0.08140    0.04650   -0.20400    3.24030    2.53460
 4740.50000   69.22330   68.21350   69.51740  121.59790    8.60700   53.11070   11.54820   11.26400    0.09010    0.04430   -0.20040    3.16620    2.54090
 4741.00000   68.04910   66.11120   68.29890  117.68370    8.60730   48.60840   12.30830   10.50340    0.09460    0.04130   -0.20670    3.42230    2.54180
 4741.50000   66.06160   64.30970   66.53860  114.67310    8.59250   40.95300   13.88020   11.91230    0.09360    0.03840   -0.21580    3.81360    2.54330
 4742.00000   64.57110   63.10960   65.36530  111.81320    8.57770   34.19850   16.75770   13.71900    0.08160    0.03310   -0.25070    3.82930    2.58790
 4742.50000   63.89390   61.90960   64.55310  108.95320    8.57810   31.49800   19.54280   17.81750    0.07470    0.02860   -0.27000    3.77030    2.59890
 4743.00000   63.53290   60.85990   64.01170  106.99690    8.57840   31.95070   24.39070   30.18160    0.07010    0.02630   -0.28110    3.80120    2.60320
 4743.50000   63.44290   60.11100   63.60590  105.79350    8.56360   31.95290   27.82150   20.13900    0.06520    0.02680   -0.28470    3.98230    2.60510
 4744.00000   63.44330   59.81320   63.38050  104.74080    8.57900   29.92810   30.65400   51.64880    0.05660    0.03480   -0.29650    4.37360    2.61440
 4744.50000   -9999.25   59.81660   -9999.25  104.44130    8.56430   29.25410   32.85150  369.14360    0.04450    0.03330   -0.30490    4.74980    2.62410
 4745.00000   -9999.25   59.66950   -9999.25  104.14090    8.57950   27.68030   35.20650   22.49870    0.04960    0.03040   -0.31090    4.60970    2.63410
 4745.50000   -9999.25   -9999.25   -9999.25   -9999.25    8.57990   25.20510   34.47970   38.88230    0.05890    0.03120   -0.31610    4.52640    2.64050
 4746.00000   -9999.25   -9999.25   -9999.25   -9999.25    8.58020   22.95510   35.20170   72.01470    0.04720    0.03730   -0.32930    4.73750    2.64380
 4746.50000   -9999.25   -9999.25   -9999.25   -9999.25    8.56540   20.47980   36.18870  500.64080    0.03240    0.04490   -0.34440    4.55820    2.60970
 4747.00000   -9999.25   -9999.25   -9999.25   -9999.25    8.56580   18.90550   34.47260  432.88080    0.02580    0.05400   -0.35340    4.42410    2.58330
 4747.50000   -9999.25   -9999.25   -9999.25   -9999.25    8.56610   18.38970   26.30650  460.71890    0.02520    0.06230   -0.35950    4.39500    2.61830
 4748.00000   -9999.25   -9999.25   -9999.25   -9999.25    8.56640   21.61270   18.34530  693.23360    0.03030    0.07440   -0.35590    4.33580    2.66220
 4748.50000   -9999.25   -9999.25   -9999.25   -9999.25    8.56670   25.66900   15.10850    7.74460    0.04440    0.09110   -0.34020    3.63100    2.70080
 4749.00000   -9999.25   -9999.25   -9999.25   -9999.25    8.56700   27.02260   18.59880    5.25510    0.07090    0.10100   -0.29430    3.41990    2.71060
 4749.50000   -9999.25   -9999.25   -9999.25   -9999.25    8.55220   21.84460   23.21490   19.86200    0.07450    0.10110   -0.27180    3.69280   -9999.25
 4750.00000   -9999.25   -9999.25   -9999.25   -9999.25    8.55260   18.91890   27.79660  438.91800    0.05520    0.08140   -0.29130    4.59460   -9999.25
 4750.50000   -9999.25   -9999.25   -9999.25   -9999.25    8.55290   18.93530   29.37970   62.70040    0.04560    0.07770   -0.33130    4.65550   -9999.25
 4751.00000   -9999.25   -9999.25   -9999.25   -9999.25    8.55320   20.75170   22.26480  620.52500    0.04080    0.08310   -0.31050    4.43780   -9999.25
 4751.50000   -9999.25   -9999.25   -9999.25   -9999.25    8.55350   23.03830   14.89440   37.29980    0.04200    0.08990   -0.27930    3.77570   -9999.25
 4752.00000   -9999.25   -9999.25   -9999.25   -9999.25    8.55380   22.42500   15.74240    4.63920    0.06720    0.09140   -0.25990    3.12670   -9999.25
 4752.50000   -9999.25   -9999.25   -9999.25   -9999.25    8.55410   18.79520   18.84930    4.03920    0.09580    0.09000   -0.28740    3.59330   -9999.25
 4753.00000   -9999.25   -9999.25   -9999.25   -9999.25    8.55440   15.88200   24.69710    6.46850    0.08260    0.08250   -0.32050    4.42000   -9999.25
 4753.50000   -9999.25   -9999.25   -9999.25   -9999.25    8.55470   13.97960   28.36690  356.58070    0.05490    0.07120   -0.34430    4.73620   -9999.25
 4754.00000   -9999.25   -9999.25   -9999.25   -9999.25    8.55500   20.73920   26.83520   48.19310    0.03380    0.06740   -0.32710    4.57190   -9999.25
 4754.50000   -9999.25   -9999.25   -9999.25   -9999.25    8.55530   29.97560   20.47830   14.14670    0.05670    0.06600   -0.30110    3.97220   -9999.25
 4755.00000   -9999.25   -9999.25   -9999.25   -9999.25    8.55560   34.86730   15.95550    9.76220    0.07320    0.07280   -0.27530    3.57960   -9999.25
 4755.50000   -9999.25   -9999.25   -9999.25   -9999.25    8.55590   38.04540   15.97030   11.00390    0.08890    0.07510   -0.25680    3.90620   -9999.25
 4756.00000   -9999.25   -9999.25   -9999.25   -9999.25    8.55620   37.33020   18.93070   16.47480    0.07770    0.07820   -0.26930    4.40270   -9999.25
 4756.50000   -9999.25   -9999.25   -9999.25   -9999.25    8.55650   35.28510   24.27870   20.44600    0.05970    0.08050   -0.28130    4.60250   -9999.25
 4757.00000   -9999.25   -9999.25   -9999.25   -9999.25    8.55680   33.72210   28.65780   47.57080    0.04080    0.07830   -0.29380    4.73810   -9999.25
 4757.50000   -9999.25   -9999.25   -9999.25   -9999.25    8.55710   32.32390   31.49330   17.77880    0.03080    0.06700   -0.30250    4.64860   -9999.25
 4758.00000   -9999.25   -9999.25   -9999.25   -9999.25    8.55740   30.59410   28.54610  100.41110    0.03380    0.05660   -0.30950    4.87460   -9999.25
 4758.50000   -9999.25   -9999.25   -9999.25   -9999.25    8.55770   30.14150   25.02250  127.95140    0.04350    0.04760   -0.31100    4.99530   -9999.25
 4759.00000   -9999.25   -9999.25   -9999.25   -9999.25    8.55800   31.49060   23.08380   28.08010    0.04800    0.05890   -0.29700    4.60550   -9999.25
 4759.50000   -9999.25   -9999.25   -9999.25   -9999.25    8.55830   32.38980   21.41760   15.58690    0.05430    0.05970   -0.28040    4.27580   -9999.25
 4760.00000   -9999.25   -9999.25   -9999.25   -9999.25    8.55860   31.48610   20.97900   14.04900    0.06260    0.04910   -0.27610    4.36640   -9999.25
 4760.50000   -9999.25   -9999.25   -9999.25   -9999.25    8.55890   29.90730   21.57240   14.64510    0.05840    0.04150   -0.29200    4.63730   -9999.25
 4761.00000   -9999.25   -9999.25   -9999.25   -9999.25    8.55920   30.58070   22.18190   18.02670    0.05620    0.03250   -0.30680    4.83310   -9999.25
 4761.50000   -9999.25   -9999.25   -9999.25   -9999.25    8.55950   32.38030   22.33920   25.13500    0.05550    0.02650   -0.30770    4.93880   -9999.25
 4762.00000   -9999.25   -9999.25   -9999.25   -9999.25    8.55980   34.17990   21.88250   18.66190    0.05760    0.02270   -0.29420    4.96930   -9999.25
 4762.50000   -9999.25   -9999.25   -9999.25   -9999.25    8.56010   35.75420   21.28800   30.93880    0.06000    0.01970   -0.27950    4.41450   -9999.25
 4763.00000   -9999.25   -9999.25   -9999.25   -9999.25    8.56040   36.87870   20.56500   16.70450    0.05880    0.02800   -0.27560    4.24990   -9999.25
 4763.50000   -9999.25   -9999.25   -9999.25   -9999.25    8.56070   37.32690   20.13360   33.38770    0.05460    0.04460   -0.27620    4.24800   -9999.25
 4764.00000   -9999.25   -9999.25   -9999.25   -9999.25    8.56100   37.77460   19.73280   16.47480    0.05670    0.05670   -0.27650    4.25460   -9999.25
 4764.50000   -9999.25   -9999.25   -9999.25   -9999.25    8.56130   39.12370   19.46390   11.25660    0.06000    0.06580   -0.27170    4.17660   -9999.25
