~Version ---------------------------------------------------
VERS.   2.0 : CWLS log ASCII Standard -VERSION 2.0
WRAP.    NO : One line per depth step
DLM . SPACE : Column Data Section Delimiter
~Well ------------------------------------------------------
STRT .F                 4167.0 : START DEPTH
STOP .F                 7672.0 : STOP DEPTH
STEP .F                    0.5 : STEP
NULL .                -9999.25 : NULL VALUE
COMP .                         : COMPANY
WELL .                         : WELL
FLD  .                         : FIELD
LOC  .                         : LOCATION
PROV .                         : PROVINCE
CNTY .                         : COUNTY
STAT .                         : STATE
CTRY .                         : COUNTRY
SRVC .                         : SERVICE COMPANY
DATE .                         : DATE
UWI  .                         : UNIQUE WELL ID
API  .                         : API NUMBER
SLAT .WGS84 2.9138205011344027 : SURFACE LATITUDE
SLON .WGS84  6.360154750657998 : SURFACE LONGITUDE
DATUM.F                2904.99 : DEPTH DATUM ELEV
~Curve Information -----------------------------------------
DEPT.F     : 
DT  .US/F  : INTERVAL TRANSIT TIME
DTCO.US/F  : COMPRESSIONAL-WAVE INTERVAL TRANSIT TIME ACAUSTIC SLOWNESS
DTL .US/F  : ACOUSTIC TRANSIT TIME SLOWNESS, LONG SPACING
DTSM.US/F  : SHEAR-WAVE INTERVAL TRANSIT TIME DELTA-T
CALS.IN    : MICRO RESISTIVITY CALIPER
GRR .GAPI  : GAMMA RAY FROM RES.
LLS .OHMM  : LATEROLOG  SHALLOW
MSFL.OHMM  : MICRO SPHERICALLY FOCUSED
DPHI.V/V   : DENSITY POROSITY LIMESTONE
DRHO.G/C3  : DENSITY CORRECTION
NPHI.V/V   : NEUTRON POROSITY LIMESTONE
PEF .B/E   : PHOTOELECTRIC FACTOR
RHOB.G/C3  : BULK DENSITY
~Params ----------------------------------------------------
~Other -----------------------------------------------------
~ASCII -----------------------------------------------------
# ...
 6819.00000   72.01770   72.11140   71.02290  123.56630    8.72340   73.99670    6.15190    4.75140    0.11340    0.00690   -0.23320    2.52730   -9999.25
 6819.50000   72.15390   72.03770   71.40840  123.79370    8.75360   80.35730    6.50300    4.02340    0.10760    0.01750   -0.23510    2.61960   -9999.25
 6820.00000   72.71840   72.03910   72.17780  123.64470    8.75380   85.34630    6.87420    4.37320    0.10880    0.02660   -0.22690    2.66060   -9999.25
 6820.50000   73.53070   72.56730   73.21830  123.94740    8.72390   94.20540    7.21900    5.31120    0.10790    0.03420   -0.21780    2.58610   -9999.25
 6821.00000   74.25280   73.32140   74.07810  124.85250    8.72400   99.19410    7.37380    5.31190    0.10920    0.03950   -0.19710    2.52650   -9999.25
 6821.50000   74.79460   73.17240   74.62160  125.30580    8.72420   97.39450    7.59210    5.42430    0.11380    0.04250   -0.17850    2.49690   -9999.25
 6822.00000   74.84060   72.12050   74.71330  123.80130    8.72430   88.83820    8.34880    8.05550    0.11450    0.03800   -0.17360    2.60250   -9999.25
 6822.50000   73.89490   69.41320   72.77180  120.48950    8.72450   78.02960    9.26400    4.95800    0.10950    0.03130   -0.18580    2.90320   -9999.25
 6823.00000   69.29770   66.55540   67.30630  114.31630    8.72460   63.61740   10.94120    4.97720    0.09430    0.02980   -0.20330    3.27900   -9999.25
 6823.50000   65.64720   65.20250   63.69320  111.45640    8.72480   56.41240   13.19340    6.91860    0.05590    0.03130   -0.22590    4.09380   -9999.25
 6824.00000   63.70970   64.30100   62.65540  110.55420    8.72490   60.24350   14.14120   40.28440    0.03370    0.03660   -0.25560    3.79400   -9999.25
 6824.50000   63.89090   64.45300   64.41870  110.25450    8.72510   73.98440   13.66050   34.58840    0.03720    0.03360   -0.26210    3.20890   -9999.25
 6825.00000   66.05560   65.35740   66.76950  112.81630    8.72520   85.69840   11.48820   11.88830    0.04800    0.03290   -0.24200    2.89410   -9999.25
 6825.50000   70.06850   67.76670   70.06900  117.93820    8.72540   92.45740    9.86430    9.26320    0.07540    0.03600   -0.21680    2.75880   -9999.25
 6826.00000   73.54050   70.62750   72.93950  121.55420    8.72550   96.51360    9.66180    7.42020    0.09010    0.03760   -0.19870    2.74500   -9999.25
 6826.50000   75.07400   73.93980   75.08690  124.71830    8.72570  100.11950   10.07290    8.40800    0.09790    0.03600   -0.18810    2.74560   -9999.25
 6827.00000   76.20190   75.74710   76.30830  127.28010    8.72580  104.62620   10.57430    7.42250    0.10330    0.03150   -0.17760    2.74620   -9999.25
 6827.50000   77.37480   76.80200   77.03250  129.54060    8.72600  108.90770   11.17790    7.12090    0.10920    0.02550   -0.16590    2.73170   -9999.25
 6828.00000   78.27730   78.15790   78.07300  131.34930    8.72610  111.61260   11.49290    7.78500    0.12280    0.02170   -0.16170    2.70220   -9999.25
 6828.50000   79.02210   78.91180   78.79720  132.55560    8.72630  111.84010   11.98170    9.86810    0.14050    0.01340   -0.17070    2.68760   -9999.25
 6829.00000   79.56390   79.36480   79.34070  133.31010    8.72650  104.71160   12.31930   10.21770    0.14100    0.02030   -0.16350    2.79330   -9999.25
 6829.50000   80.01560   79.36650   79.79380  133.61280    8.72660   99.55050   12.66650   10.80210    0.13620    0.02860   -0.15360    2.80890   -9999.25
 6830.00000   80.21940   79.29270   79.70480  133.46370    8.72680   97.20710   12.84410    9.27470    0.12630    0.04070   -0.14610    2.79440   -9999.25
 6830.50000   79.85970   78.84280   79.34470  132.63710    8.72690   96.98460   13.02430   11.90680    0.11820    0.04680   -0.15270    2.77970   -9999.25
 6831.00000   79.22950   78.24220   78.21650  131.05730    8.72700   95.63550   11.61740   14.26110    0.10950    0.05060   -0.16590    2.76540   -9999.25
 6831.50000   78.14850   76.96480   76.36540  128.79970    8.72720   91.13320    9.66710   10.36740    0.10460    0.05140   -0.17800    2.76590   -9999.25
 6832.00000   75.85040   75.46140   74.92100  127.14450    8.72740   85.27960    7.69320    7.17940    0.10550    0.04690   -0.18490    2.73640   -9999.25
 6832.50000   74.81450   73.95800   73.97350  125.64020    8.72750   79.87640    7.07980    6.45610    0.10850    0.04540   -0.19600    2.69180   -9999.25
 6833.00000   74.04900   73.35750   73.47790  124.13570    8.72760   78.52670    7.17910    5.05580    0.10970    0.04990   -0.20750    2.66230   -9999.25
 6833.50000   73.73440   72.75700   73.25350  122.78170    8.72780   79.65560    7.69480    4.70490    0.10970    0.05000   -0.21230    2.63280   -9999.25
 6834.00000   73.60000   72.00610   72.80300  122.03020    8.72790   80.78400    8.24750    4.64050    0.11090    0.04470   -0.21230    2.69340   -9999.25
 6834.50000   72.78950   71.55610   71.90090  122.63410    8.72810   79.88530    8.77890    6.65680    0.11510    0.03870   -0.21200    2.73920   -9999.25
 6835.00000   71.43800   71.85860   70.72750  123.23800    8.72820   77.82020    9.08910    8.78600    0.11450    0.03490   -0.21950    3.09090   -9999.25
 6835.50000   71.21350   71.86010   71.27100  124.14310    8.72840   76.06090    9.21660    6.04240    0.09490    0.03650   -0.22910    3.17540   -9999.25
 6836.00000   71.52990   71.86150   72.31150  124.74700    8.72850   75.28030    8.90330    8.74610    0.07990    0.03820   -0.22190    2.95530   -9999.25
 6836.50000   72.88320   71.71250   73.35200  125.04970    8.72870   80.34470    7.91430    6.12850    0.08320    0.04410   -0.20090    2.69610   -9999.25
 6837.00000   73.92090   71.56350   73.94070  124.59940    8.72880   83.50000    7.18300    7.86790    0.09710    0.04640   -0.18740    2.63660   -9999.25
 6837.50000   73.87670   71.26410   72.94800  123.69730    8.72900   83.50230    6.42950    7.60080    0.10630    0.04490   -0.19280    2.69720   -9999.25
 6838.00000   71.98430   70.96460   70.82590  122.49400    8.72910   77.55640    5.91690    6.13120    0.10800    0.03510   -0.21230    2.87790   -9999.25
 6838.50000   70.67790   70.66510   70.14950  121.14000    8.72930   71.15140    5.55950    4.27540    0.11070    0.02610   -0.22740    2.84830   -9999.25
 6839.00000   70.34090   70.36560   70.87370  120.38850    8.72940   65.83250    5.37050    4.91220    0.11410    0.02160   -0.24120    2.75880   -9999.25
 6839.50000   71.71660   70.36710   72.45640  120.54060    8.72960   63.69130    5.44580    5.15250    0.11810    0.01700   -0.24300    2.68420   -9999.25
 6840.00000   73.54320   70.51900   74.44570  120.84330    8.72970   70.00040    6.08490    4.16010    0.11860    0.01480   -0.23450    2.60970   -9999.25
 6840.50000   74.67110   70.74640   75.12470  121.74840    8.72990   78.78640    6.66610    3.82840    0.11910    0.02310   -0.22110    2.52000   -9999.25
 6841.00000   75.19050   71.12420   75.17140  122.50290    8.73000   87.34720    7.35910    4.74690    0.12030    0.03150   -0.16930    2.68580   -9999.25
 6841.50000   74.37990   71.57710   74.06580  122.95620    8.73020   91.17820    8.15950    7.45260    0.11850    0.03450   -0.15440    2.79140   -9999.25
 6842.00000   73.02850   71.95480   71.96640  122.95770    8.73030   92.53180    8.78810   10.47020    0.11250    0.03450   -0.16730    2.70180   -9999.25
 6842.50000   71.45160   72.18220   71.42560  122.95920    8.73050   86.00250    7.86630   10.54410    0.10350    0.02930   -0.20280    2.61230   -9999.25
 6843.00000   71.49760   71.58180   71.33650  122.58440    8.73060   80.14890    6.61540    6.40050    0.11490    0.02100   -0.21360    2.52270   -9999.25
 6843.50000   71.72380   71.43280   71.51860  122.20940    8.73080   79.02500    6.84910    4.28130    0.12210    0.01270   -0.20190    2.65830   -9999.25
 6844.00000   71.76980   71.58470   71.33920  121.45780    8.73090   78.57620    7.65280    4.02270    0.11760    0.00740   -0.19830    2.97670   -9999.25
 6844.50000   71.68050   71.43570   70.97910  120.48040    8.73110   81.73210    8.25950    7.20440    0.10700    0.02180   -0.20250    3.35010   -9999.25
