~Version ---------------------------------------------------
VERS.   2.0 : CWLS log ASCII Standard -VERSION 2.0
WRAP.    NO : One line per depth step
DLM . SPACE : Column Data Section Delimiter
~Well ------------------------------------------------------
STRT .F                 4167.0 : START DEPTH
STOP .F                 7672.0 : STOP DEPTH
STEP .F                    0.5 : STEP
NULL .                -9999.25 : NULL VALUE
COMP .                         : COMPANY
WELL .                         : WELL
FLD  .                         : FIELD
LOC  .                         : LOCATION
PROV .                         : PROVINCE
CNTY .                         : COUNTY
STAT .                         : STATE
CTRY .                         : COUNTRY
SRVC .                         : SERVICE COMPANY
DATE .                         : DATE
UWI  .                         : UNIQUE WELL ID
API  .                         : API NUMBER
SLAT .WGS84 2.9138205011344027 : SURFACE LATITUDE
SLON .WGS84  6.360154750657998 : SURFACE LONGITUDE
DATUM.F                2904.99 : DEPTH DATUM ELEV
~Curve Information -----------------------------------------
DEPT.F     : 
DT  .US/F  : INTERVAL TRANSIT TIME
DTCO.US/F  : COMPRESSIONAL-WAVE INTERVAL TRANSIT TIME ACAUSTIC SLOWNESS
DTL .US/F  : ACOUSTIC TRANSIT TIME SLOWNESS, LONG SPACING
DTSM.US/F  : SHEAR-WAVE INTERVAL TRANSIT TIME DELTA-T
CALS.IN    : MICRO RESISTIVITY CALIPER
GRR .GAPI  : GAMMA RAY FROM RES.
LLS .OHMM  : LATEROLOG  SHALLOW
MSFL.OHMM  : MICRO SPHERICALLY FOCUSED
DPHI.V/V   : DENSITY POROSITY LIMESTONE
DRHO.G/C3  : DENSITY CORRECTION
NPHI.V/V   : NEUTRON POROSITY LIMESTONE
PEF .B/E   : PHOTOELECTRIC FACTOR
RHOB.G/C3  : BULK DENSITY
~Params ----------------------------------------------------
~Other -----------------------------------------------------
~ASCII -----------------------------------------------------
# ...
 5779.00000   -9999.25   -9999.25   -9999.25   -9999.25    8.99040   42.08070   10.90620   11.39110    0.08410    0.03480   -0.21800    3.53680   -9999.25
 5779.50000   -9999.25   -9999.25   -9999.25   -9999.25    8.99070   45.45460   10.46200   10.77480    0.08290    0.03710   -0.23140    3.61220   -9999.25
 5780.00000   -9999.25   -9999.25   -9999.25   -9999.25    9.00980   46.12690   10.17600   10.05150    0.08080    0.01980   -0.23900    3.35740   -9999.25
 5780.50000   -9999.25   -9999.25   -9999.25   -9999.25    9.02130   43.64380   10.03590    8.27620    0.09160    0.01380   -0.23020    3.13250   -9999.25
 5781.00000   -9999.25   -9999.25   -9999.25   -9999.25    9.03180   44.76540   10.03590    7.50940    0.09220    0.02510   -0.22660    3.22300   -9999.25
 5781.50000   -9999.25   -9999.25   -9999.25   -9999.25    9.03770   45.66300   10.10570    7.25250    0.07720    0.02970   -0.23540    3.31350   -9999.25
 5782.00000   -9999.25   -9999.25   -9999.25   -9999.25    9.05230   40.47720   10.39550    7.61220    0.06450    0.03350   -0.25170    3.43400   -9999.25
 5782.50000   -9999.25   -9999.25   -9999.25   -9999.25    9.05260   35.06730   11.38120    8.04540    0.05610    0.03280   -0.26800    3.58510   -9999.25
 5783.00000   -9999.25   -9999.25   -9999.25   -9999.25    9.05440   31.68440   12.47430    8.41010    0.05820    0.03130   -0.26900    3.45860   -9999.25
 5783.50000   -9999.25   -9999.25   -9999.25   -9999.25    9.06820   31.00540   13.27610    9.94110    0.06320    0.02910   -0.25850    3.20420   -9999.25
 5784.00000   -9999.25   -9999.25   -9999.25   -9999.25    9.06850   36.85560   13.99670   12.36240    0.07010    0.03060   -0.23470    3.04010   -9999.25
 5784.50000   -9999.25   -9999.25   -9999.25   -9999.25    9.06880   40.68000   12.70250   12.70880    0.07260    0.03290   -0.20250    2.98560   -9999.25
 5785.00000   -9999.25   -9999.25   -9999.25   -9999.25    9.06910   43.15300   10.83090    9.10860    0.07280    0.03220   -0.20950    3.10620   -9999.25
 5785.50000   -9999.25   -9999.25   -9999.25   -9999.25    9.06940   44.27480    9.96660    7.29470    0.06960    0.02540   -0.23270    3.55700   -9999.25
 5786.00000   -9999.25   -9999.25   -9999.25   -9999.25    9.06970   42.01790   10.17600    6.52770    0.06510    0.01930   -0.25340    3.64740   -9999.25
 5786.50000   -9999.25   -9999.25   -9999.25   -9999.25    9.07000   36.60800   10.90620    7.34350    0.06080    0.01490   -0.26010    3.24250   -9999.25
 5787.00000   -9999.25   -9999.25   -9999.25   -9999.25    9.07030   34.35120   12.01740    9.35980    0.05930    0.02030   -0.25040    2.92750   -9999.25
 5787.50000   -9999.25   -9999.25   -9999.25   -9999.25    9.07060   38.17560   13.05960   10.90110    0.06470    0.02430   -0.21800    3.01810   -9999.25
 5788.00000   -9999.25   -9999.25   -9999.25   -9999.25    9.07090   41.99990   13.33390   14.18630    0.07190    0.02710   -0.20050    3.16860   -9999.25
 5788.50000   -9999.25   -9999.25   -9999.25   -9999.25    9.07120   43.34680   10.75610   14.99410    0.07580    0.02560   -0.21380    3.67950   -9999.25
 5789.00000   -9999.25   -9999.25   -9999.25   -9999.25    9.07150   41.31530   10.53480    9.16200    0.07850    0.02340   -0.23420    3.79990   -9999.25
 5789.50000   -9999.25   -9999.25   -9999.25   -9999.25    9.07180   38.15760   11.36930    7.59640    0.07580    0.02110   -0.24840    3.65030   -9999.25
 5790.00000   -9999.25   -9999.25   -9999.25   -9999.25    9.07370   35.90090   12.18510    7.59540    0.07100    0.01960   -0.25560    3.42550   -9999.25
 5790.50000   -9999.25   -9999.25   -9999.25   -9999.25    9.08740   37.03700   12.52770    9.11220    0.07130    0.02120   -0.25050    3.20060   -9999.25
 5791.00000   -9999.25   -9999.25   -9999.25   -9999.25    9.08770   40.42810   12.10000   10.54850    0.07520    0.02270   -0.24480    3.27610   -9999.25
 5791.50000   -9999.25   -9999.25   -9999.25   -9999.25    9.08800   43.79310   11.68890   11.99960    0.07840    0.02580   -0.24090    3.56180   -9999.25
 5792.00000   -9999.25   -9999.25   -9999.25   -9999.25    9.08830   45.59760   11.52800   10.73740    0.07140    0.03030   -0.23610    3.77240   -9999.25
 5792.50000   -9999.25   -9999.25   -9999.25   -9999.25    9.08860   46.01360   11.65550    9.08970    0.06490    0.03110   -0.22230    3.75780   -9999.25
 5793.00000   -9999.25   -9999.25   -9999.25   -9999.25    9.08890   44.61190   11.68890    9.60700    0.07610    0.02440   -0.19910    3.69790   -9999.25
 5793.50000   -9999.25   -9999.25   -9999.25   -9999.25    9.08920   42.79850   11.77010   11.66450    0.08630    0.01830   -0.20760    3.68350   -9999.25
 5794.00000   -9999.25   -9999.25   -9999.25   -9999.25    9.08950   40.08410   12.01740   13.58580    0.08660    0.02140   -0.22230    3.79220   -9999.25
 5794.50000   -9999.25   -9999.25   -9999.25   -9999.25    9.08980   38.01170   12.35520   11.34220    0.08020    0.02440   -0.24400    3.83440   -9999.25
 5795.00000   -9999.25   -9999.25   -9999.25   -9999.25    9.09010   35.55500   12.70250    9.87190    0.07360    0.02370   -0.25540    3.56460   -9999.25
 5795.50000   -9999.25   -9999.25   -9999.25   -9999.25    9.09040   35.17590   12.70250    9.87050    0.07690    0.01850   -0.25000    3.41490   -9999.25
 5796.00000   -9999.25   -9999.25   -9999.25   -9999.25    9.09070   38.32340   12.35520   11.33760    0.08770    0.02000   -0.22680    3.29520   -9999.25
 5796.50000   -9999.25   -9999.25   -9999.25   -9999.25    9.10600   41.92250   11.68890   11.51600    0.09040    0.02460   -0.19530    3.19040   -9999.25
 5797.00000   -9999.25   -9999.25   -9999.25   -9999.25    9.12140   44.39550   11.05840   11.02440    0.09040    0.02690   -0.18900    3.29600   -9999.25
 5797.50000   -9999.25   -9999.25   -9999.25   -9999.25    9.12160   46.64330   10.68180   10.72130    0.08800    0.02610   -0.20010    3.38640   -9999.25
 5798.00000   -9999.25   -9999.25   -9999.25   -9999.25    9.12640   47.31560   10.90620   10.34000    0.08260    0.02160   -0.21820    3.38680   -9999.25
 5798.50000   -9999.25   -9999.25   -9999.25   -9999.25    9.13730   46.63430   11.29080    9.82610    0.08050    0.01710   -0.22870    3.23710   -9999.25
 5799.00000   -9999.25   -9999.25   -9999.25   -9999.25    9.15260   45.50370   11.68890    8.34870    0.08050    0.02920   -0.23380    3.17730   -9999.25
 5799.50000   -9999.25   -9999.25   -9999.25   -9999.25    9.15290   45.04880   11.85200    8.82380    0.07230    0.03910   -0.23860    3.25290   -9999.25
 5800.00000   -9999.25   -9999.25   -9999.25   -9999.25    9.16820   43.69290   12.01740    9.61560    0.06090    0.04370   -0.24280    3.31330   -9999.25
 5800.50000   -9999.25   -9999.25   -9999.25   -9999.25    9.17850   41.43620   11.85200   10.27570    0.05640    0.04370   -0.24410    3.31370   -9999.25
 5801.00000   -9999.25   -9999.25   -9999.25   -9999.25    9.18380   40.08040   11.68890   10.35450    0.06690    0.04370   -0.23540    3.35920   -9999.25
 5801.50000   -9999.25   -9999.25   -9999.25   -9999.25    9.21410   41.65250   11.52800    9.45250    0.07140    0.04380   -0.22690    3.43470   -9999.25
 5802.00000   -9999.25   -9999.25   -9999.25   -9999.25    9.21440   42.09950   11.52800   11.16290    0.06780    0.04540   -0.22240    3.32990   -9999.25
 5802.50000   -9999.25   -9999.25   -9999.25   -9999.25    9.22970   39.61650   11.52800    9.45000    0.06840    0.04610   -0.21940    3.19520   -9999.25
 5803.00000   -9999.25   -9999.25   -9999.25   -9999.25    9.23000   39.61200   11.52800   10.85420    0.06990    0.04610   -0.21880    3.25570   -9999.25
 5803.50000   -9999.25   -9999.25   -9999.25   -9999.25    9.23030   40.73360   11.60810    9.98610    0.06920    0.04760   -0.22210    3.49630   -9999.25
 5804.00000   -9999.25   -9999.25   -9999.25   -9999.25    9.23060   42.98140   11.61050   10.85160    0.06310    0.05220   -0.22520    3.58740   -9999.25
 5804.50000   -9999.25   -9999.25   -9999.25   -9999.25    9.22730   42.07600   11.61440    8.57090    0.06000    0.05600   -0.22910    3.60220   -9999.25
