~Version ---------------------------------------------------
VERS.   2.0 : CWLS log ASCII Standard -VERSION 2.0
WRAP.    NO : One line per depth step
DLM . SPACE : Column Data Section Delimiter
~Well ------------------------------------------------------
STRT .F                 4167.0 : START DEPTH
STOP .F                 7672.0 : STOP DEPTH
STEP .F                    0.5 : STEP
NULL .                -9999.25 : NULL VALUE
COMP .                         : COMPANY
WELL .                         : WELL
FLD  .                         : FIELD
LOC  .                         : LOCATION
PROV .                         : PROVINCE
CNTY .                         : COUNTY
STAT .                         : STATE
CTRY .                         : COUNTRY
SRVC .                         : SERVICE COMPANY
DATE .                         : DATE
UWI  .                         : UNIQUE WELL ID
API  .                         : API NUMBER
SLAT .WGS84 2.9138205011344027 : SURFACE LATITUDE
SLON .WGS84  6.360154750657998 : SURFACE LONGITUDE
DATUM.F                2904.99 : DEPTH DATUM ELEV
~Curve Information -----------------------------------------
DEPT.F     : 
DT  .US/F  : INTERVAL TRANSIT TIME
DTCO.US/F  : COMPRESSIONAL-WAVE INTERVAL TRANSIT TIME ACAUSTIC SLOWNESS
DTL .US/F  : ACOUSTIC TRANSIT TIME SLOWNESS, LONG SPACING
DTSM.US/F  : SHEAR-WAVE INTERVAL TRANSIT TIME DELTA-T
CALS.IN    : MICRO RESISTIVITY CALIPER
GRR .GAPI  : GAMMA RAY FROM RES.
LLS .OHMM  : LATEROLOG  SHALLOW
MSFL.OHMM  : MICRO SPHERICALLY FOCUSED
DPHI.V/V   : DENSITY POROSITY LIMESTONE
DRHO.G/C3  : DENSITY CORRECTION
NPHI.V/V   : NEUTRON POROSITY LIMESTONE
PEF .B/E   : PHOTOELECTRIC FACTOR
RHOB.G/C3  : BULK DENSITY
~Params ----------------------------------------------------
~Other -----------------------------------------------------
~ASCII -----------------------------------------------------
# ...
 7027.00000   82.35340   82.98300   82.38310  137.60220    8.52370  105.40540   22.04400   15.12590    0.14540    0.03920   -0.13030    3.03630   -9999.25
 7027.50000   82.62430   83.43890   82.83590  138.65940    8.52410  104.50450   22.66520   14.09540    0.15090    0.03020   -0.12820    3.03500   -9999.25
 7028.00000   83.07560   84.04530   83.06260  139.41540    8.50930  104.27930   23.95890   13.15160    0.14750    0.02120   -0.12160    3.02160   -9999.25
 7028.50000   83.70710   84.50120   83.01830  140.17140    8.50960  106.75680   24.97790   16.42110    0.14510    0.02880   -0.11620    3.00440   -9999.25
 7029.00000   84.24850   85.10770   83.20000  141.15370    8.50990  113.06310   24.80710   20.08040    0.14960    0.03940   -0.11290    2.85440   -9999.25
 7029.50000   84.54200   85.56360   84.05930  141.98500    8.51020  126.57660   23.79830   17.36030    0.15560    0.04850   -0.10590    2.73450   -9999.25
 7030.00000   84.70030   85.26700   84.64750  142.59030    8.52550  134.68470   22.51640   16.88620    0.15320    0.05530   -0.10110    2.70870   -9999.25
 7030.50000   84.74570   83.76660   84.51290  141.23790    8.52580  139.63960   21.90230   13.71530    0.15020    0.05680   -0.10040    2.72430   -9999.25
 7031.00000   84.65610   81.66420   84.37820  137.77740    8.52610  140.76580   22.05610   14.90660    0.15230    0.05230   -0.09180    2.75740   -9999.25
 7031.50000   83.80000   78.80940   82.79790  128.29240    8.52640  125.22520   22.69520   16.88990    0.15260    0.04480   -0.09300    3.15920   -9999.25
 7032.00000   79.02210   73.09520   77.60300  120.46400    8.52670  104.50450   25.01770   12.36270    0.14240    0.04410   -0.11410    3.28730   -9999.25
 7032.50000   73.20740   66.92960   72.67920  115.19590    8.52700   89.63960   27.66840   15.22340    0.12850    0.04260   -0.15590    3.35750   -9999.25
 7033.00000   68.47460   62.11900   67.12300  109.17480    8.52730   68.69370   31.92580   11.22050    0.10720    0.03580   -0.22960    3.53830   -9999.25
 7033.50000   62.38940   58.58700   61.88290  104.50910    8.52770   52.20850   40.60180    8.44400    0.08250    0.02980   -0.27360    4.09440   -9999.25
 7034.00000   56.03370   56.55980   57.50130  103.15670    8.51960   39.80320   69.23540    7.98870    0.05050    0.04720   -0.33410    4.72560   -9999.25
 7034.50000   55.13250   56.41370   55.10760  103.15960    8.51320   30.31150   81.20500  278.40480    0.01320    0.05780   -0.33820    4.84640   -9999.25
 7035.00000   55.49360   56.56930   55.74100  103.76500    8.51350   28.82880   67.82000  362.37980    0.00780    0.06690   -0.32330    4.42650   -9999.25
 7035.50000   57.74800   57.47660   58.22680  104.67160    8.51380   34.23420   48.29570  282.33170    0.01800    0.06540   -0.29070    4.27700   -9999.25
 7036.00000   60.63350   58.53450   61.75180  106.48180    8.51420   38.51350   36.35270   17.61550    0.03270    0.03150   -0.28020    4.36770   -9999.25
 7036.50000   63.47390   60.79630   64.37320  110.85220    8.51440   42.34230   27.93800   21.69510    0.04470    0.02320   -0.27900    4.74360   -9999.25
 7037.00000   65.59310   63.96100   66.18130  113.11430    8.51480   45.94590   22.69510   18.36990    0.05160    0.02160   -0.26850    4.65420   -9999.25
 7037.50000   68.11790   67.57720   69.11890  118.38830    8.51500   51.80180   18.56420   16.21510    0.06750    0.03080   -0.25170    3.51360   -9999.25
 7038.00000   71.31900   75.55760   72.28250  125.77080    8.51540   63.73870   16.73250   11.15060    0.08400    0.03320   -0.20810    3.04870   -9999.25
 7038.50000   79.74920   80.52820   78.87980  136.01510    8.53060   93.24320   16.27580    7.99370    0.10020    0.03010   -0.16750    2.82410   -9999.25
 7039.00000   84.21240   84.44530   83.71500  141.06330    8.53090  111.71170   16.39040    7.56270    0.12600    0.02640   -0.12600    2.70460   -9999.25
 7039.50000   85.61030   86.10520   85.88460  142.94880    8.53120  124.32430   17.69000    9.05790    0.15840    0.02340   -0.09830    2.75020   -9999.25
 7040.00000   86.51240   86.26010   86.58580  143.40390    8.53150  131.75680   18.82980   11.23130    0.16620    0.02720   -0.09350    2.85590   -9999.25
 7040.50000   86.51280   85.06070   85.84120  142.20210    8.53190  134.68470   19.49500   12.81410    0.16470    0.03020   -0.09290    2.84150   -9999.25
 7041.00000   85.94980   82.80780   85.23220  138.74120    8.51710  134.23420   19.49640   11.87360    0.16380    0.02720   -0.10590    2.76710   -9999.25
 7041.50000   84.73320   79.95290   84.21660  135.12970    8.53240  125.67570   19.21730   10.55400    0.16770    0.01740   -0.13230    2.63250   -9999.25
 7042.00000   80.99210   78.15210   80.60310  130.91580    8.53270  116.30700   18.66700   14.32110    0.16860    0.01280   -0.16930    2.51300   -9999.25
 7042.50000   77.22840   78.30710   76.67320  129.11150    8.53300  105.29370   18.19470   16.00260    0.15660    0.00770   -0.18800    2.37850   -9999.25
 7043.00000   76.64290   79.21440   76.35790  130.77110    8.53330  102.25230   18.19630   12.12650    0.13650    0.02240   -0.19940    2.27380   -9999.25
 7043.50000   79.21280   80.27280   78.93410  133.33440    8.53360  113.28830   18.45150   10.55680    0.11450    0.03430   -0.17660    2.57490   -9999.25
 7044.00000   82.59420   80.57830   82.05240  134.84340    8.53390  118.46850   18.97140    9.44850    0.11870    0.03250   -0.12180    2.87570   -9999.25
 7044.50000   83.99210   79.52930   84.04130  135.75000    8.53420  120.27030   19.50600   12.82120    0.14210    0.02650   -0.10170    3.01150   -9999.25
 7045.00000   82.27950   76.97540   82.32530  132.89150    8.53450  114.86490   20.76280   14.97870    0.16800    0.02130   -0.09480    2.89200   -9999.25
 7045.50000   78.67360   72.46520   80.15750  126.11730    8.53480  100.45040   22.72180   16.00930    0.16460    0.01760   -0.14570    2.81730   -9999.25
 7046.00000   73.26460   67.95500   71.39330  117.08420    8.53510   85.58560   25.38810   13.93670    0.14510    0.01470   -0.20790    3.26850   -9999.25
 7046.50000   68.12610   65.10020   66.19840  113.32210    8.53540   69.81980   29.36740   21.13100    0.11510    0.01170   -0.25330    3.65950   -9999.25
 7047.00000   64.92590   63.44920   64.25660  110.76480    8.53570   55.63060   37.17300   37.31970    0.08080    0.01250   -0.27140    3.84030   -9999.25
 7047.50000   63.52890   62.85170   63.26350  109.86420    8.53600   49.54950   43.59950   28.67490    0.06910    0.01780   -0.27650    4.02110   -9999.25
 7048.00000   62.85320   62.70570   62.88050  109.71690    8.53630   45.72070   45.45380   35.80340    0.06160    0.02620   -0.27830    4.20190   -9999.25
 7048.50000   62.49300   62.86060   62.42950  109.94580    8.53660   47.29730   44.83120   17.52720    0.05590    0.03220   -0.27380    4.17240   -9999.25
 7049.00000   62.31310   63.61750   62.85960  110.92770    8.55200   54.50450   42.41620   12.13680    0.04870    0.03680   -0.26870    4.05290   -9999.25
 7049.50000   62.85450   65.27730   65.34560  114.09370    8.55230   61.26130   39.57890    9.45580    0.05830    0.03380   -0.26420    3.82830   -9999.25
 7050.00000   66.05560   71.45220   69.18680  118.01180    8.55260   68.46850   36.93140    9.19770    0.07270    0.02780   -0.25370    3.55860   -9999.25
 7050.50000   69.93280   73.86600   71.76300  120.12320    8.55290   74.85500   32.99540   15.23730    0.08230    0.02410   -0.23960    3.45410   -9999.25
 7051.00000   73.44940   73.72140   74.38440  123.74100    8.55320   80.89800   27.67970   17.45630    0.10290    0.02260   -0.20320    3.27450   -9999.25
 7051.50000   75.18550   72.82440   76.10210  123.74400    8.55350   85.66760   23.93280   18.41100    0.11110    0.02860   -0.14450    3.07990   -9999.25
 7052.00000   75.90710   72.07790   74.38620  122.31630    8.55380   83.78380   22.74210   16.47950    0.11670    0.03700   -0.13100    2.87030   -9999.25
 7052.50000   74.35240   71.63240   71.63100  120.88850    8.53910   74.09910   24.88820   10.07270    0.10900    0.03780   -0.16830    3.02110   -9999.25
