~Version ---------------------------------------------------
VERS.   2.0 : CWLS log ASCII Standard -VERSION 2.0
WRAP.    NO : One line per depth step
DLM . SPACE : Column Data Section Delimiter
~Well ------------------------------------------------------
STRT .F                 4167.0 : START DEPTH
STOP .F                 7672.0 : STOP DEPTH
STEP .F                    0.5 : STEP
NULL .                -9999.25 : NULL VALUE
COMP .                         : COMPANY
WELL .                         : WELL
FLD  .                         : FIELD
LOC  .                         : LOCATION
PROV .                         : PROVINCE
CNTY .                         : COUNTY
STAT .                         : STATE
CTRY .                         : COUNTRY
SRVC .                         : SERVICE COMPANY
DATE .                         : DATE
UWI  .                         : UNIQUE WELL ID
API  .                         : API NUMBER
SLAT .WGS84 2.9138205011344027 : SURFACE LATITUDE
SLON .WGS84  6.360154750657998 : SURFACE LONGITUDE
DATUM.F                2904.99 : DEPTH DATUM ELEV
~Curve Information -----------------------------------------
DEPT.F     : 
DT  .US/F  : INTERVAL TRANSIT TIME
DTCO.US/F  : COMPRESSIONAL-WAVE INTERVAL TRANSIT TIME ACAUSTIC SLOWNESS
DTL .US/F  : ACOUSTIC TRANSIT TIME SLOWNESS, LONG SPACING
DTSM.US/F  : SHEAR-WAVE INTERVAL TRANSIT TIME DELTA-T
CALS.IN    : MICRO RESISTIVITY CALIPER
GRR .GAPI  : GAMMA RAY FROM RES.
LLS .OHMM  : LATEROLOG  SHALLOW
MSFL.OHMM  : MICRO SPHERICALLY FOCUSED
DPHI.V/V   : DENSITY POROSITY LIMESTONE
DRHO.G/C3  : DENSITY CORRECTION
NPHI.V/V   : NEUTRON POROSITY LIMESTONE
PEF .B/E   : PHOTOELECTRIC FACTOR
RHOB.G/C3  : BULK DENSITY
~Params ----------------------------------------------------
~Other -----------------------------------------------------
~ASCII -----------------------------------------------------
# ...
 5155.00000   -9999.25   -9999.25   -9999.25   -9999.25    8.68720   20.72070   69.38820   57.02460    0.02710    0.07040   -0.34940    4.65770   -9999.25
 5155.50000   -9999.25   -9999.25   -9999.25   -9999.25    8.68680   20.04500   62.97220  133.68980    0.03040    0.07270   -0.34170    4.61290   -9999.25
 5156.00000   -9999.25   -9999.25   -9999.25   -9999.25    8.68640   21.62160   40.97720  185.14780    0.04630    0.07200   -0.30700    4.23790   -9999.25
 5156.50000   -9999.25   -9999.25   -9999.25   -9999.25    8.68610   26.80180   22.42290   33.24800    0.08870    0.06430   -0.28170    3.62080   -9999.25
 5157.00000   -9999.25   -9999.25   -9999.25   -9999.25    8.68570   34.23420   15.31630   18.33190    0.12930    0.05740   -0.24720    3.11240   -9999.25
 5157.50000   -9999.25   -9999.25   -9999.25   -9999.25    8.68530   40.76580   13.70870    9.83150    0.15570    0.05000   -0.19510    2.84230   -9999.25
 5158.00000   -9999.25   -9999.25   -9999.25   -9999.25    8.68490   53.15320   12.26990    8.09980    0.16530    0.04020   -0.16810    3.03790   -9999.25
 5158.50000   -9999.25   -9999.25   -9999.25   -9999.25    8.68450   56.75680   12.70250    9.63330    0.16350    0.03800   -0.18670    3.41360   -9999.25
 5159.00000   -9999.25   -9999.25   -9999.25   -9999.25    8.68410   48.19820   13.90010   10.91440    0.13980    0.04780   -0.21410    3.92440   -9999.25
 5159.50000   -9999.25   -9999.25   -9999.25   -9999.25    8.68370   36.45360   15.74680    8.10520    0.08660    0.05620   -0.24750    4.20990   -9999.25
 5160.00000   -9999.25   -9999.25   -9999.25   -9999.25    8.68340   26.06560   17.11240   11.41870    0.06610    0.05690   -0.27030    4.25520   -9999.25
 5160.50000   -9999.25   -9999.25   -9999.25   -9999.25    8.68300   23.87390   17.59340   15.54710    0.07880    0.04940   -0.25950    4.16550   -9999.25
 5161.00000   -9999.25   -9999.25   -9999.25   -9999.25    8.68260   26.24370   17.71570   16.05580    0.09140    0.03960   -0.25080    4.12070   -9999.25
 5161.50000   -9999.25   -9999.25   -9999.25   -9999.25    8.68220   28.82880   18.34040   12.99070    0.09080    0.03280   -0.25830    4.09090   -9999.25
 5162.00000   -9999.25   -9999.25   -9999.25   -9999.25    8.68180   27.25230   22.73580   10.25790    0.07990    0.03590   -0.27160    4.33160   -9999.25
 5162.50000   -9999.25   -9999.25   -9999.25   -9999.25    8.68140   22.52250   29.88490    9.98910    0.05920    0.04040   -0.28810    4.66220   -9999.25
 5163.00000   -9999.25   -9999.25   -9999.25   -9999.25    8.68100   19.81980   34.98380   19.26240    0.04870    0.04650   -0.31460    4.75260   -9999.25
 5163.50000   -9999.25   -9999.25   -9999.25   -9999.25    8.68070   18.91890   33.66920   41.61730    0.04500    0.04960   -0.31730    4.69280   -9999.25
 5164.00000   -9999.25   -9999.25   -9999.25   -9999.25    8.68030   21.17120   27.62050  219.36480    0.05800    0.04730   -0.30110    4.54300   -9999.25
 5164.50000   -9999.25   -9999.25   -9999.25   -9999.25    8.67990   24.54950   21.36110  185.81270    0.08070    0.03980   -0.27760    4.50930   -9999.25
 5165.00000   -9999.25   -9999.25   -9999.25   -9999.25    8.67950   27.92790   17.83890   20.26550    0.10220    0.03300   -0.26710    4.61860   -9999.25
 5165.50000   -9999.25   -9999.25   -9999.25   -9999.25    8.67910   32.43240   16.87680   11.02010    0.10640    0.02770   -0.25780    4.63500   -9999.25
 5166.00000   -9999.25   -9999.25   -9999.25   -9999.25    8.67870   36.48650   16.41540   10.14340    0.10970    0.02320   -0.24610    4.33390   -9999.25
 5166.50000   -9999.25   -9999.25   -9999.25   -9999.25    8.67830   39.18920   16.41540   10.87300    0.11570    0.02570   -0.22440    4.19910   -9999.25
 5167.00000   -9999.25   -9999.25   -9999.25   -9999.25    8.67800   37.61260   17.11240   11.65500    0.10670    0.02860   -0.23370    4.39600   -9999.25
 5167.50000   -9999.25   -9999.25   -9999.25   -9999.25    8.67760   30.85590   19.65650   14.95720    0.07850    0.02860   -0.25960    4.78760   -9999.25
 5168.00000   -9999.25   -9999.25   -9999.25   -9999.25    8.67720   25.67570   26.29760   10.15120    0.05470    0.02790   -0.29510    5.23850   -9999.25
 5168.50000   -9999.25   -9999.25   -9999.25   -9999.25    8.67680   23.19820   32.15140   20.01550    0.04440    0.02790   -0.33120    5.66010   -9999.25
 5169.00000   -9999.25   -9999.25   -9999.25   -9999.25    8.67640   22.52250   34.22060   45.64040    0.04200    0.03020   -0.33750    5.51990   -9999.25
 5169.50000   -9999.25   -9999.25   -9999.25   -9999.25    8.67600   22.54040   28.18470   22.32320    0.04260    0.03400   -0.33360    5.10410   -9999.25
 5170.00000   -9999.25   -9999.25   -9999.25   -9999.25    8.67560   23.22850   23.21350   59.40370    0.05160    0.03850   -0.32400    4.69680   -9999.25
 5170.50000   -9999.25   -9999.25   -9999.25   -9999.25    8.67530   24.14100   20.77700   14.77040    0.05890    0.04310   -0.30870    4.60690   -9999.25
 5171.00000   -9999.25   -9999.25   -9999.25   -9999.25    8.67490   24.54950   20.49110   15.03150    0.05730    0.05070   -0.30080    4.57720   -9999.25
 5171.50000   -9999.25   -9999.25   -9999.25   -9999.25    8.67450   24.77480   21.06700   17.93820    0.05460    0.04990   -0.29690    4.96790   -9999.25
 5172.00000   -9999.25   -9999.25   -9999.25   -9999.25    8.67410   23.42340   20.77700   11.67890    0.04950    0.04690   -0.30750    5.29850   -9999.25
 5172.50000   -9999.25   -9999.25   -9999.25   -9999.25    8.67370   22.97300   19.11480   24.50860    0.04770    0.04540   -0.30450    5.14870   -9999.25
 5173.00000   -9999.25   -9999.25   -9999.25   -9999.25    8.67330   23.87390   16.84300   33.47520    0.06240    0.04550   -0.28610    4.62350   -9999.25
 5173.50000   -9999.25   -9999.25   -9999.25   -9999.25    8.67290   27.70270   15.74680   11.05680    0.08050    0.04620   -0.23920    4.47360   -9999.25
 5174.00000   -9999.25   -9999.25   -9999.25   -9999.25    8.67260   29.72970   17.28710    9.76250    0.08260    0.04550   -0.24590    4.74420   -9999.25
 5174.50000   -9999.25   -9999.25   -9999.25   -9999.25    8.67220   28.37840   19.52070   11.53010    0.06480    0.04250   -0.26780    5.22490   -9999.25
 5175.00000   -9999.25   -9999.25   -9999.25   -9999.25    8.67180   22.97300   21.36110   13.06410    0.06120    0.02140   -0.29580    5.00000   -9999.25
 5175.50000   -9999.25   -9999.25   -9999.25   -9999.25    8.67140   19.81980   22.57880   28.18400    0.07870    0.01230   -0.30600    4.79010   -9999.25
 5176.00000   -9999.25   -9999.25   -9999.25   -9999.25    8.67100   22.52250   21.06700   32.60070    0.09160    0.00560   -0.29850    4.55020   -9999.25
 5176.50000   -9999.25   -9999.25   -9999.25   -9999.25    8.67060   25.00000   20.77700   14.00940    0.08770    0.00330   -0.30000    4.40030   -9999.25
 5177.00000   -9999.25   -9999.25   -9999.25   -9999.25    8.67020   21.62160   23.53750   11.54250    0.06480    0.00710   -0.31450    4.17540   -9999.25
 5177.50000   -9999.25   -9999.25   -9999.25   -9999.25    8.66990   17.79280   27.22480   11.30690    0.05250    0.01540   -0.32830    4.53610   -9999.25
 5178.00000   -9999.25   -9999.25   -9999.25   -9999.25    8.66950   16.66670   29.79150   31.30110    0.04860    0.02300   -0.32350    4.52130   -9999.25
 5178.50000   -9999.25   -9999.25   -9999.25   -9999.25    8.66910   16.21620   29.17850   86.64710    0.05880    0.03740   -0.31030    4.46160   -9999.25
 5179.00000   -9999.25   -9999.25   -9999.25   -9999.25    8.66870   17.15960   24.53680   49.45770    0.07500    0.04270   -0.30250    4.40170   -9999.25
 5179.50000   -9999.25   -9999.25   -9999.25   -9999.25    8.66830   21.88550   19.65650   15.66090    0.07500    0.04120   -0.29400    4.89760   -9999.25
 5180.00000   -9999.25   -9999.25   -9999.25   -9999.25    8.66790   29.72970   17.35120   16.87670    0.07470    0.03520   -0.28590    4.74780   -9999.25
 5180.50000   -9999.25   -9999.25   -9999.25   -9999.25    8.66750   33.55860   16.87680   60.07740    0.08250    0.02610   -0.27840    4.52280   -9999.25
