~Version ---------------------------------------------------
VERS.   2.0 : CWLS log ASCII Standard -VERSION 2.0
WRAP.    NO : One line per depth step
DLM . SPACE : Column Data Section Delimiter
~Well ------------------------------------------------------
STRT .F                 4167.0 : START DEPTH
STOP .F                 7672.0 : STOP DEPTH
STEP .F                    0.5 : STEP
NULL .                -9999.25 : NULL VALUE
COMP .                         : COMPANY
WELL .                         : WELL
FLD  .                         : FIELD
LOC  .                         : LOCATION
PROV .                         : PROVINCE
CNTY .                         : COUNTY
STAT .                         : STATE
CTRY .                         : COUNTRY
SRVC .                         : SERVICE COMPANY
DATE .                         : DATE
UWI  .                         : UNIQUE WELL ID
API  .                         : API NUMBER
SLAT .WGS84 2.9138205011344027 : SURFACE LATITUDE
SLON .WGS84  6.360154750657998 : SURFACE LONGITUDE
DATUM.F                2904.99 : DEPTH DATUM ELEV
~Curve Information -----------------------------------------
DEPT.F     : 
DT  .US/F  : INTERVAL TRANSIT TIME
DTCO.US/F  : COMPRESSIONAL-WAVE INTERVAL TRANSIT TIME ACAUSTIC SLOWNESS
DTL .US/F  : ACOUSTIC TRANSIT TIME SLOWNESS, LONG SPACING
DTSM.US/F  : SHEAR-WAVE INTERVAL TRANSIT TIME DELTA-T
CALS.IN    : MICRO RESISTIVITY CALIPER
GRR .GAPI  : GAMMA RAY FROM RES.
LLS .OHMM  : LATEROLOG  SHALLOW
MSFL.OHMM  : MICRO SPHERICALLY FOCUSED
DPHI.V/V   : DENSITY POROSITY LIMESTONE
DRHO.G/C3  : DENSITY CORRECTION
NPHI.V/V   : NEUTRON POROSITY LIMESTONE
PEF .B/E   : PHOTOELECTRIC FACTOR
RHOB.G/C3  : BULK DENSITY
~Params ----------------------------------------------------
~Other -----------------------------------------------------
~ASCII -----------------------------------------------------
# ...
 4947.00000   -9999.25   -9999.25   -9999.25   -9999.25    8.71510   13.28830   71.77610  139.94660    0.02720    0.06880   -0.34560    5.31160   -9999.25
 4947.50000   -9999.25   -9999.25   -9999.25   -9999.25    8.71550   16.21620   76.40330  364.59430    0.02390    0.06380   -0.35130    5.10210   -9999.25
 4948.00000   -9999.25   -9999.25   -9999.25   -9999.25    8.71600   19.59460   45.12760  395.79820    0.02780    0.07370   -0.35430    5.04250   -9999.25
 4948.50000   -9999.25   -9999.25   -9999.25   -9999.25    8.71640   21.62160   32.36180   44.91330    0.03140    0.07600   -0.33390    5.46370   -9999.25
 4949.00000   -9999.25   -9999.25   -9999.25   -9999.25    8.70190   24.32430   28.17710   20.13610    0.04400    0.07300   -0.31230    5.43420   -9999.25
 4949.50000   -9999.25   -9999.25   -9999.25   -9999.25    8.71730   25.22520   27.41040   65.35680    0.05720    0.06930   -0.29610    4.77420   -9999.25
 4950.00000   -9999.25   -9999.25   -9999.25   -9999.25    8.71780   23.87390   30.84190   36.28120    0.06440    0.06780   -0.29220    4.65470   -9999.25
 4950.50000   -9999.25   -9999.25   -9999.25   -9999.25    8.74820   20.72070   39.44600   11.89870    0.05180    0.06860   -0.30420    4.77700   -9999.25
 4951.00000   -9999.25   -9999.25   -9999.25   -9999.25    8.76370   20.27030   46.70930   42.25770    0.03230    0.06940   -0.32300    4.75620   -9999.25
 4951.50000   -9999.25   -9999.25   -9999.25   -9999.25    8.76420   21.17120   49.77300  184.49400    0.02800    0.06950   -0.34350    4.58670   -9999.25
 4952.00000   -9999.25   -9999.25   -9999.25   -9999.25    8.76460   26.08990   31.07440  717.21090    0.03380    0.07100   -0.34550    3.93650   -9999.25
 4952.50000   -9999.25   -9999.25   -9999.25   -9999.25    8.76500   31.74890   20.93650  614.69170    0.04960    0.07410   -0.30910    3.65180   -9999.25
 4953.00000   -9999.25   -9999.25   -9999.25   -9999.25    8.75050   40.56770   18.73360   20.48970    0.07210    0.07490   -0.28350    3.69740   -9999.25
 4953.50000   -9999.25   -9999.25   -9999.25   -9999.25    8.75090   45.52710   16.19710   10.66530    0.09100    0.07340   -0.25440    3.72800   -9999.25
 4954.00000   -9999.25   -9999.25   -9999.25   -9999.25    8.75140   45.54930   17.36090   11.19790    0.09400    0.06970   -0.22010    3.74360   -9999.25
 4954.50000   -9999.25   -9999.25   -9999.25   -9999.25    8.75180   40.13060   20.50400   11.92050    0.08320    0.06670   -0.23120    4.22470   -9999.25
 4955.00000   -9999.25   -9999.25   -9999.25   -9999.25    8.75230   32.86400   24.21600   11.28040    0.06750    0.06150   -0.25200    4.51060   -9999.25
 4955.50000   -9999.25   -9999.25   -9999.25   -9999.25    8.75270   26.08490   21.37750   16.39910    0.05850    0.04250   -0.28780    4.42110   -9999.25
 4956.00000   -9999.25   -9999.25   -9999.25   -9999.25    8.75320   23.70260   19.94750   50.36490    0.05580    0.03420   -0.30040    4.37650   -9999.25
 4956.50000   -9999.25   -9999.25   -9999.25   -9999.25    8.75360   25.34930   19.26940  109.41070    0.06480    0.02740   -0.29080    3.98680   -9999.25
 4957.00000   -9999.25   -9999.25   -9999.25   -9999.25    8.75410   25.51330   18.61440    6.66980    0.07770    0.02440   -0.29110    4.15260   -9999.25
 4957.50000   -9999.25   -9999.25   -9999.25   -9999.25    8.75450   23.04140   17.98170    8.56000    0.06690    0.03810   -0.30290    4.37840   -9999.25
 4958.00000   -9999.25   -9999.25   -9999.25   -9999.25    8.75500   22.59540   17.96630   37.68520    0.04730    0.04410   -0.31490    4.38120   -9999.25
 4958.50000   -9999.25   -9999.25   -9999.25   -9999.25    8.75550   20.79810   19.67970   86.52470    0.04700    0.04190   -0.32100    4.30450   -9999.25
 4959.00000   -9999.25   -9999.25   -9999.25   -9999.25    8.77090   18.55030   25.96800    9.83760    0.06890    0.03970   -0.32680    4.35020   -9999.25
 4959.50000   -9999.25   -9999.25   -9999.25   -9999.25    8.78640   17.65270   33.79410   27.42170    0.06290    0.04050   -0.33840    4.81750   -9999.25
 4960.00000   -9999.25   -9999.25   -9999.25   -9999.25    8.78690   18.78450   39.91220  839.26210    0.04380    0.05030   -0.35410    5.11710   -9999.25
 4960.50000   -9999.25   -9999.25   -9999.25   -9999.25    8.78730   23.06820   37.58880  277.19420    0.03560    0.06170   -0.35590    4.59470   -9999.25
 4961.00000   -9999.25   -9999.25   -9999.25   -9999.25    8.78770   28.92850   25.52520   34.96440    0.05800    0.05770   -0.31320    4.13710   -9999.25
 4961.50000   -9999.25   -9999.25   -9999.25   -9999.25    8.78820   31.18520   20.44120   14.51310    0.09740    0.05190   -0.27230    3.63250   -9999.25
 4962.00000   -9999.25   -9999.25   -9999.25   -9999.25    8.78860   28.71220   19.68910    9.78190    0.10520    0.05100   -0.26030    3.87340   -9999.25
 4962.50000   -9999.25   -9999.25   -9999.25   -9999.25    8.78910   23.53650   19.69060    9.12880    0.09020    0.04440   -0.28620    4.26440   -9999.25
 4963.00000   -9999.25   -9999.25   -9999.25   -9999.25    8.78950   21.28760   24.58140   17.38700    0.07060    0.03610   -0.30900    4.34000   -9999.25
 4963.50000   -9999.25   -9999.25   -9999.25   -9999.25    8.78990   20.84160   37.00100   35.73520    0.06670    0.03010   -0.32020    4.76100   -9999.25
 4964.00000   -9999.25   -9999.25   -9999.25   -9999.25    8.79040   19.04540   49.16370  106.74600    0.06880    0.02490   -0.32710    4.97180   -9999.25
 4964.50000   -9999.25   -9999.25   -9999.25   -9999.25    8.79090   16.79760   67.62770   13.00700    0.05220    0.02920   -0.33910    5.01750   -9999.25
 4965.00000   -9999.25   -9999.25   -9999.25   -9999.25    8.80630   15.90000   85.01150   73.47630    0.03000    0.03780   -0.36080    5.03310   -9999.25
 4965.50000   -9999.25   -9999.25   -9999.25   -9999.25    8.82180   18.60830   89.24180  818.18860    0.02060    0.04310   -0.36800    4.94360   -9999.25
 4966.00000   -9999.25   -9999.25   -9999.25   -9999.25    8.82220   21.76590   53.44190 1042.01590    0.02750    0.05070   -0.35960    4.74900   -9999.25
 4966.50000   -9999.25   -9999.25   -9999.25   -9999.25    8.82270   23.34700   34.53790  323.61240    0.04350    0.05820   -0.33380    4.49420   -9999.25
 4967.00000   -9999.25   -9999.25   -9999.25   -9999.25    8.82310   23.12620   24.59490   54.59870    0.04130    0.07190   -0.32290    4.88530   -9999.25
 4967.50000   -9999.25   -9999.25   -9999.25   -9999.25    8.82360   22.68020   17.63620   12.49310    0.03710    0.08100   -0.30800    5.06610   -9999.25
 4968.00000   -9999.25   -9999.25   -9999.25   -9999.25    8.82400   24.48650   14.52650   33.17570    0.04380    0.07340   -0.28990    4.55620   -9999.25
 4968.50000   -9999.25   -9999.25   -9999.25   -9999.25    8.82450   29.72910   13.36830   34.02350    0.06790    0.06360   -0.25800    3.85160   -9999.25
 4969.00000   -9999.25   -9999.25   -9999.25   -9999.25    8.82500   36.98940   12.64810   10.72990    0.08150    0.06290   -0.24090    3.47870   -9999.25
 4969.50000   -9999.25   -9999.25   -9999.25   -9999.25    8.82550   45.82570   12.38870   10.01550    0.08060    0.06210   -0.23100    3.54620   -9999.25
 4970.00000   -9999.25   -9999.25   -9999.25   -9999.25    8.82580   50.49590   12.13460   10.16000    0.08060    0.05540   -0.22140    3.71180   -9999.25
 4970.50000   -9999.25   -9999.25   -9999.25   -9999.25    8.82630   51.98650   12.30490   10.14890    0.08510    0.04720   -0.20700    3.75720   -9999.25
 4971.00000   -9999.25   -9999.25   -9999.25   -9999.25    8.82680   48.83870   12.82820    9.88650    0.09530    0.03890   -0.22640    3.65260   -9999.25
 4971.50000   -9999.25   -9999.25   -9999.25   -9999.25    8.82720   42.98730   13.84530    9.88860    0.10550    0.03210   -0.24390    3.72810   -9999.25
 4972.00000   -9999.25   -9999.25   -9999.25   -9999.25    8.82760   33.75760   15.68590   10.02850    0.10370    0.02760   -0.26130    4.10400   -9999.25
 4972.50000   -9999.25   -9999.25   -9999.25   -9999.25    8.82810   30.83410   16.69650   11.52120    0.08320    0.02690   -0.28010    4.16440   -9999.25
