~Version ---------------------------------------------------
VERS.   2.0 : CWLS log ASCII Standard -VERSION 2.0
WRAP.    NO : One line per depth step
DLM . SPACE : Column Data Section Delimiter
~Well ------------------------------------------------------
STRT .F                 4167.0 : START DEPTH
STOP .F                 7672.0 : STOP DEPTH
STEP .F                    0.5 : STEP
NULL .                -9999.25 : NULL VALUE
COMP .                         : COMPANY
WELL .                         : WELL
FLD  .                         : FIELD
LOC  .                         : LOCATION
PROV .                         : PROVINCE
CNTY .                         : COUNTY
STAT .                         : STATE
CTRY .                         : COUNTRY
SRVC .                         : SERVICE COMPANY
DATE .                         : DATE
UWI  .                         : UNIQUE WELL ID
API  .                         : API NUMBER
SLAT .WGS84 2.9138205011344027 : SURFACE LATITUDE
SLON .WGS84  6.360154750657998 : SURFACE LONGITUDE
DATUM.F                2904.99 : DEPTH DATUM ELEV
~Curve Information -----------------------------------------
DEPT.F     : 
DT  .US/F  : INTERVAL TRANSIT TIME
DTCO.US/F  : COMPRESSIONAL-WAVE INTERVAL TRANSIT TIME ACAUSTIC SLOWNESS
DTL .US/F  : ACOUSTIC TRANSIT TIME SLOWNESS, LONG SPACING
DTSM.US/F  : SHEAR-WAVE INTERVAL TRANSIT TIME DELTA-T
CALS.IN    : MICRO RESISTIVITY CALIPER
GRR .GAPI  : GAMMA RAY FROM RES.
LLS .OHMM  : LATEROLOG  SHALLOW
MSFL.OHMM  : MICRO SPHERICALLY FOCUSED
DPHI.V/V   : DENSITY POROSITY LIMESTONE
DRHO.G/C3  : DENSITY CORRECTION
NPHI.V/V   : NEUTRON POROSITY LIMESTONE
PEF .B/E   : PHOTOELECTRIC FACTOR
RHOB.G/C3  : BULK DENSITY
~Params ----------------------------------------------------
~Other -----------------------------------------------------
~ASCII -----------------------------------------------------
# ...
 6611.00000   70.24260   68.10840   69.58310  123.88550    9.50180   59.90990    4.31600    3.16100    0.11780    0.00400   -0.28540    2.65590   -9999.25
 6611.50000   66.59300   65.84960   66.78350  118.91570    9.50200   54.72970    4.76650    2.71370    0.09820    0.00250   -0.31430    2.85170   -9999.25
 6612.00000   63.16870   63.74130   63.98380  112.43980    9.50210   50.67570    5.44530    2.51440    0.07750    0.00100   -0.32740    2.95740   -9999.25
 6612.50000   62.53940   61.18150   61.95220  107.77110    9.50230   47.52250    6.35760    3.05020    0.07210    0.00020   -0.32870    2.89790   -9999.25
 6613.00000   62.54120   60.72850   61.05020  106.56630    9.50240   44.81000    7.05430    8.13720    0.07750    0.00400   -0.31620    2.74840   -9999.25
 6613.50000   62.67820   61.02780   61.27760  107.16870    9.50260   44.14410    6.81420    9.45650    0.08380    0.01390   -0.29410    2.85410   -9999.25
 6614.00000   63.13080   62.68170   63.26710  110.03010    9.50270   45.77970    5.65160   10.13560    0.09190    0.02070   -0.26680    2.68950   -9999.25
 6614.50000   64.57510   65.23850   67.60610  116.05420    9.50290   48.84910    4.25390    7.16550    0.10300    0.02370   -0.24570    2.50900   -9999.25
 6615.00000   68.90440   68.99910   70.99620  124.33730    9.50300   53.82880    3.43160    4.66120    0.11770    0.02300   -0.23010    2.40390   -9999.25
 6615.50000   74.00040   71.55590   72.75980  128.78010    9.50320   57.43240    2.71130    4.79230    0.13390    0.01920   -0.21690    2.42100   -9999.25
 6616.00000   75.28690   73.51080   74.25230  131.64160    9.50330   60.13510    2.37690    3.18300    0.15070    0.01460   -0.20940    2.37670   -9999.25
 6616.50000   76.16770   74.56270   75.29300  133.37350    9.50350   62.38740    2.17220    2.28170    0.15610    0.00870   -0.20610    2.34710   -9999.25
 6617.00000   76.39490   75.31370   75.67880  134.72890    9.50360   63.51350    2.14230    2.15710    0.15450    0.00940   -0.20670    2.42290   -9999.25
 6617.50000   75.40510   75.91420   75.61260  134.72890    9.50380   56.53150    2.23340    2.59430    0.14940    0.01250   -0.20910    2.54360   -9999.25
 6618.00000   73.96440   74.70880   74.64270  132.77110    9.50390   52.92790    2.36080    1.94530    0.14280    0.01170   -0.21210    2.54420   -9999.25
 6618.50000   73.01950   73.35290   73.17610  130.36150    9.50410   51.12610    2.49540    2.17360    0.13410    0.00950   -0.21450    2.45470   -9999.25
 6619.00000   72.43520   72.74940   72.50000  128.40360    9.50420   51.12610    2.60150    2.47970    0.13860    0.00500   -0.21820    2.39520   -9999.25
 6619.50000   72.34690   72.59750   72.41120  127.65060    9.50440   51.12610    2.65620    2.42870    0.14490    0.00270   -0.22630    2.36570   -9999.25
 6620.00000   72.39370   72.29500   72.32240  127.50000    9.50450   51.12610    2.65630    2.86850    0.14380    0.00120   -0.23560    2.35120   -9999.25
 6620.50000   72.35040   72.29350   71.82690  127.65060    9.50470   51.12610    2.65640    2.94920    0.14270    0.00050   -0.23050    2.39700   -9999.25
 6621.00000   72.30710   72.44250   72.05440  127.65060    9.50480   51.12610    2.61940    3.00090    0.14240    0.00270   -0.22300    2.42760   -9999.25
 6621.50000   72.17370   72.59150   72.23670  128.10240    9.50500   51.57660    2.54840    3.24990    0.13610    0.00350   -0.22090    2.44320   -9999.25
 6622.00000   72.17540   72.89100   72.19310  128.55420    9.50510   52.92790    2.51120    2.63940    0.13040    0.00200   -0.22720    2.42880   -9999.25
 6622.50000   72.76320   73.34100   72.51090  129.15660    9.49020   55.18020    2.47590    2.47970    0.12680    0.00440   -0.23080    2.42940   -9999.25
 6623.00000   73.30600   73.56500   72.87390  129.68370    9.49040   57.20720    2.41120    2.90860    0.12890    0.01040   -0.22840    2.43010   -9999.25
 6623.50000   73.62330   73.26260   73.50800  129.75900    9.49060   59.23420    2.37810    2.79000    0.13430    0.01040   -0.22180    2.43070   -9999.25
 6624.00000   73.03900   72.43340   73.37400  129.38250    9.49070   61.03600    2.39470    2.86850    0.14090    0.00810   -0.21730    2.46140   -9999.25
 6624.50000   70.44900   71.52880   71.97490  128.25300    9.47580   57.40230    2.54890    3.03220    0.13420    0.00740   -0.21370    2.65710   -9999.25
 6625.00000   68.80540   70.92540   69.28840  126.74700    9.47600   55.13030    2.78930    3.58130    0.11740    0.01190   -0.22000    2.73280   -9999.25
 6625.50000   68.22110   70.77340   68.34120  125.84340    9.46110   53.75950    3.09500    3.48330    0.10330    0.01650   -0.22680    2.64330   -9999.25
 6626.00000   68.40350   70.77190   68.47830  125.69280    9.44620   52.70270    3.24900    3.11750    0.11560    0.01570   -0.23310    2.50880   -9999.25
 6626.50000   69.03640   70.77040   69.90320  125.69280    9.43140   52.47750    3.27170    7.39310    0.13550    0.01270   -0.23660    2.43410   -9999.25
 6627.00000   69.93970   70.91940   70.80840  125.99400    9.41650   53.37840    2.88810    8.23170    0.14110    0.01050   -0.22720    2.43490   -9999.25
 6627.50000   71.83480   71.06850   72.16540  126.74700    9.38660   55.18020    2.65770    3.89210    0.14200    0.01730   -0.21730    2.49550   -9999.25
 6628.00000   72.28740   71.36790   72.30250  127.34940    9.38680   56.75680    2.54950    2.60310    0.14410    0.01580   -0.21240    2.57120   -9999.25
 6628.50000   72.15390   71.96840   72.03300  127.95180    9.36990   57.43240    2.54960    2.56720    0.14920    0.01200   -0.20590    2.52670   -9999.25
 6629.00000   72.65160   72.41840   73.11890  129.00600    9.35440   54.72970    2.58530    2.56720    0.15580    0.00900   -0.19960    2.41950   -9999.25
 6629.50000   74.54670   73.16930   74.83730  130.36150    9.32720   50.90090    2.53220    3.16100    0.17710    0.00750   -0.19780    2.31390   -9999.25
 6630.00000   76.44170   74.52230   76.87200  131.56630    9.32740   49.32430    2.44600    3.81200    0.20140    0.00600   -0.21160    2.27320   -9999.25
 6630.50000   77.70570   75.87520   77.59640  132.62050    9.29750   49.32430    2.37930    2.42870    0.20860    0.00380   -0.21980    2.27400   -9999.25
 6631.00000   77.93290   77.22810   78.09500  133.37350    9.29760   48.64860    2.37930    2.36220    0.20560    0.00530   -0.21890    2.27460   -9999.25
 6631.50000   78.06990   78.12960   78.09650  133.67470    9.29780   46.84680    2.37940    2.37870    0.19110    0.00760   -0.21650    2.27520   -9999.25
 6632.00000   77.62090   77.82690   77.60110  133.67470    9.29790   44.81980    2.39600    2.86850    0.19390    0.00380   -0.22130    2.24570   -9999.25
 6632.50000   76.63100   76.62150   76.69900  132.92170    9.29810   46.62160    2.43200    3.11750    0.19820    0.00010   -0.22700    2.29140   -9999.25
 6633.00000   75.59610   75.64180   75.66140  131.41570    9.29820   49.32430    2.48730    2.82250    0.18750   -0.00290   -0.22610    2.44210   -9999.25
 6633.50000   74.80910   74.58690   74.30780  129.75900    9.29840   51.12610    2.60410    2.42870    0.16230   -0.00060   -0.22190    2.50270   -9999.25
 6634.00000   73.93180   73.45660   73.51860  128.10240    9.28350   53.37840    2.69600    2.75160    0.13640    0.00470   -0.22260    2.56340   -9999.25
 6634.50000   72.98690   72.55220   72.81990  126.44580    9.26860   54.27930    2.73370    4.11420    0.13400    0.00770   -0.22190    2.56400   -9999.25
 6635.00000   72.04220   71.34680   71.87290  124.63860    9.25370   54.05410    2.73380    4.00160    0.13340    0.00850   -0.21650    2.56460   -9999.25
 6635.50000   71.27770   70.14140   70.83530  121.47590    9.23890   51.77230    2.71500    3.38800    0.12740    0.01010   -0.21770    2.59520   -9999.25
 6636.00000   69.79180   68.93600   69.07480  119.06630    9.20900   49.73410    2.81090    3.24990    0.12050    0.01230   -0.22800    2.68710   -9999.25
 6636.50000   68.57650   68.03160   67.76610  117.40960    9.19410   48.10770    3.05470    4.28900    0.11350    0.01380   -0.23760    2.79330   -9999.25
