~Version ---------------------------------------------------
VERS.   2.0 : CWLS log ASCII Standard -VERSION 2.0
WRAP.    NO : One line per depth step
DLM . SPACE : Column Data Section Delimiter
~Well ------------------------------------------------------
STRT .F                 4167.0 : START DEPTH
STOP .F                 7672.0 : STOP DEPTH
STEP .F                    0.5 : STEP
NULL .                -9999.25 : NULL VALUE
COMP .                         : COMPANY
WELL .                         : WELL
FLD  .                         : FIELD
LOC  .                         : LOCATION
PROV .                         : PROVINCE
CNTY .                         : COUNTY
STAT .                         : STATE
CTRY .                         : COUNTRY
SRVC .                         : SERVICE COMPANY
DATE .                         : DATE
UWI  .                         : UNIQUE WELL ID
API  .                         : API NUMBER
SLAT .WGS84 2.9138205011344027 : SURFACE LATITUDE
SLON .WGS84  6.360154750657998 : SURFACE LONGITUDE
DATUM.F                2904.99 : DEPTH DATUM ELEV
~Curve Information -----------------------------------------
DEPT.F     : 
DT  .US/F  : INTERVAL TRANSIT TIME
DTCO.US/F  : COMPRESSIONAL-WAVE INTERVAL TRANSIT TIME ACAUSTIC SLOWNESS
DTL .US/F  : ACOUSTIC TRANSIT TIME SLOWNESS, LONG SPACING
DTSM.US/F  : SHEAR-WAVE INTERVAL TRANSIT TIME DELTA-T
CALS.IN    : MICRO RESISTIVITY CALIPER
GRR .GAPI  : GAMMA RAY FROM RES.
LLS .OHMM  : LATEROLOG  SHALLOW
MSFL.OHMM  : MICRO SPHERICALLY FOCUSED
DPHI.V/V   : DENSITY POROSITY LIMESTONE
DRHO.G/C3  : DENSITY CORRECTION
NPHI.V/V   : NEUTRON POROSITY LIMESTONE
PEF .B/E   : PHOTOELECTRIC FACTOR
RHOB.G/C3  : BULK DENSITY
~Params ----------------------------------------------------
~Other -----------------------------------------------------
~ASCII -----------------------------------------------------
# ...
 4531.00000   -9999.25   -9999.25   -9999.25   -9999.25   -9999.25   17.79280   -9999.25   -9999.25   -9999.25   -9999.25   -0.31400   -9999.25   -9999.25
 4531.50000   -9999.25   -9999.25   -9999.25   -9999.25   -9999.25   17.56760   -9999.25   -9999.25   -9999.25   -9999.25   -0.31370   -9999.25   -9999.25
 4532.00000   -9999.25   -9999.25   -9999.25   -9999.25   -9999.25   17.54980   -9999.25   -9999.25   -9999.25   -9999.25   -0.31610   -9999.25   -9999.25
 4532.50000   -9999.25   -9999.25   -9999.25   -9999.25   -9999.25   18.24320   -9999.25   -9999.25   -9999.25   -9999.25   -0.31880   -9999.25   -9999.25
 4533.00000   -9999.25   -9999.25   -9999.25   -9999.25   -9999.25   19.36940   -9999.25   -9999.25   -9999.25   -9999.25   -0.31790   -9999.25   -9999.25
 4533.50000   -9999.25   -9999.25   -9999.25   -9999.25   -9999.25   20.94780   -9999.25   -9999.25   -9999.25   -9999.25   -0.31480   -9999.25   -9999.25
 4534.00000   53.01200   53.94510   53.76980  101.31950    8.42050   20.68510   -9999.25   -9999.25    0.30000   -0.00220   -0.31080   -9999.25   -9999.25
 4534.50000   53.46390   52.88570   53.81490   98.67760    8.45090   17.74480   -9999.25    0.70530    0.25530   -0.02220   -0.30260    1.38370    2.45150
 4535.00000   53.19280   51.53380   53.31830   95.36140    8.54130   15.27080   -9999.25    0.20000    0.21860   -0.02330   -0.29540    1.58860    2.41610
 4535.50000   52.28920   50.03150   52.05420   90.68970    8.66180   15.59900   -9999.25    0.43440    0.15720    0.02620   -0.29300    3.01600    2.37670
 4536.00000   50.93370   47.92780   51.06090   87.22290    8.72230   17.63990    1.23510    1.31550    0.11840    0.09950   -0.29270    3.17710    2.35210
 4536.50000   50.25600   46.57590   51.33180   87.82230    8.75270   19.45440    9.80700   35.04600    0.08560    0.18410   -0.30330    4.19380    2.55010
 4537.00000   51.65660   46.42700   52.18960   89.32530    8.78310   21.17120   38.67210   27.12440    0.06490    0.15160   -0.32010    4.73860    2.63300
 4537.50000   52.06330   46.72920   52.27990   91.28020    8.81350   21.62160  113.98530  188.56720    0.04240    0.08750   -0.34210    5.07520    2.71410
 4538.00000   52.10840   47.48260   52.14450   93.38560    8.81390   20.72070  145.25000 1569.51990    0.02230    0.05280   -0.37460    4.76050    2.65390
 4538.50000   52.15360   48.38630   51.78330   93.98510    8.82920   20.27030  148.28220   74.03740    0.01380    0.05730   -0.37940    4.43070    2.64230
 4539.00000   52.13100   49.44050   51.33180   94.28330    8.82960   19.81980  147.22620  325.88180    0.01850    0.07020   -0.37700    4.68660    2.69180
 4539.50000   52.01810   50.49480   51.33180   94.43090    8.84500   18.24320  146.18410   17.77880    0.02090    0.06640   -0.37580    4.97250    2.68630
 4540.00000   51.83730   50.64660   51.24150   94.42790    8.86040   17.56760  146.15880   53.09950    0.02000    0.04830   -0.37710    5.28840    2.67390
 4540.50000   51.56630   50.42260   51.06090   94.42490    8.87580   18.24320  144.12190  195.21070    0.00950    0.04010   -0.38010    5.45410    2.66190
 4541.00000   51.06930   50.34890   51.01580   94.57250    8.87620   19.36940  144.09700  113.74100    0.00400    0.04080   -0.38250    5.49980    2.65400
 4541.50000   50.79820   50.65130   51.01580   95.17200    8.87660   20.72070  144.07200   58.10160    0.00460    0.04470   -0.38430    5.15500    2.68420
 4542.00000   50.79820   51.10390   51.01580   95.62040    8.87690   21.84680  147.07320  213.60010    0.00580    0.04540   -0.38580    4.91540    2.69600
 4542.50000   50.93370   51.55650   50.97070   95.39160    8.87730   22.97300  155.43060  112.95610    0.00430    0.04090   -0.38790    5.06610    2.69690
 4543.00000   51.02410   51.55800   50.79010   95.16270    8.87770   23.87390  177.27490   62.70040    0.00670    0.03530   -0.38950    5.26190    2.69000
 4543.50000   51.11450   51.55950   50.60950   94.85850    8.87810   21.84680  221.25090  104.67120    0.01660    0.02890   -0.38980    4.99220    2.68340
 4544.00000   50.97890   51.26020   50.33860   94.85550    8.87840   19.81980  264.88910   52.00770    0.01930    0.03800   -0.38980    4.72250    2.68100
 4544.50000   50.84340   51.26170   50.33860   94.85250    8.87880   18.46850  247.11040  312.61870    0.00700    0.04180   -0.38920    4.63300    2.68910
 4545.00000   50.70780   51.26320   50.56430   94.99970    8.87910   18.24320  230.52500  973.30300    0.00310    0.04410   -0.38890    4.64910    2.69680
 4545.50000   50.84340   51.26470   50.79010   95.14730    8.87960   18.91890  233.70190   80.45280    0.00220    0.04570   -0.38860    4.68140    2.70460
 4546.00000   51.06930   51.56690   50.88040   95.44560    8.87990   20.94590  235.29660   28.66960    0.00160    0.04420   -0.38920    5.03040    2.71220
 4546.50000   51.11450   51.26770   50.79010   95.74380    8.88030   22.52250  227.23370   58.50530   -0.00020    0.03820   -0.38980    5.16300    2.71670
 4547.00000   51.02410   51.11880   50.69980   96.04200    8.88070   23.87390  197.78880   57.70060   -0.00240    0.02990   -0.39020    5.09870    2.70090
 4547.50000   50.93370   51.12030   50.60950   96.79200    8.88110   24.16660  174.56230  583.03100    0.00220    0.02390   -0.38920    5.10220    2.68530
 4548.00000   50.93370   51.42250   50.76750   97.69270    8.88140   20.49550  155.13470  567.10250    0.01020    0.02540   -0.38740    5.02770    2.66060
 4548.50000   51.11450   51.87510   51.06100   98.74390    8.88180   19.36940  139.79350   76.64590    0.01400    0.02320   -0.38510    4.74300    2.66390
 4549.00000   51.47590   52.17730   51.53500   99.94570    8.88220   19.36940  120.00420  123.59690    0.01970    0.01940   -0.38180    4.65340    2.66440
 4549.50000   51.92770   52.32920   52.05420  100.24390    8.88260   20.27030  109.64630  264.74910    0.02890    0.01340   -0.37970    4.87940    2.65140
 4550.00000   52.28920   52.18030   52.32510   99.33730    8.88290   21.17120  106.63010  295.77050    0.02770    0.01270   -0.37980    5.01510    2.64040
 4550.50000   52.42470   51.88110   52.32510   98.73200    8.88330   21.17120  117.47390  112.17660    0.02470    0.01050   -0.38160    5.12080    2.65320
 4551.00000   52.24400   51.05570   52.09930   98.12660    8.88370   20.24380  147.63490   78.25480    0.02860    0.00820   -0.38430    5.07630    2.66700
 4551.50000   51.70180   50.45570   51.64790   97.52120    8.88410   19.34990  167.22060   32.70120    0.03310    0.00750   -0.38540    4.92680    2.66890
 4552.00000   50.93370   50.08120   51.01580   97.21700    8.88440   18.69370  177.95190  221.12560    0.03180    0.00530   -0.38480    4.71720    2.66640
 4552.50000   50.43670   50.08270   50.51920   97.21400    8.88490   18.34900  181.66680  473.65930    0.01530    0.00840   -0.38420    5.01810    2.66710
 4553.00000   50.25600   50.15930   50.24830   97.06040    8.88540   17.90840  181.62750  351.67600    0.01020    0.01140   -0.38300    5.04870    2.67750
 4553.50000   50.25600   50.38660   50.20320   97.05740    8.88580   16.69910  180.34180  262.92200    0.01710    0.01300   -0.38270    5.06430    2.68780
 4554.00000   50.25600   50.38810   50.24830   96.90380    8.88630   16.92870  176.60050  758.53800    0.02610    0.01290   -0.38340    5.26010    2.69600
 4554.50000   50.16570   50.38960   50.36870   97.05150    8.88680   18.96020  170.93590  233.72180    0.03180    0.00990   -0.38370    5.29070    2.68930
 4555.00000   50.25600   50.39110   50.48910   97.19910    8.88730   21.21680  156.21970   89.25940    0.03570    0.00850   -0.38370    5.08030    2.68050
 4555.50000   50.48190   50.09180   50.60950   97.19610    8.88770   23.02310  147.80430 1136.51330    0.03450    0.01000   -0.38370    5.09970    2.67850
 4556.00000   50.75300   49.94290   50.88030   97.11740    8.88820   21.90140  140.81470  608.27000    0.02340    0.02970   -0.38370    5.17240    2.68800
 4556.50000   50.84340   49.79400   51.19640   96.88850    8.88870   20.10400  139.84940 1150.31740    0.01460    0.04480   -0.38400    4.92250    2.69540
