~Version ---------------------------------------------------
VERS.   2.0 : CWLS log ASCII Standard -VERSION 2.0
WRAP.    NO : One line per depth step
DLM . SPACE : Column Data Section Delimiter
~Well ------------------------------------------------------
STRT .F                 4167.0 : START DEPTH
STOP .F                 7672.0 : STOP DEPTH
STEP .F                    0.5 : STEP
NULL .                -9999.25 : NULL VALUE
COMP .                         : COMPANY
WELL .                         : WELL
FLD  .                         : FIELD
LOC  .                         : LOCATION
PROV .                         : PROVINCE
CNTY .                         : COUNTY
STAT .                         : STATE
CTRY .                         : COUNTRY
SRVC .                         : SERVICE COMPANY
DATE .                         : DATE
UWI  .                         : UNIQUE WELL ID
API  .                         : API NUMBER
SLAT .WGS84 2.9138205011344027 : SURFACE LATITUDE
SLON .WGS84  6.360154750657998 : SURFACE LONGITUDE
DATUM.F                2904.99 : DEPTH DATUM ELEV
~Curve Information -----------------------------------------
DEPT.F     : 
DT  .US/F  : INTERVAL TRANSIT TIME
DTCO.US/F  : COMPRESSIONAL-WAVE INTERVAL TRANSIT TIME ACAUSTIC SLOWNESS
DTL .US/F  : ACOUSTIC TRANSIT TIME SLOWNESS, LONG SPACING
DTSM.US/F  : SHEAR-WAVE INTERVAL TRANSIT TIME DELTA-T
CALS.IN    : MICRO RESISTIVITY CALIPER
GRR .GAPI  : GAMMA RAY FROM RES.
LLS .OHMM  : LATEROLOG  SHALLOW
MSFL.OHMM  : MICRO SPHERICALLY FOCUSED
DPHI.V/V   : DENSITY POROSITY LIMESTONE
DRHO.G/C3  : DENSITY CORRECTION
NPHI.V/V   : NEUTRON POROSITY LIMESTONE
PEF .B/E   : PHOTOELECTRIC FACTOR
RHOB.G/C3  : BULK DENSITY
~Params ----------------------------------------------------
~Other -----------------------------------------------------
~ASCII -----------------------------------------------------
# ...
 6195.00000   60.19990   59.02180   60.56170  102.62060    8.53600   26.57660   43.29830   67.78760    0.05320    0.04370   -0.30260    4.02400   -9999.25
 6195.50000   59.52330   59.02330   59.70280  102.32240    8.53620   22.52250   43.00070   22.34720    0.05170    0.04730   -0.31860    4.08410   -9999.25
 6196.00000   59.25230   58.87440   58.79880  102.62660    8.53630   19.59460   46.40860   22.33480    0.05500    0.03750   -0.32400    4.12910   -9999.25
 6196.50000   59.38700   58.80060   58.84350  102.62960    8.53650   19.46720   49.74060   59.10600    0.06160    0.02540   -0.32370    3.75380   -9999.25
 6197.00000   59.74730   59.02780   59.38520  102.93380    8.53660   21.91990   51.86570   38.89220    0.06580    0.02850   -0.31770    3.64860   -9999.25
 6197.50000   60.15250   59.63120   59.83660  103.38860    8.53680   24.77480   50.73060   55.05400    0.06280    0.02700   -0.31230    3.60360   -9999.25
 6198.00000   60.53520   59.40720   60.37830  103.54220    8.53690   26.57660   49.40210   37.85630    0.06640    0.02320   -0.30650    3.75380   -9999.25
 6198.50000   60.53480   58.80680   60.55860  102.64160    8.53710   28.15320   49.65670   65.93290    0.07630    0.02470   -0.30630    3.97900   -9999.25
 6199.00000   60.10610   58.50730   59.65450  102.04220    8.53720   28.60360   57.54330   27.90030    0.06760    0.03380   -0.31470    4.13270   -9999.25
 6199.50000   59.38430   58.20780   58.56970  101.89460    8.53740   27.25230   64.29330   67.78760    0.06040    0.04970   -0.32500    3.91890   -9999.25
 6200.00000   59.20360   58.05880   58.34340  102.34930    8.53750   24.32430   67.02540   27.51590    0.04950    0.05270   -0.32920    4.05410   -9999.25
 6200.50000   59.11340   58.20770   58.56880  102.19720    8.53770   24.77480   67.96320   48.59280    0.03960    0.04670   -0.32140    4.44710   -9999.25
 6201.00000   59.06840   58.35670   59.02020  102.94870    8.53780   25.00000   68.43820  234.84300    0.04770    0.04070   -0.30990    4.45950   -9999.25
 6201.50000   59.60930   58.95720   59.33600  103.85080    8.53800   25.02960   64.30210  184.02860    0.05640    0.03690   -0.30630    4.14410   -9999.25
 6202.00000   60.06010   60.00910   59.47470  105.05420    8.53810   23.87390   56.76280   57.06250    0.05730    0.03470   -0.30970    4.11410   -9999.25
 6202.50000   60.15030   60.45910   59.47520  106.25750    8.53850   23.64860   52.62210   69.69450    0.05460    0.03160   -0.30760    4.08410   -9999.25
 6203.00000   60.46580   60.75860   59.83710  105.65360    8.53880   26.15650   47.06930   47.92350    0.06060    0.02860   -0.29920    4.21920   -9999.25
 6203.50000   61.32230   60.60660   60.65080  104.74850    8.53920   27.76350   44.22320   34.83320    0.06900    0.02560   -0.29190    4.30930   -9999.25
 6204.00000   61.45760   60.30410   60.38010  104.59640    8.53950   28.60360   45.15220   31.17460    0.07170    0.03640   -0.29410    4.23420   -9999.25
 6204.50000   60.53340   60.15200   59.65770  104.59490    8.53990   28.37840   47.72630   34.83320    0.07050    0.04000   -0.30580    4.24920   -9999.25
 6205.00000   59.99240   60.52670   59.16110  104.59340    8.54020   26.35140   49.75270   41.14180    0.06420    0.03930   -0.32080    4.35440   -9999.25
 6205.50000   60.30810   60.22430   59.07120  104.44130    8.54060   23.87390   51.15120   40.57500    0.05940    0.03930   -0.32690    4.33930   -9999.25
 6206.00000   60.87150   60.14750   59.70420  104.59040    8.54090   23.42340   48.39240   60.66770    0.05880    0.04530   -0.31980    4.27930   -9999.25
 6206.50000   60.73630   60.29630   60.47270  104.73960    8.54130   23.87390   47.06930   75.74310    0.05490    0.05290   -0.30460    4.18920   -9999.25
 6207.00000   60.33060   60.59580   60.60870  105.03930    8.54160   24.32430   49.40900   38.92120    0.04800    0.05900   -0.29740    3.99400   -9999.25
 6207.50000   60.46580   60.74480   60.24770  105.33900    8.54200   24.77480   50.79790   44.71240    0.04170    0.06130   -0.29740    3.90390   -9999.25
 6208.00000   61.27720   60.74330   60.18050  105.86440    8.54230   26.57660   48.72890   39.42460    0.04470    0.05520   -0.29560    3.88890   -9999.25
 6208.50000   61.86330   60.89230   60.83600  106.31480    8.54260   29.27930   42.12900  110.63360    0.05400    0.04840   -0.28360    4.09910   -9999.25
 6209.00000   62.17880   61.19180   61.42380  106.68980    8.54290   31.98200   36.67630   81.57490    0.06120    0.04690   -0.26980    4.27930   -9999.25
 6209.50000   62.31400   61.19030   61.40160  107.14010    8.54320   33.78380   33.28500   26.02050    0.05670    0.05530   -0.28450    3.90390   -9999.25
 6210.00000   61.99850   61.18880   61.15360  107.43960    8.54350   29.27930   31.05640   24.11200    0.05280    0.04850   -0.30200    3.70870   -9999.25
 6210.50000   61.95340   61.03690   61.37990  107.43810    8.54380   28.37840   31.05640   26.20130    0.05220    0.04400   -0.30530    3.67650   -9999.25
 6211.00000   62.17880   61.18590   61.69660  108.03900    8.54410   28.12280   31.05640   33.15730    0.04800    0.04400   -0.30290    3.78380   -9999.25
 6211.50000   62.49440   61.78630   62.14890  108.64000    8.54440   27.02700   31.05640   51.29230    0.05140    0.04850   -0.29990    3.85960   -9999.25
 6212.00000   62.67470   62.08580   62.21710  109.24090    8.54470   26.57660   31.05640   20.41980    0.05520    0.04850   -0.29630    3.87390   -9999.25
 6212.50000   62.44930   62.23480   61.96920  109.54060    8.54500   28.37840   30.84190   35.53480    0.05910    0.04710   -0.29390    3.84140   -9999.25
 6213.00000   62.49440   62.23330   62.17290  109.84030    8.54530   29.72970   30.62050   42.25150    0.06000    0.05010   -0.29300    3.61860   -9999.25
 6213.50000   62.94520   62.38230   62.60260  109.98940    8.54560   30.18020   30.19080   24.61820    0.05880    0.04860   -0.29270    3.57360   -9999.25
 6214.00000   62.99020   62.38090   62.46750  109.83730    8.54590   30.63060   29.79150   26.56670    0.05820    0.04560   -0.29090    3.61860   -9999.25
 6214.50000   62.90010   62.68030   62.24210  109.38400    8.54620   31.08110   29.82490   38.61400    0.05820    0.03990   -0.28850    3.72370   -9999.25
 6215.00000   62.90010   62.97980   62.46840  109.08130    8.54650   31.08110   30.20730   33.61970    0.05430    0.03730   -0.28940    3.90390   -9999.25
 6215.50000   62.90010   62.97810   62.73990  109.38110    8.54680   28.37840   30.20730   22.81250    0.05430    0.03810   -0.29100    4.12910   -9999.25
 6216.00000   62.99020   62.67570   62.92110  109.22900    8.54710   29.05410   29.99870   36.78680    0.05670    0.04340   -0.28740    4.14410   -9999.25
 6216.50000   63.12550   62.52370   63.10230  109.07690    8.54740   30.18020   29.58580   31.15380    0.05460    0.05020   -0.28010    3.85890   -9999.25
 6217.00000   63.26070   62.67270   63.01240  109.22600    8.54770   31.30630   29.17850   22.49870    0.04910    0.06230   -0.27590    4.12910   -9999.25
 6217.50000   62.85500   62.37010   62.60620  109.07390    8.54800   32.20720   28.97700   26.56670    0.03800    0.07440   -0.28170    4.38440   -9999.25
 6218.00000   62.85500   61.91710   62.65180  108.62060    8.54830   31.53150   29.38140   24.11200    0.03590    0.07820   -0.28440    4.38960   -9999.25
 6218.50000   62.90010   61.31370   62.60710  108.01670    8.54860   31.53150   29.58580   35.21360    0.04400    0.07370   -0.28020    3.97900   -9999.25
 6219.00000   62.71980   60.86070   62.38160  107.18670    8.54890   31.53150   31.27240   36.28080    0.05240    0.06540   -0.28200    3.81380   -9999.25
 6219.50000   61.99850   60.55820   61.29770  106.28160    8.54920   28.37840   33.74960   22.63540    0.05650    0.05780   -0.28710    3.87410   -9999.25
 6220.00000   60.42070   60.25580   59.98790  105.45180    8.54950   25.45050   36.17150   23.72320    0.04150    0.05410   -0.29550    3.94890   -9999.25
 6220.50000   60.55600   60.10380   59.85280  105.09900    8.54980   23.87390   38.76720   59.73350    0.03260    0.05180   -0.30130    3.93390   -9999.25
