~Version ---------------------------------------------------
VERS.   2.0 : CWLS log ASCII Standard -VERSION 2.0
WRAP.    NO : One line per depth step
DLM . SPACE : Column Data Section Delimiter
~Well ------------------------------------------------------
STRT .F                 4167.0 : START DEPTH
STOP .F                 7672.0 : STOP DEPTH
STEP .F                    0.5 : STEP
NULL .                -9999.25 : NULL VALUE
COMP .                         : COMPANY
WELL .                         : WELL
FLD  .                         : FIELD
LOC  .                         : LOCATION
PROV .                         : PROVINCE
CNTY .                         : COUNTY
STAT .                         : STATE
CTRY .                         : COUNTRY
SRVC .                         : SERVICE COMPANY
DATE .                         : DATE
UWI  .                         : UNIQUE WELL ID
API  .                         : API NUMBER
SLAT .WGS84 2.9138205011344027 : SURFACE LATITUDE
SLON .WGS84  6.360154750657998 : SURFACE LONGITUDE
DATUM.F                2904.99 : DEPTH DATUM ELEV
~Curve Information -----------------------------------------
DEPT.F     : 
DT  .US/F  : INTERVAL TRANSIT TIME
DTCO.US/F  : COMPRESSIONAL-WAVE INTERVAL TRANSIT TIME ACAUSTIC SLOWNESS
DTL .US/F  : ACOUSTIC TRANSIT TIME SLOWNESS, LONG SPACING
DTSM.US/F  : SHEAR-WAVE INTERVAL TRANSIT TIME DELTA-T
CALS.IN    : MICRO RESISTIVITY CALIPER
GRR .GAPI  : GAMMA RAY FROM RES.
LLS .OHMM  : LATEROLOG  SHALLOW
MSFL.OHMM  : MICRO SPHERICALLY FOCUSED
DPHI.V/V   : DENSITY POROSITY LIMESTONE
DRHO.G/C3  : DENSITY CORRECTION
NPHI.V/V   : NEUTRON POROSITY LIMESTONE
PEF .B/E   : PHOTOELECTRIC FACTOR
RHOB.G/C3  : BULK DENSITY
~Params ----------------------------------------------------
~Other -----------------------------------------------------
~ASCII -----------------------------------------------------
# ...
 6403.00000   58.75560   58.81110   58.52410  103.24390    8.49340   19.84730   62.13130   45.65240    0.05610    0.01660   -0.33050    4.74380   -9999.25
 6403.50000   59.07160   58.81110   58.61450  103.09180    8.49350   18.27520   61.70650   44.71240    0.05010    0.01880   -0.32740    5.04400   -9999.25
 6404.00000   59.43260   58.81110   58.84040  103.09030    8.49370   18.27970   60.44090   71.65510    0.04500    0.03400   -0.32380    5.14900   -9999.25
 6404.50000   59.43310   58.81110   58.88550  103.08880    8.49390   18.95980   60.44510   51.72260    0.04230    0.04150   -0.32140    4.72840   -9999.25
 6405.00000   59.16310   58.51020   58.75000  103.38850    8.49400   20.09040   60.86960   34.83320    0.04620    0.04530   -0.32790    4.47300   -9999.25
 6405.50000   58.98320   58.35970   58.47890  103.68820    8.49420   21.67150   60.00810   34.82160    0.04500    0.04000   -0.33840    4.62300   -9999.25
 6406.00000   59.34430   58.51020   58.43370  103.98800    8.49430   23.70300   57.91030   89.66190    0.04530    0.03400   -0.33680    4.89310   -9999.25
 6406.50000   59.88570   58.81110   59.51810  103.98650    8.49440   24.60830   55.52800   66.38120    0.04890    0.04010   -0.32930    5.01310   -9999.25
 6407.00000   59.88610   59.11210   59.69880  103.98500    8.49460   25.28850   53.37450   34.83320    0.04650    0.04760   -0.32200    4.83270   -9999.25
 6407.50000   59.84150   59.41310   59.69880  103.83290    8.49470   25.06760   52.27990   42.29910    0.04530    0.04990   -0.31840    4.59230   -9999.25
 6408.00000   59.84190   59.41310   59.58580  103.83140    8.49830   24.17120   52.64800   33.88020    0.04920    0.05070   -0.31510    4.44200   -9999.25
 6408.50000   59.93250   59.11210   59.47290  103.82990    8.50520   23.27480   52.28800   45.97010    0.04870    0.04770   -0.31150    4.33680   -9999.25
 6409.00000   60.11330   58.81110   59.78920  104.12960    8.51210   22.60360   51.21470   70.66800    0.04530    0.04470   -0.30640    4.48850   -9999.25
 6409.50000   60.33910   58.81110   59.87950  104.42930    8.51900   22.15060   50.51320   38.92120    0.03720    0.05070   -0.30250    4.91180   -9999.25
 6410.00000   60.51990   59.11210   59.78920  104.57840    8.52250   22.38740   50.86890   29.28820    0.03030    0.05230   -0.30040    5.13210   -9999.25
 6410.50000   60.24990   59.26260   59.74400  104.42630    8.53750   22.88870   51.22610   41.14180    0.02700    0.04250   -0.29980    5.00050   -9999.25
 6411.00000   59.97980   58.96160   59.74400  104.27420    8.55260   23.07190   50.52450   65.14490    0.03630    0.03720   -0.30340    4.75640   -9999.25
 6411.50000   59.80000   58.66060   59.69880  103.97150    8.55260   21.87060   49.48740   36.75210    0.04710    0.03420   -0.31160    4.64310   -9999.25
 6412.00000   59.66520   58.96160   59.56330  103.66880    8.55260   21.27900   50.18240   31.94650    0.05100    0.03120   -0.31910    4.52310   -9999.25
 6412.50000   59.54550   58.81110   59.38250  103.66730    8.55260   21.73510   51.24020   63.24560    0.05490    0.03500   -0.31940    4.38810   -9999.25
 6413.00000   59.48580   58.81110   59.33730  104.11760    8.55260   22.41520   51.95900   41.14180    0.05670    0.04180   -0.32030    4.35470   -9999.25
 6413.50000   59.44120   58.96160   59.33730  104.56790    8.55260   23.77100   52.44220   32.95320    0.05340    0.04410   -0.32360    4.82390   -9999.25
 6414.00000   59.44170   59.11210   59.42770  104.86740    8.55260   25.57730   51.83750   34.83320    0.05100    0.04480   -0.32930    5.06430   -9999.25
 6414.50000   59.55480   59.56360   59.47290  105.24240    8.55260   27.15830   51.15120   80.06440    0.05530    0.03260   -0.33120    4.92840   -9999.25
 6415.00000   59.75800   59.71410   59.56330  105.46690    8.55260   27.83850   49.97970   83.46640    0.05750    0.02200   -0.33090    4.51800   -9999.25
 6415.50000   60.05150   59.71410   59.65360  105.54060    8.55260   26.71680   47.06930   25.67220    0.05050    0.01750   -0.32910    4.92020   -9999.25
 6416.00000   60.16470   59.56360   59.74400  105.76510    8.55260   26.94650   46.74430   47.26330    0.04400    0.01440   -0.32510    5.26250   -9999.25
 6416.50000   60.12010   59.41310   59.96990  105.76360    8.55260   27.40140   46.74430   31.99760    0.05130    0.01440   -0.32140    5.12510   -9999.25
 6417.00000   60.16560   59.41310   59.96990  105.76210    8.55260   27.85630   46.74430   40.57500    0.05820    0.01290   -0.31860    5.06520   -9999.25
 6417.50000   60.16610   59.41310   59.99250  105.45920    8.55260   27.86080   47.72630   28.76440    0.06090    0.01140   -0.31990    5.63590   -9999.25
 6418.00000   59.89600   59.41310   59.67620  105.15650    8.55260   26.51390   49.06780   51.36520    0.06390    0.00990   -0.32370    5.72610   -9999.25
 6418.50000   59.31050   59.41310   59.02110  104.85380    8.55260   24.26610   50.44710   38.92120    0.06690    0.01070   -0.32760    5.26080   -9999.25
 6419.00000   59.22080   59.26260   58.97590  104.55110    8.55260   22.01830   51.15120   33.88020    0.06870    0.01220   -0.32880    4.82550   -9999.25
 6419.50000   59.40150   59.11210   59.15660  104.54960    8.55260   20.89670   51.15120   39.73950    0.06500    0.01450   -0.33300    4.34520   -9999.25
 6420.00000   59.62740   58.96160   59.38250  104.69870    8.55260   21.35160   50.44710   67.78760    0.06200    0.01830   -0.33000    4.10510   -9999.25
 6420.50000   59.80810   58.96160   59.56330  105.14900    8.55260   23.15780   50.09870   55.82300    0.06110    0.02360   -0.32370    4.19540   -9999.25
 6421.00000   59.85360   58.81110   59.69880  105.59930    8.55260   24.28840   49.06780   37.33480    0.05750    0.02890   -0.31950    4.51080   -9999.25
 6421.50000   59.80900   58.81110   59.74400  105.89900    8.55260   23.84240   47.72630   33.88020    0.05240    0.02810   -0.31980    4.88630   -9999.25
 6422.00000   59.67420   58.88640   59.69880  106.04810    8.55260   22.49560   46.42140   43.48900    0.04820    0.02660   -0.31920    5.00660   -9999.25
 6422.50000   59.58450   59.03680   59.60840  106.34780    8.55260   21.82430   44.84040   63.20790    0.04940    0.02510   -0.31560    4.84160   -9999.25
 6423.00000   59.72020   59.11210   59.69880  106.64760    8.55260   22.05930   42.12900   45.62270    0.04850    0.02680   -0.31320    4.60150   -9999.25
 6423.50000   60.17140   59.41310   59.87950  106.79670    8.55260   23.43470   38.76720   36.82050    0.04640    0.02890   -0.31620    4.54160   -9999.25
 6424.00000   60.80300   59.56360   60.15060  107.24700    8.58260   25.50520   35.42720   27.13690    0.04700    0.02660   -0.31530    4.73690   -9999.25
 6424.50000   61.43450   59.56360   60.51200  107.69730    8.58260   27.27700   32.81970   25.67220    0.05600    0.02670   -0.30780    5.23260   -9999.25
 6425.00000   61.70540   59.56360   61.14460  108.14760    8.61260   26.76440   31.92940   21.88700    0.06090    0.02670   -0.30480    5.15770   -9999.25
 6425.50000   61.66080   59.71410   61.68670  108.59790    8.61260   25.23060   32.38970   21.73570    0.06080    0.02970   -0.30540    4.75100   -9999.25
 6426.00000   61.52610   60.01500   61.46080  109.04820    8.61260   25.91080   32.90990   23.29670    0.05330    0.03420   -0.30540    4.95200   -9999.25
 6426.50000   61.52660   60.31600   61.37050  109.19730    8.61260   28.39270   33.28500   24.62590    0.05360    0.03730   -0.30300    4.96290   -9999.25
 6427.00000   61.52700   60.61700   61.37050  109.64760    8.61260   30.19900   32.82690   26.21200    0.05930    0.03650   -0.30030    4.88800   -9999.25
 6427.50000   61.59500   60.76750   61.39310  109.94730    8.61260   31.10430   32.37500   25.14360    0.05660    0.03430   -0.30060    4.93320   -9999.25
 6428.00000   61.73070   60.91800   61.43820  110.24700    8.61260   28.85650   31.48990   23.93890    0.05420    0.03200   -0.30300    4.81320   -9999.25
 6428.50000   62.15950   61.21900   61.73190  110.39620    8.61260   29.31150   31.27240   23.43810    0.05780    0.02970   -0.30430    4.60320   -9999.25
