~Version ---------------------------------------------------
VERS.   2.0 : CWLS log ASCII Standard -VERSION 2.0
WRAP.    NO : One line per depth step
DLM . SPACE : Column Data Section Delimiter
~Well ------------------------------------------------------
STRT .F                 4167.0 : START DEPTH
STOP .F                 7672.0 : STOP DEPTH
STEP .F                    0.5 : STEP
NULL .                -9999.25 : NULL VALUE
COMP .                         : COMPANY
WELL .                         : WELL
FLD  .                         : FIELD
LOC  .                         : LOCATION
PROV .                         : PROVINCE
CNTY .                         : COUNTY
STAT .                         : STATE
CTRY .                         : COUNTRY
SRVC .                         : SERVICE COMPANY
DATE .                         : DATE
UWI  .                         : UNIQUE WELL ID
API  .                         : API NUMBER
SLAT .WGS84 2.9138205011344027 : SURFACE LATITUDE
SLON .WGS84  6.360154750657998 : SURFACE LONGITUDE
DATUM.F                2904.99 : DEPTH DATUM ELEV
~Curve Information -----------------------------------------
DEPT.F     : 
DT  .US/F  : INTERVAL TRANSIT TIME
DTCO.US/F  : COMPRESSIONAL-WAVE INTERVAL TRANSIT TIME ACAUSTIC SLOWNESS
DTL .US/F  : ACOUSTIC TRANSIT TIME SLOWNESS, LONG SPACING
DTSM.US/F  : SHEAR-WAVE INTERVAL TRANSIT TIME DELTA-T
CALS.IN    : MICRO RESISTIVITY CALIPER
GRR .GAPI  : GAMMA RAY FROM RES.
LLS .OHMM  : LATEROLOG  SHALLOW
MSFL.OHMM  : MICRO SPHERICALLY FOCUSED
DPHI.V/V   : DENSITY POROSITY LIMESTONE
DRHO.G/C3  : DENSITY CORRECTION
NPHI.V/V   : NEUTRON POROSITY LIMESTONE
PEF .B/E   : PHOTOELECTRIC FACTOR
RHOB.G/C3  : BULK DENSITY
~Params ----------------------------------------------------
~Other -----------------------------------------------------
~ASCII -----------------------------------------------------
# ...
 7443.00000   70.52470   70.09780   70.40660  121.23940    8.25010   66.21620    5.14970    3.16160    0.11640    0.02690   -0.25860    2.56960   -9999.25
 7443.50000   70.93000   70.69980   70.90360  122.14380    8.25030   71.17120    5.79440    4.21570    0.11280    0.01850   -0.25620    2.52450   -9999.25
 7444.00000   71.65080   71.75320   71.53610  123.95170    8.25050   80.63060    6.47480    4.00160    0.10710    0.01790   -0.25110    2.49430   -9999.25
 7444.50000   73.27320   72.50560   72.98190  125.75980    8.25060   88.51350    7.23510    4.22990    0.10110    0.02110   -0.24330    2.55420   -9999.25
 7445.00000   74.67020   73.55910   74.15660  127.34190    8.25080   95.94590    8.08460    7.36710    0.10080    0.02620   -0.22230    2.59910   -9999.25
 7445.50000   75.52630   74.76300   75.33130  129.07460    8.25090  101.35130    8.66590    6.77880    0.10110    0.03070   -0.20490    2.56890   -9999.25
 7446.00000   76.17940   75.06400   76.18980  129.30120    8.25110  103.60360    9.16120    5.98320    0.10050    0.03300   -0.19190    2.70390   -9999.25
 7446.50000   75.90840   75.06400   75.37650  128.69950    8.25120   98.19820    9.42000   10.71390    0.09510    0.03450   -0.18260    2.80890   -9999.25
 7447.00000   74.48810   74.76300   74.20180  128.02270    8.25140   90.76580    9.42130    7.68010    0.09330    0.03530   -0.18800    2.62850   -9999.25
 7447.50000   73.27040   74.31150   73.25300  127.87280    8.25150   84.45950    9.29260    6.96950    0.08850    0.03300   -0.20130    2.55330   -9999.25
 7448.00000   73.36010   74.23630   72.66570  127.72300    8.25170   84.20690    9.29420    5.58230    0.09090    0.02630   -0.21150    2.58320   -9999.25
 7448.50000   74.62190   74.46200   73.65970  127.87430    8.25180   87.16220   10.31380    5.28100    0.09810    0.02250   -0.20280    2.71820   -9999.25
 7449.00000   75.25260   74.91350   74.85690  128.07580    8.25200   91.89190   11.28770    6.22950    0.10650    0.02170   -0.18330    2.79310   -9999.25
 7449.50000   75.70290   75.21440   75.60240  128.47820    8.25210   93.69370   12.09930   11.16910    0.10470    0.02630   -0.16740    2.80800   -9999.25
 7450.00000   75.52210   75.51570   75.87350  128.78020    8.25230   93.46850   13.05960    6.63920    0.09920    0.02860   -0.17310    2.74770   -9999.25
 7450.50000   75.29720   75.51870   75.06020  129.23270    8.26740   99.60600   14.01150    7.43140    0.09670    0.02860   -0.18090    2.68750   -9999.25
 7451.00000   76.33440   75.37120   76.14460  129.23350    8.26760  105.45840   14.91970   11.49200    0.09720    0.02780   -0.17550    2.92760   -9999.25
 7451.50000   76.87580   75.07320   76.77710  129.08360    8.28280  106.75680   14.76130   11.02730    0.10290    0.03080   -0.16680    2.92570   -9999.25
 7452.00000   76.87630   74.92570   76.73190  128.63250    8.28290   98.62270   13.46320    9.33880    0.11390    0.03540   -0.16080    2.87990   -9999.25
 7452.50000   76.24560   74.77820   75.46690  128.03090    8.28300   89.63960   11.77860    8.90000    0.11420    0.03690   -0.17760    2.77700   -9999.25
 7453.00000   74.71340   74.48020   73.97590  126.97740    8.28320   81.98200   10.84020    6.60720    0.10760    0.03690   -0.19460    2.68680   -9999.25
 7453.50000   73.63200   73.88120   72.30420  125.92390    8.28330   82.88290   10.25690    5.75340    0.10040    0.03840   -0.20800    2.64160   -9999.25
 7454.00000   73.00130   73.13170   72.21390  124.87050    8.28080   84.23420    9.57150    5.59780    0.09220    0.03990   -0.20530    2.56630   -9999.25
 7454.50000   72.73130   72.98420   72.71080  124.26880    8.27700   84.23420    9.05650    6.72970    0.08350    0.03750   -0.20260    2.54630   -9999.25
 7455.00000   72.73180   72.83670   72.80120  124.57070    8.27310   83.33330    8.33500    8.26010    0.08650    0.02830   -0.20570    2.48200   -9999.25
 7455.50000   72.73230   72.68920   72.71080  125.17390    8.26920   83.33330    7.91590    4.98070    0.09520    0.02090   -0.20990    2.43740   -9999.25
 7456.00000   72.89040   72.84270   72.91420  125.47580    8.26530   85.58560    7.84770    4.24780    0.10090    0.03320   -0.20780    2.54300   -9999.25
 7456.50000   73.77000   72.99620   73.90810  125.62720    8.26140   89.18920    7.82000    4.13260    0.09940    0.04150   -0.20150    2.66350   -9999.25
 7457.00000   74.42400   72.99920   74.24700  125.47730    8.25750   91.21620    7.82000    7.35200    0.10090    0.03770   -0.18880    2.70900   -9999.25
 7457.50000   74.37940   72.70120   73.47890  125.17700    8.25450   90.54050    7.65910    9.24510    0.10360    0.03020   -0.19250    2.61720   -9999.25
 7458.00000   73.83890   72.40320   72.25900  124.95180    8.25470   86.71170    7.09690    5.23730    0.09730    0.02940   -0.20390    2.51470   -9999.25
 7458.50000   72.19400   71.80420   71.67170  124.50070    8.25480   82.20720    6.35200    5.69370    0.08820    0.03320   -0.21230    2.57530   -9999.25
 7459.00000   71.60840   71.35580   71.35540  123.74850    8.25500   77.70270    5.72490    5.32220    0.08220    0.03550   -0.21780    2.59070   -9999.25
 7459.50000   71.31590   70.90730   71.21990  123.14680    8.24010   71.08420    5.19550    3.70660    0.08160    0.03250   -0.22330    2.53120   -9999.25
 7460.00000   71.04590   70.60930   71.03920  122.47000    8.24020   64.91030    4.98390    3.55680    0.09030    0.03250   -0.23040    2.48660   -9999.25
 7460.50000   70.86600   70.16080   70.81330  121.56710    8.22540   66.26390    5.05350    3.50860    0.09120    0.03850   -0.23400    2.51700   -9999.25
 7461.00000   70.59590   69.71230   70.45180  120.81480    8.22560   67.16700    5.19550    3.55920    0.09480    0.03700   -0.23400    2.59250   -9999.25
 7461.50000   70.21320   69.11340   69.95480  119.91190    8.22570   67.61970    5.41610    3.46270    0.09930    0.02950   -0.23610    2.65300   -9999.25
 7462.00000   69.58260   68.81540   69.41270  119.15970    8.21080   67.62190    5.72710    3.48790    0.09690    0.02800   -0.24760    3.10390   -9999.25
 7462.50000   68.99700   68.51770   68.64460  118.40740    8.21100   67.84930    5.93010    3.98090    0.08330    0.02570   -0.26650    3.28450   -9999.25
 7463.00000   68.56920   68.52080   68.68980  118.25760    8.19610   68.52720    5.96790    4.20940    0.07280    0.02650   -0.27260    2.92460   -9999.25
 7463.50000   69.17820   68.82470   69.25450  119.31250    8.19630   72.58350    5.64610    3.59000    0.07970    0.02880   -0.26720    2.77490   -9999.25
 7464.00000   70.01260   69.35440   70.33890  121.12050    8.19640   76.63980    5.41610    4.51510    0.08680    0.02880   -0.25970    2.73030   -9999.25
 7464.50000   70.66670   70.48610   71.40060  121.87430    8.19660   81.37170    5.26800    3.74530    0.09950    0.02350   -0.24310    2.60970   -9999.25
 7465.00000   71.50110   70.48900   71.80720  120.67020    8.19670   83.85140    5.41610    4.10010    0.11570    0.01790   -0.22240    2.50300   -9999.25
 7465.50000   71.77200   69.13800   71.12950  118.86370    8.19690   80.92570    5.96790    4.21690    0.12050    0.01260   -0.21370    2.54670   -9999.25
 7466.00000   70.96110   68.08760   69.09640  116.75600    8.19700   76.17340    6.66780    3.82760    0.11210    0.01950   -0.23150    2.73220   -9999.25
 7466.50000   68.75270   67.33810   67.15360  115.25070    8.19720   71.12240    7.34710    4.78080    0.09640    0.01870   -0.25790    2.70250   -9999.25
 7467.00000   66.83720   66.73910   65.97890  114.64910    8.19730   67.31640    7.76600    6.48900    0.08500    0.01800   -0.27810    3.06340   -9999.25
 7467.50000   65.98120   66.44110   65.07530  114.49920    8.19740   66.29490    8.20870   10.40270    0.07060    0.01950   -0.28740    3.12380   -9999.25
 7468.00000   66.07180   66.59460   65.70780  115.85540    8.19760   66.97340    7.24600    8.62980    0.05730    0.02330   -0.27330    2.82410   -9999.25
 7468.50000   67.33450   67.80150   68.10240  117.66340    8.19770   67.87650    4.91530   16.22710    0.07240    0.02560   -0.25910    2.52430   -9999.25
