~Version ---------------------------------------------------
VERS.   2.0 : CWLS log ASCII Standard -VERSION 2.0
WRAP.    NO : One line per depth step
DLM . SPACE : Column Data Section Delimiter
~Well ------------------------------------------------------
STRT .F                 2432.0 : START DEPTH
STOP .F                15958.0 : STOP DEPTH
STEP .F                    0.5 : STEP
NULL .                -9999.25 : NULL VALUE
COMP .                         : COMPANY
WELL .                         : WELL
FLD  .                         : FIELD
LOC  .                         : LOCATION
PROV .                         : PROVINCE
CNTY .                         : COUNTY
STAT .                         : STATE
CTRY .                         : COUNTRY
SRVC .                         : SERVICE COMPANY
DATE .                         : DATE
UWI  .                         : UNIQUE WELL ID
API  .                         : API NUMBER
SLAT .WGS84 1.2397559084428984 : SURFACE LATITUDE
SLON .WGS84  7.560371261200999 : SURFACE LONGITUDE
DATUM.F                 2834.6 : DEPTH DATUM ELEV
~Curve Information -----------------------------------------
DEPT.F     : 
GRS .GAPI  : GAMMA RAY FROM DIPOLESONIC
DTCO.US/F  : COMPRESSIONAL-WAVE INTERVAL TRANSIT TIME ACOUSTIC SLOWNESS
DTSM.US/F  : SHEAR-WAVE INTERVAL TRANSIT TIME DELTA-T
~Params ----------------------------------------------------
~Other -----------------------------------------------------
~ASCII -----------------------------------------------------
# ...
 13129.50000   78.01210   80.37120  156.07690
 13130.00000   80.23120   80.49470  156.25470
 13130.50000   78.44150   80.99690  156.71880
 13131.00000   74.51120   81.84400  157.54110
 13131.50000   73.44430   82.60160  158.27880
 13132.00000   74.70520   83.01060  158.58470
 13132.50000   73.93970   83.62240  158.62080
 13133.00000   73.37570   83.79390  157.45050
 13133.50000   74.30260   82.54980  152.10910
 13134.00000   74.94550   79.62220  146.88280
 13134.50000   68.53410   76.10550  141.12170
 13135.00000   58.20080   71.54110  135.58010
 13135.50000   46.12460   68.13500  132.46230
 13136.00000   41.93230   67.15290  133.70770
 13136.50000   47.72790   68.53180  138.89530
 13137.00000   60.18780   71.59110  143.86460
 13137.50000   71.83050   75.34990  147.65950
 13138.00000   76.88350   78.03350  149.99080
 13138.50000   76.85730   79.64540  152.40840
 13139.00000   74.61760   80.58140  155.11050
 13139.50000   71.75250   81.09200  156.67280
 13140.00000   71.91300   81.02120  157.55940
 13140.50000   74.50150   81.54680  158.63640
 13141.00000   77.43380   82.54870  159.63230
 13141.50000   78.60600   83.46780  160.55000
 13142.00000   78.77440   83.69520  161.16140
 13142.50000   79.29870   83.60680  161.33270
 13143.00000   77.87760   83.44070  160.46890
 13143.50000   74.44530   83.26210  159.00800
 13144.00000   72.68090   82.37250  158.15860
 13144.50000   73.23250   81.26510  156.73970
 13145.00000   75.72780   80.77220  153.38880
 13145.50000   78.16090   80.37040  152.24680
 13146.00000   77.93840   80.44700  151.46430
 13146.50000   76.62580   80.46410  149.30120
 13147.00000   72.46170   79.61720  147.48760
 13147.50000   66.40180   77.94300  146.70220
 13148.00000   61.46030   77.00010  146.77940
 13148.50000   59.13250   77.32380  147.60300
 13149.00000   63.63850   78.34910  151.63880
 13149.50000   73.84420   79.75560  156.79360
 13150.00000   81.21220   81.59440  158.97040
 13150.50000   82.58000   83.72470  159.33180
 13151.00000   78.99750   84.48550  158.02140
 13151.50000   75.06970   83.22470  154.66870
 13152.00000   72.15230   80.84610  150.60300
 13152.50000   68.99080   79.21120  147.32340
 13153.00000   64.35930   76.86290  144.87730
 13153.50000   60.91820   75.29540  144.62650
 13154.00000   60.01370   75.18450  145.72880
 13154.50000   63.81030   75.94570  147.60600
 13155.00000   70.83780   77.89500  152.45660
 13155.50000   77.66520   81.30000  161.08880
 13156.00000   83.43200   83.96110  168.81560
 13156.50000   86.83190   86.04860  175.08530
 13157.00000   89.63360   88.66530  183.04190
 13157.50000   94.06980   91.36900  190.82890
 13158.00000   99.77240   92.87710  193.62040
 13158.50000  103.80550   93.25900  194.87490
 13159.00000  103.56250   92.95820  193.40350
 13159.50000  100.14160   92.32750  187.96340
 13160.00000   96.29550   90.29540  180.78070
 13160.50000   93.01910   87.45060  172.43930
 13161.00000   86.76320   84.29350  164.50080
 13161.50000   78.24770   79.75510  158.53980
 13162.00000   69.44090   77.02220  155.66530
 13162.50000   63.07950   75.66100  153.93910
 13163.00000   61.32810   75.68410  153.96370
 13163.50000   63.81020   76.70780  154.71210
 13164.00000   67.81330   78.46380  155.16960
 13164.50000   72.60750   79.51690  155.08900
 13165.00000   77.37050   80.31880  154.66980
 13165.50000   80.01220   80.08960  154.11030
 13166.00000   79.33480   79.85560  153.27000
 13166.50000   77.73680   79.57240  152.59200
 13167.00000   74.32360   79.02810  151.96770
 13167.50000   70.39000   78.70550  151.17270
 13168.00000   67.67580   78.67500  150.85300
 13168.50000   66.96770   78.70330  151.56070
 13169.00000   71.99290   79.00690  153.12000
 13169.50000   79.23910   79.72820  153.98800
 13170.00000   82.42480   80.48650  153.82560
 13170.50000   81.24400   80.89920  154.31630
 13171.00000   77.22460   79.91180  154.62780
 13171.50000   73.50950   78.77050  153.04270
 13172.00000   69.65960   77.67790  152.08620
 13172.50000   65.11860   77.31930  153.60110
 13173.00000   64.81030   77.97970  156.18170
 13173.50000   68.51850   79.35380  157.61300
 13174.00000   71.56550   80.85170  158.40870
 13174.50000   70.24740   82.36180  157.84450
 13175.00000   67.96820   82.73610  157.17330
 13175.50000   68.01060   81.87350  155.01590
 13176.00000   68.92290   80.95090  152.65300
 13176.50000   70.45320   80.10450  152.06490
 13177.00000   73.12840   79.90700  153.20740
 13177.50000   74.20000   80.49040  154.13690
 13178.00000   75.20900   80.82340  155.79850
 13178.50000   76.35320   81.31090  157.83140
 13179.00000   78.66280   82.30490  159.24350
 13179.50000   78.34170   83.44540  160.74880
 13180.00000   76.89310   83.70860  161.30790
 13180.50000   76.79950   83.26180  160.21460
 13181.00000   76.54440   82.68050  158.88420
 13181.50000   73.35680   81.87920  157.54340
 13182.00000   69.96220   80.98930  156.10550
 13182.50000   68.80400   80.25620  153.06820
 13183.00000   71.11730   79.89100  149.60460
 13183.50000   74.02250   79.57280  147.52680
 13184.00000   76.25400   79.32930  145.77000
 13184.50000   76.70800   79.00860  144.84120
 13185.00000   74.93560   78.36810  145.71430
 13185.50000   71.64360   77.19240  146.53700
 13186.00000   69.47170   76.46290  148.44930
 13186.50000   68.17180   77.11260  152.40280
 13187.00000   70.09180   79.49360  159.48930
 13187.50000   75.63770   81.99990  165.97070
 13188.00000   84.24720   84.76440  169.07800
 13188.50000   93.77400   87.28660  169.46450
 13189.00000   94.14630   88.63890  169.48120
 13189.50000   88.70450   88.24020  168.67800
 13190.00000   82.28270   86.88990  163.49140
 13190.50000   78.29210   85.74420  158.97310
 13191.00000   76.75750   83.60030  154.64060
 13191.50000   76.47470   80.77890  151.60690
 13192.00000   74.48720   78.61830  148.49670
 13192.50000   69.42190   77.11450  147.51820
 13193.00000   64.01260   76.40830  151.43320
 13193.50000   64.33130   77.26360  157.14050
 13194.00000   68.72380   80.78950  163.23500
 13194.50000   76.57630   84.66390  168.57700
 13195.00000   88.20670   87.97370  171.96230
 13195.50000   98.21620   89.40380  172.69470
 13196.00000  101.25440   89.47000  169.48960
 13196.50000  100.71220   87.90200  164.65040
 13197.00000   96.96160   85.72000  159.84650
 13197.50000   89.16620   83.45550  155.90050
 13198.00000   82.57730   81.55660  153.47550
 13198.50000   80.15890   80.74910  153.28100
 13199.00000   81.66780   81.42200  156.35940
 13199.50000   83.11100   83.04470  161.56890
 13200.00000   84.50490   84.81970  166.33180
 13200.50000   89.84220   86.41590  169.17550
 13201.00000   95.33370   87.96990  171.36870
 13201.50000   99.69870   88.72840  170.85890
 13202.00000   98.21420   87.94910  170.03320
 13202.50000   90.96020   85.94460  168.61870
 13203.00000   80.17660   84.28410  162.96890
 13203.50000   71.36780   83.65570  160.78840
 13204.00000   71.78040   83.06560  160.70410
 13204.50000   75.91160   82.58590  160.62380
 13205.00000   82.53570   82.73270  162.40560
 13205.50000   83.08940   83.56260  165.90460
 13206.00000   81.17550   83.87520  167.11110
 13206.50000   81.48910   83.89940  167.09160
 13207.00000   83.75480   83.40900  166.25110
 13207.50000   83.82570   83.44190  167.08340
 13208.00000   82.15790   84.02900  168.97480
 13208.50000   81.98350   84.88820  170.98770
 13209.00000   85.72420   86.09060  177.70320
 13209.50000   92.75710   88.67310  186.10400
 13210.00000   98.03700   90.56330  189.88460
 13210.50000  101.36480   91.84570  192.32510
 13211.00000  105.60690   92.65160  192.79060
 13211.50000  107.98760   92.49810  193.15060
 13212.00000  105.90130   92.01660  191.55920
 13212.50000  101.65980   91.51710  187.58620
 13213.00000   97.33490   90.72780  183.64050
 13213.50000   94.26450   89.63620  178.08380
 13214.00000   93.97350   88.76930  175.55250
 13214.50000   95.65810   87.97670  173.11890
 13215.00000   99.03120   87.05350  172.05230
 13215.50000  102.60650   86.54140  170.47900
 13216.00000  104.17910   86.07270  167.72700
