~Version ---------------------------------------------------
VERS.   2.0 : CWLS log ASCII Standard -VERSION 2.0
WRAP.    NO : One line per depth step
DLM . SPACE : Column Data Section Delimiter
~Well ------------------------------------------------------
STRT .F                 2432.0 : START DEPTH
STOP .F                15958.0 : STOP DEPTH
STEP .F                    0.5 : STEP
NULL .                -9999.25 : NULL VALUE
COMP .                         : COMPANY
WELL .                         : WELL
FLD  .                         : FIELD
LOC  .                         : LOCATION
PROV .                         : PROVINCE
CNTY .                         : COUNTY
STAT .                         : STATE
CTRY .                         : COUNTRY
SRVC .                         : SERVICE COMPANY
DATE .                         : DATE
UWI  .                         : UNIQUE WELL ID
API  .                         : API NUMBER
SLAT .WGS84 1.2397559084428984 : SURFACE LATITUDE
SLON .WGS84  7.560371261200999 : SURFACE LONGITUDE
DATUM.F                 2834.6 : DEPTH DATUM ELEV
~Curve Information -----------------------------------------
DEPT.F     : 
GRS .GAPI  : GAMMA RAY FROM DIPOLESONIC
DTCO.US/F  : COMPRESSIONAL-WAVE INTERVAL TRANSIT TIME ACOUSTIC SLOWNESS
DTSM.US/F  : SHEAR-WAVE INTERVAL TRANSIT TIME DELTA-T
~Params ----------------------------------------------------
~Other -----------------------------------------------------
~ASCII -----------------------------------------------------
# ...
 13912.50000   76.82340   84.63550  167.55450
 13913.00000   70.71620   85.21580  169.27670
 13913.50000   71.49210   85.54530  170.55750
 13914.00000   75.62530   85.96630  171.06170
 13914.50000   80.68460   86.63620  171.09880
 13915.00000   81.69210   87.06240  170.65130
 13915.50000   80.04250   86.72320  168.90590
 13916.00000   77.16760   86.17740  166.95430
 13916.50000   75.96770   85.58480  166.61070
 13917.00000   79.78810   84.93930  166.34090
 13917.50000   85.19760   84.63430  165.51810
 13918.00000   85.62080   84.68920  166.17050
 13918.50000   83.02330   85.10470  167.33130
 13919.00000   80.95100   85.80800  170.79810
 13919.50000   82.19730   87.10310  174.71660
 13920.00000   84.97330   88.36140  177.93800
 13920.50000   87.68150   89.86680  179.96660
 13921.00000   88.91100   91.00530  182.51250
 13921.50000   88.38700   91.22880  181.34800
 13922.00000   85.43360   90.27070  176.57820
 13922.50000   80.84700   88.84380  168.62150
 13923.00000   75.38140   86.28660  158.95240
 13923.50000   70.20480   82.19020  145.99690
 13924.00000   65.20240   76.54700  135.57790
 13924.50000   57.45650   70.64340  130.76690
 13925.00000   46.57850   67.42340  131.89230
 13925.50000   38.44940   67.86090  140.38020
 13926.00000   42.88210   70.81150  148.41520
 13926.50000   54.33970   76.49410  160.82510
 13927.00000   72.42840   84.05480  168.92240
 13927.50000   85.08620   89.05400  173.28990
 13928.00000   89.96490   89.48340  174.61920
 13928.50000   85.33950   89.44080  173.90730
 13929.00000   79.93250   88.72360  169.41540
 13929.50000   75.71570   86.83170  164.83320
 13930.00000   73.80510   85.20940  162.71800
 13930.50000   71.48790   83.58750  162.91190
 13931.00000   67.77200   83.49280  165.42350
 13931.50000   66.06090   84.37890  168.30200
 13932.00000   70.28190   85.34920  169.46980
 13932.50000   75.49140   86.33620  170.16390
 13933.00000   78.58600   87.33580  169.17800
 13933.50000   76.19300   87.71920  166.68810
 13934.00000   71.91840   86.44450  162.27730
 13934.50000   68.26810   84.62050  157.48090
 13935.00000   65.36080   81.95730  150.72540
 13935.50000   62.78940   79.03190  143.81990
 13936.00000   58.46620   76.49630  136.00030
 13936.50000   51.69720   73.49990  131.35480
 13937.00000   44.94600   69.44320  127.42410
 13937.50000   38.95110   67.25090  133.80010
 13938.00000   40.18200   70.48510  141.78430
 13938.50000   47.41560   78.84810  153.32650
 13939.00000   61.37790   85.85340  164.61430
 13939.50000   75.57740   90.73300  176.82850
 13940.00000   84.85690   92.23340  183.02660
 13940.50000   89.18060   93.57120  185.97530
 13941.00000   89.33990   93.35440  180.90180
 13941.50000   86.59840   91.98170  171.00860
 13942.00000   82.11430   89.42510  162.89480
 13942.50000   76.55800   85.19380  157.80260
 13943.00000   70.40610   80.71450  151.69200
 13943.50000   63.24120   77.87710  150.65680
 13944.00000   59.45370   77.00510  150.74400
 13944.50000   63.66380   77.85860  150.99190
 13945.00000   71.27250   80.16570  151.83560
 13945.50000   76.13370   81.74810  152.41370
 13946.00000   73.94460   81.92930  154.62780
 13946.50000   70.05570   81.12180  156.05390
 13947.00000   66.67850   80.54040  157.09280
 13947.50000   64.75680   81.39820  159.83080
 13948.00000   67.79670   82.78580  163.38170
 13948.50000   73.95140   84.36860  167.26290
 13949.00000   81.87360   86.26390  169.10610
 13949.50000   84.90970   87.69730  166.75790
 13950.00000   82.20040   86.87280  162.52030
 13950.50000   76.02600   85.09650  159.32930
 13951.00000   68.02700   82.10750  157.01980
 13951.50000   60.94740   80.33100  154.47160
 13952.00000   56.54090   79.78550  153.96070
 13952.50000   58.04030   80.03300  156.93430
 13953.00000   66.46330   80.77550  160.17560
 13953.50000   74.03250   82.44160  163.03630
 13954.00000   77.75100   83.93430  165.26720
 13954.50000   77.52200   84.49100  166.69840
 13955.00000   77.45760   84.23080  168.19280
 13955.50000   77.95400   84.60830  169.96770
 13956.00000   79.14700   85.83850  172.43280
 13956.50000   81.14810   87.99060  173.78860
 13957.00000   84.96380   89.33040  172.16030
 13957.50000   87.16250   89.20800  169.66400
 13958.00000   84.70540   87.46210  166.72280
 13958.50000   79.45020   85.41170  161.36230
 13959.00000   71.49430   83.76970  158.09140
 13959.50000   64.94030   82.75200  159.08210
 13960.00000   65.13490   82.42750  165.03420
 13960.50000   68.79160   83.21090  165.11010
 13961.00000   74.59840   84.78870  165.58940
 13961.50000   75.01650   85.48390  163.07180
 13962.00000   69.91470   83.55630  159.87660
 13962.50000   64.64950   81.62690  157.62190
 13963.00000   62.40250   81.42350  157.20450
 13963.50000   64.49490   82.32560  158.43520
 13964.00000   70.30950   83.71860  160.99700
 13964.50000   73.68890   84.77040  161.58630
 13965.00000   76.17070   84.82600  158.74320
 13965.50000   73.77900   82.47140  154.39830
 13966.00000   65.94850   78.91890  149.81170
 13966.50000   58.76510   74.84960  146.10320
 13967.00000   48.98750   73.58420  148.71220
 13967.50000   47.43360   77.43530  155.03870
 13968.00000   56.10430   83.99430  162.25510
 13968.50000   70.62590   88.36070  170.42510
 13969.00000   83.81000   90.93400  179.02900
 13969.50000   89.63640   93.02390  183.33600
 13970.00000   88.45570   93.25080  178.88130
 13970.50000   81.61950   91.20550  169.65910
 13971.00000   74.84990   86.96120  159.33710
 13971.50000   68.41260   81.09900  149.22790
 13972.00000   61.10910   76.63210  144.77510
 13972.50000   57.17580   74.38310  140.89690
 13973.00000   56.81220   73.87760  141.01490
 13973.50000   61.95860   76.07770  145.34250
 13974.00000   67.32620   78.75910  150.06320
 13974.50000   68.80580   80.84840  154.87210
 13975.00000   69.39180   82.32430  160.00130
 13975.50000   72.58240   83.19450  163.90690
 13976.00000   77.23770   83.97660  165.59070
 13976.50000   79.56860   85.28050  167.27660
 13977.00000   80.01890   86.97460  172.31420
 13977.50000   81.04450   88.38890  176.27980
 13978.00000   85.87010   89.01830  176.02050
 13978.50000   92.08920   88.84510  174.58320
 13979.00000   96.12090   87.80490  170.38150
 13979.50000   90.38130   85.51200  164.03230
 13980.00000   80.15270   83.09730  159.70430
 13980.50000   69.00300   80.46310  155.87010
 13981.00000   62.20640   78.50460  154.23740
 13981.50000   61.40490   77.96590  153.99000
 13982.00000   61.37420   78.68540  154.80270
 13982.50000   61.58220   79.77420  156.73630
 13983.00000   62.68960   81.12440  162.15290
 13983.50000   65.76250   82.78600  167.86300
 13984.00000   70.43320   84.66690  172.42320
 13984.50000   74.35740   86.87810  175.40350
 13985.00000   78.83830   88.50610  178.16830
 13985.50000   83.62670   88.86880  178.40190
 13986.00000   86.29320   89.08380  177.26150
 13986.50000   84.58120   89.20210  175.69540
 13987.00000   78.84940   88.90920  172.46960
 13987.50000   73.41710   88.50320  170.09360
 13988.00000   71.77580   88.01340  168.56750
 13988.50000   71.16890   87.76350  166.10790
 13989.00000   70.17870   87.13030  160.89390
 13989.50000   68.06540   84.77730  154.59140
 13990.00000   64.40320   81.20760  146.00330
 13990.50000   59.63630   76.86040  142.35820
 13991.00000   52.59140   71.73070  133.72480
 13991.50000   44.43230   68.46940  128.28570
 13992.00000   39.65200   67.35790  127.41540
 13992.50000   40.16490   67.89870  132.78990
 13993.00000   49.94200   70.98390  143.02440
 13993.50000   63.26990   76.76710  149.89360
 13994.00000   72.70340   80.34190  153.42790
 13994.50000   74.89650   81.45050  155.54990
 13995.00000   69.39770   81.11390  157.28330
 13995.50000   62.96290   80.81210  157.35140
 13996.00000   60.54850   80.55480  156.85020
 13996.50000   61.15450   80.32990  157.20220
 13997.00000   64.33190   81.20800  158.82020
 13997.50000   66.14120   83.07200  162.63840
 13998.00000   67.91650   84.60680  166.38530
 13998.50000   71.52540   85.41360  168.44700
 13999.00000   78.45380   85.64190  169.01860
