~Version ---------------------------------------------------
VERS.   2.0 : CWLS log ASCII Standard -VERSION 2.0
WRAP.    NO : One line per depth step
DLM . SPACE : Column Data Section Delimiter
~Well ------------------------------------------------------
STRT .F                 2432.0 : START DEPTH
STOP .F                15958.0 : STOP DEPTH
STEP .F                    0.5 : STEP
NULL .                -9999.25 : NULL VALUE
COMP .                         : COMPANY
WELL .                         : WELL
FLD  .                         : FIELD
LOC  .                         : LOCATION
PROV .                         : PROVINCE
CNTY .                         : COUNTY
STAT .                         : STATE
CTRY .                         : COUNTRY
SRVC .                         : SERVICE COMPANY
DATE .                         : DATE
UWI  .                         : UNIQUE WELL ID
API  .                         : API NUMBER
SLAT .WGS84 1.2397559084428984 : SURFACE LATITUDE
SLON .WGS84  7.560371261200999 : SURFACE LONGITUDE
DATUM.F                 2834.6 : DEPTH DATUM ELEV
~Curve Information -----------------------------------------
DEPT.F     : 
GRS .GAPI  : GAMMA RAY FROM DIPOLESONIC
DTCO.US/F  : COMPRESSIONAL-WAVE INTERVAL TRANSIT TIME ACOUSTIC SLOWNESS
DTSM.US/F  : SHEAR-WAVE INTERVAL TRANSIT TIME DELTA-T
~Params ----------------------------------------------------
~Other -----------------------------------------------------
~ASCII -----------------------------------------------------
# ...
 10693.50000   83.97330   83.90930  156.63090
 10694.00000   87.05440   84.01130  156.87150
 10694.50000   89.27510   83.98340  157.08240
 10695.00000   90.09780   83.91960  157.22110
 10695.50000   88.68980   83.88800  156.84880
 10696.00000   83.67420   83.78900  156.30280
 10696.50000   79.32080   83.20680  155.60870
 10697.00000   77.29020   82.80290  155.07330
 10697.50000   77.00070   82.45190  154.70760
 10698.00000   78.25810   82.57570  154.76020
 10698.50000   81.81870   82.50600  154.82510
 10699.00000   85.74760   82.61140  155.27090
 10699.50000   85.76970   82.79770  155.78570
 10700.00000   83.57510   83.02260  156.06870
 10700.50000   80.96300   83.41460  156.18150
 10701.00000   81.68260   83.59230  156.76100
 10701.50000   84.28930   83.76070  157.12600
 10702.00000   86.49320   83.86460  157.23800
 10702.50000   86.13450   83.94930  157.25560
 10703.00000   83.08040   84.06650  157.27320
 10703.50000   80.92890   84.10300  157.22610
 10704.00000   82.32690   84.10480  156.73890
 10704.50000   85.05450   83.99760  156.30650
 10705.00000   87.10650   83.80500  155.79290
 10705.50000   85.27070   83.57380  155.36960
 10706.00000   82.19470   83.31800  154.66210
 10706.50000   81.87710   83.04010  154.06590
 10707.00000   83.35580   82.32750  153.29420
 10707.50000   84.50820   81.96600  152.72930
 10708.00000   83.57340   81.90200  152.52240
 10708.50000   81.30570   81.54060  152.39380
 10709.00000   79.46440   81.04330  152.30790
 10709.50000   79.08240   81.02750  152.27070
 10710.00000   78.48530   81.44960  152.42790
 10710.50000   78.71250   81.83550  152.83860
 10711.00000   80.86950   82.30640  153.36450
 10711.50000   82.69490   82.71600  154.01680
 10712.00000   82.78850   82.87250  154.66670
 10712.50000   81.95050   82.93930  155.01690
 10713.00000   81.42530   83.08930  155.44460
 10713.50000   80.93220   83.29040  155.81070
 10714.00000   79.47830   83.50560  155.81110
 10714.50000   78.14420   83.56710  155.77730
 10715.00000   79.34390   83.55640  155.74340
 10715.50000   83.76060   83.52090  155.47420
 10716.00000   87.91130   83.53830  155.12540
 10716.50000   86.83740   83.55730  154.47940
 10717.00000   81.40820   83.08200  153.66220
 10717.50000   77.18820   82.81490  152.97580
 10718.00000   75.90440   81.77480  152.13580
 10718.50000   74.97460   81.21710  151.17830
 10719.00000   74.37220   80.59790  150.50100
 10719.50000   74.63270   80.33140  149.96520
 10720.00000   75.07200   80.34170  150.12140
 10720.50000   74.98390   80.35200  150.56710
 10721.00000   72.34810   80.37240  151.38890
 10721.50000   72.96810   80.56740  152.24560
 10722.00000   74.14890   81.02900  152.81300
 10722.50000   75.91750   81.50690  153.66200
 10723.00000   76.63010   82.02300  154.13610
 10723.50000   76.10180   82.49400  154.54740
 10724.00000   74.50160   82.71030  154.77280
 10724.50000   72.39590   82.83560  154.94370
 10725.00000   71.39730   82.94330  155.19440
 10725.50000   71.92070   83.06850  155.66570
 10726.00000   74.19430   83.26940  155.79930
 10726.50000   77.61230   83.44340  156.06150
 10727.00000   80.71990   83.55190  156.20370
 10727.50000   82.56370   83.68570  156.12590
 10728.00000   82.49090   83.76090  156.18460
 10728.50000   81.94730   83.79710  156.16710
 10729.00000   80.15090   83.76200  155.67940
 10729.50000   77.26460   83.57550  155.12380
 10730.00000   74.35080   83.33230  154.74550
 10730.50000   72.15780   82.88680  154.08390
 10731.00000   72.89170   82.16670  153.29870
 10731.50000   74.71450   81.52740  152.74060
 10732.00000   73.67290   80.98440  152.30870
 10732.50000   70.81490   80.79550  152.04670
 10733.00000   69.98320   80.68400  151.74400
 10733.50000   70.16160   80.87030  152.02820
 10734.00000   70.52940   81.00090  151.90440
 10734.50000   70.32860   81.49500  152.26040
 10735.00000   70.45260   81.70590  152.86940
 10735.50000   73.10770   81.88490  153.44180
 10736.00000   75.56910   82.02730  154.09170
 10736.50000   76.94260   82.05420  154.93900
 10737.00000   73.94640   81.77760  155.55230
 10737.50000   71.11820   81.86710  155.77980
 10738.00000   71.98980   82.02070  156.17240
 10738.50000   74.17810   82.39060  156.26540
 10739.00000   75.69770   82.87730  156.48180
 10739.50000   75.74890   83.38820  156.89750
 10740.00000   75.85360   83.78080  157.10470
 10740.50000   75.98810   84.02370  157.31180
 10741.00000   76.23890   84.12900  157.03620
 10741.50000   78.03050   84.04270  156.78870
 10742.00000   81.43320   83.97810  156.41400
 10742.50000   83.17750   83.88580  156.54090
 10743.00000   82.32630   83.70210  156.55420
 10743.50000   80.13720   83.08320  156.49480
 10744.00000   77.55640   82.74700  156.61290
 10744.50000   74.61650   82.72090  156.76770
 10745.00000   74.67790   82.90900  156.75330
 10745.50000   76.19890   83.16900  156.88890
 10746.00000   77.21600   83.38980  157.06820
 10746.50000   77.52220   83.49010  157.12150
 10747.00000   77.34260   83.57120  157.01440
 10747.50000   77.45720   83.70560  157.00710
 10748.00000   77.63760   83.72910  156.92430
 10748.50000   77.31290   83.67670  156.82510
 10749.00000   76.61270   83.71870  156.78570
 10749.50000   76.29100   83.55480  156.90500
 10750.00000   76.19040   83.61300  157.05200
 10750.50000   76.08970   83.67450  157.19900
 10751.00000   75.98910   83.84500  157.34590
 10751.50000   77.92520   84.02600  157.16110
 10752.00000   78.92880   84.10730  156.96070
 10752.50000   76.91190   84.10880  156.77690
 10753.00000   73.23790   84.11520  156.64290
 10753.50000   72.15360   84.07250  156.54300
 10754.00000   73.11550   83.91000  156.44430
 10754.50000   74.85420   83.83580  156.26230
 10755.00000   76.73680   83.62300  155.68000
 10755.50000   77.22140   83.22250  154.63310
 10756.00000   77.81840   82.76830  153.66380
 10756.50000   78.58510   82.14640  152.64290
 10757.00000   78.03580   81.55740  151.66260
 10757.50000   77.50950   80.94550  150.79020
 10758.00000   76.23920   80.49680  150.18480
 10758.50000   73.66720   80.29680  149.61200
 10759.00000   70.72290   80.39430  149.56650
 10759.50000   68.92670   80.49190  149.69420
 10760.00000   70.02550   80.58940  150.61550
 10760.50000   72.31880   81.02830  151.80150
 10761.00000   74.07740   81.74690  152.85030
 10761.50000   75.67450   82.44220  153.64650
 10762.00000   77.42060   82.70180  154.47290
 10762.50000   79.53300   82.85720  154.31710
 10763.00000   79.97840   82.80800  154.35860
 10763.50000   77.71160   82.64260  154.16800
 10764.00000   76.25000   82.62650  154.16470
 10764.50000   76.85950   82.74000  154.16130
 10765.00000   80.06620   82.78190  153.98460
 10765.50000   80.32600   82.69220  153.73820
 10766.00000   77.10770   82.33490  152.78060
 10766.50000   76.21940   81.88590  151.69350
 10767.00000   75.99940   81.20290  149.94560
 10767.50000   77.36240   80.65500  148.80200
 10768.00000   79.53790   80.36960  148.01870
 10768.50000   79.71140   80.27930  147.19930
 10769.00000   78.16200   80.18900  147.27050
 10769.50000   75.37020   80.15890  147.43990
 10770.00000   72.88140   80.21250  147.44740
 10770.50000   70.29730   80.32040  148.11610
 10771.00000   68.32750   80.42810  148.43930
 10771.50000   68.95210   80.53380  148.60990
 10772.00000   71.67790   80.53340  149.10440
 10772.50000   75.69820   80.57830  150.27540
 10773.00000   79.78400   80.71590  150.60310
 10773.50000   82.77340   81.19630  151.41710
 10774.00000   82.32990   81.82470  152.07710
 10774.50000   80.40690   82.30920  152.84330
 10775.00000   78.41160   82.58300  153.24790
 10775.50000   77.19470   82.62560  153.52970
 10776.00000   77.56860   82.62170  153.30010
 10776.50000   78.80360   82.56470  153.11600
 10777.00000   79.74380   82.36970  153.11500
 10777.50000   79.50640   82.17210  153.11400
 10778.00000   78.36140   82.15380  153.00220
 10778.50000   77.11390   82.11930  152.76830
 10779.00000   77.14960   81.99150  152.40910
 10779.50000   77.41480   81.96210  152.41330
 10780.00000   77.44250   82.06440  152.45090
