~Version ---------------------------------------------------
VERS.   2.0 : CWLS log ASCII Standard -VERSION 2.0
WRAP.    NO : One line per depth step
DLM . SPACE : Column Data Section Delimiter
~Well ------------------------------------------------------
STRT .F                 2432.0 : START DEPTH
STOP .F                15958.0 : STOP DEPTH
STEP .F                    0.5 : STEP
NULL .                -9999.25 : NULL VALUE
COMP .                         : COMPANY
WELL .                         : WELL
FLD  .                         : FIELD
LOC  .                         : LOCATION
PROV .                         : PROVINCE
CNTY .                         : COUNTY
STAT .                         : STATE
CTRY .                         : COUNTRY
SRVC .                         : SERVICE COMPANY
DATE .                         : DATE
UWI  .                         : UNIQUE WELL ID
API  .                         : API NUMBER
SLAT .WGS84 1.2397559084428984 : SURFACE LATITUDE
SLON .WGS84  7.560371261200999 : SURFACE LONGITUDE
DATUM.F                 2834.6 : DEPTH DATUM ELEV
~Curve Information -----------------------------------------
DEPT.F     : 
GRS .GAPI  : GAMMA RAY FROM DIPOLESONIC
DTCO.US/F  : COMPRESSIONAL-WAVE INTERVAL TRANSIT TIME ACOUSTIC SLOWNESS
DTSM.US/F  : SHEAR-WAVE INTERVAL TRANSIT TIME DELTA-T
~Params ----------------------------------------------------
~Other -----------------------------------------------------
~ASCII -----------------------------------------------------
# ...
 13477.50000   91.83480   90.70230  187.07260
 13478.00000   94.07800   90.61510  186.40770
 13478.50000   96.83810   90.46130  185.20520
 13479.00000   98.70370   90.38590  181.39050
 13479.50000   97.44440   89.33950  175.14510
 13480.00000   93.51170   87.83100  171.76520
 13480.50000   86.32440   85.97640  169.67800
 13481.00000   80.36940   83.60750  165.28300
 13481.50000   75.37660   82.06890  160.36070
 13482.00000   74.13690   80.95070  158.38520
 13482.50000   77.92910   80.34140  158.81810
 13483.00000   79.07270   80.68780  161.77720
 13483.50000   76.96820   81.67260  167.38020
 13484.00000   74.76550   82.95940  173.96830
 13484.50000   78.55610   84.30070  176.91480
 13485.00000   87.04030   85.81770  179.32020
 13485.50000   94.14520   87.48670  181.52850
 13486.00000   96.46060   89.40910  182.47040
 13486.50000   97.58520   90.51150  183.81290
 13487.00000   99.21880   91.05090  185.89210
 13487.50000  100.86280   91.30790  185.21950
 13488.00000  100.58780   91.00630  184.37830
 13488.50000   99.13770   89.91900  181.87360
 13489.00000   94.81980   87.99800  176.37610
 13489.50000   86.42300   85.03430  171.81980
 13490.00000   78.94070   83.61960  168.57070
 13490.50000   75.56170   83.68030  170.08340
 13491.00000   77.80010   84.77650  175.46230
 13491.50000   84.43400   86.77090  182.12030
 13492.00000   89.21380   88.96950  187.59500
 13492.50000   93.55190   90.94970  191.00170
 13493.00000   98.52480   92.28640  193.03860
 13493.50000  101.57890   92.83430  193.76170
 13494.00000  102.20280   92.77850  191.34920
 13494.50000  101.32370   91.95040  187.29500
 13495.00000   97.41440   90.34910  181.55350
 13495.50000   91.38170   87.87850  174.64540
 13496.00000   84.05770   85.69650  171.75260
 13496.50000   78.62300   84.18700  171.19850
 13497.00000   77.17790   83.94850  172.67330
 13497.50000   81.42790   84.80360  175.79550
 13498.00000   88.04170   86.31600  178.57300
 13498.50000   93.59170   88.19790  179.42630
 13499.00000   97.19970   89.46510  179.07800
 13499.50000   96.33460   88.91970  175.82220
 13500.00000   90.66590   87.22950  171.24160
 13500.50000   83.11200   85.00220  168.72010
 13501.00000   77.18260   83.19680  168.27440
 13501.50000   76.80680   83.24210  172.37190
 13502.00000   81.58400   84.68350  176.28690
 13502.50000   89.02570   86.67720  178.50540
 13503.00000   94.21390   88.89870  180.44000
 13503.50000   96.99820   89.01410  179.58570
 13504.00000   93.90680   88.55320  177.42600
 13504.50000   88.06060   86.78110  174.23680
 13505.00000   77.80800   85.05800  168.12650
 13505.50000   71.09730   84.02290  163.78540
 13506.00000   71.04970   83.10220  159.68800
 13506.50000   73.63170   81.58400  153.49380
 13507.00000   74.95160   78.79240  148.23940
 13507.50000   69.77530   76.41130  144.10790
 13508.00000   59.28230   74.94140  141.53110
 13508.50000   50.91530   74.46810  145.97160
 13509.00000   53.14910   76.17450  157.14400
 13509.50000   65.37650   80.22210  167.30870
 13510.00000   79.36760   84.17940  173.02730
 13510.50000   89.44480   87.49950  175.80020
 13511.00000   94.96980   90.43530  179.75700
 13511.50000   97.38870   91.02200  180.09860
 13512.00000   97.69740   89.75060  175.73960
 13512.50000   96.30670   87.61050  172.54090
 13513.00000   92.09890   85.34830  167.71460
 13513.50000   85.49010   84.01660  168.20580
 13514.00000   80.14410   84.44500  170.07460
 13514.50000   80.90990   85.84890  174.00900
 13515.00000   86.84630   88.33720  177.76480
 13515.50000   93.90550   90.60830  180.18220
 13516.00000   99.54960   91.04520  180.06660
 13516.50000  100.92150   90.21610  178.70480
 13517.00000   95.70900   87.82000  175.38740
 13517.50000   86.94600   85.53750  171.43380
 13518.00000   79.40720   84.24780  169.04470
 13518.50000   77.01800   83.27360  168.07590
 13519.00000   76.49040   82.49380  168.90460
 13519.50000   75.06640   82.87570  171.47100
 13520.00000   73.32420   85.14400  175.60320
 13520.50000   74.92610   87.05470  178.65290
 13521.00000   83.02410   88.83540  181.79030
 13521.50000   96.31230   89.94170  184.39680
 13522.00000  104.22960   90.77720  185.62530
 13522.50000  104.06680   90.65590  184.37140
 13523.00000   95.50480   89.92500  181.52190
 13523.50000   90.20970   89.26290  180.43030
 13524.00000   90.91710   88.87090  179.99320
 13524.50000   96.18830   88.25160  180.44420
 13525.00000   98.19910   87.87070  181.26450
 13525.50000   95.93870   88.83860  183.14120
 13526.00000   91.89980   89.57610  185.55740
 13526.50000   91.18400   90.23440  187.02490
 13527.00000   93.59800   90.86000  185.65440
 13527.50000   98.73200   91.22580  182.53480
 13528.00000  100.70940   90.39310  177.70990
 13528.50000   97.46970   88.98980  171.03550
 13529.00000   89.03560   85.67550  161.87320
 13529.50000   81.04770   82.50080  154.35940
 13530.00000   73.30840   79.76240  150.27550
 13530.50000   67.06810   78.74670  148.17530
 13531.00000   63.95790   77.76220  151.21840
 13531.50000   63.97380   78.26130  156.70830
 13532.00000   66.47370   80.74240  165.15780
 13532.50000   72.75920   84.17670  174.47960
 13533.00000   82.18180   87.53670  182.77040
 13533.50000   90.79410   89.67230  185.55020
 13534.00000   93.43360   90.10570  184.54200
 13534.50000   93.31430   89.77590  182.71130
 13535.00000   92.83360   88.73050  180.76810
 13535.50000   91.93470   87.34790  176.13050
 13536.00000   90.92360   86.28670  172.72850
 13536.50000   89.89750   85.43890  168.80080
 13537.00000   87.77370   84.43610  163.38550
 13537.50000   83.73690   82.94920  159.48050
 13538.00000   78.70320   80.99870  156.46050
 13538.50000   73.33430   80.18560  154.09380
 13539.00000   67.39990   79.46850  152.56820
 13539.50000   63.33780   79.41470  152.50980
 13540.00000   63.96330   79.50270  153.81210
 13540.50000   65.78970   79.56550  153.36950
 13541.00000   67.77650   78.84960  149.36810
 13541.50000   65.73660   76.20060  146.35940
 13542.00000   60.36780   73.85790  143.39340
 13542.50000   51.39910   71.99780  139.99290
 13543.00000   43.50400   71.06650  137.88880
 13543.50000   43.31130   71.23250  140.13260
 13544.00000   51.95730   72.44680  142.62940
 13544.50000   58.16870   73.65020  145.34050
 13545.00000   60.38780   74.67800  144.29810
 13545.50000   56.50270   75.48660  142.35370
 13546.00000   52.68980   76.03740  142.41030
 13546.50000   52.29840   76.28060  143.03500
 13547.00000   56.21530   77.14860  142.25110
 13547.50000   61.98350   78.46880  141.64560
 13548.00000   65.74770   78.04830  141.54220
 13548.50000   63.06820   76.76340  141.14990
 13549.00000   56.34330   75.86720  140.90580
 13549.50000   54.23470   75.85140  141.07460
 13550.00000   60.39750   75.67570  141.33940
 13550.50000   67.29040   75.25370  142.56300
 13551.00000   68.77670   75.23330  143.91950
 13551.50000   60.05390   75.19300  145.17860
 13552.00000   52.77970   75.17780  151.01690
 13552.50000   53.10750   76.27070  156.39740
 13553.00000   59.83270   79.62340  162.81480
 13553.50000   70.22940   83.17270  167.86290
 13554.00000   77.90800   85.56680  170.87100
 13554.50000   81.22090   86.14710  172.91460
 13555.00000   80.73220   87.09920  176.00910
 13555.50000   81.09870   87.69280  178.68990
 13556.00000   84.33960   87.90950  181.00730
 13556.50000   88.84910   88.90050  183.24440
 13557.00000   91.58430   90.54880  186.07140
 13557.50000   91.62960   91.75830  187.77410
 13558.00000   88.55340   91.65620  187.00030
 13558.50000   86.46990   91.00720  184.68360
 13559.00000   84.37250   89.63720  181.65620
 13559.50000   80.47630   88.19890  178.05510
 13560.00000   75.09550   87.23130  176.96350
 13560.50000   73.31330   86.66820  178.09520
 13561.00000   75.59200   86.85370  180.98240
 13561.50000   81.05530   87.59880  184.77370
 13562.00000   88.48890   89.08490  185.37930
 13562.50000   94.95810   90.56040  184.73150
 13563.00000   94.47440   90.95370  181.47810
 13563.50000   86.26530   88.97200  173.81140
 13564.00000   75.30700   85.58180  167.37560
