~Version ---------------------------------------------------
VERS.   2.0 : CWLS log ASCII Standard -VERSION 2.0
WRAP.    NO : One line per depth step
DLM . SPACE : Column Data Section Delimiter
~Well ------------------------------------------------------
STRT .F                 2432.0 : START DEPTH
STOP .F                15958.0 : STOP DEPTH
STEP .F                    0.5 : STEP
NULL .                -9999.25 : NULL VALUE
COMP .                         : COMPANY
WELL .                         : WELL
FLD  .                         : FIELD
LOC  .                         : LOCATION
PROV .                         : PROVINCE
CNTY .                         : COUNTY
STAT .                         : STATE
CTRY .                         : COUNTRY
SRVC .                         : SERVICE COMPANY
DATE .                         : DATE
UWI  .                         : UNIQUE WELL ID
API  .                         : API NUMBER
SLAT .WGS84 1.2397559084428984 : SURFACE LATITUDE
SLON .WGS84  7.560371261200999 : SURFACE LONGITUDE
DATUM.F                 2834.6 : DEPTH DATUM ELEV
~Curve Information -----------------------------------------
DEPT.F     : 
GRS .GAPI  : GAMMA RAY FROM DIPOLESONIC
DTCO.US/F  : COMPRESSIONAL-WAVE INTERVAL TRANSIT TIME ACOUSTIC SLOWNESS
DTSM.US/F  : SHEAR-WAVE INTERVAL TRANSIT TIME DELTA-T
~Params ----------------------------------------------------
~Other -----------------------------------------------------
~ASCII -----------------------------------------------------
# ...
 10345.50000   83.10130   87.82860  166.76890
 10346.00000   83.57600   87.84540  167.51600
 10346.50000   84.32000   87.79370  167.98700
 10347.00000   84.85190   88.04280  168.17350
 10347.50000   86.53760   88.44740  168.40160
 10348.00000   89.16250   88.68000  168.27450
 10348.50000   90.32260   88.69990  168.00810
 10349.00000   89.13960   88.46650  167.06450
 10349.50000   84.98240   88.15860  166.04560
 10350.00000   81.93010   87.92980  165.42760
 10350.50000   81.88250   88.01070  165.53900
 10351.00000   83.30710   88.15630  166.33530
 10351.50000   82.98460   88.41390  167.29260
 10352.00000   82.29020   88.69870  167.80340
 10352.50000   84.14850   88.74610  167.05090
 10353.00000   86.77270   88.44140  166.41580
 10353.50000   88.13190   88.18270  165.85350
 10354.00000   87.82420   87.94930  165.30270
 10354.50000   87.91110   87.81410  165.01230
 10355.00000   90.34790   87.60460  164.93110
 10355.50000   91.40080   87.37400  164.93110
 10356.00000   89.02670   87.34520  164.96170
 10356.50000   84.34480   87.49770  165.06220
 10357.00000   83.96290   87.58660  165.40980
 10357.50000   89.20800   87.77620  165.72390
 10358.00000   93.03190   88.16330  166.45460
 10358.50000   92.10510   88.66030  166.64780
 10359.00000   89.36400   89.09440  167.17530
 10359.50000   87.97970   89.06960  167.57020
 10360.00000   89.42300   88.94920  167.76770
 10360.50000   92.04880   88.92250  168.00660
 10361.00000   93.83610   88.92190  168.54240
 10361.50000   94.48790   89.11580  168.93220
 10362.00000   94.81840   89.16650  169.29440
 10362.50000   94.53300   89.38310  169.55350
 10363.00000   94.14560   89.30960  169.57870
 10363.50000   93.91290   89.12960  168.80830
 10364.00000   93.17710   88.83840  168.43590
 10364.50000   91.67950   88.36320  168.32760
 10365.00000   89.14370   88.14640  168.26900
 10365.50000   87.31130   88.11910  168.06830
 10366.00000   87.36140   88.09220  167.67290
 10366.50000   87.50600   88.09580  167.88300
 10367.00000   86.17340   88.03770  167.61620
 10367.50000   83.09730   87.96970  166.74340
 10368.00000   81.58780   87.82860  166.09390
 10368.50000   81.43140   87.75270  165.59360
 10369.00000   81.94800   87.81020  165.43620
 10369.50000   80.72450   87.81420  165.43790
 10370.00000   80.62410   87.78920  165.43950
 10370.50000   82.49410   87.77910  165.64810
 10371.00000   84.81920   87.84110  165.94550
 10371.50000   85.05870   88.04330  166.38290
 10372.00000   85.33110   88.22210  167.09020
 10372.50000   86.36290   88.27150  167.54110
 10373.00000   87.64210   88.26520  167.44030
 10373.50000   86.80280   88.14060  167.25910
 10374.00000   85.71410   88.07780  166.81650
 10374.50000   84.64430   88.08550  166.49630
 10375.00000   84.03070   88.09820  166.28680
 10375.50000   84.96750   88.11550  166.68690
 10376.00000   86.21790   88.25090  167.30740
 10376.50000   86.92390   88.72230  167.75250
 10377.00000   85.71000   88.67080  167.75450
 10377.50000   83.10260   88.54510  167.75650
 10378.00000   80.56390   88.20460  167.58370
 10378.50000   79.62350   88.08970  167.27840
 10379.00000   81.80420   88.09010  166.81200
 10379.50000   85.58400   88.06500  167.07920
 10380.00000   86.76930   88.02890  167.33210
 10380.50000   85.80990   87.94100  167.55580
 10381.00000   83.87560   88.06160  167.79760
 10381.50000   84.07930   88.64570  168.47790
 10382.00000   86.13230   88.76740  168.66440
 10382.50000   87.82950   88.59440  168.42950
 10383.00000   87.71580   88.32620  168.16250
 10383.50000   86.08280   88.14390  167.76690
 10384.00000   84.67360   88.08460  167.61680
 10384.50000   83.90610   88.14110  167.89160
 10385.00000   83.35880   88.30200  168.36620
 10385.50000   83.94010   88.76710  168.86810
 10386.00000   87.23020   88.91610  169.58500
 10386.50000   91.39160   89.11350  169.33120
 10387.00000   94.32370   89.13200  169.14300
 10387.50000   92.72400   88.87760  168.97150
 10388.00000   89.77430   88.53340  168.51100
 10388.50000   88.00620   88.07400  167.72370
 10389.00000   89.38630   87.78170  167.15940
 10389.50000   91.32390   87.61010  166.37200
 10390.00000   89.76090   87.50390  165.91820
 10390.50000   87.15000   87.47870  165.90910
 10391.00000   85.80120   87.55020  166.59880
 10391.50000   86.38160   87.72620  166.19930
 10392.00000   86.26890   87.86380  165.85400
 10392.50000   84.89490   87.87610  166.20220
 10393.00000   82.75750   87.87610  166.45260
 10393.50000   81.07770   87.87610  166.87490
 10394.00000   80.78660   87.86640  167.99920
 10394.50000   81.53930   87.74920  168.95240
 10395.00000   82.45560   87.72200  168.61490
 10395.50000   83.35900   87.73590  168.02270
 10396.00000   84.96910   87.73460  167.64970
 10396.50000   86.85210   88.05930  167.73610
 10397.00000   88.56650   87.87830  168.11380
 10397.50000   88.92310   87.76590  168.17820
 10398.00000   88.69920   87.52080  167.03760
 10398.50000   86.79760   87.52080  166.02860
 10399.00000   82.55130   87.55580  165.76990
 10399.50000   81.20450   87.33410  166.66120
 10400.00000   82.73660   87.52750  167.79400
 10400.50000   84.22700   87.73270  168.92180
 10401.00000   84.79600   87.87400  170.61710
 10401.50000   86.64750   88.01220  171.39490
 10402.00000   89.36860   88.06730  171.60200
 10402.50000   89.81990   88.06730  171.38950
 10403.00000   87.56620   87.94800  170.25050
 10403.50000   86.65810   87.79870  168.85880
 10404.00000   88.62490   87.20650  166.55100
 10404.50000   91.24620   86.62600  163.32130
 10405.00000   91.50080   85.14540  157.06150
 10405.50000   90.63710   82.74830  149.09260
 10406.00000   85.90790   78.24750  145.46160
 10406.50000   74.59530   73.48540  143.30540
 10407.00000   55.72790   67.54580  140.87920
 10407.50000   37.85570   65.00370  142.26760
 10408.00000   31.65500   67.18880  147.31200
 10408.50000   37.78440   71.19280  152.05020
 10409.00000   55.06990   77.17690  157.56240
 10409.50000   75.62510   82.31790  161.43870
 10410.00000   87.48080   84.96820  163.95580
 10410.50000   93.25300   86.02850  165.94450
 10411.00000   92.71480   86.13300  167.47790
 10411.50000   90.52650   86.70110  167.74330
 10412.00000   89.31890   87.41660  168.11370
 10412.50000   88.14760   87.81850  168.96980
 10413.00000   87.00820   88.11000  169.31230
 10413.50000   87.23170   88.24050  169.24420
 10414.00000   87.48330   88.28220  169.17610
 10414.50000   85.98210   88.25470  169.10310
 10415.00000   82.25610   88.09080  168.79200
 10415.50000   79.50270   87.91310  168.54490
 10416.00000   79.47100   87.75260  168.52860
 10416.50000   80.86310   87.69610  168.56880
 10417.00000   81.60020   87.54020  168.81670
 10417.50000   81.35280   87.22960  168.83490
 10418.00000   80.55270   86.94590  168.91980
 10418.50000   80.63910   86.96910  168.95370
 10419.00000   80.95200   87.24880  168.94140
 10419.50000   80.63500   87.55000  168.94760
 10420.00000   81.48350   87.88800  168.81550
 10420.50000   83.18280   88.06460  168.74980
 10421.00000   84.83080   88.06300  168.09610
 10421.50000   85.34360   87.91510  167.65270
 10422.00000   86.31830   87.60530  167.07000
 10422.50000   87.27040   87.07070  166.14970
 10423.00000   86.33240   86.64790  165.43530
 10423.50000   83.24070   86.51530  165.07450
 10424.00000   80.30430   86.59680  165.39940
 10424.50000   79.67560   86.72160  165.75230
 10425.00000   80.68620   87.04320  165.79960
 10425.50000   81.44290   87.50300  165.72530
 10426.00000   82.10910   87.96650  165.69460
 10426.50000   81.98710   88.26140  165.91040
 10427.00000   80.80100   88.20650  165.70430
 10427.50000   79.77800   87.83420  164.59860
 10428.00000   79.62000   87.41860  162.98070
 10428.50000   80.37460   86.72330  161.97780
 10429.00000   80.30960   86.03340  160.61580
 10429.50000   79.83550   85.87900  159.76700
 10430.00000   78.63630   85.81460  159.92220
 10430.50000   76.13120   85.90250  160.22330
 10431.00000   73.11440   86.19490  160.56600
 10431.50000   71.35250   86.51150  160.95470
 10432.00000   71.23430   86.62150  161.05040
