~Version ---------------------------------------------------
VERS.   2.0 : CWLS log ASCII Standard -VERSION 2.0
WRAP.    NO : One line per depth step
DLM . SPACE : Column Data Section Delimiter
~Well ------------------------------------------------------
STRT .F                 2432.0 : START DEPTH
STOP .F                15958.0 : STOP DEPTH
STEP .F                    0.5 : STEP
NULL .                -9999.25 : NULL VALUE
COMP .                         : COMPANY
WELL .                         : WELL
FLD  .                         : FIELD
LOC  .                         : LOCATION
PROV .                         : PROVINCE
CNTY .                         : COUNTY
STAT .                         : STATE
CTRY .                         : COUNTRY
SRVC .                         : SERVICE COMPANY
DATE .                         : DATE
UWI  .                         : UNIQUE WELL ID
API  .                         : API NUMBER
SLAT .WGS84 1.2397559084428984 : SURFACE LATITUDE
SLON .WGS84  7.560371261200999 : SURFACE LONGITUDE
DATUM.F                 2834.6 : DEPTH DATUM ELEV
~Curve Information -----------------------------------------
DEPT.F     : 
GRS .GAPI  : GAMMA RAY FROM DIPOLESONIC
DTCO.US/F  : COMPRESSIONAL-WAVE INTERVAL TRANSIT TIME ACOUSTIC SLOWNESS
DTSM.US/F  : SHEAR-WAVE INTERVAL TRANSIT TIME DELTA-T
~Params ----------------------------------------------------
~Other -----------------------------------------------------
~ASCII -----------------------------------------------------
# ...
 11911.50000   96.51510   79.89370  146.67370
 11912.00000   94.98810   79.88480  146.69050
 11912.50000   93.46500   79.58900  146.59340
 11913.00000   90.98790   79.29320  145.97740
 11913.50000   87.34710   79.05430  144.53490
 11914.00000   84.42280   78.01150  143.10260
 11914.50000   81.90740   76.77840  140.95750
 11915.00000   78.18750   75.56720  137.14900
 11915.50000   74.14750   75.08890  137.02510
 11916.00000   75.05250   74.76960  137.18120
 11916.50000   78.81620   74.47290  136.98990
 11917.00000   81.01730   74.85930  137.67790
 11917.50000   79.22840   75.77150  139.90880
 11918.00000   80.13860   76.74470  141.19510
 11918.50000   84.64780   77.00990  140.83740
 11919.00000   89.26890   77.05390  138.51910
 11919.50000   89.27360   76.74020  136.24590
 11920.00000   85.58070   75.81880  133.93000
 11920.50000   81.77910   74.51310  131.68990
 11921.00000   79.95860   73.12260  130.01310
 11921.50000   77.47230   72.22450  130.16880
 11922.00000   74.24500   71.86890  131.19190
 11922.50000   71.24450   71.75340  131.63220
 11923.00000   71.81100   71.81600  133.42200
 11923.50000   73.32640   72.06450  135.77090
 11924.00000   73.20980   73.39290  136.57430
 11924.50000   72.57800   74.48850  137.29860
 11925.00000   73.81820   75.56960  138.79930
 11925.50000   77.47640   75.84530  141.12310
 11926.00000   81.43540   75.86720  142.61990
 11926.50000   82.58320   75.88500  142.56470
 11927.00000   81.71550   75.90420  141.14900
 11927.50000   82.26870   76.21550  140.47040
 11928.00000   84.62050   76.85820  140.69540
 11928.50000   87.02700   77.60460  142.27870
 11929.00000   89.17800   77.79400  142.65690
 11929.50000   89.19250   77.07680  140.26980
 11930.00000   85.31800   75.64150  136.06880
 11930.50000   78.00770   74.27600  133.25800
 11931.00000   69.37960   73.80260  132.70440
 11931.50000   69.16400   74.20330  134.62060
 11932.00000   75.31260   75.01990  137.72150
 11932.50000   84.25830   76.37550  140.21080
 11933.00000   90.61960   78.85160  143.25310
 11933.50000   93.65860   79.97250  143.03590
 11934.00000   93.38710   79.02470  142.78980
 11934.50000   88.64370   77.96470  141.34390
 11935.00000   81.82570   77.24710  141.27240
 11935.50000   79.61160   76.92730  141.22210
 11936.00000   81.77240   77.06480  141.24940
 11936.50000   83.76660   77.66710  141.15590
 11937.00000   81.11350   76.92540  139.94110
 11937.50000   75.28870   74.50500  135.85610
 11938.00000   69.34080   72.37300  131.76150
 11938.50000   63.12780   71.47100  130.40600
 11939.00000   61.79940   71.43660  131.02400
 11939.50000   69.54120   71.75130  133.02050
 11940.00000   76.57060   73.16380  134.82880
 11940.50000   81.33220   74.27660  136.19040
 11941.00000   75.62640   74.85960  136.74160
 11941.50000   67.68500   74.46660  137.24390
 11942.00000   66.19620   74.48070  138.01180
 11942.50000   73.75390   74.82780  139.27380
 11943.00000   82.08570   76.24320  141.99710
 11943.50000   85.23650   77.82610  144.22530
 11944.00000   84.50960   79.13340  146.25990
 11944.50000   85.51910   79.65020  147.95480
 11945.00000   90.80440   79.85520  149.75030
 11945.50000   95.80020   80.06030  149.96080
 11946.00000   95.76310   80.26540  148.87840
 11946.50000   92.64060   80.19910  148.18640
 11947.00000   89.19060   79.69170  147.50390
 11947.50000   86.29380   79.14210  145.73030
 11948.00000   84.68020   78.50300  145.47720
 11948.50000   85.12140   78.28710  145.63200
 11949.00000   88.69450   78.41840  145.62840
 11949.50000   93.46070   78.80760  145.96040
 11950.00000   95.90360   78.99820  146.02350
 11950.50000   94.29680   79.12480  145.86820
 11951.00000   92.83760   79.18800  145.80070
 11951.50000   90.43040   79.27140  145.89830
 11952.00000   87.89570   79.33750  145.75260
 11952.50000   86.70280   79.50280  145.85220
 11953.00000   85.81540   79.66810  146.71000
 11953.50000   84.72690   79.83340  147.41330
 11954.00000   84.95400   79.99870  147.04680
 11954.50000   85.87080   79.93140  146.68030
 11955.00000   87.91400   79.83570  146.78120
 11955.50000   90.52760   79.67630  146.88850
 11956.00000   92.61920   79.40160  147.04210
 11956.50000   93.93250   79.51590  146.80250
 11957.00000   94.21720   79.11240  145.71230
 11957.50000   94.43790   78.88060  144.60550
 11958.00000   94.12910   78.79710  144.34480
 11958.50000   92.34530   78.64910  143.57110
 11959.00000   87.47800   78.57720  143.12590
 11959.50000   84.76230   78.63150  143.89190
 11960.00000   86.74110   78.79390  144.07080
 11960.50000   91.11160   78.80790  143.67990
 11961.00000   92.59820   78.39550  142.66230
 11961.50000   91.70060   77.90980  141.58710
 11962.00000   90.33040   77.57770  140.75830
 11962.50000   88.85770   77.36190  141.34380
 11963.00000   88.79860   77.22990  142.37800
 11963.50000   89.29450   77.57000  142.32580
 11964.00000   89.06010   77.95490  141.48590
 11964.50000   88.58410   77.89530  141.07450
 11965.00000   88.33360   76.86870  141.43580
 11965.50000   85.61710   75.82410  140.67180
 11966.00000   79.96940   75.74750  139.50190
 11966.50000   79.41250   76.04270  138.19700
 11967.00000   84.82400   75.95260  136.59430
 11967.50000   89.10230   74.89430  134.13650
 11968.00000   81.66780   72.35260  130.56650
 11968.50000   66.45130   70.60050  127.21650
 11969.00000   49.76440   69.60620  123.51750
 11969.50000   53.98230   70.11670  120.96420
 11970.00000   71.81170   70.83560  119.54390
 11970.50000   86.93500   71.42070  118.59180
 11971.00000   86.89020   70.91410  120.15210
 11971.50000   67.08860   68.98370  121.74520
 11972.00000   45.33710   67.31900  123.15500
 11972.50000   36.25390   66.96970  125.67660
 11973.00000   46.17180   68.18930  130.87260
 11973.50000   66.58910   70.92320  133.95690
 11974.00000   81.43090   72.45110  135.18180
 11974.50000   83.55870   72.82900  135.00840
 11975.00000   72.47350   72.44580  134.78800
 11975.50000   64.20460   72.22580  134.64760
 11976.00000   65.17010   72.74010  134.42420
 11976.50000   72.22920   74.25460  135.12160
 11977.00000   82.63580   76.16590  137.60320
 11977.50000   93.99370   77.52360  139.81640
 11978.00000   95.66150   77.66000  140.60800
 11978.50000   96.45610   77.04850  139.03370
 11979.00000   90.83330   74.93510  134.19080
 11979.50000   78.74470   71.88220  128.08510
 11980.00000   66.55020   68.73340  123.94830
 11980.50000   52.66270   66.00500  120.85090
 11981.00000   45.50600   64.97980  120.09270
 11981.50000   45.82590   65.09440  120.57130
 11982.00000   49.98960   66.21490  122.47810
 11982.50000   56.67020   67.27180  124.51340
 11983.00000   61.72030   67.43250  125.70060
 11983.50000   61.31450   67.78350  126.08350
 11984.00000   59.43690   68.11680  125.40650
 11984.50000   57.70910   68.37780  124.31490
 11985.00000   58.11890   68.83050  123.10100
 11985.50000   58.37510   69.51330  121.84780
 11986.00000   58.08770   69.59920  121.21840
 11986.50000   57.98650   69.55050  121.09650
 11987.00000   58.87140   67.90050  122.01140
 11987.50000   61.05260   66.43890  123.27520
 11988.00000   63.50730   66.12650  124.11750
 11988.50000   64.89780   66.88000  125.01100
 11989.00000   65.10120   68.31990  125.74430
 11989.50000   64.89360   68.89480  125.38950
 11990.00000   66.71640   68.98290  124.59820
 11990.50000   69.72870   68.98240  123.81150
 11991.00000   70.89320   69.12460  123.04980
 11991.50000   69.03170   69.17720  123.19800
 11992.00000   65.93940   69.15250  123.79980
 11992.50000   63.57750   69.03660  125.37370
 11993.00000   65.03510   69.06150  125.97230
 11993.50000   68.14420   69.19620  125.40080
 11994.00000   70.50800   68.87820  124.34330
 11994.50000   69.50620   68.08080  123.44580
 11995.00000   65.07690   67.56150  122.70830
 11995.50000   60.37500   67.19880  121.94000
 11996.00000   58.63450   66.87140  121.47320
 11996.50000   59.45340   66.51420  121.25660
 11997.00000   61.97270   66.20980  122.01190
 11997.50000   62.87720   66.43050  122.98120
 11998.00000   60.58250   66.70450  124.39890
