~Version ---------------------------------------------------
VERS.   2.0 : CWLS log ASCII Standard -VERSION 2.0
WRAP.    NO : One line per depth step
DLM . SPACE : Column Data Section Delimiter
~Well ------------------------------------------------------
STRT .F                 2432.0 : START DEPTH
STOP .F                15958.0 : STOP DEPTH
STEP .F                    0.5 : STEP
NULL .                -9999.25 : NULL VALUE
COMP .                         : COMPANY
WELL .                         : WELL
FLD  .                         : FIELD
LOC  .                         : LOCATION
PROV .                         : PROVINCE
CNTY .                         : COUNTY
STAT .                         : STATE
CTRY .                         : COUNTRY
SRVC .                         : SERVICE COMPANY
DATE .                         : DATE
UWI  .                         : UNIQUE WELL ID
API  .                         : API NUMBER
SLAT .WGS84 1.2397559084428984 : SURFACE LATITUDE
SLON .WGS84  7.560371261200999 : SURFACE LONGITUDE
DATUM.F                 2834.6 : DEPTH DATUM ELEV
~Curve Information -----------------------------------------
DEPT.F     : 
GRS .GAPI  : GAMMA RAY FROM DIPOLESONIC
DTCO.US/F  : COMPRESSIONAL-WAVE INTERVAL TRANSIT TIME ACOUSTIC SLOWNESS
DTSM.US/F  : SHEAR-WAVE INTERVAL TRANSIT TIME DELTA-T
~Params ----------------------------------------------------
~Other -----------------------------------------------------
~ASCII -----------------------------------------------------
# ...
 12346.50000   84.77560   75.89960  141.42070
 12347.00000   86.43510   76.03580  141.36570
 12347.50000   85.42830   75.96490  141.10950
 12348.00000   83.25110   75.85250  140.76500
 12348.50000   82.21070   75.62300  140.38610
 12349.00000   82.85920   75.39750  140.69680
 12349.50000   81.34740   75.50700  141.19740
 12350.00000   79.60590   75.80840  141.56270
 12350.50000   78.51930   76.22450  142.57610
 12351.00000   81.88480   76.76590  143.91130
 12351.50000   85.95990   77.35750  145.03650
 12352.00000   85.56300   77.74500  145.58320
 12352.50000   83.21600   77.76030  145.36160
 12353.00000   81.34750   77.74960  145.66870
 12353.50000   83.71020   77.59780  145.96200
 12354.00000   88.15520   77.70950  146.07140
 12354.50000   90.07680   77.85240  146.13820
 12355.00000   87.41260   78.02300  145.86780
 12355.50000   82.15790   78.29130  145.10710
 12356.00000   79.77240   78.01310  144.18300
 12356.50000   79.72760   77.69590  143.42150
 12357.00000   81.00130   76.92640  142.77120
 12357.50000   81.13870   76.40430  142.71450
 12358.00000   80.45440   76.17480  142.60710
 12358.50000   79.21630   76.09960  142.30390
 12359.00000   78.15660   76.08290  141.70110
 12359.50000   77.73970   76.01070  141.89650
 12360.00000   79.66890   75.87870  141.95250
 12360.50000   82.13570   75.72980  141.96190
 12361.00000   83.26360   75.55460  142.31830
 12361.50000   84.10910   75.56210  142.50030
 12362.00000   85.89160   75.83410  142.86590
 12362.50000   86.94730   76.01710  142.84420
 12363.00000   84.37080   76.11880  142.82250
 12363.50000   79.93490   76.24570  143.16980
 12364.00000   79.00070   76.31190  143.78400
 12364.50000   80.73940   76.61860  144.47540
 12365.00000   81.57400   76.94380  145.27270
 12365.50000   79.03750   77.24840  145.90830
 12366.00000   76.87730   77.36150  146.34090
 12366.50000   79.07030   77.67680  146.71440
 12367.00000   81.89560   77.87990  146.58560
 12367.50000   82.80410   78.08300  146.55150
 12368.00000   83.20470   78.28340  146.81140
 12368.50000   85.26610   78.50930  147.45650
 12369.00000   89.56800   78.76660  148.56740
 12369.50000   90.95800   78.96810  148.56640
 12370.00000   89.32330   79.27610  147.90470
 12370.50000   87.13570   79.18980  147.46090
 12371.00000   86.90340   79.10260  147.16690
 12371.50000   88.21310   79.07750  147.02970
 12372.00000   89.03570   79.02710  146.81120
 12372.50000   89.93460   79.04850  146.72940
 12373.00000   91.54150   79.01930  146.89250
 12373.50000   91.50950   78.80130  146.64580
 12374.00000   91.39970   78.38140  145.75720
 12374.50000   91.53070   77.81890  144.91350
 12375.00000   91.58100   76.89800  144.37120
 12375.50000   89.96750   76.56270  144.24430
 12376.00000   88.48640   76.53080  144.20610
 12376.50000   86.31950   76.74500  144.05510
 12377.00000   84.52010   77.02110  143.72500
 12377.50000   82.62460   77.28920  143.39040
 12378.00000   82.72030   77.44510  143.45780
 12378.50000   84.38360   77.48240  143.75560
 12379.00000   85.21490   77.34810  143.71800
 12379.50000   83.47440   77.17480  143.59700
 12380.00000   81.71660   76.97210  143.80640
 12380.50000   82.38300   76.75120  144.16480
 12381.00000   85.64270   76.83470  144.87820
 12381.50000   88.16200   77.14090  144.62140
 12382.00000   88.37540   77.49330  144.83110
 12382.50000   87.67410   77.85690  144.66290
 12383.00000   87.84270   77.88360  144.78980
 12383.50000   88.23930   77.71180  144.68280
 12384.00000   88.35180   77.26030  145.17160
 12384.50000   87.47080   76.70650  145.35660
 12385.00000   86.44500   76.23150  144.55400
 12385.50000   85.96130   75.86580  143.23900
 12386.00000   84.49280   75.78030  142.48710
 12386.50000   82.43200   75.85100  141.98710
 12387.00000   81.98480   75.99790  142.10080
 12387.50000   82.79860   76.21010  142.49050
 12388.00000   84.19120   76.88320  143.22770
 12388.50000   85.26720   77.44340  143.25540
 12389.00000   86.10150   77.48910  143.76900
 12389.50000   86.23230   77.23870  143.88410
 12390.00000   85.50670   76.98530  143.71850
 12390.50000   85.85430   76.93210  143.55280
 12391.00000   85.92020   76.94960  143.90330
 12391.50000   84.99650   77.06080  144.30860
 12392.00000   83.61510   77.23260  144.65890
 12392.50000   82.46680   77.33330  144.95010
 12393.00000   81.19360   77.44370  144.02120
 12393.50000   79.71920   77.52130  143.16490
 12394.00000   79.70040   77.47800  143.45230
 12394.50000   81.46790   77.23410  143.49930
 12395.00000   84.72650   76.93770  143.59840
 12395.50000   87.73100   76.79470  143.69760
 12396.00000   88.32500   77.11370  143.41640
 12396.50000   88.09940   77.59710  143.82390
 12397.00000   86.33470   77.33960  144.24770
 12397.50000   84.27030   76.44630  143.85190
 12398.00000   82.60260   76.20360  143.17070
 12398.50000   81.92640   76.24040  142.44250
 12399.00000   82.65440   76.17990  142.77200
 12399.50000   86.18460   76.10970  141.90070
 12400.00000   89.85910   76.20160  141.44820
 12400.50000   90.67070   76.29570  141.80530
 12401.00000   88.61430   76.15300  142.67990
 12401.50000   85.78350   76.14480  143.27600
 12402.00000   85.51970   76.30930  143.41060
 12402.50000   86.60630   76.46800  143.16530
 12403.00000   86.84280   76.72270  143.64180
 12403.50000   87.16220   76.94710  144.53320
 12404.00000   88.30280   77.25330  145.17680
 12404.50000   91.00800   77.69890  145.52350
 12405.00000   91.48630   78.02850  145.87020
 12405.50000   91.99130   78.24610  146.00760
 12406.00000   89.29140   78.38570  146.66900
 12406.50000   88.01330   78.54720  146.67560
 12407.00000   88.45770   78.73240  146.79710
 12407.50000   90.01310   78.65630  146.09910
 12408.00000   92.68880   78.09650  145.50160
 12408.50000   95.90160   77.34260  144.85120
 12409.00000   97.46110   76.56420  143.33000
 12409.50000   92.85920   76.33170  142.17010
 12410.00000   87.91370   76.21950  142.48340
 12410.50000   85.00490   76.20790  142.77930
 12411.00000   86.21720   76.40360  143.23850
 12411.50000   86.42180   77.29450  143.79620
 12412.00000   85.63000   78.32470  144.19840
 12412.50000   87.16620   78.74990  144.70530
 12413.00000   89.01810   78.79940  145.24450
 12413.50000   89.12740   78.87200  145.35150
 12414.00000   87.74800   78.93280  145.52090
 12414.50000   86.29610   78.48790  145.10860
 12415.00000   86.22310   77.04950  143.32640
 12415.50000   84.46150   74.84670  137.87220
 12416.00000   78.70280   72.76840  134.67110
 12416.50000   65.87650   71.26810  132.03030
 12417.00000   60.22970   70.72580  132.73000
 12417.50000   67.10920   70.86350  134.28160
 12418.00000   77.38120   71.97230  136.30560
 12418.50000   85.96460   74.22550  138.45420
 12419.00000   86.69470   76.16880  141.01690
 12419.50000   84.76020   76.93740  142.56360
 12420.00000   83.40760   76.97770  143.05340
 12420.50000   82.57720   76.97170  143.14380
 12421.00000   80.78570   77.09130  143.14600
 12421.50000   78.79150   77.25280  143.94100
 12422.00000   77.86350   77.36770  143.86410
 12422.50000   78.24790   77.57020  143.78500
 12423.00000   80.65100   77.79280  143.75080
 12423.50000   84.06320   77.99050  144.08840
 12424.00000   86.63750   78.03160  144.40410
 12424.50000   87.62230   77.92390  144.49530
 12425.00000   87.26540   77.89240  144.77640
 12425.50000   87.36720   77.77120  144.72290
 12426.00000   87.60300   77.73490  144.66080
 12426.50000   87.18470   77.67400  144.77400
 12427.00000   86.72240   77.46600  145.28040
 12427.50000   87.56930   77.33010  145.66050
 12428.00000   88.54310   77.97880  145.65780
 12428.50000   88.46740   78.43900  145.57940
 12429.00000   85.91760   78.45580  145.00930
 12429.50000   82.79150   78.33770  144.76040
 12430.00000   81.70210   78.11850  144.53860
 12430.50000   82.07770   77.88320  143.98180
 12431.00000   84.90020   77.59900  143.51190
 12431.50000   87.05260   77.20090  143.07760
 12432.00000   85.74780   76.76800  142.38750
 12432.50000   82.59470   76.30230  141.65000
 12433.00000   79.32650   75.85330  141.05670
