~Version ---------------------------------------------------
VERS.   2.0 : CWLS log ASCII Standard -VERSION 2.0
WRAP.    NO : One line per depth step
DLM . SPACE : Column Data Section Delimiter
~Well ------------------------------------------------------
STRT .F                 2432.0 : START DEPTH
STOP .F                15958.0 : STOP DEPTH
STEP .F                    0.5 : STEP
NULL .                -9999.25 : NULL VALUE
COMP .                         : COMPANY
WELL .                         : WELL
FLD  .                         : FIELD
LOC  .                         : LOCATION
PROV .                         : PROVINCE
CNTY .                         : COUNTY
STAT .                         : STATE
CTRY .                         : COUNTRY
SRVC .                         : SERVICE COMPANY
DATE .                         : DATE
UWI  .                         : UNIQUE WELL ID
API  .                         : API NUMBER
SLAT .WGS84 1.2397559084428984 : SURFACE LATITUDE
SLON .WGS84  7.560371261200999 : SURFACE LONGITUDE
DATUM.F                 2834.6 : DEPTH DATUM ELEV
~Curve Information -----------------------------------------
DEPT.F     : 
GRS .GAPI  : GAMMA RAY FROM DIPOLESONIC
DTCO.US/F  : COMPRESSIONAL-WAVE INTERVAL TRANSIT TIME ACOUSTIC SLOWNESS
DTSM.US/F  : SHEAR-WAVE INTERVAL TRANSIT TIME DELTA-T
~Params ----------------------------------------------------
~Other -----------------------------------------------------
~ASCII -----------------------------------------------------
# ...
 11476.50000   64.67690   76.37760  141.31570
 11477.00000   62.51550   75.84860  141.28810
 11477.50000   64.82060   75.43030  141.26060
 11478.00000   67.96870   75.84050  141.42710
 11478.50000   70.27030   76.79790  142.26470
 11479.00000   71.10990   77.69360  143.94120
 11479.50000   73.30650   78.64240  145.44700
 11480.00000   77.36440   79.10090  146.41640
 11480.50000   80.79740   79.52590  146.82560
 11481.00000   80.42320   79.58800  146.58990
 11481.50000   77.96960   79.58630  146.49240
 11482.00000   76.23340   79.58400  146.35430
 11482.50000   74.93500   79.46760  146.21620
 11483.00000   73.68370   79.13700  146.29040
 11483.50000   72.60750   78.83650  146.16600
 11484.00000   73.07280   78.81070  145.52680
 11484.50000   74.18730   78.82230  145.18580
 11485.00000   76.52960   78.76280  144.89070
 11485.50000   79.26610   78.36480  144.43300
 11486.00000   79.14250   78.01410  144.68780
 11486.50000   77.43750   77.86380  145.89190
 11487.00000   75.53130   78.16650  146.61310
 11487.50000   76.76370   78.53700  146.10220
 11488.00000   77.62730   78.79490  145.54560
 11488.50000   78.20690   78.97520  145.31630
 11489.00000   78.06350   79.12600  145.12510
 11489.50000   77.20990   79.23500  144.97980
 11490.00000   77.75410   79.27750  144.83450
 11490.50000   78.94020   79.18420  144.78760
 11491.00000   82.13420   79.10430  144.86650
 11491.50000   83.75970   79.17870  144.04290
 11492.00000   85.11990   79.31310  143.79530
 11492.50000   87.81300   79.19940  143.40690
 11493.00000   90.42680   79.23460  143.44580
 11493.50000   89.87860   79.12700  143.53820
 11494.00000   85.77380   79.16380  143.66490
 11494.50000   80.64860   79.19170  143.99850
 11495.00000   77.30820   79.22920  143.45820
 11495.50000   79.69140   79.34400  144.29940
 11496.00000   83.53160   79.57960  144.02610
 11496.50000   87.54540   79.65600  143.48870
 11497.00000   88.86060   79.72880  141.95730
 11497.50000   89.86550   79.71650  138.89820
 11498.00000   89.91510   79.02850  135.62270
 11498.50000   89.09980   76.91820  130.00380
 11499.00000   82.45700   72.45820  124.73240
 11499.50000   68.94050   65.45810  117.07190
 11500.00000   53.84210   60.06040  113.66680
 11500.50000   43.42990   57.75170  111.65760
 11501.00000   31.46340   55.81570  111.07100
 11501.50000   28.74020   56.49360  112.59790
 11502.00000   33.90420   59.07280  116.90090
 11502.50000   42.87910   61.73210  120.97830
 11503.00000   52.37070   64.65910  124.06920
 11503.50000   56.57560   67.10600  126.34970
 11504.00000   59.24230   68.94650  127.62940
 11504.50000   60.02080   69.81960  129.52380
 11505.00000   58.87970   70.75870  132.91880
 11505.50000   58.63730   72.51990  137.45190
 11506.00000   62.22720   74.23990  141.44490
 11506.50000   72.76660   76.58850  144.75510
 11507.00000   81.94370   78.76440  146.99720
 11507.50000   88.27030   79.39220  148.02940
 11508.00000   89.63510   79.57890  147.82560
 11508.50000   88.76060   79.43140  146.83820
 11509.00000   86.14450   78.95420  144.27980
 11509.50000   85.06420   77.42180  141.40750
 11510.00000   83.99990   75.29000  138.45970
 11510.50000   80.33420   74.37590  136.70880
 11511.00000   74.98590   73.51850  136.61580
 11511.50000   74.84120   73.06500  136.64690
 11512.00000   77.29500   72.59840  136.14020
 11512.50000   80.53640   72.25350  135.81890
 11513.00000   77.40540   72.53360  135.29890
 11513.50000   67.56800   72.46270  134.96640
 11514.00000   60.80390   72.21390  135.76340
 11514.50000   61.17540   72.37060  136.76590
 11515.00000   66.44540   73.18430  137.62630
 11515.50000   69.25610   74.57710  138.49920
 11516.00000   68.70260   75.59800  139.82770
 11516.50000   67.96560   76.26650  141.20440
 11517.00000   68.98290   76.93550  142.38780
 11517.50000   70.77510   77.78080  143.33550
 11518.00000   73.24240   78.49780  144.20250
 11518.50000   76.40540   78.83550  145.09150
 11519.00000   79.47750   78.90470  145.00350
 11519.50000   82.13130   78.81280  144.08840
 11520.00000   83.68950   78.57590  143.49320
 11520.50000   84.53550   78.25670  143.09870
 11521.00000   84.15400   77.93490  142.41590
 11521.50000   82.24490   77.79610  142.43100
 11522.00000   80.00530   77.16260  142.08380
 11522.50000   78.28790   75.54490  139.64660
 11523.00000   76.42620   73.50540  135.85280
 11523.50000   69.55640   72.42040  132.54420
 11524.00000   60.19630   71.53140  132.35340
 11524.50000   60.27000   71.45580  134.08550
 11525.00000   68.48390   73.20490  137.44700
 11525.50000   77.50580   75.80310  140.15590
 11526.00000   82.16800   78.18880  143.74170
 11526.50000   83.21980   79.25570  145.08880
 11527.00000   82.48250   79.56930  145.47490
 11527.50000   79.79590   79.62340  145.41310
 11528.00000   78.17320   79.32380  144.47940
 11528.50000   80.51040   78.91160  143.93650
 11529.00000   83.14160   78.04180  142.38630
 11529.50000   81.36040   76.69700  140.97930
 11530.00000   78.16030   75.47030  139.50790
 11530.50000   75.26780   74.28400  137.69440
 11531.00000   72.72940   73.73560  136.58120
 11531.50000   70.54230   73.90140  137.02090
 11532.00000   70.62210   74.73570  139.29080
 11532.50000   72.01550   75.66720  140.95500
 11533.00000   73.50380   76.76980  142.03180
 11533.50000   76.59890   77.77320  142.68700
 11534.00000   81.50420   78.15850  142.91840
 11534.50000   85.06710   77.86190  143.82020
 11535.00000   86.34880   77.61250  144.16400
 11535.50000   85.78940   77.99780  144.46260
 11536.00000   84.60560   78.64150  144.90000
 11536.50000   83.69610   79.03160  145.30780
 11537.00000   84.09800   78.82940  144.96340
 11537.50000   85.33310   78.53790  144.30880
 11538.00000   84.54450   77.76510  143.07230
 11538.50000   81.94980   77.20970  141.90880
 11539.00000   78.93000   76.76340  140.42260
 11539.50000   76.95110   76.17090  139.27400
 11540.00000   76.06740   75.81770  138.47950
 11540.50000   75.59710   75.58070  138.03300
 11541.00000   75.05000   75.32020  137.72320
 11541.50000   74.13410   74.78300  137.12720
 11542.00000   72.20370   73.98360  136.67000
 11542.50000   69.46800   73.38680  135.97860
 11543.00000   67.31140   73.19610  136.60010
 11543.50000   67.42210   73.55030  138.42810
 11544.00000   69.84590   74.49410  139.90970
 11544.50000   72.17780   76.01120  141.50940
 11545.00000   75.34410   78.02790  143.52080
 11545.50000   78.04390   79.24910  144.03370
 11546.00000   79.19280   79.31670  143.55690
 11546.50000   78.74630   79.13530  142.76170
 11547.00000   76.33910   78.18470  140.48630
 11547.50000   73.09090   76.84230  137.75990
 11548.00000   68.40720   75.60330  135.13850
 11548.50000   65.12670   74.87480  133.82030
 11549.00000   67.34460   74.36680  133.41490
 11549.50000   74.57890   74.27820  133.78210
 11550.00000   80.41460   74.33460  133.81590
 11550.50000   82.94630   74.24870  133.40820
 11551.00000   80.51940   73.63610  132.17650
 11551.50000   75.44870   72.36550  129.48310
 11552.00000   69.27430   71.04090  127.90800
 11552.50000   63.48100   69.75950  127.59440
 11553.00000   60.50050   69.04380  128.28670
 11553.50000   60.83940   68.96300  128.37860
 11554.00000   63.62890   69.17570  128.89520
 11554.50000   66.83290   69.91190  129.21280
 11555.00000   71.31990   70.77030  128.83860
 11555.50000   75.43260   70.87160  128.44260
 11556.00000   76.62750   70.66530  127.37060
 11556.50000   73.49920   69.54540  125.67100
 11557.00000   66.50070   68.55140  124.12160
 11557.50000   60.52530   67.96550  123.19340
 11558.00000   60.61950   67.66730  122.88730
 11558.50000   62.04390   67.74640  122.86160
 11559.00000   63.95960   67.94230  122.86160
 11559.50000   62.57610   68.11270  122.93830
 11560.00000   60.57480   68.29320  123.23510
 11560.50000   58.65630   68.40440  123.56160
 11561.00000   58.66660   68.54860  123.50300
 11561.50000   58.90750   68.44420  122.93160
 11562.00000   59.39980   68.11780  123.15550
 11562.50000   60.53530   67.99660  122.80300
 11563.00000   61.59340   68.09470  122.92910
