~Version ---------------------------------------------------
VERS.   2.0 : CWLS log ASCII Standard -VERSION 2.0
WRAP.    NO : One line per depth step
DLM . SPACE : Column Data Section Delimiter
~Well ------------------------------------------------------
STRT .F                 2432.0 : START DEPTH
STOP .F                15958.0 : STOP DEPTH
STEP .F                    0.5 : STEP
NULL .                -9999.25 : NULL VALUE
COMP .                         : COMPANY
WELL .                         : WELL
FLD  .                         : FIELD
LOC  .                         : LOCATION
PROV .                         : PROVINCE
CNTY .                         : COUNTY
STAT .                         : STATE
CTRY .                         : COUNTRY
SRVC .                         : SERVICE COMPANY
DATE .                         : DATE
UWI  .                         : UNIQUE WELL ID
API  .                         : API NUMBER
SLAT .WGS84 1.2397559084428984 : SURFACE LATITUDE
SLON .WGS84  7.560371261200999 : SURFACE LONGITUDE
DATUM.F                 2834.6 : DEPTH DATUM ELEV
~Curve Information -----------------------------------------
DEPT.F     : 
GRS .GAPI  : GAMMA RAY FROM DIPOLESONIC
DTCO.US/F  : COMPRESSIONAL-WAVE INTERVAL TRANSIT TIME ACOUSTIC SLOWNESS
DTSM.US/F  : SHEAR-WAVE INTERVAL TRANSIT TIME DELTA-T
~Params ----------------------------------------------------
~Other -----------------------------------------------------
~ASCII -----------------------------------------------------
# ...
 14695.50000   64.75910   80.42030  151.69060
 14696.00000   72.96480   82.29230  155.75940
 14696.50000   80.64890   83.94060  157.82200
 14697.00000   86.25780   85.65760  158.36080
 14697.50000   85.39670   86.38060  158.81870
 14698.00000   82.62440   86.10000  157.95710
 14698.50000   79.16150   85.40020  157.07320
 14699.00000   75.78700   84.19030  155.85930
 14699.50000   71.51930   83.35960  154.46930
 14700.00000   67.17530   82.73280  153.47260
 14700.50000   65.17680   82.26490  153.04200
 14701.00000   66.67260   82.11030  149.58630
 14701.50000   69.74740   81.82890  147.29680
 14702.00000   70.08640   81.32030  145.83090
 14702.50000   68.77830   80.71530  144.96470
 14703.00000   68.87170   80.11930  144.35170
 14703.50000   71.38550   79.58960  145.49370
 14704.00000   72.68600   79.64650  147.07670
 14704.50000   70.67410   80.10420  148.19910
 14705.00000   66.50630   81.34030  151.10150
 14705.50000   67.71850   82.92990  155.01690
 14706.00000   73.90850   84.14660  157.50810
 14706.50000   81.38100   85.20800  158.71580
 14707.00000   89.46110   86.08310  158.07540
 14707.50000   89.19770   85.90470  155.74290
 14708.00000   81.16310   83.68710  150.57420
 14708.50000   72.69610   81.59720  146.89970
 14709.00000   62.93120   79.05600  141.44210
 14709.50000   57.06180   76.86540  137.31200
 14710.00000   55.74740   75.95160  138.07970
 14710.50000   56.38330   75.87700  139.10510
 14711.00000   58.95240   76.53140  140.51840
 14711.50000   61.13010   77.78920  141.83260
 14712.00000   63.25020   78.92260  142.79050
 14712.50000   66.03550   79.48700  144.22060
 14713.00000   67.25250   79.99660  145.48650
 14713.50000   68.00740   80.46310  147.05180
 14714.00000   70.47240   81.99870  148.86270
 14714.50000   74.62360   82.76330  151.22250
 14715.00000   78.27050   83.23730  152.97540
 14715.50000   76.99320   83.69170  153.41950
 14716.00000   73.51560   84.03330  151.42400
 14716.50000   69.54820   84.00750  148.82940
 14717.00000   67.98470   83.33320  146.16900
 14717.50000   67.80400   81.94890  143.85600
 14718.00000   67.28830   80.02360  141.46320
 14718.50000   65.16320   78.18800  139.42150
 14719.00000   61.43360   76.59880  138.23710
 14719.50000   57.69930   76.50650  140.83710
 14720.00000   58.12830   78.07250  144.32220
 14720.50000   64.52100   80.33470  151.59210
 14721.00000   72.89950   83.21600  158.20560
 14721.50000   78.27880   86.35330  162.56010
 14722.00000   79.20370   88.26600  163.18090
 14722.50000   77.25680   88.63280  161.37810
 14723.00000   73.40720   88.06540  157.11560
 14723.50000   70.43950   86.36820  150.72330
 14724.00000   67.74530   83.37780  143.11780
 14724.50000   64.84350   79.05920  136.56910
 14725.00000   60.00460   73.86980  128.95250
 14725.50000   51.36130   68.91690  123.51920
 14726.00000   42.82300   65.93920  121.77860
 14726.50000   38.24920   65.35650  123.70800
 14727.00000   38.93810   67.77310  129.00690
 14727.50000   44.43530   72.18120  136.10570
 14728.00000   51.09840   76.21520  142.97710
 14728.50000   58.93170   80.78400  147.50360
 14729.00000   68.29700   82.57330  149.40960
 14729.50000   74.52470   82.06750  147.13980
 14730.00000   74.34060   79.93740  143.28860
 14730.50000   64.86070   77.32960  136.58290
 14731.00000   52.36850   74.50890  133.91260
 14731.50000   45.49450   73.41860  133.88070
 14732.00000   49.22090   73.77820  135.35360
 14732.50000   55.33550   75.10600  137.13350
 14733.00000   60.98970   76.68600  138.82950
 14733.50000   61.77200   77.08400  139.77300
 14734.00000   59.94600   76.80440  140.70660
 14734.50000   57.77130   76.50580  141.94990
 14735.00000   57.23800   77.14300  143.81480
 14735.50000   63.69630   79.00860  147.11000
 14736.00000   72.36900   81.00430  150.34290
 14736.50000   75.73410   82.91940  153.66260
 14737.00000   76.20330   83.80690  155.19910
 14737.50000   73.67360   83.63880  155.29010
 14738.00000   70.65620   83.54030  154.90440
 14738.50000   67.62110   83.52130  154.31290
 14739.00000   68.88820   83.22570  153.01600
 14739.50000   72.96650   82.21210  150.08680
 14740.00000   74.37710   80.93420  147.46290
 14740.50000   71.75400   79.87520  144.97900
 14741.00000   65.38810   78.36730  143.46630
 14741.50000   60.65960   77.13200  142.99020
 14742.00000   60.87550   77.19640  143.97190
 14742.50000   62.85410   77.84650  145.15040
 14743.00000   66.77160   78.78430  146.04380
 14743.50000   68.47420   79.43630  145.57990
 14744.00000   69.37290   79.59670  145.44390
 14744.50000   69.95860   79.53560  145.13580
 14745.00000   68.01250   78.40370  143.63320
 14745.50000   62.48380   76.68670  141.97140
 14746.00000   54.89720   75.80490  140.78210
 14746.50000   50.72170   75.80480  141.74540
 14747.00000   55.17780   76.48140  144.59170
 14747.50000   66.08690   77.91320  148.21820
 14748.00000   74.18980   80.86320  152.29060
 14748.50000   76.71840   83.01860  155.94730
 14749.00000   77.05240   84.93200  156.78070
 14749.50000   79.52730   84.86450  156.36060
 14750.00000   82.22030   83.90740  154.01360
 14750.50000   80.07450   82.30560  150.17010
 14751.00000   73.32100   80.67180  146.13400
 14751.50000   65.93070   79.73060  144.38840
 14752.00000   60.69510   78.95710  143.49320
 14752.50000   61.35110   78.20930  143.81950
 14753.00000   65.99880   78.05970  145.21840
 14753.50000   67.57380   78.64790  145.85930
 14754.00000   65.50080   79.09420  146.04300
 14754.50000   63.28330   79.10450  146.75470
 14755.00000   62.60220   79.08100  149.09830
 14755.50000   62.54610   80.28260  152.35970
 14756.00000   65.33550   82.21400  155.68160
 14756.50000   71.36240   83.83820  157.28860
 14757.00000   78.92610   85.13290  158.01690
 14757.50000   84.14400   85.92360  158.19960
 14758.00000   86.92050   86.06720  157.21620
 14758.50000   87.48310   85.11510  153.79520
 14759.00000   81.01230   83.14790  149.28550
 14759.50000   72.05990   81.38330  148.22000
 14760.00000   66.20240   81.23570  151.72880
 14760.50000   64.04010   81.85110  151.17520
 14761.00000   69.76060   83.26980  154.84480
 14761.50000   76.30400   84.64910  157.85010
 14762.00000   77.86200   85.67500  159.30020
 14762.50000   76.08370   86.44140  159.86460
 14763.00000   71.54510   86.57440  160.42900
 14763.50000   68.22680   86.52080  160.19070
 14764.00000   68.06690   86.34440  159.71450
 14764.50000   70.09990   85.93610  159.23840
 14765.00000   74.55980   85.25480  158.66340
 14765.50000   78.17920   84.74330  156.90530
 14766.00000   77.71330   83.63560  153.65220
 14766.50000   74.15770   81.11130  147.30380
 14767.00000   67.14230   78.24960  141.33210
 14767.50000   57.70450   74.51450  136.51550
 14768.00000   47.14450   71.17280  133.79720
 14768.50000   39.97500   70.73370  132.77580
 14769.00000   40.56740   71.29870  137.44730
 14769.50000   51.88490   75.26070  146.98690
 14770.00000   64.61620   79.87880  152.18780
 14770.50000   74.61240   82.40240  155.91880
 14771.00000   78.23840   84.88410  157.21930
 14771.50000   76.05150   85.21460  156.48900
 14772.00000   72.18230   83.64630  154.00820
 14772.50000   69.19290   81.34920  149.96220
 14773.00000   67.40740   80.53710  147.43170
 14773.50000   65.97470   80.47310  147.27290
 14774.00000   67.29850   80.82700  149.73980
 14774.50000   72.43020   81.50460  153.70150
 14775.00000   78.17220   82.81920  156.41990
 14775.50000   81.41910   84.44140  157.31340
 14776.00000   79.47900   84.98910  157.59660
 14776.50000   75.28200   84.64510  157.37770
 14777.00000   71.69010   84.01320  156.51190
 14777.50000   71.14490   83.66900  155.88030
 14778.00000   72.99620   83.67890  156.06380
 14778.50000   75.60610   83.89790  156.27600
 14779.00000   78.20640   84.30560  156.42670
 14779.50000   81.27340   84.50120  156.57730
 14780.00000   82.71670   84.16960  155.82750
 14780.50000   80.08340   83.65870  154.25390
 14781.00000   75.47200   82.79900  151.25480
 14781.50000   72.45930   81.11330  148.13610
 14782.00000   69.66930   79.77960  145.90800
