~Version ---------------------------------------------------
VERS.   2.0 : CWLS log ASCII Standard -VERSION 2.0
WRAP.    NO : One line per depth step
DLM . SPACE : Column Data Section Delimiter
~Well ------------------------------------------------------
STRT .F                 2432.0 : START DEPTH
STOP .F                15958.0 : STOP DEPTH
STEP .F                    0.5 : STEP
NULL .                -9999.25 : NULL VALUE
COMP .                         : COMPANY
WELL .                         : WELL
FLD  .                         : FIELD
LOC  .                         : LOCATION
PROV .                         : PROVINCE
CNTY .                         : COUNTY
STAT .                         : STATE
CTRY .                         : COUNTRY
SRVC .                         : SERVICE COMPANY
DATE .                         : DATE
UWI  .                         : UNIQUE WELL ID
API  .                         : API NUMBER
SLAT .WGS84 1.2397559084428984 : SURFACE LATITUDE
SLON .WGS84  7.560371261200999 : SURFACE LONGITUDE
DATUM.F                 2834.6 : DEPTH DATUM ELEV
~Curve Information -----------------------------------------
DEPT.F     : 
GRS .GAPI  : GAMMA RAY FROM DIPOLESONIC
DTCO.US/F  : COMPRESSIONAL-WAVE INTERVAL TRANSIT TIME ACOUSTIC SLOWNESS
DTSM.US/F  : SHEAR-WAVE INTERVAL TRANSIT TIME DELTA-T
~Params ----------------------------------------------------
~Other -----------------------------------------------------
~ASCII -----------------------------------------------------
# ...
 14347.50000   74.38430   88.88590  168.89770
 14348.00000   73.02260   86.95260  165.71170
 14348.50000   72.20700   85.05790  161.60560
 14349.00000   70.48420   83.98950  160.07650
 14349.50000   68.37680   83.52500  162.76020
 14350.00000   69.05400   84.20760  165.34820
 14350.50000   72.54970   85.58600  168.43200
 14351.00000   79.89800   87.46770  172.38540
 14351.50000   85.60290   89.14080  174.16700
 14352.00000   86.22430   89.38110  172.69940
 14352.50000   80.88210   89.05010  171.06140
 14353.00000   71.75450   87.70730  168.86510
 14353.50000   67.36590   86.67370  167.53560
 14354.00000   68.05050   86.70000  167.42650
 14354.50000   71.01480   87.52120  167.98660
 14355.00000   76.20460   88.58290  168.84300
 14355.50000   81.32260   89.08810  169.32530
 14356.00000   84.22570   88.80210  169.96880
 14356.50000   82.36910   88.55090  170.79070
 14357.00000   77.94410   88.28890  170.62330
 14357.50000   74.37120   88.04970  170.33190
 14358.00000   73.49440   87.84300  169.59490
 14358.50000   73.22150   87.83830  168.85790
 14359.00000   72.35000   87.89390  168.60460
 14359.50000   70.73860   88.03620  168.70130
 14360.00000   70.52120   88.01930  168.85680
 14360.50000   72.03720   87.31230  168.60800
 14361.00000   74.87230   86.05790  167.24930
 14361.50000   74.78570   84.82570  164.07750
 14362.00000   71.65530   83.19380  161.34780
 14362.50000   67.04880   81.48310  159.63180
 14363.00000   65.41150   82.02380  158.73220
 14363.50000   64.55050   83.51720  159.29560
 14364.00000   64.91150   85.00100  161.43020
 14364.50000   67.35930   85.46880  162.22270
 14365.00000   72.87620   85.16020  158.86470
 14365.50000   74.24680   83.55180  152.67230
 14366.00000   67.46370   78.85980  141.97470
 14366.50000   56.40650   73.23330  134.44230
 14367.00000   42.61510   65.27670  125.96040
 14367.50000   31.71760   60.28090  118.68420
 14368.00000   28.09130   58.16390  115.24970
 14368.50000   28.40180   57.73140  113.60770
 14369.00000   31.12480   58.67070  113.82510
 14369.50000   32.98620   59.68290  114.69780
 14370.00000   33.42560   60.28490  115.92580
 14370.50000   33.88540   60.99040  119.44080
 14371.00000   33.58870   62.71390  125.38450
 14371.50000   34.98450   65.47400  133.48650
 14372.00000   42.79350   69.83630  144.82870
 14372.50000   53.21180   75.19130  153.18710
 14373.00000   69.48770   82.33320  164.37780
 14373.50000   81.19510   85.95440  170.50640
 14374.00000   87.44360   87.84320  172.48040
 14374.50000   87.16610   88.12290  171.45890
 14375.00000   81.15110   87.13860  167.79270
 14375.50000   72.91880   85.83190  163.31430
 14376.00000   67.59200   84.70600  160.56280
 14376.50000   66.36820   83.96190  159.66620
 14377.00000   65.78140   83.92510  160.80000
 14377.50000   64.95520   84.31680  162.91640
 14378.00000   66.51720   85.19020  163.37190
 14378.50000   69.32670   85.97720  163.34890
 14379.00000   72.19340   86.89350  166.67540
 14379.50000   73.22560   87.87400  169.66450
 14380.00000   73.76680   88.28870  169.42010
 14380.50000   74.28210   87.82190  169.21720
 14381.00000   74.08180   87.02390  169.14280
 14381.50000   74.09540   86.45710  168.02810
 14382.00000   74.79700   86.02920  166.60690
 14382.50000   75.53860   85.67870  164.34970
 14383.00000   74.86910   85.54580  164.54360
 14383.50000   70.30330   85.85380  166.52370
 14384.00000   65.86120   86.22860  167.47920
 14384.50000   66.49910   86.61120  168.65520
 14385.00000   72.22890   87.46320  171.75200
 14385.50000   79.50820   88.66050  174.72600
 14386.00000   83.66150   89.76490  175.93040
 14386.50000   85.31320   90.48410  176.82140
 14387.00000   84.88830   89.90540  174.61220
 14387.50000   84.09720   89.22050  171.47640
 14388.00000   82.25910   88.70850  169.16610
 14388.50000   79.47560   88.15110  168.64040
 14389.00000   76.22810   87.71110  170.67530
 14389.50000   74.97590   87.86510  172.83220
 14390.00000   79.07600   88.50090  172.38230
 14390.50000   84.28600   89.21390  173.48370
 14391.00000   88.64330   89.84470  176.89180
 14391.50000   88.45100   89.82450  176.06860
 14392.00000   86.11920   88.60680  170.47420
 14392.50000   83.65810   86.78930  164.18690
 14393.00000   77.12980   82.80020  158.72440
 14393.50000   66.54520   80.04890  156.50830
 14394.00000   58.35780   78.27730  156.13040
 14394.50000   55.24310   77.84190  157.97320
 14395.00000   59.45020   79.69470  162.04560
 14395.50000   66.91600   82.63920  167.33800
 14396.00000   73.56720   85.54440  171.63910
 14396.50000   78.44500   87.51060  175.21490
 14397.00000   82.17310   89.26990  176.51660
 14397.50000   83.03720   90.59600  174.90210
 14398.00000   81.49290   89.53540  171.99970
 14398.50000   77.83290   88.20170  168.84420
 14399.00000   71.17420   84.69180  164.10170
 14399.50000   64.59600   83.18020  162.27000
 14400.00000   62.67990   83.41910  165.38310
 14400.50000   66.95420   84.82450  167.61720
 14401.00000   75.22240   86.86830  171.39540
 14401.50000   81.00490   88.92390  174.59820
 14402.00000   82.94090   89.84340  173.70300
 14402.50000   83.31670   90.59470  172.22690
 14403.00000   81.92520   89.89050  168.23970
 14403.50000   78.77440   89.10050  164.64380
 14404.00000   75.37900   87.75370  161.24100
 14404.50000   72.72230   86.49580  160.86690
 14405.00000   71.76370   86.37470  163.29270
 14405.50000   71.61300   86.97920  165.21780
 14406.00000   72.60000   87.24900  166.70740
 14406.50000   76.60230   87.67710  168.01820
 14407.00000   80.54100   88.33850  169.09770
 14407.50000   81.63560   89.05290  170.10800
 14408.00000   79.55340   89.17990  171.44770
 14408.50000   76.67290   89.25470  172.42650
 14409.00000   75.78240   89.13710  172.35670
 14409.50000   76.47690   89.10780  171.50600
 14410.00000   77.17370   88.43450  169.81660
 14410.50000   76.20640   87.07480  166.98450
 14411.00000   69.84070   84.83850  161.89120
 14411.50000   64.16740   83.54820  159.00770
 14412.00000   62.90930   82.59660  157.51060
 14412.50000   64.51070   81.93940  155.28010
 14413.00000   66.80440   81.51400  154.42890
 14413.50000   65.91720   81.74690  155.40160
 14414.00000   63.60510   82.53840  156.06130
 14414.50000   61.48760   83.42940  157.16210
 14415.00000   61.73520   84.40060  161.23270
 14415.50000   66.23560   85.52920  166.04690
 14416.00000   74.66880   86.22460  169.77810
 14416.50000   82.46130   86.76860  170.92200
 14417.00000   85.95320   86.88960  171.27520
 14417.50000   81.53810   86.95970  170.89690
 14418.00000   79.32410   86.96480  169.62390
 14418.50000   79.17840   86.86430  169.20690
 14419.00000   80.66870   86.49980  168.92620
 14419.50000   79.96850   86.20890  168.92680
 14420.00000   76.57940   85.93840  169.05090
 14420.50000   71.08860   85.47700  168.55600
 14421.00000   69.14920   85.00850  167.20380
 14421.50000   73.25210   84.71930  167.06790
 14422.00000   78.04010   84.79160  167.83620
 14422.50000   78.67320   85.33590  167.73540
 14423.00000   73.62760   85.71870  167.09930
 14423.50000   69.35980   85.78310  166.05810
 14424.00000   69.16310   85.51710  164.16260
 14424.50000   69.56380   85.02520  162.23500
 14425.00000   67.53660   84.31250  159.78830
 14425.50000   64.14350   83.33440  157.65680
 14426.00000   61.80120   81.94150  155.24850
 14426.50000   61.35280   80.63100  151.49800
 14427.00000   62.61670   79.13920  146.61330
 14427.50000   62.27650   76.96910  140.40920
 14428.00000   59.61800   74.11800  137.43450
 14428.50000   56.42250   70.90820  132.08150
 14429.00000   51.74430   66.85020  124.70420
 14429.50000   45.93880   62.82490  120.74030
 14430.00000   39.65370   61.50990  120.80910
 14430.50000   34.58270   61.94280  124.27720
 14431.00000   36.80420   66.57680  133.28460
 14431.50000   50.37850   74.60330  145.08870
 14432.00000   66.80160   81.60900  155.38820
 14432.50000   75.94620   84.74140  161.51040
 14433.00000   79.60930   86.75880  165.97410
 14433.50000   75.72730   87.05950  166.28260
 14434.00000   70.68490   86.42610  164.51730
