~Version ---------------------------------------------------
VERS.   2.0 : CWLS log ASCII Standard -VERSION 2.0
WRAP.    NO : One line per depth step
DLM . SPACE : Column Data Section Delimiter
~Well ------------------------------------------------------
STRT .F                 2432.0 : START DEPTH
STOP .F                15958.0 : STOP DEPTH
STEP .F                    0.5 : STEP
NULL .                -9999.25 : NULL VALUE
COMP .                         : COMPANY
WELL .                         : WELL
FLD  .                         : FIELD
LOC  .                         : LOCATION
PROV .                         : PROVINCE
CNTY .                         : COUNTY
STAT .                         : STATE
CTRY .                         : COUNTRY
SRVC .                         : SERVICE COMPANY
DATE .                         : DATE
UWI  .                         : UNIQUE WELL ID
API  .                         : API NUMBER
SLAT .WGS84 1.2397559084428984 : SURFACE LATITUDE
SLON .WGS84  7.560371261200999 : SURFACE LONGITUDE
DATUM.F                 2834.6 : DEPTH DATUM ELEV
~Curve Information -----------------------------------------
DEPT.F     : 
GRS .GAPI  : GAMMA RAY FROM DIPOLESONIC
DTCO.US/F  : COMPRESSIONAL-WAVE INTERVAL TRANSIT TIME ACOUSTIC SLOWNESS
DTSM.US/F  : SHEAR-WAVE INTERVAL TRANSIT TIME DELTA-T
~Params ----------------------------------------------------
~Other -----------------------------------------------------
~ASCII -----------------------------------------------------
# ...
 15913.50000  130.86620   95.54400  160.04810
 15914.00000  133.99500   95.24280  158.80100
 15914.50000  138.67790   94.57230  158.19910
 15915.00000  140.73300   93.44650  157.33350
 15915.50000  135.54120   92.94260  157.27590
 15916.00000  126.44300   93.04480  157.07570
 15916.50000  117.56200   93.02840  156.81650
 15917.00000  113.38620   92.37960  156.38480
 15917.50000  114.64290   91.18090  154.29840
 15918.00000  113.09210   89.55620  150.30860
 15918.50000  107.54050   87.95990  147.10500
 15919.00000   96.26510   87.11990  144.89260
 15919.50000   90.97910   86.84220  144.39750
 15920.00000   93.29070   86.86230  144.70440
 15920.50000  100.53700   87.66570  144.77820
 15921.00000  113.09170   89.55270  145.37600
 15921.50000  123.34080   91.48300  146.57400
 15922.00000  132.62720   91.86760  147.62690
 15922.50000  138.01260   91.64710  148.36660
 15923.00000  140.38660   91.19430  147.73350
 15923.50000  138.77780   90.98800  146.73920
 15924.00000  133.90850   90.68300  147.12620
 15924.50000  128.15310   90.66330  148.28980
 15925.00000  124.80230   90.97340  150.79330
 15925.50000  130.04480   92.16270  152.61950
 15926.00000  144.90690   93.36030  154.63330
 15926.50000  157.52090   94.45650  156.16960
 15927.00000  165.10960   95.37930  157.40160
 15927.50000  166.29460   95.68440  158.08830
 15928.00000  164.11790   95.74670  157.67400
 15928.50000  161.98220   95.65910  156.93980
 15929.00000  168.74780   94.01880  155.95300
 15929.50000  206.45920   91.43070  153.60160
 15930.00000  275.00440   89.39590  150.34320
 15930.50000  299.70390   87.99230  147.84670
 15931.00000  299.91280   86.28290  144.93590
 15931.50000  297.54270   85.23810  143.59520
 15932.00000  220.45420   85.18320  143.31110
 15932.50000  165.67550   85.52270  143.52080
 15933.00000  149.65890   85.72330  144.39680
 15933.50000  142.11250   85.92270  144.79250
 15934.00000  139.72290   86.20720  144.43580
 15934.50000  137.91950   86.22510  142.64160
 15935.00000  135.97980   84.91710  138.87000
 15935.50000  134.96950   80.39200  135.16470
 15936.00000  135.37090   74.46330  130.34770
 15936.50000  138.18870   70.25690  122.82800
 15937.00000  141.07410   67.89020  116.38300
 15937.50000  141.52420   66.17140  113.37900
 15938.00000  140.57790   65.52960  114.52590
 15938.50000  139.57570   66.86090  117.82740
 15939.00000  139.70030   70.20010  123.48910
 15939.50000  138.90260   74.57880  128.51110
 15940.00000  138.61200   78.03820  130.84730
 15940.50000  139.80440   79.65740  133.25320
 15941.00000  141.20450   79.56310  133.36530
 15941.50000  141.07410   78.90890  133.19650
 15942.00000  139.96920   78.66590  133.38900
 15942.50000  140.02100   79.22640  135.06780
 15943.00000  140.70290   80.58510  138.67710
 15943.50000  141.98830   81.87440  142.68870
 15944.00000  142.72200   83.57160  146.55400
 15944.50000  143.36440   84.95980  149.31560
 15945.00000  143.98170   86.73240  149.45470
 15945.50000  143.84630   87.20670  147.32580
 15946.00000  143.27400   85.88390  142.27080
 15946.50000  142.85590   83.26190  135.66380
 15947.00000  141.41430   78.20090  124.05690
 15947.50000  141.01450   71.59490  114.47490
 15948.00000  141.23240   64.58600  108.68510
 15948.50000  141.77570   60.54720  106.81240
 15949.00000  140.88350   59.20960  106.91050
 15949.50000  136.68630   61.74670  108.02130
 15950.00000  132.41650   65.39550  110.70450
 15950.50000  127.08040   68.93100  113.65540
 15951.00000  124.74270   73.31650  119.18300
 15951.50000   -9999.25   76.19390  121.99270
 15952.00000   -9999.25   76.47300  122.63090
 15952.50000   -9999.25   75.52940  122.52310
 15953.00000   -9999.25   73.81590  121.58250
 15953.50000   -9999.25   72.58140  121.11100
 15954.00000   -9999.25   72.37150  121.81630
 15954.50000   -9999.25   73.08890  123.46460
 15955.00000   -9999.25   74.35770  125.52900
 15955.50000   -9999.25   75.59020  127.89550
 15956.00000   -9999.25   76.61430  129.77670
 15956.50000   -9999.25   77.96800  131.98980
 15957.00000   -9999.25   79.39570  134.05810
 15957.50000   -9999.25   81.24450  136.42910
 15958.00000   -9999.25   82.59650  137.90220
