~Version ---------------------------------------------------
VERS.   2.0 : CWLS log ASCII Standard -VERSION 2.0
WRAP.    NO : One line per depth step
DLM . SPACE : Column Data Section Delimiter
~Well ------------------------------------------------------
STRT .F                 2432.0 : START DEPTH
STOP .F                15958.0 : STOP DEPTH
STEP .F                    0.5 : STEP
NULL .                -9999.25 : NULL VALUE
COMP .                         : COMPANY
WELL .                         : WELL
FLD  .                         : FIELD
LOC  .                         : LOCATION
PROV .                         : PROVINCE
CNTY .                         : COUNTY
STAT .                         : STATE
CTRY .                         : COUNTRY
SRVC .                         : SERVICE COMPANY
DATE .                         : DATE
UWI  .                         : UNIQUE WELL ID
API  .                         : API NUMBER
SLAT .WGS84 1.2397559084428984 : SURFACE LATITUDE
SLON .WGS84  7.560371261200999 : SURFACE LONGITUDE
DATUM.F                 2834.6 : DEPTH DATUM ELEV
~Curve Information -----------------------------------------
DEPT.F     : 
GRS .GAPI  : GAMMA RAY FROM DIPOLESONIC
DTCO.US/F  : COMPRESSIONAL-WAVE INTERVAL TRANSIT TIME ACOUSTIC SLOWNESS
DTSM.US/F  : SHEAR-WAVE INTERVAL TRANSIT TIME DELTA-T
~Params ----------------------------------------------------
~Other -----------------------------------------------------
~ASCII -----------------------------------------------------
# ...
 12694.50000   86.87640   76.18610  143.42640
 12695.00000   84.46950   76.22820  142.90280
 12695.50000   85.09690   76.22750  142.98060
 12696.00000   85.75910   76.17780  143.05850
 12696.50000   84.33480   76.25420  143.13640
 12697.00000   80.01660   76.35610  143.39650
 12697.50000   77.39410   76.66240  144.11950
 12698.00000   78.12740   77.01230  144.49840
 12698.50000   81.11010   77.12640  144.36340
 12699.00000   85.02460   76.78470  143.58240
 12699.50000   86.71470   76.02530  142.43730
 12700.00000   83.28270   75.27840  140.98380
 12700.50000   79.07400   74.90230  140.39430
 12701.00000   76.00310   74.89950  140.39580
 12701.50000   76.24530   75.16410  140.56900
 12702.00000   78.19260   76.02470  140.84770
 12702.50000   80.62550   76.73160  142.51460
 12703.00000   82.70820   76.68000  143.03200
 12703.50000   82.18460   76.13360  142.48810
 12704.00000   77.88000   75.62120  141.64210
 12704.50000   74.54030   75.45630  141.41490
 12705.00000   76.12160   75.11320  141.52350
 12705.50000   79.77120   74.89740  141.02630
 12706.00000   80.94030   74.86140  139.79640
 12706.50000   78.83590   75.10840  139.35600
 12707.00000   79.03670   75.37820  139.91720
 12707.50000   81.51770   75.60690  140.57190
 12708.00000   82.03670   75.84570  140.45660
 12708.50000   80.72570   75.83830  139.96950
 12709.00000   79.00610   75.72760  139.61060
 12709.50000   78.62900   75.63730  139.59840
 12710.00000   79.42520   75.51470  140.08510
 12710.50000   80.82760   75.58340  141.01770
 12711.00000   83.55360   75.85290  140.99850
 12711.50000   85.97130   75.94220  140.62260
 12712.00000   85.44680   75.09940  139.91350
 12712.50000   82.61560   74.14150  139.13210
 12713.00000   76.00880   73.54190  138.81790
 12713.50000   70.53430   73.80710  139.77430
 12714.00000   71.08070   74.39760  140.73070
 12714.50000   75.42060   74.84780  141.83270
 12715.00000   80.05700   75.86800  142.28370
 12715.50000   82.36310   76.64350  142.52660
 12716.00000   81.87920   76.39750  142.41380
 12716.50000   80.42050   75.80150  141.89090
 12717.00000   79.04700   75.58630  141.23880
 12717.50000   78.34100   75.40550  140.68200
 12718.00000   77.67400   75.32800  140.17060
 12718.50000   77.40040   75.19320  140.23390
 12719.00000   78.04820   75.31820  140.83480
 12719.50000   79.31310   75.82690  142.43640
 12720.00000   79.91430   76.72800  144.18910
 12720.50000   79.98170   77.80670  146.25080
 12721.00000   79.65690   78.96780  147.06640
 12721.50000   79.46730   79.04680  146.22690
 12722.00000   79.28410   78.28680  144.90930
 12722.50000   77.70370   76.93300  142.62840
 12723.00000   72.68950   75.67540  140.13390
 12723.50000   68.44530   74.63870  138.23870
 12724.00000   69.79640   74.07660  137.19910
 12724.50000   73.29670   74.13210  136.97470
 12725.00000   77.98950   74.76020  137.56670
 12725.50000   81.59520   75.46130  138.77580
 12726.00000   85.70530   75.87040  140.19630
 12726.50000   88.88880   76.08570  141.34000
 12727.00000   90.05260   76.17160  141.81110
 12727.50000   87.88950   76.14790  141.90500
 12728.00000   84.84750   76.12550  141.86120
 12728.50000   81.89130   75.97540  141.81480
 12729.00000   81.11880   75.81580  141.52180
 12729.50000   81.89480   75.44820  141.68100
 12730.00000   81.55170   75.55770  141.38890
 12730.50000   80.31490   75.52360  140.57640
 12731.00000   78.53780   75.32400  140.08830
 12731.50000   77.99440   74.95990  139.80080
 12732.00000   76.98640   74.11390  139.27380
 12732.50000   75.61930   73.37930  137.61130
 12733.00000   74.13020   72.88560  135.88280
 12733.50000   73.77840   72.69050  136.58280
 12734.00000   74.97550   72.86410  137.20580
 12734.50000   76.17260   73.45910  138.24330
 12735.00000   77.24730   74.29400  141.39110
 12735.50000   78.33510   75.03680  143.48580
 12736.00000   79.51420   75.74730  143.19200
 12736.50000   80.66570   75.84910  143.74260
 12737.00000   79.83410   75.83900  144.15200
 12737.50000   76.32730   75.67570  143.18810
 12738.00000   75.07290   75.59060  142.17990
 12738.50000   76.11550   75.55650  141.50560
 12739.00000   80.75260   75.26890  141.31780
 12739.50000   83.23290   75.14790  143.17550
 12740.00000   82.47910   75.90590  145.00390
 12740.50000   81.31880   77.34990  150.75680
 12741.00000   81.54130   79.30400  154.84060
 12741.50000   84.44240   81.24980  159.30610
 12742.00000   90.10710   83.28290  161.99780
 12742.50000   95.24320   84.37590  163.84230
 12743.00000   98.32150   84.96640  164.06540
 12743.50000   96.16110   84.75280  162.00730
 12744.00000   92.47160   83.95360  158.34450
 12744.50000   91.09140   82.97360  155.15410
 12745.00000   90.56820   81.71270  148.63980
 12745.50000   89.08740   79.55680  141.23290
 12746.00000   83.92090   76.48820  134.16110
 12746.50000   75.57260   73.25960  129.31700
 12747.00000   61.17170   67.42130  121.40170
 12747.50000   49.57630   63.33630  116.65650
 12748.00000   40.74970   61.56710  114.29270
 12748.50000   38.23120   61.33370  114.91260
 12749.00000   45.27980   63.51210  118.67400
 12749.50000   57.74890   67.06650  124.94060
 12750.00000   64.83530   71.07800  131.32370
 12750.50000   70.10800   73.97700  136.18560
 12751.00000   75.77110   75.73020  140.16800
 12751.50000   81.30050   76.35700  143.14330
 12752.00000   84.44740   77.02590  143.69220
 12752.50000   85.35070   77.28840  142.91890
 12753.00000   85.01180   76.79540  141.81890
 12753.50000   82.81110   76.12630  140.86070
 12754.00000   81.23940   75.60660  139.73320
 12754.50000   81.85760   75.05920  139.54430
 12755.00000   82.46010   74.60280  139.28770
 12755.50000   80.97070   74.52280  138.64130
 12756.00000   78.22870   74.52750  138.34510
 12756.50000   74.99060   74.39340  138.21860
 12757.00000   72.43580   74.23800  138.42240
 12757.50000   71.29340   73.85790  138.83830
 12758.00000   70.37210   73.76170  140.11760
 12758.50000   68.78670   74.50010  141.91330
 12759.00000   68.63760   75.79470  145.62970
 12759.50000   73.06190   78.00500  150.66820
 12760.00000   79.96710   80.32460  153.40120
 12760.50000   85.97270   82.78730  155.72740
 12761.00000   90.08750   83.71290  155.50560
 12761.50000   92.37270   83.01430  150.59860
 12762.00000   93.17750   80.47360  142.13720
 12762.50000   89.61560   76.69920  133.10690
 12763.00000   78.68820   71.44530  125.40910
 12763.50000   60.55550   66.26920  121.06460
 12764.00000   48.65460   63.59140  119.60150
 12764.50000   45.40460   63.64890  124.15940
 12765.00000   52.74350   66.55220  130.50300
 12765.50000   68.56790   70.49750  136.77740
 12766.00000   81.81100   73.61000  141.50430
 12766.50000   90.79910   75.43590  143.47250
 12767.00000   89.81790   75.66000  142.55650
 12767.50000   83.14780   75.23260  139.09270
 12768.00000   76.49100   74.72540  137.01380
 12768.50000   75.48280   74.30440  135.95710
 12769.00000   77.23300   74.29280  135.99310
 12769.50000   77.98660   74.71320  136.58720
 12770.00000   76.43130   74.80400  137.55480
 12770.50000   75.84070   74.82120  138.49890
 12771.00000   75.66230   74.78310  139.04160
 12771.50000   77.99230   75.11060  139.30730
 12772.00000   79.20780   75.22600  139.35660
 12772.50000   78.95050   75.18080  139.03890
 12773.00000   76.18730   74.87070  138.44430
 12773.50000   73.02160   74.23790  137.23690
 12774.00000   71.81160   73.73370  135.95260
 12774.50000   71.07920   73.21600  135.77510
 12775.00000   70.73250   73.11410  136.32260
 12775.50000   71.82130   73.47270  136.43260
 12776.00000   74.66280   73.78420  136.94670
 12776.50000   77.82910   74.39990  138.39480
 12777.00000   80.69640   74.70570  140.72980
 12777.50000   80.36530   74.81680  141.58270
 12778.00000   79.19360   74.85980  141.53430
 12778.50000   77.46270   74.75270  141.23930
 12779.00000   73.81160   74.41440  138.99030
 12779.50000   68.91770   73.90600  136.34430
 12780.00000   66.93200   73.56500  135.30410
 12780.50000   68.57450   73.37250  134.65860
 12781.00000   72.05490   73.65080  134.73660
