~Version ---------------------------------------------------
VERS.   2.0 : CWLS log ASCII Standard -VERSION 2.0
WRAP.    NO : One line per depth step
DLM . SPACE : Column Data Section Delimiter
~Well ------------------------------------------------------
STRT .F                 2432.0 : START DEPTH
STOP .F                15958.0 : STOP DEPTH
STEP .F                    0.5 : STEP
NULL .                -9999.25 : NULL VALUE
COMP .                         : COMPANY
WELL .                         : WELL
FLD  .                         : FIELD
LOC  .                         : LOCATION
PROV .                         : PROVINCE
CNTY .                         : COUNTY
STAT .                         : STATE
CTRY .                         : COUNTRY
SRVC .                         : SERVICE COMPANY
DATE .                         : DATE
UWI  .                         : UNIQUE WELL ID
API  .                         : API NUMBER
SLAT .WGS84 1.2397559084428984 : SURFACE LATITUDE
SLON .WGS84  7.560371261200999 : SURFACE LONGITUDE
DATUM.F                 2834.6 : DEPTH DATUM ELEV
~Curve Information -----------------------------------------
DEPT.F     : 
GRS .GAPI  : GAMMA RAY FROM DIPOLESONIC
DTCO.US/F  : COMPRESSIONAL-WAVE INTERVAL TRANSIT TIME ACOUSTIC SLOWNESS
DTSM.US/F  : SHEAR-WAVE INTERVAL TRANSIT TIME DELTA-T
~Params ----------------------------------------------------
~Other -----------------------------------------------------
~ASCII -----------------------------------------------------
# ...
 15478.50000   52.85180   62.82090  108.75000
 15479.00000   49.07760   60.32520  108.88480
 15479.50000   40.59700   57.74960  108.18950
 15480.00000   33.28970   55.91570  108.03270
 15480.50000   26.77590   54.93460  108.09770
 15481.00000   23.84250   54.63050  108.27460
 15481.50000   24.46050   54.16700  109.61430
 15482.00000   26.90180   54.39500  113.22200
 15482.50000   29.73690   55.81630  117.70180
 15483.00000   34.83020   57.59240  124.79150
 15483.50000   42.97840   57.62270  131.11410
 15484.00000   56.67230   55.83260  136.02420
 15484.50000   66.41060   53.97080  136.83800
 15485.00000   64.21950   53.00610  130.44690
 15485.50000   51.81840   52.85980  122.48930
 15486.00000   40.08870   53.43530  115.37040
 15486.50000   31.76660   54.34660  111.70580
 15487.00000   28.60990   54.65540  109.24240
 15487.50000   27.34520   54.63660  106.26450
 15488.00000   27.46250   54.30580  104.05800
 15488.50000   27.14790   54.02030  103.04550
 15489.00000   25.41130   54.03990  101.31000
 15489.50000   22.39710   53.77800  100.26500
 15490.00000   20.80990   53.14200   99.79580
 15490.50000   20.87000   53.14850  100.04380
 15491.00000   23.78640   53.81850  102.24590
 15491.50000   27.20530   54.81900  102.56840
 15492.00000   29.85570   55.38040  102.93650
 15492.50000   29.77120   55.19450  104.33430
 15493.00000   25.85720   54.46100  106.45230
 15493.50000   19.74460   53.98800  105.88180
 15494.00000   15.92160   53.67640  107.39640
 15494.50000   13.47930   53.67640  110.80270
 15495.00000   16.71150   53.95150  115.79530
 15495.50000   21.58440   55.49390  118.22540
 15496.00000   25.65450   59.75230  121.15760
 15496.50000   30.17240   63.81770  126.94690
 15497.00000   37.23740   68.40610  135.25220
 15497.50000   47.33870   68.99840  137.98250
 15498.00000   56.79600   67.65820  136.12060
 15498.50000   58.38980   67.24390  132.06070
 15499.00000   51.35230   66.24920  126.15710
 15499.50000   41.02070   63.36790  122.41550
 15500.00000   36.90930   61.87250  122.61520
 15500.50000   38.56880   61.78940  124.82810
 15501.00000   44.78050   65.36230  128.32120
 15501.50000   53.07270   70.44040  137.05280
 15502.00000   59.93730   76.37590  147.05360
 15502.50000   67.56040   79.16050  154.51880
 15503.00000   76.29270   79.68210  156.23560
 15503.50000   80.72830   79.20500  149.27550
 15504.00000   76.84700   77.62600  141.34130
 15504.50000   66.55550   74.69770  135.02870
 15505.00000   55.45010   70.71770  131.07540
 15505.50000   48.99850   68.30290  126.98250
 15506.00000   45.26620   68.27610  124.63600
 15506.50000   42.47290   69.03120  123.36390
 15507.00000   42.96480   69.20430  123.48760
 15507.50000   45.73390   69.43280  124.78500
 15508.00000   52.01000   70.46780  126.12660
 15508.50000   57.99030   71.86080  127.87760
 15509.00000   62.12420   72.38250  128.57390
 15509.50000   60.40070   71.68880  127.84250
 15510.00000   56.11810   70.84150  130.20820
 15510.50000   54.07550   69.54330  132.19300
 15511.00000   58.98480   67.23060  131.80910
 15511.50000   62.62970   65.25660  129.71170
 15512.00000   56.26180   62.13670  124.27240
 15512.50000   42.89210   57.31790  119.37870
 15513.00000   30.46530   53.37540  119.23140
 15513.50000   25.68450   52.07020  120.51600
 15514.00000   24.91870   52.92550  124.14330
 15514.50000   29.27050   54.95340  131.75390
 15515.00000   39.50710   58.35300  137.95520
 15515.50000   52.48760   63.44010  141.06330
 15516.00000   58.69480   68.00090  142.48020
 15516.50000   61.43130   70.88220  143.93640
 15517.00000   59.81440   72.58850  143.49820
 15517.50000   56.29410   74.45920  143.54660
 15518.00000   54.71660   76.15970  144.69640
 15518.50000   56.02290   78.21650  146.71290
 15519.00000   62.24630   81.05290  150.50560
 15519.50000   69.95410   83.33670  153.34010
 15520.00000   70.95060   84.90490  153.91040
 15520.50000   68.93910   85.48710  153.19560
 15521.00000   65.19730   85.76020  152.17150
 15521.50000   66.60520   84.96830  150.17520
 15522.00000   72.86220   83.39250  148.51060
 15522.50000   77.96390   81.99300  147.32720
 15523.00000   76.41180   80.55090  144.97640
 15523.50000   67.74830   78.67590  141.80860
 15524.00000   60.11690   76.95150  139.31020
 15524.50000   54.29210   75.96950  136.92570
 15525.00000   54.69160   76.17790  136.94080
 15525.50000   60.58110   78.50180  140.31890
 15526.00000   69.13950   81.84120  146.00330
 15526.50000   79.08870   84.42970  152.10060
 15527.00000   88.29930   86.56620  155.96380
 15527.50000   90.75240   86.97570  156.94800
 15528.00000   86.10230   86.73340  155.35040
 15528.50000   75.66460   85.52880  151.79130
 15529.00000   66.63470   83.36950  145.98380
 15529.50000   60.10240   79.08710  141.73700
 15530.00000   57.34610   77.15490  138.53440
 15530.50000   55.66570   76.83390  136.97080
 15531.00000   54.91560   77.82960  136.93800
 15531.50000   52.68040   80.02740  140.30980
 15532.00000   52.33630   82.46210  144.83060
 15532.50000   56.53370   84.67280  151.84630
 15533.00000   66.48750   86.74300  154.81550
 15533.50000   73.61210   87.81510  157.73870
 15534.00000   72.48090   87.78700  158.10640
 15534.50000   68.66580   87.46440  156.48740
 15535.00000   62.99710   86.05070  153.16850
 15535.50000   59.20730   83.81700  148.45010
 15536.00000   57.23550   81.05800  143.24640
 15536.50000   55.63340   79.48130  140.98580
 15537.00000   54.22180   79.23550  140.67200
 15537.50000   54.47180   79.83810  143.46740
 15538.00000   56.75300   81.56760  149.06700
 15538.50000   59.13430   84.00980  157.12040
 15539.00000   62.93140   87.18280  166.57190
 15539.50000   69.18360   90.50740  175.91890
 15540.00000   74.52960   92.95080  179.84120
 15540.50000   77.93000   94.90790  182.99180
 15541.00000   78.61960   96.81330  188.36350
 15541.50000   77.76600   97.32310  187.99390
 15542.00000   75.01810   94.77770  181.35640
 15542.50000   70.29790   91.30370  173.82450
 15543.00000   61.74280   88.19210  158.94430
 15543.50000   53.78260   85.05430  149.90560
 15544.00000   50.91330   80.28790  146.86900
 15544.50000   52.56780   76.73780  145.79820
 15545.00000   54.13830   74.83450  146.08950
 15545.50000   51.73290   75.94150  146.92060
 15546.00000   51.60650   77.42650  148.93400
 15546.50000   55.70310   78.33500  149.89790
 15547.00000   60.86250   79.39190  149.86310
 15547.50000   61.26970   80.86170  148.56420
 15548.00000   58.16800   81.78700  147.63050
 15548.50000   56.37730   81.80360  145.90030
 15549.00000   61.67620   80.74630  144.43240
 15549.50000   71.33890   79.80050  144.94530
 15550.00000   74.50350   79.78570  146.08700
 15550.50000   72.14150   80.60380  149.92040
 15551.00000   68.16030   82.62760  155.43190
 15551.50000   75.07940   86.03200  161.60330
 15552.00000   84.50870   89.78050  167.10290
 15552.50000   91.10960   91.96640  170.50630
 15553.00000   91.32520   92.57250  169.13860
 15553.50000   88.50510   90.97150  164.56460
 15554.00000   87.42790   88.85390  159.82680
 15554.50000   86.30250   86.07460  156.76500
 15555.00000   85.08260   83.91070  153.70350
 15555.50000   84.03510   82.03940  152.18100
 15556.00000   81.39640   82.29130  153.75030
 15556.50000   76.55400   83.15570  158.00730
 15557.00000   70.52710   84.26590  161.77080
 15557.50000   69.19440   86.41740  164.49640
 15558.00000   73.64130   88.56180  166.04700
 15558.50000   79.48610   89.94940  164.97690
 15559.00000   82.59790   90.60460  162.64760
 15559.50000   82.33650   89.93010  160.07200
 15560.00000   79.49910   88.44190  156.60990
 15560.50000   76.66010   85.88490  152.73930
 15561.00000   71.40240   83.62690  148.36310
 15561.50000   63.87230   81.72960  144.80650
 15562.00000   59.31750   80.87810  144.90810
 15562.50000   57.24460   81.13150  146.30460
 15563.00000   58.64300   83.19010  151.96640
 15563.50000   62.80840   86.06830  158.51820
 15564.00000   69.33120   88.20990  163.84250
 15564.50000   76.89540   89.89170  165.79550
 15565.00000   80.30920   91.35890  167.78830
