~Version ---------------------------------------------------
VERS.   2.0 : CWLS log ASCII Standard -VERSION 2.0
WRAP.    NO : One line per depth step
DLM . SPACE : Column Data Section Delimiter
~Well ------------------------------------------------------
STRT .F                 2432.0 : START DEPTH
STOP .F                15958.0 : STOP DEPTH
STEP .F                    0.5 : STEP
NULL .                -9999.25 : NULL VALUE
COMP .                         : COMPANY
WELL .                         : WELL
FLD  .                         : FIELD
LOC  .                         : LOCATION
PROV .                         : PROVINCE
CNTY .                         : COUNTY
STAT .                         : STATE
CTRY .                         : COUNTRY
SRVC .                         : SERVICE COMPANY
DATE .                         : DATE
UWI  .                         : UNIQUE WELL ID
API  .                         : API NUMBER
SLAT .WGS84 1.2397559084428984 : SURFACE LATITUDE
SLON .WGS84  7.560371261200999 : SURFACE LONGITUDE
DATUM.F                 2834.6 : DEPTH DATUM ELEV
~Curve Information -----------------------------------------
DEPT.F     : 
GRS .GAPI  : GAMMA RAY FROM DIPOLESONIC
DTCO.US/F  : COMPRESSIONAL-WAVE INTERVAL TRANSIT TIME ACOUSTIC SLOWNESS
DTSM.US/F  : SHEAR-WAVE INTERVAL TRANSIT TIME DELTA-T
~Params ----------------------------------------------------
~Other -----------------------------------------------------
~ASCII -----------------------------------------------------
# ...
 9908.00000   36.69150   -9999.25   -9999.25
 9908.50000   35.88460   -9999.25   -9999.25
 9909.00000   37.05580   -9999.25   -9999.25
 9909.50000   38.73070   -9999.25   -9999.25
 9910.00000   39.05290   -9999.25   -9999.25
 9910.50000   38.85840   -9999.25   -9999.25
 9911.00000   38.48430   -9999.25   -9999.25
 9911.50000   38.09020   -9999.25   -9999.25
 9912.00000   37.52800   -9999.25   -9999.25
 9912.50000   36.25270   -9999.25   -9999.25
 9913.00000   35.10220   -9999.25   -9999.25
 9913.50000   37.31870   -9999.25   -9999.25
 9914.00000   42.43660   -9999.25   -9999.25
 9914.50000   44.81300   -9999.25   -9999.25
 9915.00000   44.26550   -9999.25   -9999.25
 9915.50000   43.07270   -9999.25   -9999.25
 9916.00000   42.73670   -9999.25   -9999.25
 9916.50000   43.31060   -9999.25   -9999.25
 9917.00000   44.13950   -9999.25   -9999.25
 9917.50000   45.36070   -9999.25   -9999.25
 9918.00000   45.05420   -9999.25   -9999.25
 9918.50000   43.16320   -9999.25   -9999.25
 9919.00000   40.20730   -9999.25   -9999.25
 9919.50000   35.98020   -9999.25   -9999.25
 9920.00000   33.22630   -9999.25   -9999.25
 9920.50000   30.39950   -9999.25   -9999.25
 9921.00000   28.79820   -9999.25   -9999.25
 9921.50000   29.93780   -9999.25   -9999.25
 9922.00000   30.98540   -9999.25   -9999.25
 9922.50000   31.50250   -9999.25   -9999.25
 9923.00000   31.91720   -9999.25   -9999.25
 9923.50000   32.49520   -9999.25   -9999.25
 9924.00000   33.20290   -9999.25   -9999.25
 9924.50000   33.58430   -9999.25   -9999.25
 9925.00000   35.18490   -9999.25   -9999.25
 9925.50000   37.70230   -9999.25   -9999.25
 9926.00000   41.33590   -9999.25   -9999.25
 9926.50000   43.62420   -9999.25   -9999.25
 9927.00000   44.20950   -9999.25   -9999.25
 9927.50000   43.45160   -9999.25   -9999.25
 9928.00000   41.65790   -9999.25   -9999.25
 9928.50000   39.62080   -9999.25   -9999.25
 9929.00000   38.60610   -9999.25   -9999.25
 9929.50000   37.55070   -9999.25   -9999.25
 9930.00000   36.77990   -9999.25   -9999.25
 9930.50000   35.83390   -9999.25   -9999.25
 9931.00000   35.77540   -9999.25   -9999.25
 9931.50000   36.87320   -9999.25   -9999.25
 9932.00000   36.57710   -9999.25   -9999.25
 9932.50000   35.96220   -9999.25   -9999.25
 9933.00000   34.27910   -9999.25   -9999.25
 9933.50000   32.35290   -9999.25   -9999.25
 9934.00000   31.36370   -9999.25   -9999.25
 9934.50000   31.02460   -9999.25   -9999.25
 9935.00000   31.03040   -9999.25   -9999.25
 9935.50000   31.61580   -9999.25   -9999.25
 9936.00000   32.96100   -9999.25   -9999.25
 9936.50000   35.01260   -9999.25   -9999.25
 9937.00000   36.70470   -9999.25   -9999.25
 9937.50000   37.99360   -9999.25   -9999.25
 9938.00000   39.94650   -9999.25   -9999.25
 9938.50000   41.71200   -9999.25   -9999.25
 9939.00000   41.13350   -9999.25   -9999.25
 9939.50000   39.44760   -9999.25   -9999.25
 9940.00000   39.50930   -9999.25   -9999.25
 9940.50000   40.27910   -9999.25   -9999.25
 9941.00000   41.24400   -9999.25   -9999.25
 9941.50000   41.12450   -9999.25   -9999.25
 9942.00000   41.74930   -9999.25   -9999.25
 9942.50000   41.86550   -9999.25   -9999.25
 9943.00000   41.50640   -9999.25   -9999.25
 9943.50000   40.82240   -9999.25   -9999.25
 9944.00000   41.87350   -9999.25   -9999.25
 9944.50000   42.80550   -9999.25   -9999.25
 9945.00000   42.01330   -9999.25   -9999.25
 9945.50000   40.07510   -9999.25   -9999.25
 9946.00000   37.85580   -9999.25   -9999.25
 9946.50000   35.49900   -9999.25   -9999.25
 9947.00000   33.83350   -9999.25   -9999.25
 9947.50000   33.82140   -9999.25   -9999.25
 9948.00000   36.45010   82.90100  167.34870
 9948.50000   43.78180   87.93550  167.69890
 9949.00000   53.07900   89.92140  167.51530
 9949.50000   59.60480   89.58480  166.60230
 9950.00000   61.49450   89.77660  166.30460
 9950.50000   61.60150   90.36490  167.58180
 9951.00000   60.36380   91.00240  172.66110
 9951.50000   58.97430   91.36830  176.53310
 9952.00000   60.24780   90.86450  179.27910
 9952.50000   63.33140   89.85220  179.57750
 9953.00000   70.52880   88.94160  177.78890
 9953.50000   74.24850   87.82050  174.14440
 9954.00000   75.59090   86.88720  170.27800
 9954.50000   75.04610   86.98580  168.22770
 9955.00000   74.48610   88.63830  168.21820
 9955.50000   74.47430   90.54640  169.31950
 9956.00000   74.82530   91.87600  170.06070
 9956.50000   75.08870   93.00090  170.48320
 9957.00000   74.92680   92.95430  170.27720
 9957.50000   74.82940   90.21230  168.50740
 9958.00000   71.22180   87.19440  166.43400
 9958.50000   66.33850   85.44180  164.44600
 9959.00000   60.44270   85.21690  163.28380
 9959.50000   58.28570   86.17840  165.83620
 9960.00000   60.79300   88.26060  167.79740
 9960.50000   67.25400   90.34830  169.11150
 9961.00000   71.23380   91.96950  171.28800
 9961.50000   71.30190   92.36460  172.78810
 9962.00000   69.28590   92.34200  172.69210
 9962.50000   68.32810   92.40600  172.15910
 9963.00000   69.30170   92.71510  173.17800
 9963.50000   70.47900   93.24110  173.17830
 9964.00000   71.92710   93.69500  172.64670
 9964.50000   74.32680   93.54440  171.96630
 9965.00000   76.45780   93.17690  170.82780
 9965.50000   77.50660   92.62760  169.69310
 9966.00000   76.85300   92.30430  168.68950
 9966.50000   76.12110   92.10870  168.10680
 9967.00000   72.94780   91.82760  167.06310
 9967.50000   70.13260   91.48050  166.28650
 9968.00000   70.36310   91.13330  165.62250
 9968.50000   73.05840   90.70150  164.82450
 9969.00000   76.12890   90.37350  163.74600
 9969.50000   73.28750   90.41710  163.19780
 9970.00000   69.46550   91.37050  164.03180
 9970.50000   66.44130   91.88510  166.19480
 9971.00000   67.51540   92.87420  168.82570
 9971.50000   69.47990   94.08530  171.24030
 9972.00000   71.53130   95.14720  173.21040
 9972.50000   73.26320   95.63110  174.17370
 9973.00000   74.49690   95.64690  173.79290
 9973.50000   75.77670   94.65030  171.04390
 9974.00000   75.25490   91.37860  163.61640
 9974.50000   72.69020   88.24640  155.75220
 9975.00000   66.06740   82.96030  146.19800
 9975.50000   56.24750   79.25740  141.81830
 9976.00000   50.72130   78.13560  141.89630
 9976.50000   53.73520   78.63180  144.49620
 9977.00000   64.46650   80.57900  151.02490
 9977.50000   73.77260   83.55650  155.22580
 9978.00000   77.60960   85.43000  157.33460
 9978.50000   76.51540   86.61410  158.53650
 9979.00000   75.14970   86.64370  158.78070
 9979.50000   73.41010   86.02400  158.31310
 9980.00000   71.89090   85.79640  158.32510
 9980.50000   70.60100   85.89730  158.74100
 9981.00000   71.27800   86.10530  159.92250
 9981.50000   71.72420   86.80060  161.15540
 9982.00000   71.53390   87.73950  161.87680
 9982.50000   72.17750   88.21120  162.02550
 9983.00000   73.60700   88.07340  162.14840
 9983.50000   73.32740   87.83270  161.72480
 9984.00000   73.04780   87.76100  161.38800
 9984.50000   72.02630   87.78890  161.06440
 9985.00000   70.72060   87.82080  160.80470
 9985.50000   70.23290   88.19050  160.72920
 9986.00000   72.51090   88.25640  160.72260
 9986.50000   75.77080   87.97160  160.91340
 9987.00000   79.88420   87.83820  161.55530
 9987.50000   80.37220   87.72580  161.36060
 9988.00000   77.08180   87.20970  160.73100
 9988.50000   74.49590   86.73180  160.30470
 9989.00000   73.49760   86.24300  159.92020
 9989.50000   73.82610   86.00980  159.62300
 9990.00000   74.44550   86.02880  159.26780
 9990.50000   74.60650   86.13390  158.76580
 9991.00000   74.39470   85.84550  157.96180
 9991.50000   72.86660   85.33430  156.94600
 9992.00000   69.45670   84.67280  155.13200
 9992.50000   65.35580   84.11040  153.59470
 9993.00000   63.92020   84.11580  153.23630
 9993.50000   63.72760   84.76840  154.84430
 9994.00000   64.37270   85.62640  158.24880
 9994.50000   65.83490   86.94220  161.69540
 9995.00000   70.08530   88.51800  166.67420
 9995.50000   74.58280   89.39760  167.96500
 9996.00000   76.56370   89.29940  165.98200
 9996.50000   73.96380   88.52130  163.66970
