~Version ---------------------------------------------------
VERS.   2.0 : CWLS log ASCII Standard -VERSION 2.0
WRAP.    NO : One line per depth step
DLM . SPACE : Column Data Section Delimiter
~Well ------------------------------------------------------
STRT .F                 2432.0 : START DEPTH
STOP .F                15958.0 : STOP DEPTH
STEP .F                    0.5 : STEP
NULL .                -9999.25 : NULL VALUE
COMP .                         : COMPANY
WELL .                         : WELL
FLD  .                         : FIELD
LOC  .                         : LOCATION
PROV .                         : PROVINCE
CNTY .                         : COUNTY
STAT .                         : STATE
CTRY .                         : COUNTRY
SRVC .                         : SERVICE COMPANY
DATE .                         : DATE
UWI  .                         : UNIQUE WELL ID
API  .                         : API NUMBER
SLAT .WGS84 1.2397559084428984 : SURFACE LATITUDE
SLON .WGS84  7.560371261200999 : SURFACE LONGITUDE
DATUM.F                 2834.6 : DEPTH DATUM ELEV
~Curve Information -----------------------------------------
DEPT.F     : 
GRS .GAPI  : GAMMA RAY FROM DIPOLESONIC
DTCO.US/F  : COMPRESSIONAL-WAVE INTERVAL TRANSIT TIME ACOUSTIC SLOWNESS
DTSM.US/F  : SHEAR-WAVE INTERVAL TRANSIT TIME DELTA-T
~Params ----------------------------------------------------
~Other -----------------------------------------------------
~ASCII -----------------------------------------------------
# ...
 15130.50000   66.04930   79.87370  126.14060
 15131.00000   61.10680   77.99990  128.00090
 15131.50000   58.58910   76.68540  130.75630
 15132.00000   58.82940   76.05080  132.71100
 15132.50000   60.83820   76.08430  133.01480
 15133.00000   63.94160   76.80320  132.45940
 15133.50000   66.27240   78.16530  131.82020
 15134.00000   68.45750   79.04550  131.30320
 15134.50000   70.42830   79.42110  130.43780
 15135.00000   70.32820   79.47790  129.27280
 15135.50000   67.20010   79.47490  128.91980
 15136.00000   63.20640   79.26420  128.69680
 15136.50000   59.34220   79.02930  128.92310
 15137.00000   57.99310   79.08470  128.22920
 15137.50000   59.70110   79.15710  128.00090
 15138.00000   62.68400   78.98740  129.88120
 15138.50000   64.47530   78.85120  131.73580
 15139.00000   63.21610   78.85040  132.66650
 15139.50000   61.42510   79.01300  132.27880
 15140.00000   62.48190   78.76430  132.01900
 15140.50000   64.08200   78.23430  131.50280
 15141.00000   62.82400   76.85250  128.63310
 15141.50000   59.07060   75.02900  124.72600
 15142.00000   55.84010   73.00270  122.05990
 15142.50000   53.62720   71.95140  121.14330
 15143.00000   53.05130   72.42440  122.92900
 15143.50000   55.80780   73.88210  128.71110
 15144.00000   62.05260   76.46500  144.82140
 15144.50000   73.62070   79.99600  162.20860
 15145.00000   89.96100   85.77900  175.64180
 15145.50000  103.40250   93.16040  184.31750
 15146.00000  109.49270  100.42020  190.46600
 15146.50000  106.98900  105.01740  193.03360
 15147.00000  100.53960  105.71770  192.08060
 15147.50000   96.14200  105.09400  190.98390
 15148.00000   91.53920  104.97790  189.60480
 15148.50000   87.00940  105.03600  189.17660
 15149.00000   83.88010  104.44500  189.19270
 15149.50000   82.09280  103.66020  188.93970
 15150.00000   79.98460  102.76600  188.06530
 15150.50000   76.20600  101.76000  187.58910
 15151.00000   71.30830  100.73820  186.62130
 15151.50000   70.11150  100.28360  185.80750
 15152.00000   72.26360  100.53350  186.15280
 15152.50000   75.57160  101.01500  185.74860
 15153.00000   81.65750  101.76080  185.41030
 15153.50000   86.65390  102.93700  186.51870
 15154.00000   88.45820  103.88840  190.20450
 15154.50000   88.53950  103.85370  193.70080
 15155.00000   88.20240  102.22160  192.09760
 15155.50000   88.41940  100.25450  188.04700
 15156.00000   87.90910   97.78930  184.04770
 15156.50000   84.88040   95.39040  181.28580
 15157.00000   79.23620   93.30610  178.58290
 15157.50000   76.39150   91.89490  175.41520
 15158.00000   73.82850   90.80150  173.35730
 15158.50000   70.49760   89.62290  171.85780
 15159.00000   64.73450   88.03380  167.99460
 15159.50000   60.00360   84.77430  164.03790
 15160.00000   59.36290   82.95040  164.67480
 15160.50000   60.50400   83.12900  165.87090
 15161.00000   64.95360   84.57040  166.31070
 15161.50000   70.87770   84.75390  165.80840
 15162.00000   73.01750   84.29210  165.15610
 15162.50000   69.08260   84.31130  164.08950
 15163.00000   59.47990   85.33490  163.65650
 15163.50000   54.43330   86.86970  164.65270
 15164.00000   58.05930   88.41720  167.85900
 15164.50000   68.59200   91.63330  172.40310
 15165.00000   79.49160   96.69040  177.25110
 15165.50000   88.32920   99.47480  179.32510
 15166.00000   91.53510   99.25190  179.28630
 15166.50000   90.49150   95.67710  173.89070
 15167.00000   81.89300   88.67490  166.18440
 15167.50000   67.08860   83.35750  160.82760
 15168.00000   51.64880   82.66190  160.25640
 15168.50000   46.47300   84.72050  163.79440
 15169.00000   53.61600   87.95270  168.33520
 15169.50000   64.40070   91.35230  174.53100
 15170.00000   69.21450   94.47110  178.56160
 15170.50000   72.67610   96.27910  181.88000
 15171.00000   73.48950   96.75150  183.58040
 15171.50000   74.13670   95.81360  181.08130
 15172.00000   74.25760   94.56590  176.35230
 15172.50000   73.68380   93.61470  172.90570
 15173.00000   75.18280   92.83500  171.01160
 15173.50000   77.76580   92.21220  170.23530
 15174.00000   79.35700   92.17090  169.38980
 15174.50000   79.07170   92.48760  167.09210
 15175.00000   78.50980   92.68620  162.67830
 15175.50000   79.31370   92.26900  160.79590
 15176.00000   80.34650   91.84230  161.35710
 15176.50000   80.48770   91.96310  162.45090
 15177.00000   79.10620   92.71430  164.45830
 15177.50000   79.54350   93.71780  166.32920
 15178.00000   83.08680   94.53390  168.22030
 15178.50000   89.45110   95.23770  170.14720
 15179.00000   97.06490   95.78200  171.60680
 15179.50000  101.38940   95.81720  171.32960
 15180.00000  104.97210   95.68600  171.67680
 15180.50000  106.66220   95.15850  171.85500
 15181.00000  110.66620   94.96340  171.83510
 15181.50000  112.80480   95.68110  172.99730
 15182.00000  113.26640   97.07400  176.11460
 15182.50000  113.05450   98.47250  177.93560
 15183.00000  110.66700   99.05910  179.45360
 15183.50000  105.30110   98.49140  178.99500
 15184.00000   97.08890   96.39080  174.68560
 15184.50000   91.49970   94.30550  171.05310
 15185.00000   83.99010   92.24460  167.73140
 15185.50000   78.01380   91.66320  167.33420
 15186.00000   75.43220   91.82840  169.41360
 15186.50000   76.85690   92.57110  172.66800
 15187.00000   81.56230   92.93690  177.46870
 15187.50000   84.76030   91.81770  178.40600
 15188.00000   84.11040   89.41160  176.59780
 15188.50000   79.91120   87.06060  173.03780
 15189.00000   72.16850   84.43970  167.15620
 15189.50000   67.08260   82.07100  161.55850
 15190.00000   64.38420   81.15160  159.52450
 15190.50000   61.84560   80.33170  158.22430
 15191.00000   58.70530   79.85510  157.76350
 15191.50000   57.47310   79.84770  155.64420
 15192.00000   58.39260   80.46440  153.94400
 15192.50000   58.98810   81.35690  153.72730
 15193.00000   58.55580   83.05550  155.16550
 15193.50000   60.03750   84.86590  158.87320
 15194.00000   64.43550   86.75230  164.45000
 15194.50000   70.91710   89.00300  170.94940
 15195.00000   75.57340   91.76000  177.53730
 15195.50000   77.54040   93.61420  178.89830
 15196.00000   77.36310   95.65370  181.21330
 15196.50000   76.73930   97.70360  183.00730
 15197.00000   78.53400   99.90170  186.29450
 15197.50000   84.18430  100.75140  184.28300
 15198.00000   86.10020  100.77310  178.60180
 15198.50000   82.33700   98.51690  172.66350
 15199.00000   71.90970   91.73340  164.26160
 15199.50000   62.32740   85.10680  160.57660
 15200.00000   59.79110   83.56840  158.35300
 15200.50000   60.05560   83.66880  159.73100
 15201.00000   62.78870   85.04890  164.13100
 15201.50000   66.76520   86.26630  167.99950
 15202.00000   69.13350   86.29700  169.74130
 15202.50000   68.88930   85.74710  170.51720
 15203.00000   63.73310   85.14550  169.16760
 15203.50000   58.15340   84.88910  168.90360
 15204.00000   57.28050   85.60660  167.55510
 15204.50000   60.03690   87.16250  166.76920
 15205.00000   65.02410   89.92850  169.23000
 15205.50000   69.46860   91.62420  172.96730
 15206.00000   73.17810   92.60620  175.46560
 15206.50000   76.24320   93.09170  176.12920
 15207.00000   79.21380   92.51700  174.27000
 15207.50000   81.63130   91.05290  172.75510
 15208.00000   80.76430   89.99120  171.69820
 15208.50000   75.52320   89.09370  170.65710
 15209.00000   70.10170   88.83790  166.08420
 15209.50000   70.16040   87.74890  159.18020
 15210.00000   70.28870   84.55770  153.16660
 15210.50000   63.89160   80.75920  146.05590
 15211.00000   51.84230   77.34010  141.07100
 15211.50000   44.67330   75.70810  138.36260
 15212.00000   44.89980   75.82520  139.47050
 15212.50000   49.33950   77.19420  141.92180
 15213.00000   55.27610   80.57500  146.16110
 15213.50000   60.95260   83.67210  150.40190
 15214.00000   66.65320   86.14740  153.70090
 15214.50000   70.14750   87.46100  156.91690
 15215.00000   73.44090   89.00520  159.89550
 15215.50000   78.00210   90.89730  164.15230
 15216.00000   83.04010   92.62500  169.60930
 15216.50000   85.99720   93.44050  174.18760
 15217.00000   85.32400   93.08180  173.64720
