~Version ---------------------------------------------------
VERS.   2.0 : CWLS log ASCII Standard -VERSION 2.0
WRAP.    NO : One line per depth step
DLM . SPACE : Column Data Section Delimiter
~Well ------------------------------------------------------
STRT .F                 2432.0 : START DEPTH
STOP .F                15958.0 : STOP DEPTH
STEP .F                    0.5 : STEP
NULL .                -9999.25 : NULL VALUE
COMP .                         : COMPANY
WELL .                         : WELL
FLD  .                         : FIELD
LOC  .                         : LOCATION
PROV .                         : PROVINCE
CNTY .                         : COUNTY
STAT .                         : STATE
CTRY .                         : COUNTRY
SRVC .                         : SERVICE COMPANY
DATE .                         : DATE
UWI  .                         : UNIQUE WELL ID
API  .                         : API NUMBER
SLAT .WGS84 1.2397559084428984 : SURFACE LATITUDE
SLON .WGS84  7.560371261200999 : SURFACE LONGITUDE
DATUM.F                 2834.6 : DEPTH DATUM ELEV
~Curve Information -----------------------------------------
DEPT.F     : 
GRS .GAPI  : GAMMA RAY FROM DIPOLESONIC
DTCO.US/F  : COMPRESSIONAL-WAVE INTERVAL TRANSIT TIME ACOUSTIC SLOWNESS
DTSM.US/F  : SHEAR-WAVE INTERVAL TRANSIT TIME DELTA-T
~Params ----------------------------------------------------
~Other -----------------------------------------------------
~ASCII -----------------------------------------------------
# ...
 11128.50000   78.99940   80.34830  147.69200
 11129.00000   77.04130   80.82450  147.85780
 11129.50000   75.72110   81.18770  147.72440
 11130.00000   78.08850   81.69160  147.50530
 11130.50000   80.96770   82.04550  147.50660
 11131.00000   82.07340   82.52330  148.41680
 11131.50000   80.38450   82.61190  150.44180
 11132.00000   79.14790   82.17160  152.01550
 11132.50000   80.49260   81.74020  153.42580
 11133.00000   84.25120   81.19550  154.18660
 11133.50000   86.58000   80.77660  154.01830
 11134.00000   85.57430   80.15740  153.96660
 11134.50000   82.83020   79.23710  153.31980
 11135.00000   78.99730   79.28970  152.78380
 11135.50000   75.68760   79.52630  152.89500
 11136.00000   74.19700   80.02340  153.19420
 11136.50000   75.41200   80.28140  153.49340
 11137.00000   80.59290   80.70050  153.79260
 11137.50000   82.68000   80.95580  154.15090
 11138.00000   82.39570   81.23190  154.55800
 11138.50000   81.89860   81.51930  154.64820
 11139.00000   82.75930   81.70500  154.64860
 11139.50000   83.73190   81.84190  154.11100
 11140.00000   83.35120   81.66170  153.83920
 11140.50000   82.66440   81.46580  153.35620
 11141.00000   83.85980   81.05790  152.11320
 11141.50000   85.61670   80.73780  150.53250
 11142.00000   84.06050   80.50730  149.61800
 11142.50000   79.70610   80.22020  148.69740
 11143.00000   74.53180   79.81910  147.71380
 11143.50000   74.35800   79.67650  146.94400
 11144.00000   77.34450   79.58800  146.76790
 11144.50000   79.26020   79.48550  146.64740
 11145.00000   78.66650   79.47260  146.90000
 11145.50000   77.91120   79.48650  147.70450
 11146.00000   77.04720   79.60630  149.12180
 11146.50000   75.87890   79.89130  150.07470
 11147.00000   75.72490   80.24480  150.95500
 11147.50000   76.05810   80.58600  151.60210
 11148.00000   78.84630   81.13530  151.57080
 11148.50000   81.06680   81.70110  151.68130
 11149.00000   80.83090   81.49020  152.44190
 11149.50000   78.43900   81.05020  152.09040
 11150.00000   76.76540   80.63890  150.85290
 11150.50000   77.76300   80.27690  149.20290
 11151.00000   78.80770   79.81560  148.39140
 11151.50000   78.95910   79.65930  147.59060
 11152.00000   77.51610   79.58760  147.32120
 11152.50000   75.37030   79.51580  147.36210
 11153.00000   74.88690   79.44670  147.89100
 11153.50000   77.25190   79.56780  148.28590
 11154.00000   80.34460   79.68900  148.18060
 11154.50000   82.03800   79.81010  147.66120
 11155.00000   82.01330   79.84150  147.07370
 11155.50000   81.85230   79.75680  146.73560
 11156.00000   81.82130   79.43470  146.29710
 11156.50000   80.75330   79.28630  146.32970
 11157.00000   77.89470   79.28850  146.06800
 11157.50000   76.06920   79.20770  146.39490
 11158.00000   76.68310   79.20750  146.45770
 11158.50000   79.18440   79.33770  146.48180
 11159.00000   82.59870   79.42420  146.57130
 11159.50000   84.49230   79.61540  146.79520
 11160.00000   84.26150   79.72120  147.00470
 11160.50000   83.02370   79.72630  147.58730
 11161.00000   81.55050   79.72450  148.63180
 11161.50000   79.52990   79.89800  149.61250
 11162.00000   76.01230   80.19440  150.59090
 11162.50000   74.51810   80.38010  151.39410
 11163.00000   75.69910   80.78160  152.34810
 11163.50000   78.49980   81.30070  152.73190
 11164.00000   81.30050   81.53940  152.65160
 11164.50000   80.98410   81.56160  152.56930
 11165.00000   79.42390   81.26870  151.57280
 11165.50000   76.97480   80.94770  151.22930
 11166.00000   74.57990   80.76560  150.88590
 11166.50000   72.85590   80.57640  150.57210
 11167.00000   73.36110   80.34590  150.26850
 11167.50000   74.82050   80.13260  149.96490
 11168.00000   77.41640   79.91920  149.54040
 11168.50000   79.58530   79.70590  148.46400
 11169.00000   80.07620   79.49260  147.47490
 11169.50000   77.96410   79.37190  146.86900
 11170.00000   75.43260   79.38010  146.55980
 11170.50000   73.46180   79.38840  146.25050
 11171.00000   74.69820   79.39660  146.28390
 11171.50000   75.74820   79.40490  146.43520
 11172.00000   75.94850   79.41370  146.47700
 11172.50000   76.55620   79.54100  146.36990
 11173.00000   79.22720   79.49930  146.62680
 11173.50000   82.18560   79.30660  146.55920
 11174.00000   80.91330   79.24890  146.66860
 11174.50000   77.18880   79.26280  146.68900
 11175.00000   73.13060   79.36930  147.30800
 11175.50000   72.84460   79.35740  148.13400
 11176.00000   74.59770   79.38960  148.05780
 11176.50000   76.18640   79.42400  147.36320
 11177.00000   76.49070   79.54930  146.86850
 11177.50000   75.52040   79.63600  147.14690
 11178.00000   74.66720   79.71850  147.85070
 11178.50000   73.81410   79.80110  147.01680
 11179.00000   73.57760   79.88360  146.73140
 11179.50000   74.40090   79.92170  146.67530
 11180.00000   76.51830   79.92460  146.69290
 11180.50000   78.94840   79.92740  146.69410
 11181.00000   81.63690   79.73800  146.43150
 11181.50000   81.63190   79.43320  146.12360
 11182.00000   79.36420   79.16200  145.72380
 11182.50000   76.52380   79.24460  145.63660
 11183.00000   75.89300   78.90790  145.59590
 11183.50000   76.25710   78.70300  145.73590
 11184.00000   78.32740   78.58620  145.94300
 11184.50000   79.33720   79.00910  146.15010
 11185.00000   79.44380   79.46600  146.19410
 11185.50000   78.43800   79.49860  146.02150
 11186.00000   76.55910   79.36890  145.78800
 11186.50000   72.84200   79.38030  145.67160
 11187.00000   70.19390   79.44070  145.67300
 11187.50000   70.14510   79.56980  145.67430
 11188.00000   72.15070   79.45960  146.01620
 11188.50000   74.84570   79.53430  147.06400
 11189.00000   77.85340   79.58900  147.53270
 11189.50000   80.39580   79.57380  148.37670
 11190.00000   82.78640   79.55850  148.44890
 11190.50000   83.41830   79.47530  147.88060
 11191.00000   82.40380   79.57540  147.40350
 11191.50000   79.90660   79.74620  147.25230
 11192.00000   78.24090   79.92760  146.67040
 11192.50000   77.13330   80.10910  146.67970
 11193.00000   77.06710   80.28020  146.65700
 11193.50000   77.45260   80.28060  146.12000
 11194.00000   75.92840   80.28090  145.97070
 11194.50000   71.61050   79.83610  145.89850
 11195.00000   70.21140   79.38510  145.96060
 11195.50000   72.48390   78.93410  145.83980
 11196.00000   73.64760   78.62160  145.71900
 11196.50000   73.49090   78.80760  145.89430
 11197.00000   72.93360   78.87980  146.31030
 11197.50000   74.62830   79.48560  146.49260
 11198.00000   76.68880   79.73040  147.64160
 11198.50000   77.86000   79.67180  148.58510
 11199.00000   76.74700   79.73540  148.91470
 11199.50000   75.42490   79.79890  148.15160
 11200.00000   76.38180   79.86240  147.48480
 11200.50000   76.66540   79.92600  147.44950
 11201.00000   76.31670   79.98560  147.55250
 11201.50000   76.10150   79.98560  147.78280
 11202.00000   75.91050   79.98560  147.21180
 11202.50000   75.71960   79.98560  146.81600
 11203.00000   77.93750   79.90360  146.64870
 11203.50000   80.01860   79.75610  146.30790
 11204.00000   79.12940   79.54620  145.93890
 11204.50000   76.49980   79.23130  145.38120
 11205.00000   75.99170   79.08260  145.10390
 11205.50000   76.60970   78.84440  144.24980
 11206.00000   78.30530   78.64710  143.73480
 11206.50000   79.09050   78.29380  143.35360
 11207.00000   78.10980   78.02700  143.27760
 11207.50000   77.31980   77.87640  143.39270
 11208.00000   76.20280   77.74280  143.63070
 11208.50000   74.93410   77.81640  144.54570
 11209.00000   74.03190   78.18330  145.87210
 11209.50000   76.23820   79.13350  146.63080
 11210.00000   79.42450   79.46150  147.83680
 11210.50000   80.62150   79.71860  149.45650
 11211.00000   80.56870   79.83850  150.08180
 11211.50000   79.32170   80.13460  150.04020
 11212.00000   77.32950   80.34010  149.50450
 11212.50000   75.97040   80.33600  149.11740
 11213.00000   75.79720   79.92780  148.79040
 11213.50000   76.07590   79.75670  148.69720
 11214.00000   76.35470   79.68060  148.91990
 11214.50000   76.72590   79.63580  149.28160
 11215.00000   78.22100   79.69530  149.28950
