~Version ---------------------------------------------------
VERS.   2.0 : CWLS log ASCII Standard -VERSION 2.0
WRAP.    NO : One line per depth step
DLM . SPACE : Column Data Section Delimiter
~Well ------------------------------------------------------
STRT .F               11631.0 : START DEPTH
STOP .F               14352.0 : STOP DEPTH
STEP .F                   0.5 : STEP
NULL .               -9999.25 : NULL VALUE
COMP .                        : COMPANY
WELL .                        : WELL
FLD  .                        : FIELD
LOC  .                        : LOCATION
PROV .                        : PROVINCE
CNTY .                        : COUNTY
STAT .                        : STATE
CTRY .                        : COUNTRY
SRVC .                        : SERVICE COMPANY
DATE .                        : DATE
UWI  .                        : UNIQUE WELL ID
API  .                        : API NUMBER
SLAT .WGS84 5.826932938948104 : SURFACE LATITUDE
SLON .WGS84  4.33391969463699 : SURFACE LONGITUDE
DATUM.F               2104.33 : DEPTH DATUM ELEV
~Curve Information -----------------------------------------
DEPT.F     : 
GRD .GAPI  : GAMMA RAY
NPHI.DEC   : NEUTRON POROSITY LIMESTONE
DPOR.DEC   : DENSITY POROSITY LIMESTONE
CALD.IN    : CALIPER FDC LOG
DRH .G/C3  : DENSITY CORRECTION
RHOM.G/C3  : BULK DENSITY CORRECTED
DT  .US/F  : INTERVAL TRANSIT TIME
DTCO.US/F  : COMPRESSIONAL-WAVE INTERVAL TRANSIT TIME ACOUSTIC SLOWNESS
DTSM.US/F  : SHEAR-WAVE INTERVAL TRANSIT TIME DELTA-T
SPR .MV    : SPONTANEOUS POTENTIAL FROM RES.
AT10.OHMM  : 10-IN. RESISTIVITY, 2-FT RESOLUTION
AT30.OHMM  : 30-IN. RESISTIVITY, 2-FT RESOLUTION
AT90.OHMM  : 90-IN. RESISTIVITY, 2-FT RESOLUTION
~Params ----------------------------------------------------
~Other -----------------------------------------------------
~ASCII -----------------------------------------------------
# ...
 14309.00000  157.38320    0.15180    0.02750    4.91460   -0.01050    2.66700   74.32050   73.83180  147.33820    2.66870   -9999.25    5.71570    5.81360
 14309.50000  156.81930    0.17030    0.01850    4.91690   -0.01130    2.68130   75.46560   74.93780  146.91710    2.92510   -9999.25    5.64080    5.82320
 14310.00000  154.03610    0.18040    0.01780    4.91860   -0.01220    2.68040   78.08770   77.45830  148.56760    2.89250   -9999.25    5.62630    5.62550
 14310.50000  152.20180    0.17890    0.02240    4.91980   -0.01300    2.67110   81.04520   80.34520  151.86970    2.85990   -9999.25    5.61180    5.56930
 14311.00000  153.01190    0.16990    0.02710    4.92090   -0.01390    2.66210   83.04420   82.27500  157.61070    2.89400   -9999.25    5.62210    5.50200
 14311.50000  156.86590    0.15890    0.03340    4.92050   -0.01360    2.65210   84.26910   83.57410  164.09920    2.70230   -9999.25    5.64430    5.53010
 14312.00000  160.60480    0.15370    0.04120    4.91930   -0.01390    2.63860   84.17420   83.49670  165.28900    2.83710   -9999.25    5.68320    5.33700
 14312.50000  162.45750    0.15240    0.04580    4.92150   -0.01370    2.63290   83.24740   82.55370  164.31230    2.75380   -9999.25    5.92300    5.94920
 14313.00000  157.91120    0.15190    0.03990    4.92540   -0.01070    2.64790   82.25880   81.77180  166.48500    2.47850   -9999.25    5.77040    5.85110
 14313.50000   -9999.25   -9999.25    0.03100    4.92430   -0.00780    2.66200   82.39340   81.93320  171.47100    2.26400   -9999.25    4.89630    5.14380
 14314.00000   -9999.25   -9999.25    0.03030    4.92210   -0.00790    2.65260   84.80960   83.83120  177.59810    2.11620   -9999.25    4.57930    5.01330
 14314.50000   -9999.25   -9999.25    0.04080    4.92000   -0.00820    2.63320   88.26360   87.24060  173.61390    2.18680   -9999.25    4.28010    4.41670
 14315.00000   -9999.25   -9999.25    0.05710    4.90380   -0.01070    2.60710   89.85800   89.08720  176.44190    2.23720   -9999.25    4.38420    4.40230
 14315.50000   -9999.25   -9999.25    0.06840    4.90260   -0.01140    2.59030   89.85660   89.09080  184.76170    2.48900   -9999.25    4.80060    4.85560
 14316.00000   -9999.25   -9999.25    0.07090    4.90700   -0.01180    2.58930   87.21660   87.05660  178.25960    2.25720   -9999.25    4.99250    4.86060
 14316.50000   -9999.25   -9999.25    0.06570    4.92310   -0.01250    2.60020   83.29910   83.34810  158.73010    2.37960   -9999.25    4.93750    4.75820
 14317.00000   -9999.25   -9999.25    0.05720    4.93270   -0.01340    2.61570   78.32840   78.38450  144.36300    2.50200   -9999.25    5.19220    5.05290
 14317.50000   -9999.25   -9999.25    0.04480    4.94240   -0.01370    2.64170   74.11120   74.02890  133.48150    2.62430   -9999.25    6.66410    6.79520
 14318.00000   -9999.25   -9999.25    0.02310    4.94490   -0.00960    2.67360   71.25830   71.28350  129.38710    2.74670   -9999.25    7.66860    7.84300
 14318.50000   -9999.25   -9999.25    0.00900    4.94340   -0.00570    2.70200   70.79860   70.51360  130.71470    2.94080   -9999.25    6.13220    6.44480
 14319.00000   -9999.25   -9999.25    0.00530    4.94370   -0.00810    2.69910   72.31220   71.64470  134.77010    3.18740   -9999.25    5.21250    5.30310
 14319.50000   -9999.25   -9999.25    0.01490    4.94400   -0.01040    2.68180   75.04730   74.56910  142.22190    3.11480   -9999.25    4.31680    4.38530
 14320.00000   -9999.25   -9999.25    0.02720    4.94420   -0.01100    2.66310   77.52470   76.74530  149.51240    3.04210   -9999.25    3.75710    3.82190
 14320.50000   -9999.25   -9999.25    0.03120    4.94430   -0.01120    2.65660   79.85350   78.83940  155.86220    2.91430   -9999.25    3.48280    3.51420
 14321.00000   -9999.25   -9999.25    0.02790    4.94490   -0.00980    2.66350   81.74110   81.11000  161.08260    2.62530   -9999.25    3.71000    3.76900
 14321.50000   -9999.25   -9999.25    0.02360    4.94550   -0.00870    2.67100   82.79940   82.22580  163.89900    2.39700   -9999.25    4.25460    4.32210
 14322.00000   -9999.25   -9999.25    0.02160    4.94610   -0.00850    2.67430   82.80370   82.06030  164.86230    2.14530   -9999.25    4.85890    4.96290
 14322.50000   -9999.25   -9999.25    0.02170    4.94670   -0.00860    2.67320   82.12020   81.54110  164.68370    1.87150   -9999.25    5.57740    5.70560
 14323.00000   -9999.25   -9999.25    0.02390    4.94740   -0.01020    2.66890   81.36380   81.09000  163.53350    1.59770   -9999.25    6.20730    6.28540
 14323.50000   -9999.25   -9999.25    0.02480    4.94800   -0.01080    2.66820   80.84400   80.77740  162.56680    1.32390   -9999.25    6.88100    6.96470
 14324.00000   -9999.25   -9999.25    0.02190    4.94860   -0.00990    2.67410   80.35930   80.46480  161.23280    1.20770   -9999.25    7.92270    8.07790
 14324.50000   -9999.25   -9999.25    0.01480    4.94920   -0.00900    2.68570   -9999.25   -9999.25   -9999.25    1.18420   -9999.25    9.01820    9.20300
 14325.00000   -9999.25   -9999.25    0.01000    4.94990   -0.00940    2.69400   -9999.25   -9999.25   -9999.25    1.42480   -9999.25    9.91710   10.14460
 14325.50000   -9999.25   -9999.25    0.01130    4.95050   -0.01060    2.69140   -9999.25   -9999.25   -9999.25    1.60080   -9999.25    9.52220   10.63020
 14326.00000   -9999.25   -9999.25    0.01810    4.95110   -0.01180    2.68010   -9999.25   -9999.25   -9999.25    1.64690   -9999.25    8.29080    8.97180
 14326.50000   -9999.25   -9999.25    0.02450    4.95170   -0.01310    2.66870   -9999.25   -9999.25   -9999.25    1.69290   -9999.25    7.18180    7.57210
 14327.00000   -9999.25   -9999.25    0.02660    4.95230   -0.01340    2.66550   -9999.25   -9999.25   -9999.25    1.62260   -9999.25    6.30210    6.39080
 14327.50000   -9999.25   -9999.25    0.02880    4.95300   -0.01380    2.66180   -9999.25   -9999.25   -9999.25    1.43590   -9999.25    5.39130    5.47510
 14328.00000   -9999.25   -9999.25    0.03800    4.95360   -0.01520    2.64450   -9999.25   -9999.25   -9999.25    1.42880   -9999.25    4.63850    4.72340
 14328.50000   -9999.25   -9999.25    0.04910    4.94920   -0.01610    2.62630   -9999.25   -9999.25   -9999.25    1.13100   -9999.25    4.21430    4.27520
 14329.00000   -9999.25   -9999.25    0.05160    4.94120   -0.01460    2.62260   -9999.25   -9999.25   -9999.25    1.05640   -9999.25    3.79360    3.85440
 14329.50000   -9999.25   -9999.25    0.03990    4.90710   -0.01030    2.64440   -9999.25   -9999.25   -9999.25    1.01580   -9999.25    3.50400    3.53760
 14330.00000   -9999.25   -9999.25    0.02540    4.82280   -0.00470    2.66510   -9999.25   -9999.25   -9999.25    0.97530   -9999.25    3.30530    3.33850
 14330.50000   -9999.25   -9999.25    0.02330    4.73840   -0.00500    2.67310   -9999.25   -9999.25   -9999.25    0.84060   -9999.25    3.11640    3.14410
 14331.00000   -9999.25   -9999.25    0.02620    4.65580   -0.00670    2.66450   -9999.25   -9999.25   -9999.25    0.61960   -9999.25    3.33550    3.41140
 14331.50000   -9999.25   -9999.25   -9999.25    4.59660   -0.00840    2.66010   -9999.25   -9999.25   -9999.25    0.58700   -9999.25    4.11980    4.24600
 14332.00000   -9999.25   -9999.25   -9999.25    4.58310   -0.01000    2.65660   -9999.25   -9999.25   -9999.25    0.56680   -9999.25    4.36300    4.15150
 14332.50000   -9999.25   -9999.25   -9999.25    4.58530   -0.01130    2.65260   -9999.25   -9999.25   -9999.25    0.56680   -9999.25    3.55280    3.63010
 14333.00000   -9999.25   -9999.25   -9999.25    4.59260   -0.01240    2.64870   -9999.25   -9999.25   -9999.25    0.56680   -9999.25    3.59010    3.56850
 14333.50000   -9999.25   -9999.25   -9999.25    4.59980   -0.01270    2.64930   -9999.25   -9999.25   -9999.25    0.56680   -9999.25    4.18570    4.24980
 14334.00000   -9999.25   -9999.25   -9999.25    4.60370   -0.01350    2.64690   -9999.25   -9999.25   -9999.25    0.57400   -9999.25    4.69600    4.73910
 14334.50000   -9999.25   -9999.25   -9999.25    4.59180   -0.01490    2.63790   -9999.25   -9999.25   -9999.25    0.59540   -9999.25    4.47380    4.50020
