~Version ---------------------------------------------------
VERS.   2.0 : CWLS log ASCII Standard -VERSION 2.0
WRAP.    NO : One line per depth step
DLM . SPACE : Column Data Section Delimiter
~Well ------------------------------------------------------
STRT .F               11631.0 : START DEPTH
STOP .F               14352.0 : STOP DEPTH
STEP .F                   0.5 : STEP
NULL .               -9999.25 : NULL VALUE
COMP .                        : COMPANY
WELL .                        : WELL
FLD  .                        : FIELD
LOC  .                        : LOCATION
PROV .                        : PROVINCE
CNTY .                        : COUNTY
STAT .                        : STATE
CTRY .                        : COUNTRY
SRVC .                        : SERVICE COMPANY
DATE .                        : DATE
UWI  .                        : UNIQUE WELL ID
API  .                        : API NUMBER
SLAT .WGS84 5.826932938948104 : SURFACE LATITUDE
SLON .WGS84  4.33391969463699 : SURFACE LONGITUDE
DATUM.F               2104.33 : DEPTH DATUM ELEV
~Curve Information -----------------------------------------
DEPT.F     : 
GRD .GAPI  : GAMMA RAY
NPHI.DEC   : NEUTRON POROSITY LIMESTONE
DPOR.DEC   : DENSITY POROSITY LIMESTONE
CALD.IN    : CALIPER FDC LOG
DRH .G/C3  : DENSITY CORRECTION
RHOM.G/C3  : BULK DENSITY CORRECTED
DT  .US/F  : INTERVAL TRANSIT TIME
DTCO.US/F  : COMPRESSIONAL-WAVE INTERVAL TRANSIT TIME ACOUSTIC SLOWNESS
DTSM.US/F  : SHEAR-WAVE INTERVAL TRANSIT TIME DELTA-T
SPR .MV    : SPONTANEOUS POTENTIAL FROM RES.
AT10.OHMM  : 10-IN. RESISTIVITY, 2-FT RESOLUTION
AT30.OHMM  : 30-IN. RESISTIVITY, 2-FT RESOLUTION
AT90.OHMM  : 90-IN. RESISTIVITY, 2-FT RESOLUTION
~Params ----------------------------------------------------
~Other -----------------------------------------------------
~ASCII -----------------------------------------------------
# ...
 12723.00000  131.53240    0.20860    0.02280    5.14310   -0.01260    2.67160   77.85410   77.43530  149.75480   -9.43730   -9999.25    6.02220    6.12110
 12723.50000  129.43390    0.21130    0.02270    5.14310   -0.01140    2.67240   78.08560   77.61690  149.91050   -9.44800   -9999.25    5.92810    6.07050
 12724.00000  127.79760    0.21210    0.02250    5.14310   -0.01070    2.67260   77.91050   77.58120  149.19410   -9.45870   -9999.25    5.75930    6.06980
 12724.50000  126.05830    0.20960    0.02240    5.14310   -0.01080    2.67240   77.58720   77.16060  148.47780   -9.36970   -9999.25    5.94750    6.09880
 12725.00000  124.12090    0.20640    0.02220    5.14310   -0.01080    2.67230   77.21520   76.75500  146.60600   -9.19350   -9999.25    6.14180    6.33640
 12725.50000  123.22690    0.20240    0.02270    5.14300   -0.01170    2.67180   76.82550   76.27360  144.90160   -9.01720   -9999.25    6.34250    6.45180
 12726.00000  123.13010    0.19930    0.02580    5.14120   -0.01350    2.66730   76.55850   76.11980  144.07090   -8.84100   -9999.25    6.51140    6.56920
 12726.50000  122.35020    0.19720    0.02980    5.13920   -0.01530    2.66060   76.40770   75.90570  143.59280   -8.66470   -9999.25    6.63430    6.67420
 12727.00000  120.57110    0.19630    0.03220    5.13980   -0.01620    2.65640   76.02700   75.62750  142.60630   -8.48840   -9999.25    6.79590    6.84510
 12727.50000  119.56580    0.19710    0.03180    5.14280   -0.01660    2.65680   75.68430   75.23780  141.61970   -8.30490   -9999.25    7.04450    7.09810
 12728.00000  120.44150    0.19880    0.03000    5.14310   -0.01390    2.65940   75.43780   74.99690  140.94920   -8.59410   -9999.25    7.27450    7.32480
 12728.50000  121.67830    0.20060    0.02700    5.14350   -0.01280    2.66490   75.31280   75.14070  140.81500   -8.82280   -9999.25    7.31810    7.36130
 12729.00000  123.47520    0.20350    0.02220    5.14410   -0.00980    2.67300   75.61630   75.34740  142.02920   -9.00760   -9999.25    7.23430    7.28300
 12729.50000  126.96570    0.20720    0.01990    5.14370   -0.00990    2.67630   76.16330   75.55620  144.22550   -8.94750   -9999.25    7.07410    7.13700
 12730.00000  130.10800    0.20690    0.02280    5.14340   -0.01040    2.67290   76.42450   75.83820  145.78990   -8.88730   -9999.25    6.73650    6.78370
 12730.50000  131.39450    0.20390    0.02640    5.14320   -0.01100    2.66610   76.51780   76.04350  147.52410   -8.82720   -9999.25    6.68390    6.72340
 12731.00000  130.77000    0.20150    0.02570    5.14320   -0.01170    2.66680   76.61370   76.22840  147.98490   -8.77430   -9999.25    6.89700    7.07880
 12731.50000  130.38800    0.20070    0.02160    5.14320   -0.01090    2.67330   76.87700   76.45840  148.35700   -8.72950   -9999.25    6.69500    7.04140
 12732.00000  130.42830    0.20170    0.01910    5.14270   -0.01120    2.67540   77.36770   76.96370  149.82250   -8.68480   -9999.25    6.33600    6.43160
 12732.50000  130.43350    0.20390    0.02190    5.14100   -0.01150    2.67380   78.15620   77.40850  151.65870   -8.64000   -9999.25    5.87110    6.03150
 12733.00000  129.97960    0.20690    0.02450    5.13920   -0.01140    2.66940   78.72500   77.96050  151.91170   -8.76160   -9999.25    5.61070    5.69740
 12733.50000  129.48330    0.20880    0.02390    5.14380   -0.01090    2.67010   78.68700   78.29390  151.78030   -9.18700   -9999.25    5.56130    5.64000
 12734.00000  129.75750    0.20970    0.02040    5.14760   -0.01030    2.67520   78.44230   77.70460  151.64890   -9.03860   -9999.25    5.74960    5.82740
 12734.50000  130.45990    0.21370    0.01790    5.15330   -0.00970    2.68040   78.13450   77.55920  151.53140   -8.83080   -9999.25    5.86200    5.99530
 12735.00000  131.37280    0.22020    0.02000    5.14690   -0.00960    2.67770   78.26910   77.68860  152.64570   -8.62300   -9999.25    5.73180    5.87220
 12735.50000  132.89350    0.22500    0.02420    5.14770   -0.01070    2.67050   78.73880   78.04520  154.75750   -8.41520   -9999.25    5.54180    5.61020
 12736.00000  135.22670    0.22770    0.02620    5.15720   -0.01200    2.66600   79.32030   78.51590  156.29130   -8.20740   -9999.25    5.35810    5.43720
 12736.50000  137.94640    0.22590    0.02600    5.16650   -0.01230    2.66670   79.63970   78.94610  157.51770   -8.33980   -9999.25    5.26580    5.42560
 12737.00000  138.85190    0.22260    0.02380    5.18020   -0.01050    2.67010   79.35860   79.08340  158.00960   -8.48030   -9999.25    5.37030    5.55510
 12737.50000  136.62400    0.21700    0.02060    5.18210   -0.00890    2.67600   78.90680   78.76110  156.15360   -8.65000   -9999.25    5.55060    5.70140
 12738.00000  132.84620    0.21270    0.01870    5.18320   -0.00890    2.68080   78.43150   78.28100  155.39230   -8.82550   -9999.25    5.73690    5.87430
 12738.50000  130.29790    0.21010    0.01840    5.18330   -0.00970    2.67930   77.95960   77.65570  155.38780   -8.99590   -9999.25    5.92950    6.03290
 12739.00000  130.23950    0.21150    0.02280    5.18350   -0.01340    2.67250   77.89870   77.58870  154.55600   -9.04550   -9999.25    6.01220    6.09460
 12739.50000  129.53620    0.21480    0.02650    5.18380   -0.01610    2.66560   78.12850   77.63420  155.48990   -9.05600   -9999.25    6.00000    6.11460
 12740.00000  128.39240    0.21720    0.02740    5.18480   -0.01650    2.66330   78.40660   77.95290  156.42380   -9.12150   -9999.25    5.87070    6.00170
 12740.50000  127.41440    0.21960    0.02750    5.18580   -0.01610    2.66380   78.80880   78.38260  157.97470   -9.25010   -9999.25    5.69730    5.82130
 12741.00000  128.58060    0.21990    0.02780    5.18610   -0.01560    2.66340   79.05310   78.58770  158.48550   -9.24580   -9999.25    5.52910    5.64960
 12741.50000  131.26500    0.21910    0.02820    5.20070   -0.01470    2.66270   79.06090   78.61620  157.99700   -9.24150   -9999.25    5.43110    5.52430
 12742.00000  133.73140    0.21650    0.02820    5.20100   -0.01450    2.66280   78.86780   78.43660  157.41130   -9.20530   -9999.25    5.48130    5.61100
 12742.50000  135.07030    0.21420    0.02850    5.19970   -0.01440    2.66280   78.62270   78.14560  156.91530   -9.13260   -9999.25    5.68310    5.72720
 12743.00000  133.47600    0.21270    0.02890    5.20610   -0.01500    2.66230   78.36330   77.80060  156.41920   -9.11560   -9999.25    5.93700    5.84570
 12743.50000  129.66940    0.21120    0.02890    5.21890   -0.01530    2.66240   78.12420   77.74670  155.87410   -9.13970   -9999.25    6.18520    5.95650
 12744.00000  127.11050    0.21110    0.02880    5.22760   -0.01580    2.66210   78.14290   77.66470  155.51350   -9.17040   -9999.25    6.23830    6.00490
 12744.50000  128.41910    0.21580    0.03020    5.23030   -0.01710    2.65890   78.33280   77.65910  156.20350   -9.20980   -9999.25    6.29050    6.05360
 12745.00000  132.30050    0.22270    0.03270    5.23300   -0.01750    2.65520   78.60060   78.03730  157.14170   -9.24920   -9999.25    6.15340    6.00520
 12745.50000  135.33000    0.22630    0.03440    5.23570   -0.01800    2.65280   78.86190   78.53260  157.13470   -9.28860   -9999.25    5.96420    5.82070
 12746.00000  134.38940    0.22580    0.03440    5.23840   -0.01810    2.65380   78.99750   78.61560  156.50670   -9.32800   -9999.25    5.81390    5.64950
 12746.50000  132.21070    0.22180    0.03260    5.24110   -0.01720    2.65520   78.94440   78.73900  155.91960   -9.36740   -9999.25    5.74580    5.63530
 12747.00000  130.50120    0.21630    0.02860    5.24380   -0.01630    2.66210   78.68350   78.40090  155.94280   -9.40680   -9999.25    5.72840    5.70660
 12747.50000  129.53040    0.21240    0.02550    5.24450   -0.01420    2.66690   78.44300   77.79360  156.16550   -9.26010   -9999.25    5.77870    5.85100
 12748.00000  128.13170    0.21050    0.02670    5.24470   -0.01420    2.66590   78.19690   77.69050  156.21350   -9.19090   -9999.25    5.85820    5.96620
 12748.50000  125.19490    0.20890    0.03110    5.25060   -0.01450    2.65870   78.09300   77.62030  156.08840   -9.12170   -9999.25    5.93870    6.01250
