~Version ---------------------------------------------------
VERS.   2.0 : CWLS log ASCII Standard -VERSION 2.0
WRAP.    NO : One line per depth step
DLM . SPACE : Column Data Section Delimiter
~Well ------------------------------------------------------
STRT .F               11631.0 : START DEPTH
STOP .F               14352.0 : STOP DEPTH
STEP .F                   0.5 : STEP
NULL .               -9999.25 : NULL VALUE
COMP .                        : COMPANY
WELL .                        : WELL
FLD  .                        : FIELD
LOC  .                        : LOCATION
PROV .                        : PROVINCE
CNTY .                        : COUNTY
STAT .                        : STATE
CTRY .                        : COUNTRY
SRVC .                        : SERVICE COMPANY
DATE .                        : DATE
UWI  .                        : UNIQUE WELL ID
API  .                        : API NUMBER
SLAT .WGS84 5.826932938948104 : SURFACE LATITUDE
SLON .WGS84  4.33391969463699 : SURFACE LONGITUDE
DATUM.F               2104.33 : DEPTH DATUM ELEV
~Curve Information -----------------------------------------
DEPT.F     : 
GRD .GAPI  : GAMMA RAY
NPHI.DEC   : NEUTRON POROSITY LIMESTONE
DPOR.DEC   : DENSITY POROSITY LIMESTONE
CALD.IN    : CALIPER FDC LOG
DRH .G/C3  : DENSITY CORRECTION
RHOM.G/C3  : BULK DENSITY CORRECTED
DT  .US/F  : INTERVAL TRANSIT TIME
DTCO.US/F  : COMPRESSIONAL-WAVE INTERVAL TRANSIT TIME ACOUSTIC SLOWNESS
DTSM.US/F  : SHEAR-WAVE INTERVAL TRANSIT TIME DELTA-T
SPR .MV    : SPONTANEOUS POTENTIAL FROM RES.
AT10.OHMM  : 10-IN. RESISTIVITY, 2-FT RESOLUTION
AT30.OHMM  : 30-IN. RESISTIVITY, 2-FT RESOLUTION
AT90.OHMM  : 90-IN. RESISTIVITY, 2-FT RESOLUTION
~Params ----------------------------------------------------
~Other -----------------------------------------------------
~ASCII -----------------------------------------------------
# ...
 13867.00000  135.16710    0.25650    0.05880    4.50760   -0.01230    2.60940   87.91650   87.37530  178.76440  -12.17530   -9999.25    2.87230    2.90150
 13867.50000  135.79840    0.25630    0.05680    3.67540   -0.00920    2.61240   88.64690   88.01810  177.93700  -11.89090   -9999.25    2.78070    2.79710
 13868.00000  134.14400    0.25610    0.03800    2.90070    0.00970    2.64100   88.54610   88.04470  176.76390  -11.60640   -9999.25    2.76100    2.77790
 13868.50000  131.37300    0.25710    0.01370    2.56740    0.04410    2.69310   88.27940   87.78420  175.57880  -11.45820   -9999.25    2.72780    2.74450
 13869.00000  128.73910    0.25670    0.01270    2.54420    0.04500    2.69000   87.69770   87.40140  174.39360  -11.47700   -9999.25    2.72970    2.74620
 13869.50000  128.93880    0.25390    0.03430    2.54180    0.02530    2.65380   86.68050   86.38970  172.38470  -11.49580   -9999.25    2.82260    2.84780
 13870.00000  130.10190    0.25270    0.04370    2.59910    0.00170    2.63820   85.81280   85.51730  172.03670  -11.48820   -9999.25    3.08040    3.12700
 13870.50000  131.51010    0.25250    0.03090    2.71810    0.00650    2.65740   85.32330   84.92670  173.17730  -11.46520   -9999.25    3.27420    3.29450
 13871.00000  134.18570    0.25550    0.01030    3.36010    0.02510    2.69510   85.35210   84.97140  175.19320  -11.44220   -9999.25    3.17540    3.19930
 13871.50000  139.05580    0.25900    0.00270    4.24980    0.01920    2.70710   86.12920   85.64450  177.34270  -11.42790   -9999.25    3.09210    3.11250
 13872.00000  140.79500    0.26260    0.01080    4.66790    0.01060    2.69140   87.04670   86.45440  179.49220  -11.63270   -9999.25    3.05940    3.07740
 13872.50000  137.36480    0.26630    0.01630    4.84080   -0.00350    2.68240   87.72360   87.12750  181.44670  -11.98340   -9999.25    3.06160    3.07970
 13873.00000  133.82880    0.26850    0.01480    4.83940   -0.00590    2.68610   87.89790   87.57180  182.07650  -12.17920   -9999.25    3.03830    3.05680
 13873.50000  132.07210    0.26800    0.01210    4.84400   -0.00290    2.68970   87.91420   87.56870  181.95600  -11.57320   -9999.25    3.02820    3.04790
 13874.00000  133.38370    0.26480    0.01230    4.84370   -0.00270    2.68920   87.97700   87.47710  182.37430  -11.43480   -9999.25    2.96560    2.98490
 13874.50000  135.42980    0.26150    0.01370    4.84330   -0.00500    2.68760   88.22930   87.64440  183.71580  -11.29650 1648.34610    2.90430    2.92310
 13875.00000  138.49220    0.26150    0.01220    4.84350   -0.00500    2.68970   88.95810   88.43810  185.05720  -11.46410 1220.16920    2.70070    2.75620
 13875.50000  141.01280    0.26390    0.00860    4.84490   -0.00460    2.69560   89.70860   89.31750  187.59910  -11.53510  814.32780    2.41900    2.45560
 13876.00000  141.46290    0.26510    0.00570    4.84570   -0.00410    2.70080   90.49440   89.85340  189.15010  -11.50650  512.83360    2.44980    2.47360
 13876.50000  140.15300    0.26160    0.00540    4.83520   -0.00380    2.70080   90.33970   89.98040  191.99970  -11.47860  349.91840    2.56310    2.58220
 13877.00000  137.32070    0.25480    0.00780    4.82040   -0.00480    2.69760   89.82380   89.66250  194.94940  -11.58960  251.79010    2.54430    2.57370
 13877.50000  135.23330    0.24630    0.01030    4.82910   -0.00500    2.69240   89.25980   88.84800  192.18660  -11.70060  202.09890    2.40400    2.42790
 13878.00000  134.96710    0.24460    0.01090    4.83790   -0.00470    2.69190   88.87100   88.37970  186.29500  -11.54700  174.66860    2.31690    2.37300
 13878.50000  135.90080    0.24810    0.00990    4.84280   -0.00410    2.69350   88.78330   88.27530  187.96740  -11.44890  154.88420    2.32780    2.36670
 13879.00000  138.10300    0.25460    0.00890    4.84830   -0.00390    2.69510   88.87280   88.49300  193.29820  -11.44990  128.19060    2.36340    2.41670
 13879.50000  139.55850    0.26330    0.01130    4.84280   -0.00560    2.69060   88.94420   88.64020  191.83680  -11.45090   97.28040    2.32130    2.33560
 13880.00000  141.26750    0.27360    0.01790    4.84280   -0.00730    2.67980   89.09610   88.73400  184.02880  -11.41700   70.71240    2.32620    2.34010
 13880.50000  143.17420    0.28760    0.02350    4.84280   -0.00870    2.66930   89.21460   88.92290  180.94930  -11.34480   54.01930    2.34120    2.35510
 13881.00000  143.92650    0.29170    0.02590    4.84270   -0.00910    2.66550   89.20890   89.01330  183.80290  -11.27250   43.17480    2.36750    2.38200
 13881.50000  143.11680    0.27950    0.02380    4.84090   -0.00820    2.67120   89.20320   88.78840  182.24150  -11.49230   43.92120    2.43810    2.45650
 13882.00000  142.87300    0.27200    0.01870    4.84030   -0.00590    2.68000   89.16280   88.56340  180.46910  -11.50590   37.70480    2.44740    2.46940
 13882.50000  143.12220    0.26850    0.01380    4.84240   -0.00400    2.68830   89.08530   88.65880  187.95170  -11.45260   24.74600    2.30800    2.33130
 13883.00000  143.38780    0.26620    0.01030    4.84430   -0.00320    2.69360   89.01730   88.64130  189.53570  -11.38120   17.91210    2.19120    2.20420
 13883.50000  143.68300    0.26470    0.00930    4.84620   -0.00310    2.69350   88.94960   88.59210  182.54830  -11.62210   20.18180    2.19950    2.21700
 13884.00000  145.31980    0.26730    0.01310    4.84460   -0.00430    2.68660   88.91610   88.55000  177.85500  -11.91120   22.58610    2.29570    2.30920
 13884.50000  151.64840    0.27630    0.02180    4.83970   -0.00660    2.66810   89.09920   88.95870  180.58370  -11.88740   20.66880    2.26960    2.28510
 13885.00000  154.20140    0.28570    0.03310    4.82030   -0.00880    2.65230   89.70120   89.40340  186.98880  -12.02660   18.30160    2.17870    2.19510
 13885.50000  156.27060    0.29340    0.03770    4.79920   -0.00960    2.64770   90.52440   90.16490  191.64650  -11.88330   16.22760    2.12760    2.14100
 13886.00000  154.23530    0.29090    0.03040    4.78340   -0.01090    2.66370   91.33800   90.82100  188.35090  -11.82280   16.35800    2.09900    2.11160
 13886.50000  147.50090    0.28620    0.01110    4.77080   -0.00490    2.70170   90.64780   90.36280  193.01110  -11.72420   20.36240    2.09580    2.10900
 13887.00000  135.63930    0.27330   -0.02730    4.76390    0.00750    2.75390   87.80610   87.48910  191.56040  -11.62560   40.20430    2.20780    2.24100
 13887.50000  128.09140    0.26360   -0.04080    4.75690    0.01390    2.78360   84.62790   84.58970  179.06560  -11.52700   63.52560    2.66480    2.88880
 13888.00000  129.15780    0.26310   -0.02930    4.74020    0.00590    2.76270   83.42890   82.96210  169.74500  -11.42850   97.43810    3.17370    3.24240
 13888.50000  135.74060    0.26700    0.00870    4.71640   -0.00120    2.69860   83.80650   83.16700  170.47210  -11.38680  180.95110    2.94790    3.00270
 13889.00000  142.64640    0.27120    0.03150    4.70560   -0.00610    2.65580   86.11980   85.16850  172.77910  -11.65790  397.57370    2.70070    2.71660
 13889.50000  144.62420    0.27330    0.03450    4.71510   -0.00180    2.65250   87.94800   87.20880  175.97000  -11.70290  810.97470    2.72260    2.74020
 13890.00000  145.00280    0.27570    0.02970    4.72240    0.00030    2.65920   88.27630   87.63460  181.37440  -11.64850 1425.97250    2.83150    2.85710
 13890.50000  145.19450    0.27920    0.02730    4.72200   -0.00070    2.66380   88.18940   87.60270  188.70660  -11.59420 1942.03320    2.93150    2.94890
 13891.00000  144.80670    0.27690    0.03250    4.72000   -0.00470    2.65490   87.96930   87.53430  189.46370  -11.53980   -9999.25    2.92080    2.93900
 13891.50000  142.60420    0.27220    0.03820    4.70880   -0.00770    2.64500   87.53560   87.27810  184.15580  -11.48540   -9999.25    2.92590    2.94340
 13892.00000  139.25710    0.26820    0.03860    4.69940   -0.00760    2.64260   87.02650   86.81910  180.08690  -11.43110   -9999.25    3.08700    3.11620
 13892.50000  137.37610    0.27030    0.03820    4.69150   -0.00670    2.64560   86.96560   86.43390  183.43590  -11.40840   -9999.25    3.16930    3.19940
