~Version ---------------------------------------------------
VERS.   2.0 : CWLS log ASCII Standard -VERSION 2.0
WRAP.    NO : One line per depth step
DLM . SPACE : Column Data Section Delimiter
~Well ------------------------------------------------------
STRT .F               11631.0 : START DEPTH
STOP .F               14352.0 : STOP DEPTH
STEP .F                   0.5 : STEP
NULL .               -9999.25 : NULL VALUE
COMP .                        : COMPANY
WELL .                        : WELL
FLD  .                        : FIELD
LOC  .                        : LOCATION
PROV .                        : PROVINCE
CNTY .                        : COUNTY
STAT .                        : STATE
CTRY .                        : COUNTRY
SRVC .                        : SERVICE COMPANY
DATE .                        : DATE
UWI  .                        : UNIQUE WELL ID
API  .                        : API NUMBER
SLAT .WGS84 5.826932938948104 : SURFACE LATITUDE
SLON .WGS84  4.33391969463699 : SURFACE LONGITUDE
DATUM.F               2104.33 : DEPTH DATUM ELEV
~Curve Information -----------------------------------------
DEPT.F     : 
GRD .GAPI  : GAMMA RAY
NPHI.DEC   : NEUTRON POROSITY LIMESTONE
DPOR.DEC   : DENSITY POROSITY LIMESTONE
CALD.IN    : CALIPER FDC LOG
DRH .G/C3  : DENSITY CORRECTION
RHOM.G/C3  : BULK DENSITY CORRECTED
DT  .US/F  : INTERVAL TRANSIT TIME
DTCO.US/F  : COMPRESSIONAL-WAVE INTERVAL TRANSIT TIME ACOUSTIC SLOWNESS
DTSM.US/F  : SHEAR-WAVE INTERVAL TRANSIT TIME DELTA-T
SPR .MV    : SPONTANEOUS POTENTIAL FROM RES.
AT10.OHMM  : 10-IN. RESISTIVITY, 2-FT RESOLUTION
AT30.OHMM  : 30-IN. RESISTIVITY, 2-FT RESOLUTION
AT90.OHMM  : 90-IN. RESISTIVITY, 2-FT RESOLUTION
~Params ----------------------------------------------------
~Other -----------------------------------------------------
~ASCII -----------------------------------------------------
# ...
 12151.00000  104.72840    0.02970    0.04230    5.12150   -0.01230    2.63990   68.09340   67.61460  167.43650   13.84210    1.00320   10.34980   12.90100
 12151.50000  105.11070    0.02860    0.03620    5.12160   -0.01070    2.64950   68.08770   67.71560  168.64100   12.92310    0.99250   10.34370   12.51900
 12152.00000  108.62830    0.03540    0.03300    5.12220   -0.00970    2.65370   69.30370   68.82910  173.18090   11.99490    0.97780    9.48120   10.54670
 12152.50000  114.72240    0.04320    0.03500    5.12210   -0.00900    2.64960   69.92580   69.50690  179.57360   11.04900    0.96330    8.18990    7.78480
 12153.00000  118.04840    0.04650    0.04040    5.12010   -0.01060    2.64000   69.96160   69.58140  178.10160   10.13840    0.95870    7.21500    6.58670
 12153.50000  116.36500    0.05610    0.04380    5.11280   -0.01130    2.63610   68.46690   68.19840  172.87690    9.70970    0.97500    8.13490    7.57810
 12154.00000  108.13590    0.07770    0.04230    5.10790   -0.00970    2.63840   66.42190   66.19820  169.65930    9.28090    0.98000   10.05020   10.47000
 12154.50000  100.77280    0.08620    0.04040    5.11150   -0.00730    2.64150   65.41850   64.91190  169.52410    8.84350    0.98500   10.78910   11.05990
 12155.00000   96.71840    0.08130    0.03860    5.10990   -0.00630    2.64420   64.97980   64.73350  171.15300    8.50340    0.99000   11.14880   11.62320
 12155.50000   96.40720    0.08340    0.03560    5.10830   -0.00420    2.64990   66.50650   66.27220  172.67740    8.23040    0.99510   11.44190   11.41250
 12156.00000   98.55280    0.09050    0.03410    5.10170   -0.00360    2.65320   68.59690   67.83700  172.73630    7.89520    1.00010   11.72450   11.94110
 12156.50000  102.20840    0.09720    0.03640    5.10480   -0.00450    2.64880   68.91750   68.61030  171.93760    7.55030    1.00520   11.18720   11.25730
 12157.00000  103.80300    0.09970    0.04310    5.11660   -0.00550    2.63690   69.13300   68.64980  171.13400    7.20540    1.00270   11.48070   11.65430
 12157.50000  103.67390    0.10320    0.04860    5.12180   -0.00700    2.62820   69.13100   68.63910  170.59540    7.00180    0.99530   13.82490   13.91820
 12158.00000  104.91090    0.10800    0.04900    5.11570   -0.00680    2.62720   69.64270   69.05590  171.81630    6.89430    0.98810   12.70440   13.14480
 12158.50000  107.64580    0.11810    0.04740    5.10910   -0.00670    2.62960   70.71650   70.04000  173.03730    6.83200    0.98080   10.20300   10.46690
 12159.00000  110.56930    0.11700    0.04560    5.10270   -0.00700    2.63190   70.72650   70.13260  172.27610    6.83390    0.97740    9.71830    9.96870
 12159.50000  108.05460    0.10470    0.04400    5.09970   -0.00750    2.63510   69.29480   68.89530  170.30030    6.80830    0.97870   10.36970   10.89290
 12160.00000  103.01020    0.09180    0.04070    5.10770   -0.00770    2.64050   68.52770   68.05320  169.01980    6.76640    0.98980   11.63960   12.75350
 12160.50000   99.80910    0.09160    0.03690    5.11790   -0.00780    2.64730   68.69450   67.95740  168.98500    6.73070    1.00100   11.94770   13.06870
 12161.00000  100.56470    0.09910    0.03450    5.11970   -0.00780    2.64990   68.81190   68.15970  169.59540    7.00530    1.00130   10.47120   11.63090
 12161.50000  101.25700    0.10540    0.03450    5.12100   -0.00940    2.65050   68.32230   67.84350  170.20580    7.20300    1.00130   10.62520   11.70260
 12162.00000   99.76510    0.10350    0.03470    5.12240   -0.01110    2.65010   67.61930   67.42780  169.88090    7.22910    1.00090   13.67000   13.73690
 12162.50000   98.74040    0.09750    0.03680    5.12210   -0.01210    2.64750   66.05670   66.05840  168.86260    7.21120    1.00050   14.20400   15.67890
 12163.00000  100.32470    0.09400    0.04620    5.12050   -0.01380    2.63100   65.06330   65.21820  169.06880    7.19320    1.00010   14.53450   15.92920
 12163.50000  102.24460    0.09100    0.05490    5.11380   -0.01410    2.61610   66.33480   64.93390  169.29680    7.17530    0.99970   14.15110   16.34530
 12164.00000  101.01090    0.08670    0.05490    5.11150   -0.01140    2.61660   65.23770   64.36570  169.28140    7.23950    0.99930   13.63430   16.53220
 12164.50000   97.69930    0.08020    0.04510    5.11630   -0.00600    2.63360   64.12330   64.06520  168.30480    7.60710    0.99870   13.13650   16.14070
 12165.00000   93.64130    0.07670    0.03450    5.12100   -0.00340    2.65500   64.74900   64.23000  167.79610    7.65300    0.99770   12.77970   15.33680
 12165.50000   92.70810    0.08260    0.03330    5.10860   -0.00350    2.65390   65.20940   64.53460  169.10120    7.67210    0.99680   12.68870   14.98650
 12166.00000   93.21310    0.08860    0.04070    5.11120   -0.00610    2.63870   64.95660   64.49930  168.91730    7.64070    0.97740   13.11790   14.34580
 12166.50000   92.92490    0.08560    0.04800    5.11270   -0.00910    2.62760   64.70380   64.23890  167.56050    7.54450    0.98680   13.79110   14.74200
 12167.00000   90.69500    0.07680    0.05150    5.09920   -0.00900    2.62160   64.66750   64.10500  174.33300    7.50100    1.00550   14.48790   16.48450
 12167.50000   94.86680    0.08890    0.05510    5.07890   -0.00920    2.61540   66.58060   65.89660  191.95140    7.76380    0.99680   14.07740   14.56160
 12168.00000  105.24830    0.12480    0.06000    5.05320   -0.00950    2.60930   69.01620   68.07580  188.23610    7.74470    0.97470   10.74180   11.12640
 12168.50000  114.78900    0.15120    0.05590    5.03940   -0.00740    2.61690   68.56760   68.18400  161.69020    7.73810    0.95650    9.98780   10.01180
 12169.00000  111.91020    0.13660    0.04120    5.03940   -0.00340    2.64510   66.31630   66.36560  140.40580    7.94160    1.00010   10.80880   10.97750
 12169.50000   98.71310    0.10070    0.02490    5.03940   -0.00370    2.66790   65.56200   65.35330  143.46200    8.13470    0.99440   11.07350   11.66340
 12170.00000   89.17830    0.08450    0.02700    5.05020   -0.00440    2.66350   67.27060   65.72520  138.55720    7.87410    0.98780   10.70340   11.33170
 12170.50000   93.82420    0.09780    0.03840    5.05860   -0.00280    2.64150   69.80890   68.66410  130.56870    7.63720    0.96350    9.00780    9.27760
 12171.00000  103.17430    0.11600    0.04630    5.05000   -0.00760    2.63040   71.82560   70.76500  138.79120    7.72170    0.94200    8.02790    8.11490
 12171.50000  107.77270    0.11660    0.04710    5.04130   -0.00880    2.63040   69.35780   69.86120  146.30210    7.92070    0.98560    8.85510    9.00290
 12172.00000  102.88540    0.10290    0.04600    5.04260   -0.00810    2.63220   66.41950   66.79220  140.85700    8.11430    0.98490   12.17510   12.80830
 12172.50000   94.23750    0.08370    0.04640    5.04240   -0.00750    2.63130   66.12610   65.76990  131.67030    8.09690    1.00660   16.35560   18.51690
 12173.00000   89.82110    0.08330    0.04910    5.03870   -0.00790    2.62610   68.14370   66.91890  155.97030    7.91770    1.00830   13.46950   14.70080
 12173.50000   94.38990    0.10530    0.05500    5.03560   -0.00920    2.61550   70.70660   69.83920  166.07100    7.73850    0.97040    9.74910   10.13530
 12174.00000  103.41310    0.13900    0.06080    5.03560   -0.00970    2.60610   71.19360   70.95440  161.37840    7.69080    0.93770    7.20940    7.48820
 12174.50000  103.96280    0.14350    0.06220    5.03560   -0.00980    2.60330   69.24040   69.47910  132.35260    7.70840    0.95190    7.41500    7.63450
 12175.00000   95.00070    0.11650    0.06040    5.03620   -0.00970    2.60700   66.12630   66.17590  114.50640    7.94220    0.97420   10.19770   10.70440
 12175.50000   84.82970    0.08300    0.05890    5.03800   -0.00570    2.60920   65.26750   64.56270  109.66170    8.13310    0.99860   14.72180   16.81970
 12176.00000   87.60160    0.08280    0.05880    5.03200   -0.00110    2.60930   68.70590   66.86490  112.97120    8.19040    0.97760   12.52370   13.02820
 12176.50000  100.07160    0.09730    0.05840    5.01500    0.00360    2.61140   72.57600   71.40930  123.25660    8.06000    0.95600    9.20210    9.38420
