~Version ---------------------------------------------------
VERS.   2.0 : CWLS log ASCII Standard -VERSION 2.0
WRAP.    NO : One line per depth step
DLM . SPACE : Column Data Section Delimiter
~Well ------------------------------------------------------
STRT .F               11631.0 : START DEPTH
STOP .F               14352.0 : STOP DEPTH
STEP .F                   0.5 : STEP
NULL .               -9999.25 : NULL VALUE
COMP .                        : COMPANY
WELL .                        : WELL
FLD  .                        : FIELD
LOC  .                        : LOCATION
PROV .                        : PROVINCE
CNTY .                        : COUNTY
STAT .                        : STATE
CTRY .                        : COUNTRY
SRVC .                        : SERVICE COMPANY
DATE .                        : DATE
UWI  .                        : UNIQUE WELL ID
API  .                        : API NUMBER
SLAT .WGS84 5.826932938948104 : SURFACE LATITUDE
SLON .WGS84  4.33391969463699 : SURFACE LONGITUDE
DATUM.F               2104.33 : DEPTH DATUM ELEV
~Curve Information -----------------------------------------
DEPT.F     : 
GRD .GAPI  : GAMMA RAY
NPHI.DEC   : NEUTRON POROSITY LIMESTONE
DPOR.DEC   : DENSITY POROSITY LIMESTONE
CALD.IN    : CALIPER FDC LOG
DRH .G/C3  : DENSITY CORRECTION
RHOM.G/C3  : BULK DENSITY CORRECTED
DT  .US/F  : INTERVAL TRANSIT TIME
DTCO.US/F  : COMPRESSIONAL-WAVE INTERVAL TRANSIT TIME ACOUSTIC SLOWNESS
DTSM.US/F  : SHEAR-WAVE INTERVAL TRANSIT TIME DELTA-T
SPR .MV    : SPONTANEOUS POTENTIAL FROM RES.
AT10.OHMM  : 10-IN. RESISTIVITY, 2-FT RESOLUTION
AT30.OHMM  : 30-IN. RESISTIVITY, 2-FT RESOLUTION
AT90.OHMM  : 90-IN. RESISTIVITY, 2-FT RESOLUTION
~Params ----------------------------------------------------
~Other -----------------------------------------------------
~ASCII -----------------------------------------------------
# ...
 12437.00000  126.32840    0.20980    0.04110    5.04640   -0.01290    2.64010   79.27820   79.30390  147.01280   -3.86810   -9999.25    7.44130    7.48860
 12437.50000  127.16300    0.20610    0.03930    5.04650   -0.01310    2.64170   79.11140   78.89310  147.25930   -3.80390   -9999.25    7.23460    7.28590
 12438.00000  127.17600    0.20500    0.03800    5.04530   -0.01230    2.64500   79.54590   78.68090  148.73600   -3.75250   -9999.25    6.89950    6.95900
 12438.50000  127.40200    0.21260    0.03670    5.04350   -0.01120    2.64820   80.39380   79.84110  150.52330   -3.48560   -9999.25    6.59500    6.53090
 12439.00000  129.51470    0.22440    0.03590    5.04310   -0.01130    2.64830   81.28530   80.73580  153.10000   -2.70890   -9999.25    6.32340    6.12910
 12439.50000  133.28000    0.23020    0.03880    5.04280   -0.01190    2.64300   81.86380   81.42510  154.41390   -2.45000   -9999.25    5.88310    5.75210
 12440.00000  136.42660    0.23030    0.04180    5.04880   -0.01250    2.63830   82.00990   81.63730  155.46230   -2.63660   -9999.25    5.75390    5.67430
 12440.50000  138.60890    0.22780    0.04290    5.04860   -0.01310    2.63710   81.54770   81.13650  155.25360   -2.83770   -9999.25    5.73030    5.68750
 12441.00000  138.06900    0.22460    0.04130    5.04300   -0.01360    2.63910   80.77680   80.20300  152.68650   -3.01200   -9999.25    5.84850    5.70070
 12441.50000  135.21830    0.22000    0.03960    5.03750   -0.01310    2.64250   79.59410   79.19690  148.35280   -3.18620   -9999.25    6.27340    5.93090
 12442.00000  129.77790    0.21100    0.03830    5.03830   -0.01190    2.64610   77.85630   77.66830  143.92900   -3.36050   -9999.25    7.06150    6.63300
 12442.50000  121.21970    0.19930    0.03790    5.03900   -0.01080    2.64680   76.18950   75.78040  137.74980   -3.47820   -9999.25    8.01640    7.52770
 12443.00000  115.57440    0.18520    0.03870    5.04020   -0.01000    2.64560   74.79000   74.42660  133.89400   -3.79720   -9999.25    9.10040    8.67450
 12443.50000  114.46570    0.17400    0.03820    5.04230   -0.00960    2.64520   73.51620   73.24690  130.01210   -3.74830   -9999.25   10.05250    9.99610
 12444.00000  117.40210    0.16610    0.03810    5.04360   -0.00830    2.64570   73.22920   72.71030  128.82360   -3.90710   -9999.25   10.21130   10.55070
 12444.50000  118.72810    0.16000    0.04080    5.04160   -0.00880    2.64170   73.54780   73.16600  129.14430   -4.06770   -9999.25   10.13880   10.48670
 12445.00000  118.65350    0.15720    0.04630    5.03790   -0.01000    2.63290   74.13000   73.55190  131.10880   -4.24050   -9999.25    9.88920   10.12060
 12445.50000  118.88900    0.16060    0.04900    5.03300   -0.01180    2.62680   74.61840   73.87820  132.85310   -4.16680   -9999.25    9.63410    9.76730
 12446.00000  121.24910    0.16490    0.04880    5.02800   -0.01200    2.62660   74.72550   74.26280  134.24010   -4.19240   -9999.25    9.28810    9.43800
 12446.50000  124.05180    0.16660    0.04700    5.02380   -0.01190    2.62950   74.66880   74.10510  135.00720   -4.31410   -9999.25    9.08760    9.24850
 12447.00000  124.48780    0.16540    0.04330    5.03680   -0.01100    2.63560   74.40880   73.72940  133.70130   -4.49290   -9999.25    9.48790    9.58050
 12447.50000  123.52780    0.16360    0.03950    5.04220   -0.01000    2.64140   74.34440   73.59940  131.09560   -4.77890   -9999.25    9.97250   10.05290
 12448.00000  124.31970    0.16430    0.03910    5.04350   -0.01050    2.64200   74.39450   73.61010  130.46870   -5.06620   -9999.25   10.47940   10.67910
 12448.50000  125.49600    0.16640    0.04500    5.04310   -0.01110    2.63640   74.63860   73.89620  131.41350   -5.36110   -9999.25   11.31260   11.22180
 12449.00000  124.92540    0.16830    0.05240    5.04270   -0.01450    2.62290   75.21830   74.60990  132.35820   -5.21130   -9999.25   11.56250   11.69090
 12449.50000  121.92300    0.17160    0.06030    5.04290   -0.01720    2.60990   75.72970   75.23500  133.22520   -5.02040   -9999.25   11.09680   10.88540
 12450.00000  121.90340    0.17510    0.06140    5.04610   -0.01760    2.60560   75.76190   75.50050  133.51700   -4.63040   -9999.25   10.42720   10.14530
 12450.50000  122.51480    0.17520    0.06090    5.04490   -0.01700    2.60540   75.61580   75.06760  133.18070   -4.13430   -9999.25   10.36040   10.16320
 12451.00000  123.65050    0.16940    0.05930    5.03860   -0.01590    2.61000   75.10450   74.54320  131.76780   -3.63830   -9999.25   10.40920   10.18110
 12451.50000  123.65990    0.16330    0.05730    5.03890   -0.01500    2.61260   74.49620   73.80460  130.21120   -3.44570   -9999.25   10.45810   10.19900
 12452.00000  123.22280    0.16040    0.05640    5.04160   -0.01450    2.61370   73.98350   73.36460  129.32670   -3.50480   -9999.25   10.53360   10.24300
 12452.50000  122.65260    0.15770    0.05700    5.04670   -0.01410    2.61240   73.81940   73.32670  128.43620   -3.93910   -9999.25   10.62150   10.55650
 12453.00000  121.33680    0.15540    0.05880    5.08670   -0.01390    2.60970   73.57590   72.94800  127.17520   -3.61100   -9999.25   10.98140   10.95270
 12453.50000  119.04640    0.15190    0.06010    5.11410   -0.01380    2.60710   73.37460   72.88050  125.64630   -3.65240   -9999.25   11.41070   11.25910
 12454.00000  118.08050    0.14800    0.05840    5.08330   -0.01250    2.60860   73.21300   72.67090  124.63310   -3.88410   -9999.25   11.85690   11.56490
 12454.50000  118.38820    0.14490    0.05610    5.05400   -0.01060    2.61420   73.21490   72.60350  124.29170   -4.08050   -9999.25   12.06610   11.76680
 12455.00000  119.58400    0.14680    0.05330    5.04720   -0.00780    2.61960   73.47440   72.76340  125.67870   -4.33680   -9999.25   11.90970   11.75520
 12455.50000  121.07730    0.15190    0.05000    5.04040   -0.00680    2.62500   73.96590   73.36990  127.06580   -4.24020   -9999.25   11.75530   11.67060
 12456.00000  121.09060    0.15820    0.04760    5.03350   -0.00630    2.62950   74.37700   73.85360  128.32500   -3.98050   -9999.25   11.60980   11.49550
 12456.50000  120.32260    0.16220    0.04630    5.02780   -0.00650    2.63080   74.67450   74.02630  129.02660   -3.85950   -9999.25   11.59390   11.47660
 12457.00000  120.09310    0.16250    0.04850    5.02760   -0.00750    2.62770   74.49980   74.11690  129.06130   -4.06650   -9999.25   11.57810   11.45780
 12457.50000  120.93890    0.16200    0.05250    5.04010   -0.00850    2.62150   74.40910   74.04320  128.77980   -4.27360   -9999.25   11.57750   11.34780
 12458.00000  121.44220    0.16140    0.05320    5.04440   -0.00840    2.61940   74.23840   73.72130  128.07700   -4.28750   -9999.25   11.59360   11.19980
 12458.50000  119.67840    0.15840    0.05270    5.03660   -0.00770    2.62000   74.06670   73.54830  127.48040   -4.27570   -9999.25   11.60850   11.07480
 12459.00000  116.68750    0.15350    0.05220    5.03030   -0.00670    2.62090   73.88600   73.48370  126.85200   -4.48470   -9999.25   11.55140   11.12870
 12459.50000  114.87770    0.14660    0.05350    5.03270   -0.00680    2.61900   73.85650   73.45150  126.54560   -4.51760   -9999.25   11.33160   11.10490
 12460.00000  115.29580    0.14710    0.05500    5.03660   -0.00690    2.61640   73.83430   73.44170  126.91240   -4.39130   -9999.25   11.17850   10.90710
 12460.50000  116.61630    0.14990    0.05600    5.03450   -0.00710    2.61560   73.97490   73.47860  127.86140   -4.27690   -9999.25   11.28000   10.78480
 12461.00000  117.59740    0.15200    0.05570    5.02840   -0.00720    2.61640   74.07290   73.60910  128.70020   -4.16250   -9999.25   11.40000   10.95940
 12461.50000  118.20000    0.15400    0.05630    5.02850   -0.00860    2.61570   74.28430   73.71290  129.41090   -4.11210   -9999.25   11.31920   10.90040
 12462.00000  120.80780    0.15670    0.05510    5.02860   -0.01000    2.61700   74.51540   73.98610  130.12170   -4.06940   -9999.25   10.78230   10.52770
 12462.50000  125.10960    0.16000    0.05180    5.02870   -0.01040    2.62220   74.61160   74.36090  131.13550   -4.15730   -9999.25   10.23110   10.16770
