~Version ---------------------------------------------------
VERS.   2.0 : CWLS log ASCII Standard -VERSION 2.0
WRAP.    NO : One line per depth step
DLM . SPACE : Column Data Section Delimiter
~Well ------------------------------------------------------
STRT .F               11631.0 : START DEPTH
STOP .F               14352.0 : STOP DEPTH
STEP .F                   0.5 : STEP
NULL .               -9999.25 : NULL VALUE
COMP .                        : COMPANY
WELL .                        : WELL
FLD  .                        : FIELD
LOC  .                        : LOCATION
PROV .                        : PROVINCE
CNTY .                        : COUNTY
STAT .                        : STATE
CTRY .                        : COUNTRY
SRVC .                        : SERVICE COMPANY
DATE .                        : DATE
UWI  .                        : UNIQUE WELL ID
API  .                        : API NUMBER
SLAT .WGS84 5.826932938948104 : SURFACE LATITUDE
SLON .WGS84  4.33391969463699 : SURFACE LONGITUDE
DATUM.F               2104.33 : DEPTH DATUM ELEV
~Curve Information -----------------------------------------
DEPT.F     : 
GRD .GAPI  : GAMMA RAY
NPHI.DEC   : NEUTRON POROSITY LIMESTONE
DPOR.DEC   : DENSITY POROSITY LIMESTONE
CALD.IN    : CALIPER FDC LOG
DRH .G/C3  : DENSITY CORRECTION
RHOM.G/C3  : BULK DENSITY CORRECTED
DT  .US/F  : INTERVAL TRANSIT TIME
DTCO.US/F  : COMPRESSIONAL-WAVE INTERVAL TRANSIT TIME ACOUSTIC SLOWNESS
DTSM.US/F  : SHEAR-WAVE INTERVAL TRANSIT TIME DELTA-T
SPR .MV    : SPONTANEOUS POTENTIAL FROM RES.
AT10.OHMM  : 10-IN. RESISTIVITY, 2-FT RESOLUTION
AT30.OHMM  : 30-IN. RESISTIVITY, 2-FT RESOLUTION
AT90.OHMM  : 90-IN. RESISTIVITY, 2-FT RESOLUTION
~Params ----------------------------------------------------
~Other -----------------------------------------------------
~ASCII -----------------------------------------------------
# ...
 13581.00000  118.51020    0.16700    0.03400    4.95410   -0.00860    2.65270   72.91340   72.68520  140.28880  -16.41210   -9999.25    6.39210    6.45990
 13581.50000  120.06640    0.17530    0.03380    4.96270   -0.00910    2.65330   73.30570   72.91180  137.29560  -16.39840   -9999.25    7.08290    7.22050
 13582.00000  121.32350    0.18440    0.03560    4.96590   -0.01020    2.64990   73.38410   73.03650  131.25260  -16.68720   -9999.25    8.22220    8.28530
 13582.50000  122.58440    0.18830    0.03670    4.96720   -0.01120    2.64780   73.64390   73.07710  131.28230  -16.96010   -9999.25    7.88590    8.02200
 13583.00000  122.25810    0.19230    0.03810    4.96680   -0.01240    2.64530   74.56160   73.89220  131.96780  -17.00300   -9999.25    7.32130    7.41670
 13583.50000  122.14030    0.19720    0.04220    4.96420   -0.01360    2.63770   75.97240   75.24480  131.61320  -17.04590   -9999.25    6.73520    6.82780
 13584.00000  123.02860    0.20360    0.04630    4.96310   -0.01420    2.63120   77.59140   77.09150  135.21930  -17.05700   -9999.25    5.69320    5.81480
 13584.50000  125.80490    0.20990    0.04670    4.96310   -0.01460    2.63040   79.20860   78.77330  148.34940  -17.15870   -9999.25    4.98300    5.04950
 13585.00000  128.27440    0.21590    0.04360    4.96310   -0.01230    2.63630   80.32680   79.63060  159.48050  -16.99750   -9999.25    4.66950    4.70800
 13585.50000  129.33140    0.22260    0.03890    4.96310   -0.01010    2.64450   80.97430   80.50180  165.25210  -16.58450   -9999.25    4.47270    4.51000
 13586.00000  129.84410    0.22220    0.03480    4.96310   -0.00800    2.65110   81.32440   80.74450  166.74150  -16.17140   -9999.25    4.19870    4.23400
 13586.50000  129.78060    0.21880    0.03110    4.96380   -0.00610    2.65680   81.20460   80.72540  166.25980  -15.75830   -9999.25    4.13210    4.15720
 13587.00000  128.73230    0.21480    0.02940    4.96500   -0.00440    2.66070   80.65090   80.41240  166.44360  -15.34530   -9999.25    4.09800    4.12460
 13587.50000  127.99120    0.21260    0.03080    4.96430   -0.00650    2.65750   80.29120   79.97650  167.60320  -15.50800   -9999.25    4.30100    4.36480
 13588.00000  129.16620    0.21790    0.03340    4.96350   -0.00710    2.65400   80.77200   80.31380  168.76290  -15.50830   -9999.25    4.42660    4.46390
 13588.50000  131.11850    0.22470    0.03390    4.96310   -0.00590    2.65350   82.07450   81.60510  171.09420  -15.41860   -9999.25    3.82890    3.88500
 13589.00000  131.22200    0.23100    0.03200    4.96310   -0.00410    2.65570   83.74660   83.15040  173.59830  -15.75570   -9999.25    3.52520    3.56120
 13589.50000  128.76990    0.23480    0.03200    4.96310   -0.00500    2.65490   84.62280   84.31360  174.98590  -15.82000   -9999.25    3.28500    3.31950
 13590.00000  126.21760    0.23760    0.03650    4.95650   -0.00620    2.64770   84.92010   84.71720  174.47720  -15.81050   -9999.25    3.11520    3.13870
 13590.50000  124.92330    0.23930    0.04160    4.94440   -0.00760    2.63810   85.12160   84.63740  173.02430  -15.91220   -9999.25    3.04140    3.05940
 13591.00000  124.64260    0.24040    0.04360    4.93220   -0.00740    2.63600   84.76540   84.24850  170.42470  -15.94450   -9999.25    3.09960    3.12350
 13591.50000  124.01400    0.24160    0.04190    4.90650   -0.00650    2.63980   84.32120   83.77500  165.89620  -15.60960   -9999.25    3.24700    3.27530
 13592.00000  123.21430    0.24280    0.03920    4.88520   -0.00570    2.64460   83.68010   83.18370  163.68880  -15.47890   -9999.25    3.41040    3.43120
 13592.50000  123.29610    0.24320    0.03800    4.88610   -0.00590    2.64680   83.26530   82.68980  162.30470  -15.62830   -9999.25    3.39000    3.41000
 13593.00000  124.47300    0.23800    0.03880    4.89470   -0.00760    2.64290   83.01500   82.42740  160.92060  -15.90070   -9999.25    3.41690    3.43850
 13593.50000  126.02400    0.23010    0.04130    4.90050   -0.00920    2.63830   82.41210   81.79350  161.38610  -16.17310   -9999.25    3.53940    3.56550
 13594.00000  127.10180    0.22610    0.04440    4.90280   -0.01160    2.63430   81.76290   81.49320  163.08310  -16.26100   -9999.25    3.69460    3.73240
 13594.50000  125.35320    0.22640    0.04510    4.90450   -0.01290    2.63340   81.33890   81.08020  162.18990  -16.26580   -9999.25    3.90840    3.94510
 13595.00000  122.31200    0.22900    0.04370    4.89960   -0.01160    2.63640   81.30440   80.84160  160.04770  -16.33430   -9999.25    4.08380    4.11220
 13595.50000  120.92740    0.23170    0.04300    4.88400   -0.01240    2.63620   81.72770   81.18390  158.40790  -16.54170   -9999.25    3.94720    3.98330
 13596.00000  122.66820    0.23510    0.04590    4.88500   -0.01340    2.63010   82.63430   82.17960  158.16730  -16.84980   -9999.25    3.69660    3.73800
 13596.50000  125.43360    0.23820    0.05040    4.89480   -0.01450    2.62490   83.37980   82.88350  156.51780  -17.15790   -9999.25    3.49650    3.52610
 13597.00000  126.58330    0.23910    0.04940    4.90720   -0.01490    2.62670   83.76420   83.31540  154.87090  -17.35090   -9999.25    3.34950    3.37530
 13597.50000  127.57030    0.23840    0.04280    4.91960   -0.01310    2.63870   84.06480   83.65190  157.91650  -16.70040   -9999.25    3.23890    3.26160
 13598.00000  128.36340    0.24290    0.03710    4.90990   -0.01080    2.64820   84.96970   84.31610  163.94560  -15.91430   -9999.25    3.15520    3.18090
 13598.50000  128.93760    0.24900    0.03570    4.90120   -0.00900    2.64960   86.12380   85.38900  171.89430  -15.74710   -9999.25    3.03370    3.05470
 13599.00000  129.90780    0.25350    0.03670    4.90120   -0.00920    2.64680   86.93450   86.23210  174.94240  -15.64830   -9999.25    2.87280    2.90010
 13599.50000  131.16400    0.25260    0.03880    4.90110   -0.00950    2.64300   86.93280   86.46610  174.95950  -15.54950   -9999.25    2.75980    2.77820
 13600.00000  131.18330    0.24150    0.04320    4.90210   -0.01170    2.63720   86.06640   85.73850  173.12010  -15.45070   -9999.25    2.82640    2.84960
 13600.50000  127.52690    0.22910    0.04580    4.90410   -0.01380    2.63290   84.35690   84.30120  171.18100  -15.44060   -9999.25    2.97400    3.00110
 13601.00000  122.31830    0.22340    0.04420    4.90610   -0.01410    2.63510   83.02480   82.71540  169.50330  -15.50760   -9999.25    3.25050    3.29910
 13601.50000  119.56780    0.22280    0.04080    4.90420   -0.01410    2.64100   82.32450   81.85790  169.00580  -15.90840   -9999.25    3.55300    3.58140
 13602.00000  119.96140    0.22100    0.03900    4.90260   -0.01400    2.64470   81.95670   81.61040  170.52840  -15.97100   -9999.25    3.63120    3.65260
 13602.50000  122.31250    0.21500    0.03740    4.90510   -0.01360    2.64680   81.82590   81.59720  168.11510  -15.28520   -9999.25    3.63650    3.65800
 13603.00000  125.53910    0.21360    0.03630    4.90970   -0.01330    2.64720   82.01180   81.70080  158.58060  -16.01580   -9999.25    3.63900    3.66040
 13603.50000  128.52850    0.22580    0.03900    4.90730   -0.01200    2.64390   83.00540   82.36780  151.32160  -16.84960   -9999.25    3.59210    3.62790
 13604.00000  131.51070    0.24220    0.04380    4.90490   -0.01080    2.63460   84.62680   83.84870  156.88170  -16.42630   -9999.25    3.27600    3.30900
 13604.50000  133.39110    0.25000    0.04450    4.90350   -0.00960    2.63420   86.54630   85.56460  165.59320  -16.19990   -9999.25    2.87430    2.91340
 13605.00000  133.92430    0.25090    0.04160    4.90360   -0.01020    2.63940   87.67680   86.92140  174.70530  -15.93910   -9999.25    2.65230    2.67400
 13605.50000  132.30860    0.24570    0.03950    4.90360   -0.01070    2.64310   87.74900   87.45510  174.77420  -16.06150   -9999.25    2.69180    2.71060
 13606.00000  127.47320    0.23280    0.03860    4.90390   -0.01130    2.64420   86.51340   86.15690  171.50980  -16.18400   -9999.25    2.82440    2.84960
 13606.50000  122.06590    0.21940    0.03840    4.90480   -0.01180    2.64520   84.19920   84.27410  174.21560  -16.30640   -9999.25    3.00510    3.04150
