~Version ---------------------------------------------------
VERS.   2.0 : CWLS log ASCII Standard -VERSION 2.0
WRAP.    NO : One line per depth step
DLM . SPACE : Column Data Section Delimiter
~Well ------------------------------------------------------
STRT .F               11631.0 : START DEPTH
STOP .F               14352.0 : STOP DEPTH
STEP .F                   0.5 : STEP
NULL .               -9999.25 : NULL VALUE
COMP .                        : COMPANY
WELL .                        : WELL
FLD  .                        : FIELD
LOC  .                        : LOCATION
PROV .                        : PROVINCE
CNTY .                        : COUNTY
STAT .                        : STATE
CTRY .                        : COUNTRY
SRVC .                        : SERVICE COMPANY
DATE .                        : DATE
UWI  .                        : UNIQUE WELL ID
API  .                        : API NUMBER
SLAT .WGS84 5.826932938948104 : SURFACE LATITUDE
SLON .WGS84  4.33391969463699 : SURFACE LONGITUDE
DATUM.F               2104.33 : DEPTH DATUM ELEV
~Curve Information -----------------------------------------
DEPT.F     : 
GRD .GAPI  : GAMMA RAY
NPHI.DEC   : NEUTRON POROSITY LIMESTONE
DPOR.DEC   : DENSITY POROSITY LIMESTONE
CALD.IN    : CALIPER FDC LOG
DRH .G/C3  : DENSITY CORRECTION
RHOM.G/C3  : BULK DENSITY CORRECTED
DT  .US/F  : INTERVAL TRANSIT TIME
DTCO.US/F  : COMPRESSIONAL-WAVE INTERVAL TRANSIT TIME ACOUSTIC SLOWNESS
DTSM.US/F  : SHEAR-WAVE INTERVAL TRANSIT TIME DELTA-T
SPR .MV    : SPONTANEOUS POTENTIAL FROM RES.
AT10.OHMM  : 10-IN. RESISTIVITY, 2-FT RESOLUTION
AT30.OHMM  : 30-IN. RESISTIVITY, 2-FT RESOLUTION
AT90.OHMM  : 90-IN. RESISTIVITY, 2-FT RESOLUTION
~Params ----------------------------------------------------
~Other -----------------------------------------------------
~ASCII -----------------------------------------------------
# ...
 12593.00000  122.84380    0.17270    0.04660    5.08180   -0.01240    2.63100   73.46510   72.92410  132.63680   -5.82730   -9999.25    8.82130    9.12930
 12593.50000  123.84340    0.17140    0.04710    5.07460   -0.01190    2.62990   73.30040   72.86020  132.03670   -5.85380   -9999.25    8.92140    9.22020
 12594.00000  125.40060    0.16990    0.04370    5.06740   -0.01050    2.63550   73.22860   72.70380  131.40140   -5.86250   -9999.25    9.13410    9.28520
 12594.50000  127.84120    0.16840    0.03820    5.06630   -0.00920    2.64400   73.23640   72.55440  130.97450   -5.67410   -9999.25    9.15890    9.28860
 12595.00000  129.74990    0.16650    0.03500    5.08020   -0.00820    2.65080   73.30460   72.79220  131.05910   -5.67490   -9999.25    9.18370    9.29200
 12595.50000  129.62940    0.16590    0.03360    5.08200   -0.00780    2.65350   73.41400   72.91800  131.14360   -5.89110   -9999.25    9.20860    9.29530
 12596.00000  127.89510    0.16630    0.03570    5.08490   -0.00900    2.64860   73.46510   72.95440  131.90750   -6.15760   -9999.25    9.23360    9.31090
 12596.50000  125.67820    0.16650    0.03910    5.08130   -0.01030    2.64320   73.53130   72.94180  132.58400   -6.41260   -9999.25    9.17190    9.32830
 12597.00000  124.93320    0.16480    0.04160    5.07020   -0.01090    2.63970   73.41260   72.90250  132.26330   -6.61550   -9999.25    9.08350    9.34300
 12597.50000  125.29310    0.16310    0.04070    5.05900   -0.01090    2.64180   73.13450   72.75790  131.39320   -6.79340   -9999.25    9.00560    9.31060
 12598.00000  124.23650    0.16200    0.03670    5.06860   -0.01040    2.64910   72.94290   72.56600  131.03580   -6.67070   -9999.25    8.99130    9.30320
 12598.50000  122.24080    0.16160    0.03230    5.07100   -0.00970    2.65580   72.95730   72.56640  130.76880   -6.51650   -9999.25    8.97700    9.23550
 12599.00000  122.35980    0.16400    0.03140    5.06870   -0.00920    2.65710   73.18320   72.63860  131.49360   -6.19450   -9999.25    8.96270    9.12270
 12599.50000  124.73280    0.17000    0.03400    5.07710   -0.00980    2.65340   73.54040   73.17530  133.13090   -5.87260   -9999.25    8.67560    9.04280
 12600.00000  126.51640    0.17600    0.03500    5.08180   -0.01020    2.64960   73.97190   73.63080  135.09610   -5.55070   -9999.25    8.38400    8.55200
 12600.50000  126.78310    0.18010    0.03370    5.08260   -0.01050    2.65240   74.27980   73.82000  136.92610   -5.47690   -9999.25    8.10600    8.26120
 12601.00000  126.98210    0.18290    0.02970    5.08310   -0.00970    2.65920   74.41300   73.97200  137.58490   -5.86900   -9999.25    8.09400    8.31920
 12601.50000  126.50270    0.17830    0.03040    5.08300   -0.00920    2.65900   74.46400   74.17490  137.89720   -5.78050   -9999.25    8.20980    8.35960
 12602.00000  124.19170    0.17430    0.03590    5.08050   -0.01040    2.65090   74.46640   74.20700  138.20940   -6.25810   -9999.25    8.20190    8.40030
 12602.50000  120.77070    0.17120    0.04030    5.07670   -0.01190    2.64290   74.43160   74.18170  138.81240   -6.82020   -9999.25    8.19400    8.44120
 12603.00000  118.74420    0.17100    0.03970    5.08230   -0.01080    2.64170   74.40290   73.87500  137.73610   -6.64160   -9999.25    8.18610    8.45950
 12603.50000  119.88540    0.17090    0.03630    5.08260   -0.00980    2.64730   74.27110   73.65010  136.78490   -6.43290   -9999.25    8.17830    8.47380
 12604.00000  121.82960    0.16930    0.03540    5.08290   -0.00950    2.65160   73.98240   73.57680  136.11060   -6.22420   -9999.25    8.17040    8.48820
 12604.50000  122.82820    0.16700    0.03600    5.08310   -0.01140    2.64960   73.88990   73.43190  135.96960   -6.01550   -9999.25    8.16250    8.50270
 12605.00000  121.04350    0.16670    0.03540    5.08290   -0.01320    2.65040   73.99950   73.46660  135.82860   -5.81400   -9999.25    8.15460    8.48550
 12605.50000  118.16480    0.16690    0.03360    5.08280   -0.01230    2.65320   74.03140   73.67650  135.56420   -5.67080   -9999.25    8.14680    8.46670
 12606.00000  115.72750    0.16740    0.03330    5.08270   -0.01180    2.65530   74.04640   73.74710  135.35180   -5.52760   -9999.25    8.13900    8.44790
 12606.50000  116.05300    0.16920    0.03480    5.08260   -0.01130    2.65220   74.04540   73.56860  135.34020   -5.39400   -9999.25    8.13120    8.48630
 12607.00000  120.10560    0.17140    0.03610    5.08250   -0.01030    2.64870   74.06370   73.48760  135.32860   -5.80220   -9999.25    8.12340    8.53670
 12607.50000  125.84390    0.17480    0.03530    5.08230   -0.00920    2.65080   74.22330   73.65570  136.26320   -5.83660   -9999.25    8.13790    8.44240
 12608.00000  129.39780    0.17840    0.03290    5.08220   -0.00920    2.65380   74.76660   74.00390  137.53660   -5.55560   -9999.25    8.13590    8.20260
 12608.50000  130.05270    0.18210    0.03180    5.08210   -0.00910    2.65630   74.92250   74.35270  138.65310   -5.27470   -9999.25    7.81850    7.89720
 12609.00000  128.26820    0.17910    0.03210    5.08200   -0.00940    2.65570   74.96390   74.35620  138.97430   -4.99370   -9999.25    7.53530    7.58040
 12609.50000  125.41790    0.17600    0.03380    5.08190   -0.01020    2.65280   74.79640   74.27600  138.33350   -5.13610   -9999.25    7.64220    7.69570
 12610.00000  124.80100    0.17300    0.03440    5.08180   -0.01060    2.65280   74.49260   74.25830  138.08050   -5.30960   -9999.25    7.88640    8.02070
 12610.50000  124.53750    0.17370    0.03360    5.08160   -0.01070    2.65300   74.66850   74.27610  139.06850   -5.48300   -9999.25    7.72070    7.90590
 12611.00000  123.96900    0.17770    0.03220    5.08150   -0.01050    2.65540   74.87460   74.52810  140.05650   -5.48140   -9999.25    7.52830    7.65670
 12611.50000  121.78300    0.18040    0.03170    5.08140   -0.01030    2.65670   75.09790   74.62670  141.04460   -5.40970   -9999.25    7.43680    7.48110
 12612.00000  121.21740    0.18210    0.03180    5.08130   -0.01000    2.65650   75.20900   74.75140  141.53540   -5.55370   -9999.25    7.40700    7.45070
 12612.50000  122.00910    0.18070    0.03130    5.08120   -0.00950    2.65680   75.16280   74.82330  141.37820   -5.69770   -9999.25    7.40630    7.45000
 12613.00000  124.66000    0.17880    0.02790    5.08100   -0.00790    2.66150   75.01800   74.63030  140.44440   -5.84170   -9999.25    7.43220    7.47730
 12613.50000  126.47660    0.17810    0.02360    5.08090   -0.00600    2.66830   74.83220   74.39530  139.19740   -5.98560   -9999.25    7.46660    7.51100
 12614.00000  127.27290    0.17890    0.01950    5.08190   -0.00430    2.67570   74.83570   74.30870  139.53840   -6.07420   -9999.25    7.49080    7.53630
 12614.50000  127.63990    0.17970    0.01560    5.08310   -0.00290    2.68240   74.97200   74.44680  140.19100   -6.08750   -9999.25    7.41320    7.47600
 12615.00000  127.81140    0.18040    0.01380    5.08320   -0.00210    2.68600   75.07130   74.50480  140.84370   -6.10070   -9999.25    7.07810    7.13660
 12615.50000  126.91450    0.17930    0.01780    5.08330   -0.00340    2.68220   74.85760   74.39910  139.46890   -6.11400   -9999.25    7.09410    7.15660
 12616.00000  125.82070    0.17830    0.02500    5.08130   -0.00660    2.67010   74.64390   74.21610  137.95900   -6.12730   -9999.25    7.52430    7.61130
 12616.50000  127.23910    0.17860    0.02870    5.07590   -0.00930    2.66270   74.54180   74.22370  136.73910   -6.14050   -9999.25    7.89390    7.94050
 12617.00000  130.85340    0.18140    0.02890    5.07060   -0.01070    2.66120   74.99310   74.28760  137.97970   -6.22070   -9999.25    7.69820    7.78610
 12617.50000  133.45510    0.18440    0.02890    5.06520   -0.01150    2.66120   75.44440   74.89270  140.39350   -6.29180   -9999.25    7.30740    7.36290
 12618.00000  133.77390    0.18840    0.02950    5.06740   -0.01270    2.66080   75.76480   75.32640  142.80720   -6.27850   -9999.25    7.12110    7.16490
 12618.50000  131.24930    0.19200    0.03030    5.07190   -0.01390    2.65940   75.96070   75.42620  144.80310   -6.07810   -9999.25    7.02720    7.07050
