~Version ---------------------------------------------------
VERS.   2.0 : CWLS log ASCII Standard -VERSION 2.0
WRAP.    NO : One line per depth step
DLM . SPACE : Column Data Section Delimiter
~Well ------------------------------------------------------
STRT .F               11631.0 : START DEPTH
STOP .F               14352.0 : STOP DEPTH
STEP .F                   0.5 : STEP
NULL .               -9999.25 : NULL VALUE
COMP .                        : COMPANY
WELL .                        : WELL
FLD  .                        : FIELD
LOC  .                        : LOCATION
PROV .                        : PROVINCE
CNTY .                        : COUNTY
STAT .                        : STATE
CTRY .                        : COUNTRY
SRVC .                        : SERVICE COMPANY
DATE .                        : DATE
UWI  .                        : UNIQUE WELL ID
API  .                        : API NUMBER
SLAT .WGS84 5.826932938948104 : SURFACE LATITUDE
SLON .WGS84  4.33391969463699 : SURFACE LONGITUDE
DATUM.F               2104.33 : DEPTH DATUM ELEV
~Curve Information -----------------------------------------
DEPT.F     : 
GRD .GAPI  : GAMMA RAY
NPHI.DEC   : NEUTRON POROSITY LIMESTONE
DPOR.DEC   : DENSITY POROSITY LIMESTONE
CALD.IN    : CALIPER FDC LOG
DRH .G/C3  : DENSITY CORRECTION
RHOM.G/C3  : BULK DENSITY CORRECTED
DT  .US/F  : INTERVAL TRANSIT TIME
DTCO.US/F  : COMPRESSIONAL-WAVE INTERVAL TRANSIT TIME ACOUSTIC SLOWNESS
DTSM.US/F  : SHEAR-WAVE INTERVAL TRANSIT TIME DELTA-T
SPR .MV    : SPONTANEOUS POTENTIAL FROM RES.
AT10.OHMM  : 10-IN. RESISTIVITY, 2-FT RESOLUTION
AT30.OHMM  : 30-IN. RESISTIVITY, 2-FT RESOLUTION
AT90.OHMM  : 90-IN. RESISTIVITY, 2-FT RESOLUTION
~Params ----------------------------------------------------
~Other -----------------------------------------------------
~ASCII -----------------------------------------------------
# ...
 13737.00000  124.74360    0.22440    0.02440    4.85010   -0.00620    2.66690   81.69820   80.65600  155.33980  -14.79330   -9999.25    4.09010    4.12170
 13737.50000  122.30760    0.22390    0.01780    4.86140   -0.00560    2.67920   81.40280   80.56810  154.81570  -14.74560   -9999.25    3.89690    3.93640
 13738.00000  122.78180    0.22200    0.01940    4.87750   -0.00730    2.67820   81.21940   80.48160  153.45350  -15.06780   -9999.25    3.90370    3.78020
 13738.50000  124.66010    0.21920    0.03010    4.88240   -0.01110    2.66220   81.34070   80.49710  152.52270  -15.43550   -9999.25    3.91890    3.91300
 13739.00000  126.90820    0.21620    0.04220    4.88740   -0.01590    2.64040   81.71780   80.85580  152.72370  -15.80320   -9999.25    3.93100    3.95430
 13739.50000  130.42150    0.21170    0.04430    4.88780   -0.01620    2.63560   82.30560   81.39380  156.19520  -15.94080   -9999.25    3.91770    3.94100
 13740.00000  135.01980    0.20810    0.04240    4.87220   -0.01480    2.63790   82.82010   82.15430  157.39160  -15.93190   -9999.25    3.90810    3.93110
 13740.50000  136.47260    0.20460    0.04170    4.86390   -0.01340    2.63960   83.05240   82.44060  159.22210  -15.98290   -9999.25    3.91530    3.93840
 13741.00000  132.84980    0.20720    0.04170    4.86680   -0.01240    2.63990   82.80660   82.21690  159.45320  -16.28100   -9999.25    3.92450    3.94770
 13741.50000  127.54030    0.21250    0.04050    4.88310   -0.01150    2.64160   82.71840   82.09650  159.88340  -16.29950   -9999.25    3.92650    3.94970
 13742.00000  126.26540    0.21500    0.03710    4.88370   -0.01030    2.64690   82.63940   82.01380  159.12280  -16.31790   -9999.25    3.90190    3.92620
 13742.50000  127.14090    0.21610    0.03350    4.88430   -0.00910    2.65250   81.90570   81.39490  157.71450  -16.35800   -9999.25    3.90400    3.92750
 13743.00000  127.20690    0.21550    0.03480    4.88860   -0.00980    2.65120   80.38830   80.11350  155.24870  -16.17800   -9999.25    4.02290    4.06440
 13743.50000  126.01830    0.21440    0.03840    4.88870   -0.01100    2.64630   79.01040   78.87330  152.01530  -15.58100   -9999.25    4.57960    4.62550
 13744.00000  124.37540    0.21390    0.03510    4.88910   -0.01170    2.65180   78.06440   77.80020  148.80690  -15.38700   -9999.25    5.57150    5.68140
 13744.50000  123.04090    0.21280    0.00960    4.89070   -0.01170    2.68230   77.82090   77.35760  147.33670  -15.19970   -9999.25    5.42240    5.52110
 13745.00000  121.48610    0.21040   -0.03280    4.87060   -0.01180    2.74990   77.75870   77.12780  146.11260  -15.01250   -9999.25    5.26340    5.30790
 13745.50000  119.48740    0.20100   -0.06350    4.85010   -0.01190    2.80920   76.48460   76.18790  142.92580  -14.90440   -9999.25    5.51820    5.56480
 13746.00000  115.95230    0.18820   -0.07750    4.84220   -0.01190    2.84080   73.87450   73.80950  137.50210  -15.22060   -9999.25    6.03360    6.12050
 13746.50000  112.06320    0.18190   -0.07410    4.84430   -0.01200    2.84080   70.93270   71.05890  128.69700  -15.43710   -9999.25    6.69840    6.78500
 13747.00000  110.14670    0.18180   -0.06000    4.85500   -0.01460    2.81970   68.90390   68.82230  124.08570  -15.44940   -9999.25    7.21280    7.26720
 13747.50000  111.46390    0.18310   -0.03610    4.86160   -0.01560    2.78100   68.65100   68.15290  123.26280  -15.36960   -9999.25    7.50050    7.56280
 13748.00000  114.89850    0.18420    0.00460    4.86560   -0.01660    2.72290   69.81010   69.32370  124.53930  -14.95730   -9999.25    8.27410    8.49910
 13748.50000  119.49680    0.18640    0.02670    4.87510   -0.01760    2.66890   72.07180   71.13610  127.76040  -14.54500   -9999.25    7.24810    7.35120
 13749.00000  122.94350    0.19350    0.04030    4.88390   -0.01790    2.64290   74.37980   73.48090  132.62490  -14.87500   -9999.25    6.33060    6.43190
 13749.50000  124.86300    0.20350    0.03930    4.88590   -0.01270    2.64270   76.17650   75.51390  136.96560  -14.96980   -9999.25    5.79100    5.85950
 13750.00000  125.68690    0.21040    0.03460    4.87230   -0.00950    2.65210   77.67880   76.91510  140.48090  -14.76440   -9999.25    5.22230    5.28350
 13750.50000  126.27600    0.21380    0.02970    4.86520   -0.00640    2.66060   78.74070   78.17490  144.08350  -14.63640   -9999.25    4.96430    5.00510
 13751.00000  125.87990    0.21240    0.02980    4.87380   -0.00740    2.65930   80.03720   79.31180  150.31930  -14.67870   -9999.25    4.89740    4.96130
 13751.50000  123.76580    0.21050    0.03430    4.87420   -0.00890    2.65440   81.06700   80.49820  155.04570  -14.72100   -9999.25    4.71790    4.95920
 13752.00000  121.77590    0.21330    0.03660    4.87450   -0.00950    2.64870   81.76680   81.16790  158.81930  -14.76320   -9999.25    4.36700    4.48910
 13752.50000  121.96230    0.21910    0.03570    4.87490   -0.00790    2.65090   82.25120   81.59970  160.66400  -14.80550   -9999.25    4.13820    4.15890
 13753.00000  124.67700    0.22470    0.03160    4.87530   -0.00530    2.65700   82.14370   81.71790  160.26420  -14.84770   -9999.25    3.92130    3.98690
 13753.50000  127.09090    0.22540    0.03040    4.87570   -0.00440    2.65960   81.93760   81.54400  159.08280  -14.99520   -9999.25    3.93140    4.00310
 13754.00000  127.89030    0.22430    0.03410    4.87600   -0.00440    2.65200   82.09870   81.62100  161.08200  -14.55900   -9999.25    3.98590    4.06700
 13754.50000  127.96940    0.22420    0.03870    4.87640   -0.00600    2.64440   82.28860   81.69190  163.08120  -14.33700   -9999.25    3.88290    4.02770
 13755.00000  128.36840    0.22950    0.03710    4.87680   -0.00740    2.64710   82.32600   81.66460  166.57680  -14.11500   -9999.25    3.83690    3.98140
 13755.50000  128.53580    0.23500    0.02900    4.87720   -0.00580    2.66270   82.33300   81.82940  169.23620  -14.09620   -9999.25    3.97170    4.00600
 13756.00000  127.44770    0.22970    0.02210    4.87750   -0.00530    2.67330   81.94750   81.48560  168.10120  -14.17980   -9999.25    3.92930    4.05660
 13756.50000  123.77850    0.21590    0.02570    4.87790   -0.00800    2.66630   81.12540   80.73770  165.72400  -14.35640   -9999.25    3.90750    4.17560
 13757.00000  120.42760    0.20440    0.03290    4.87830   -0.00980    2.65420   80.59090   80.19840  163.51050  -14.16540   -9999.25    4.09920    4.26480
 13757.50000  118.67560    0.20200    0.03590    4.87870   -0.00990    2.64950   80.77720   80.24570  163.25560  -14.12800   -9999.25    4.04240    4.18010
 13758.00000  119.70860    0.20700    0.03130    4.87900   -0.00880    2.65780   81.50920   80.98700  165.04750  -14.21980   -9999.25    3.70110    3.82230
 13758.50000  122.75590    0.21070    0.02620    4.87940   -0.00730    2.66540   82.72700   81.94490  168.41650  -14.46700   -9999.25    3.44340    3.49510
 13759.00000  127.62510    0.21410    0.02380    4.87980   -0.00680    2.66840   83.86470   83.09480  170.70150  -14.94670   -9999.25    3.23210    3.24740
 13759.50000  130.68120    0.21760    0.02880    4.88020   -0.00930    2.66220   84.50880   83.92120  172.76970  -14.99210   -9999.25    2.91840    3.04860
 13760.00000  131.35770    0.21750    0.03490    4.88050   -0.01290    2.65210   84.53130   84.02380  172.95790  -14.34180   -9999.25    2.88950    2.99980
 13760.50000  129.64440    0.21680    0.03810    4.88090   -0.01500    2.64580   84.37930   83.83220  172.01990  -14.25010   -9999.25    3.07860    3.11590
 13761.00000  127.10200    0.21610    0.03710    4.88130   -0.01560    2.64710   83.56060   83.10560  169.87300  -14.41200   -9999.25    3.49110    3.54810
 13761.50000  125.76070    0.21470    0.03580    4.88170   -0.01660    2.64940   82.50470   82.02770  166.55340  -14.57390   -9999.25    3.86390    3.90690
 13762.00000  126.09850    0.21470    0.03730    4.88210   -0.01850    2.64590   81.51030   81.00870  163.37820  -14.92060   -9999.25    4.10960    4.14570
 13762.50000  127.05610    0.21560    0.04190    4.88240   -0.02090    2.63940   80.85010   80.29900  161.08730  -15.53140   -9999.25    4.17460    4.19960
