~Version ---------------------------------------------------
VERS.   2.0 : CWLS log ASCII Standard -VERSION 2.0
WRAP.    NO : One line per depth step
DLM . SPACE : Column Data Section Delimiter
~Well ------------------------------------------------------
STRT .F               11631.0 : START DEPTH
STOP .F               14352.0 : STOP DEPTH
STEP .F                   0.5 : STEP
NULL .               -9999.25 : NULL VALUE
COMP .                        : COMPANY
WELL .                        : WELL
FLD  .                        : FIELD
LOC  .                        : LOCATION
PROV .                        : PROVINCE
CNTY .                        : COUNTY
STAT .                        : STATE
CTRY .                        : COUNTRY
SRVC .                        : SERVICE COMPANY
DATE .                        : DATE
UWI  .                        : UNIQUE WELL ID
API  .                        : API NUMBER
SLAT .WGS84 5.826932938948104 : SURFACE LATITUDE
SLON .WGS84  4.33391969463699 : SURFACE LONGITUDE
DATUM.F               2104.33 : DEPTH DATUM ELEV
~Curve Information -----------------------------------------
DEPT.F     : 
GRD .GAPI  : GAMMA RAY
NPHI.DEC   : NEUTRON POROSITY LIMESTONE
DPOR.DEC   : DENSITY POROSITY LIMESTONE
CALD.IN    : CALIPER FDC LOG
DRH .G/C3  : DENSITY CORRECTION
RHOM.G/C3  : BULK DENSITY CORRECTED
DT  .US/F  : INTERVAL TRANSIT TIME
DTCO.US/F  : COMPRESSIONAL-WAVE INTERVAL TRANSIT TIME ACOUSTIC SLOWNESS
DTSM.US/F  : SHEAR-WAVE INTERVAL TRANSIT TIME DELTA-T
SPR .MV    : SPONTANEOUS POTENTIAL FROM RES.
AT10.OHMM  : 10-IN. RESISTIVITY, 2-FT RESOLUTION
AT30.OHMM  : 30-IN. RESISTIVITY, 2-FT RESOLUTION
AT90.OHMM  : 90-IN. RESISTIVITY, 2-FT RESOLUTION
~Params ----------------------------------------------------
~Other -----------------------------------------------------
~ASCII -----------------------------------------------------
# ...
 12307.00000  112.35960    0.20260    0.08490    5.04060   -0.01480    2.56580   87.51230   87.76060  151.92630    3.23310   -9999.25   10.74360   11.07460
 12307.50000  111.31480    0.20370    0.07530    5.04890   -0.01190    2.58210   87.40740   87.29530  151.29740    3.70560   -9999.25   11.49600   11.82470
 12308.00000  111.88960    0.20810    0.07640    5.07330   -0.01030    2.58210   87.43360   87.27640  151.67550    3.23160   -9999.25   12.26510   12.59220
 12308.50000  111.98280    0.20910    0.08070    5.08590   -0.01140    2.57480   87.10770   87.18160  151.81490    2.93830   -9999.25   13.01940   13.57100
 12309.00000  109.94510    0.21010    0.07920    5.10610   -0.01190    2.57490   86.63220   86.39940  151.95430    2.63380   -9999.25   14.53820   15.11200
 12309.50000  108.37290    0.21720    0.07590    5.10590   -0.00970    2.58090   87.84350   86.64160  152.50690    2.24850   -9999.25   14.75730   15.38460
 12310.00000  113.81480    0.22930    0.08060    5.10570   -0.01040    2.57310   91.03850   88.55540  154.39650    2.16660   -9999.25   13.57070   13.92630
 12310.50000  122.41110    0.23370    0.09210    5.10340   -0.01090    2.55390   94.89910   92.16980  157.79320    2.17070   -9999.25   12.30490   12.40740
 12311.00000  127.27880    0.23680    0.09840    5.09450   -0.01010    2.54260   98.11550   96.01570  160.59820    2.18250   -9999.25   12.18160   12.25650
 12311.50000  128.21090    0.24110    0.10170    5.10340   -0.00930    2.53770  100.23830   98.35980  163.68950    2.17630   -9999.25   11.75340   11.84420
 12312.00000  134.61370    0.24660    0.10540    5.10750   -0.01140    2.53130  102.58640  100.54860  169.20150    2.16780   -9999.25   11.19140   11.27670
 12312.50000  148.75050    0.25320    0.11010    5.10540   -0.01420    2.52360  103.99730  102.77170  172.97610    2.18150   -9999.25   10.82480   10.91590
 12313.00000  175.35370    0.25680    0.11050    5.10960   -0.01480    2.52220  104.13720  103.42030  176.53030    2.21150   -9999.25   10.36190   10.44320
 12313.50000  216.48660    0.25690    0.10880    5.11380   -0.01430    2.52470  103.17340  103.33550  178.25180    2.28240   -9999.25   10.76520   10.91670
 12314.00000  259.28940    0.25490    0.10580    5.11900   -0.01390    2.52950  101.15670  101.74580  177.97750    2.31390   -9999.25   10.73610   11.59530
 12314.50000  282.31490    0.25000    0.10310    5.12410   -0.01280    2.53440   99.38410   99.74640  176.72990    2.26630   -9999.25    9.10950    9.68090
 12315.00000  256.31480    0.25010    0.09880    5.12930   -0.01050    2.54070   97.61790   98.04590  174.77530    2.21870   -9999.25    6.52840    6.80330
 12315.50000  208.47620    0.25040    0.09440    5.12920   -0.00710    2.54860   95.40690   96.01050  175.21860    2.17110   -9999.25    4.85150    5.02250
 12316.00000  171.36230    0.23980    0.09280    5.12620   -0.00630    2.55210   93.03140   93.57910  175.66190    1.68300   -9999.25    3.94160    4.01560
 12316.50000  138.91930    0.22590    0.09240    5.12330   -0.00470    2.55340   91.58940   91.74050  177.93310    1.12060   -9999.25    4.16110    4.19130
 12317.00000  128.68720    0.21720    0.09270    5.10540   -0.00420    2.55280   91.01050   90.67430  179.90460    0.64110   -9999.25    4.18240    4.20750
 12317.50000  126.30140    0.22100    0.09260    5.08750   -0.00460    2.55320   91.24950   90.62420  180.92180    0.53560   -9999.25    3.83540    3.89000
 12318.00000  125.06340    0.22380    0.08780    5.08490   -0.00530    2.55870   91.59350   90.99460  178.88550    0.57560   -9999.25    3.51020    3.60900
 12318.50000  124.34490    0.22060    0.07780    5.08330   -0.00440    2.57470   90.49360   89.88510  173.04460    0.61560   -9999.25    3.34710    3.45470
 12319.00000  124.15960    0.21220    0.06970    5.06710   -0.00450    2.59130   87.43180   87.58670  164.42670    0.70010   -9999.25    3.93310    4.05110
 12319.50000  124.04250    0.20600    0.06600    5.05080   -0.00600    2.59810   84.29580   83.91530  156.12430    0.72950   -9999.25    4.72190    4.82600
 12320.00000  122.77900    0.19760    0.06280    5.03460   -0.00750    2.60370   81.09950   80.40900  151.58870    0.56220   -9999.25    5.19620    5.25120
 12320.50000  119.46640    0.18480    0.05420    5.01430   -0.00800    2.61480   77.78670   77.58340  148.75630    0.41150   -9999.25    5.50840    5.55990
 12321.00000  115.39510    0.17100    0.04320    5.00840   -0.00710    2.63270   76.78810   76.30120  150.04910    0.39250   -9999.25    5.65480    5.68990
 12321.50000  115.02740    0.16360    0.04120    5.00870   -0.00630    2.64240   76.91330   76.69450  152.42050    0.41970   -9999.25    5.49990    5.57410
 12322.00000  118.66130    0.16480    0.04690    4.98870   -0.00760    2.63170   78.61160   78.30540  154.87590    0.44690   -9999.25    4.92140    5.01040
 12322.50000  122.95140    0.17360    0.05440    4.95820   -0.00850    2.61970   81.07910   80.31670  155.67150    0.59490   -9999.25    4.51240    4.56370
 12323.00000  123.85470    0.18830    0.05680    4.92770   -0.00720    2.61360   82.19320   81.37710  155.44610    0.36820   -9999.25    4.18220    4.22970
 12323.50000  121.53770    0.19600    0.05460    4.91190   -0.00470    2.61650   80.89610   80.80290  155.22060    0.29420   -9999.25    3.91280    3.93780
 12324.00000  115.59610    0.19050    0.04680    4.90700   -0.00120    2.62980   77.99550   77.86940  148.28250    0.22020   -9999.25    4.16140    4.24460
 12324.50000  106.72250    0.17170    0.03420    4.91490   -0.00110    2.64900   76.09840   75.93100  142.84060    0.14620   -9999.25    4.82700    4.92300
 12325.00000   99.83630    0.15340    0.02590    4.91190   -0.00170    2.66360   75.37540   75.28940  140.82950    0.07220   -9999.25    5.04480    5.19050
 12325.50000   99.59810    0.15340    0.03120    4.95080   -0.00240    2.66020   76.21390   75.86680  141.99440   -0.00170   -9999.25    5.05710    5.12630
 12326.00000  106.27640    0.16490    0.04380    4.99130   -0.00500    2.64230   78.74630   77.60520  143.93280   -0.07570   -9999.25    5.06210    5.14660
 12326.50000  113.99690    0.17260    0.05020    5.03810   -0.00730    2.62610   80.57150   79.37260  146.77860   -0.14970   -9999.25    5.27200    5.30310
 12327.00000  117.63760    0.17300    0.04920    5.06070   -0.00640    2.62550   81.14980   80.52230  150.40260   -0.15980   -9999.25    5.19940    5.23010
 12327.50000  118.27940    0.17240    0.04710    5.06270   -0.00570    2.63010   81.28630   80.89240  152.25540    0.02180   -9999.25    5.31960    5.35510
 12328.00000  117.49470    0.17040    0.04980    5.06430   -0.00800    2.62720   80.54200   80.12010  151.04770    0.20340   -9999.25    5.45490    5.49130
 12328.50000  115.13060    0.16700    0.05200    5.06250   -0.01200    2.62220   78.82250   78.65150  147.99020    0.38500   -9999.25    5.47780    5.51010
 12329.00000  111.67090    0.15980    0.04580    5.06680   -0.01230    2.62950   76.93000   76.71160  144.24650    0.59260   -9999.25    5.87820    5.99940
 12329.50000  108.08490    0.15020    0.03430    5.07110   -0.00990    2.64710   76.18270   75.90480  139.97120    0.61700   -9999.25    6.88630    7.02920
 12330.00000  107.18720    0.14910    0.03100    5.07140   -0.00920    2.65880   77.14150   76.74350  140.49770    0.64530   -9999.25    6.08020    6.38470
 12330.50000  109.14910    0.15790    0.03890    5.06920   -0.01070    2.64890   79.35030   78.55630  142.71920    0.70960   -9999.25    5.52980    5.56900
 12331.00000  112.69430    0.16950    0.04980    5.06630   -0.01220    2.62960   81.24800   80.43730  146.08360    0.66440   -9999.25    5.11900    5.17490
 12331.50000  114.57950    0.17510    0.05480    5.05950   -0.01060    2.61900   82.25120   81.82270  148.35000    0.61910   -9999.25    4.90460    4.93350
 12332.00000  114.10060    0.17860    0.05320    5.06210   -0.00850    2.61950   82.77780   82.01030  148.23940    0.57390   -9999.25    5.04280    5.09290
 12332.50000  112.69440    0.18170    0.05110    5.06470   -0.00640    2.62300   83.07140   82.48500  148.01830    0.55020   -9999.25    5.44740    5.51820
