~Version ---------------------------------------------------
VERS.   2.0 : CWLS log ASCII Standard -VERSION 2.0
WRAP.    NO : One line per depth step
DLM . SPACE : Column Data Section Delimiter
~Well ------------------------------------------------------
STRT .F               11631.0 : START DEPTH
STOP .F               14352.0 : STOP DEPTH
STEP .F                   0.5 : STEP
NULL .               -9999.25 : NULL VALUE
COMP .                        : COMPANY
WELL .                        : WELL
FLD  .                        : FIELD
LOC  .                        : LOCATION
PROV .                        : PROVINCE
CNTY .                        : COUNTY
STAT .                        : STATE
CTRY .                        : COUNTRY
SRVC .                        : SERVICE COMPANY
DATE .                        : DATE
UWI  .                        : UNIQUE WELL ID
API  .                        : API NUMBER
SLAT .WGS84 5.826932938948104 : SURFACE LATITUDE
SLON .WGS84  4.33391969463699 : SURFACE LONGITUDE
DATUM.F               2104.33 : DEPTH DATUM ELEV
~Curve Information -----------------------------------------
DEPT.F     : 
GRD .GAPI  : GAMMA RAY
NPHI.DEC   : NEUTRON POROSITY LIMESTONE
DPOR.DEC   : DENSITY POROSITY LIMESTONE
CALD.IN    : CALIPER FDC LOG
DRH .G/C3  : DENSITY CORRECTION
RHOM.G/C3  : BULK DENSITY CORRECTED
DT  .US/F  : INTERVAL TRANSIT TIME
DTCO.US/F  : COMPRESSIONAL-WAVE INTERVAL TRANSIT TIME ACOUSTIC SLOWNESS
DTSM.US/F  : SHEAR-WAVE INTERVAL TRANSIT TIME DELTA-T
SPR .MV    : SPONTANEOUS POTENTIAL FROM RES.
AT10.OHMM  : 10-IN. RESISTIVITY, 2-FT RESOLUTION
AT30.OHMM  : 30-IN. RESISTIVITY, 2-FT RESOLUTION
AT90.OHMM  : 90-IN. RESISTIVITY, 2-FT RESOLUTION
~Params ----------------------------------------------------
~Other -----------------------------------------------------
~ASCII -----------------------------------------------------
# ...
 12879.00000  130.87510    0.19460    0.02430    5.31320   -0.00800    2.66880   75.23450   74.91460  143.10900  -12.35150   -9999.25    7.44720    7.30250
 12879.50000  130.62810    0.19260    0.02270    5.30940   -0.00610    2.67150   75.43380   75.02730  145.90860  -12.36190   -9999.25    7.17300    7.08780
 12880.00000  129.11700    0.19220    0.02460    5.30810   -0.00550    2.66860   75.40170   74.99750  146.65120  -12.37230   -9999.25    6.93640    6.88310
 12880.50000  126.32990    0.19080    0.02930    5.31340   -0.00540    2.65960   75.26850   74.70610  145.04790  -12.38270   -9999.25    7.01410    6.91280
 12881.00000  124.46810    0.18500    0.03460    5.31360   -0.00660    2.65050   74.77190   74.19680  142.95240  -12.39310   -9999.25    7.47110    7.53710
 12881.50000  123.19420    0.17910    0.03820    5.31390   -0.00810    2.64450   74.02530   73.69240  139.83910  -12.35050   -9999.25    7.89460    7.95290
 12882.00000  120.87090    0.17680    0.03820    5.32320   -0.00900    2.64510   73.40040   73.14430  135.67360  -12.26740   -9999.25    8.38920    8.47940
 12882.50000  117.74250    0.17460    0.03710    5.33630   -0.00980    2.64850   72.85250   72.40050  132.85950  -12.23790   -9999.25    8.82570    8.90050
 12883.00000  116.00460    0.17970    0.03340    5.37030   -0.01030    2.65450   72.78850   72.12180  130.69940  -12.22720   -9999.25    8.97400    9.05570
 12883.50000  117.36550    0.18600    0.02970    5.40390   -0.01020    2.66040   73.52930   73.06170  133.66120  -12.21820   -9999.25    8.42860    8.52160
 12884.00000  120.07400    0.19500    0.02800    5.42190   -0.01030    2.66240   74.42240   73.87890  137.81040  -12.20930   -9999.25    7.65720    7.76650
 12884.50000  122.60610    0.19490    0.02940    5.41670   -0.01030    2.65970   74.96520   74.37190  141.36030  -12.20040   -9999.25    7.45990    7.50470
 12885.00000  122.70480    0.19400    0.03220    5.41370   -0.01030    2.65520   75.09020   74.42160  142.50990  -12.20120   -9999.25    7.52620    7.57330
 12885.50000  121.54730    0.19160    0.03360    5.41600   -0.01030    2.65300   74.81770   74.25170  141.41840  -12.20570   -9999.25    7.49560    7.54500
 12886.00000  120.25290    0.19480    0.03320    5.41680   -0.00980    2.65480   74.95210   74.15070  139.97620  -12.21020   -9999.25    7.48580    7.53460
 12886.50000  119.02470    0.20260    0.03170    5.41800   -0.00940    2.65590   75.26560   74.88010  139.44950  -12.21470   -9999.25    7.41680    7.48970
 12887.00000  118.68670    0.20810    0.03250    5.41220   -0.01020    2.65490   75.67810   75.27010  140.86630  -12.21930   -9999.25    7.05210    7.09790
 12887.50000  121.30690    0.20580    0.03390    5.41510   -0.01140    2.65290   75.96850   75.42670  143.19140  -12.23080   -9999.25    6.91300    6.95400
 12888.00000  125.83860    0.20150    0.03400    5.41810   -0.01240    2.65380   76.05480   75.43950  144.34790  -12.22490   -9999.25    6.88910    6.92990
 12888.50000  129.07960    0.19770    0.03310    5.41980   -0.01310    2.65370   76.15760   75.65560  145.20290  -12.28360   -9999.25    6.85960    6.90030
 12889.00000  129.18260    0.20020    0.03460    5.42010   -0.01390    2.65180   76.48790   76.01040  146.28950  -12.42120   -9999.25    6.63340    6.67700
 12889.50000  129.49960    0.20340    0.03540    5.44210   -0.01410    2.65020   76.79360   76.36290  147.44090  -12.55880   -9999.25    6.49860    6.53920
 12890.00000  130.16160    0.20470    0.03320    5.46960   -0.01320    2.65350   76.55540   76.18200  146.75930  -12.69650   -9999.25    6.45480    6.49290
 12890.50000  128.55770    0.20290    0.02850    5.49190   -0.01100    2.66260   76.12330   75.73330  145.30300  -12.49400   -9999.25    6.66850    6.72130
 12891.00000  123.24250    0.19920    0.02600    5.51420   -0.01040    2.66670   75.58100   75.13540  143.84660  -12.25260   -9999.25    6.97650    7.03420
 12891.50000  119.13590    0.19530    0.02720    5.53510   -0.01090    2.66370   75.19540   74.62890  142.63460  -12.28620   -9999.25    7.12450    7.21920
 12892.00000  119.85780    0.19400    0.03030    5.53680   -0.01240    2.65830   75.01270   74.44950  141.99490  -12.43440   -9999.25    7.17630    7.42110
 12892.50000  121.66750    0.19350    0.03270    5.53870   -0.01320    2.65510   74.83000   74.42710  141.82710  -12.58260   -9999.25    7.22840    7.46780
 12893.00000  123.67840    0.19370    0.03190    5.55690   -0.01260    2.65670   74.62320   74.24680  141.22150  -12.73090   -9999.25    7.27730    7.32020
 12893.50000  124.70870    0.19500    0.02870    5.57870   -0.01180    2.66220   74.52060   74.19210  139.90660  -12.87910   -9999.25    7.28900    7.33300
 12894.00000  124.19320    0.19630    0.02550    5.59400   -0.01100    2.66730   74.47630   73.99400  138.59160  -13.02730   -9999.25    7.32800    7.37120
 12894.50000  122.64590    0.19600    0.02440    5.60890   -0.01020    2.66870   74.40810   73.75740  137.40170  -13.13260   -9999.25    7.35510    7.40050
 12895.00000  120.76210    0.19180    0.02580    5.61700   -0.00950    2.66640   74.27680   73.66700  136.63380  -13.19050   -9999.25    7.47100    7.51820
 12895.50000  120.07580    0.18710    0.02890    5.62360   -0.00930    2.66040   74.27050   73.65660  136.25500  -13.17320   -9999.25    7.61300    7.65790
 12896.00000  120.23200    0.18520    0.03270    5.63100   -0.01020    2.65520   74.50250   73.65690  138.31200  -12.93510   -9999.25    7.51700    7.56680
 12896.50000  121.19590    0.18750    0.03440    5.63940   -0.01120    2.65210   74.92690   74.15960  141.52140  -12.69700   -9999.25    7.34140    7.38990
 12897.00000  124.22630    0.19150    0.03200    5.64990   -0.01040    2.65650   75.58950   75.14530  144.04170  -12.45890   -9999.25    7.00030    7.04820
 12897.50000  127.20200    0.19730    0.02750    5.66040   -0.00950    2.66510   76.27280   75.61230  145.53650  -12.10770   -9999.25    6.84680    6.89040
 12898.00000  129.49120    0.20050    0.02560    5.66840   -0.01000    2.66700   76.78080   75.96350  146.82360  -11.07650   -9999.25    6.75360    6.79360
 12898.50000  131.88650    0.20380    0.02610    5.68000   -0.01120    2.66540   77.07450   76.42040  147.88240  -10.73170   -9999.25    6.72480    6.76470
 12899.00000  134.49480    0.20420    0.02910    5.70170   -0.01370    2.66010   77.31420   76.87970  148.37140  -11.17170   -9999.25    6.47850    6.52590
 12899.50000  135.38390    0.20390    0.03320    5.71030   -0.01450    2.65350   77.35390   77.00730  148.27160  -11.20410   -9999.25    6.26180    6.30780
 12900.00000  134.65640    0.20360    0.03560    5.71090   -0.01410    2.64880   77.28810   77.06320  148.17170  -11.23640   -9999.25    6.32740    6.36610
 12900.50000  134.14780    0.20500    0.03550    5.71010   -0.01300    2.64970   77.26810   77.07290  148.10810  -11.23970   -9999.25    6.40910    6.44750
 12901.00000  134.31060    0.20980    0.03260    5.70980   -0.01080    2.65540   77.44450   77.10090  148.09080  -11.33470   -9999.25    6.35410    6.39490
 12901.50000  135.97400    0.21710    0.03080    5.73010   -0.00970    2.65860   77.73590   77.22820  147.58980  -11.23150   -9999.25    6.20810    6.24960
 12902.00000  135.84630    0.22250    0.03040    5.75250   -0.01090    2.65910   77.42650   77.10030  145.92600  -11.10920   -9999.25    6.18040    6.21700
 12902.50000  134.14020    0.22140    0.03090    5.77730   -0.01250    2.65750   76.70810   76.27700  143.78520  -10.95330   -9999.25    6.20500    6.24830
 12903.00000  132.46130    0.21770    0.03220    5.81290   -0.01370    2.65480   75.98860   75.64140  141.64450  -10.79730   -9999.25    6.60460    6.71150
 12903.50000  131.68140    0.21500    0.03300    5.81100   -0.01440    2.65380   75.73180   75.25310  141.46500  -10.64140   -9999.25    6.98130    7.02250
 12904.00000  131.38620    0.21570    0.03170    5.80850   -0.01320    2.65730   76.09110   75.57080  144.07870  -10.48540   -9999.25    6.57370    6.62900
 12904.50000  131.08470    0.21880    0.02660    5.80710   -0.01150    2.66640   76.93420   76.33850  147.49290  -10.32950   -9999.25    6.24910    6.30500
