~Version ---------------------------------------------------
VERS.   2.0 : CWLS log ASCII Standard -VERSION 2.0
WRAP.    NO : One line per depth step
DLM . SPACE : Column Data Section Delimiter
~Well ------------------------------------------------------
STRT .F               11631.0 : START DEPTH
STOP .F               14352.0 : STOP DEPTH
STEP .F                   0.5 : STEP
NULL .               -9999.25 : NULL VALUE
COMP .                        : COMPANY
WELL .                        : WELL
FLD  .                        : FIELD
LOC  .                        : LOCATION
PROV .                        : PROVINCE
CNTY .                        : COUNTY
STAT .                        : STATE
CTRY .                        : COUNTRY
SRVC .                        : SERVICE COMPANY
DATE .                        : DATE
UWI  .                        : UNIQUE WELL ID
API  .                        : API NUMBER
SLAT .WGS84 5.826932938948104 : SURFACE LATITUDE
SLON .WGS84  4.33391969463699 : SURFACE LONGITUDE
DATUM.F               2104.33 : DEPTH DATUM ELEV
~Curve Information -----------------------------------------
DEPT.F     : 
GRD .GAPI  : GAMMA RAY
NPHI.DEC   : NEUTRON POROSITY LIMESTONE
DPOR.DEC   : DENSITY POROSITY LIMESTONE
CALD.IN    : CALIPER FDC LOG
DRH .G/C3  : DENSITY CORRECTION
RHOM.G/C3  : BULK DENSITY CORRECTED
DT  .US/F  : INTERVAL TRANSIT TIME
DTCO.US/F  : COMPRESSIONAL-WAVE INTERVAL TRANSIT TIME ACOUSTIC SLOWNESS
DTSM.US/F  : SHEAR-WAVE INTERVAL TRANSIT TIME DELTA-T
SPR .MV    : SPONTANEOUS POTENTIAL FROM RES.
AT10.OHMM  : 10-IN. RESISTIVITY, 2-FT RESOLUTION
AT30.OHMM  : 30-IN. RESISTIVITY, 2-FT RESOLUTION
AT90.OHMM  : 90-IN. RESISTIVITY, 2-FT RESOLUTION
~Params ----------------------------------------------------
~Other -----------------------------------------------------
~ASCII -----------------------------------------------------
# ...
 14153.00000  113.63040    0.18670    0.01330    4.84600   -0.00980    2.68900   77.90940   77.25790  140.30730   -3.20110   -9999.25    4.00220    4.21840
 14153.50000  116.87560    0.20050    0.02580    4.84390   -0.01030    2.66820   80.10050   79.42280  147.73310   -2.94150   -9999.25    3.78040    4.06850
 14154.00000  124.29210    0.20990    0.03650    4.84300   -0.01100    2.64990   82.70180   81.59080  155.11720   -2.50720   -9999.25    3.61240    3.98460
 14154.50000  130.62460    0.21090    0.04180    4.84810   -0.01150    2.64060   83.68150   83.04150  160.62230   -2.07820   -9999.25    3.64930    3.95320
 14155.00000  133.62110    0.20860    0.03970    4.86390   -0.01170    2.64120   82.89380   82.57960  157.91080   -2.14740   -9999.25    3.76040    3.89650
 14155.50000  134.34730    0.20800    0.03490    4.87970   -0.01080    2.65000   81.62000   81.61450  152.79320   -2.21650   -9999.25    3.86330    3.88610
 14156.00000  133.93820    0.20850    0.02980    4.89600   -0.01160    2.65860   81.11650   81.02180  149.63750   -2.24220   -9999.25    3.91170    3.94020
 14156.50000  132.05190    0.20910    0.02970    4.90470   -0.01350    2.66090   81.24830   80.83450  150.50190   -2.23120   -9999.25    4.04230    4.07180
 14157.00000  128.75850    0.20990    0.03130    4.90640   -0.01480    2.65790   81.60370   81.31640  152.06710   -2.20330   -9999.25    3.91580    3.94820
 14157.50000  125.74960    0.20870    0.02860    4.90780   -0.01510    2.66130   81.56020   81.44370  153.02890   -2.01030   -9999.25    3.61180    3.65190
 14158.00000  124.19580    0.20450    0.02000    4.90610   -0.01100    2.67470   80.64310   80.25360  150.62250   -1.97670   -9999.25    3.90580    3.96530
 14158.50000  123.78960    0.20030    0.01380    4.90450   -0.00750    2.68620   79.49780   79.18370  145.95490   -2.20260   -9999.25    4.48400    4.56350
 14159.00000  124.99540    0.19800    0.01780    4.89650   -0.00500    2.68030   79.07910   78.57690  146.61990   -2.23190   -9999.25    4.79480    4.84730
 14159.50000  129.20690    0.19670    0.02760    4.88580   -0.00650    2.66520   79.73160   79.20100  148.82450   -2.54950   -9999.25    4.32930    4.39220
 14160.00000  133.20480    0.19740    0.03360    4.89690   -0.00790    2.65430   81.43840   80.83490  153.07680   -2.75190   -9999.25    3.96820    4.01520
 14160.50000  134.02070    0.20390    0.03720    4.90500   -0.00930    2.64800   82.89240   82.11680  155.59070   -3.06550   -9999.25    3.74520    3.69500
 14161.00000  131.82070    0.21270    0.03590    4.90680   -0.01060    2.64990   83.02640   82.32880  157.36420   -3.50970   -9999.25    3.66020    3.45120
 14161.50000  127.08240    0.21620    0.03230    4.90870   -0.01250    2.65560   82.53630   81.88920  157.12480   -3.15840   -9999.25    3.60300    3.52960
 14162.00000  120.57440    0.21010    0.02990    4.91050   -0.01430    2.66050   81.10620   80.42620  152.38110   -2.80710   -9999.25    3.88880    3.97530
 14162.50000  115.16900    0.20120    0.02970    4.90560   -0.01610    2.66020   79.04840   78.73830  148.40840   -2.42060   -9999.25    4.62110    4.71550
 14163.00000  111.86290    0.19030    0.02960    4.92310   -0.01510    2.66020   77.13990   76.62590  141.83790   -1.90620   -9999.25    5.39340    5.50370
 14163.50000  110.14070    0.17820    0.02500    4.90010   -0.01360    2.66740   75.50990   75.16340  136.33150   -2.06910   -9999.25    6.17640    5.95610
 14164.00000  107.37070    0.17050    0.01330    4.87980   -0.01120    2.68700   74.27200   74.09840  132.86240   -2.23720   -9999.25    6.90260    6.13990
 14164.50000  105.64920    0.17010    0.00320    4.87480   -0.00800    2.70480   74.13930   73.86920  133.17400   -2.22700   -9999.25    6.61880    6.05800
 14165.00000  107.02570    0.17150    0.00140    4.86980   -0.00630    2.70700   75.15990   74.80740  137.66660   -2.21680   -9999.25    5.93960    5.81300
 14165.50000  112.21600    0.17610    0.01030    4.85890   -0.00870    2.69260   76.79570   76.09900  143.85590   -2.17090   -9999.25    5.45170    5.50210
 14166.00000  117.59710    0.18080    0.02340    4.85230   -0.01140    2.67270   77.66760   77.18670  146.13770   -2.11410   -9999.25    5.20730    5.23810
 14166.50000  120.21890    0.18520    0.03040    4.84800   -0.01360    2.65910   78.28660   77.56700  147.19410   -1.95090   -9999.25    5.28180    5.28510
 14167.00000  120.13350    0.18950    0.03000    4.84520   -0.01300    2.65970   77.98910   77.44450  147.62910   -1.69640   -9999.25    5.60010    5.46940
 14167.50000  119.37140    0.19570    0.02420    4.84740   -0.01220    2.67000   77.00550   76.50600  146.82180   -1.55070   -9999.25    5.27170    5.26170
 14168.00000  118.29840    0.19730    0.01470    4.84950   -0.01160    2.68530   75.93800   75.45600  144.30710   -1.39240   -9999.25    4.82560    4.88960
 14168.50000  115.06950    0.19100    0.01010    4.85270   -0.01140    2.69380   74.87550   74.40170  140.45770   -1.31480   -9999.25    5.12710    5.16820
 14169.00000  111.58680    0.18230    0.01060    4.86410   -0.01380    2.69260   74.08980   73.61580  135.90050   -1.67300   -9999.25    5.31830    5.36090
 14169.50000  111.66800    0.17930    0.01270    4.86390   -0.01390    2.68920   74.26040   73.68510  137.59410   -1.81380   -9999.25    5.31630    5.34940
 14170.00000  114.10860    0.17880    0.01150    4.86440   -0.01290    2.69120   75.27630   74.57480  140.65540   -1.63130   -9999.25    5.06240    5.12710
 14170.50000  115.72000    0.18200    0.00670    4.86250   -0.01090    2.69800   76.25840   75.72720  144.11180   -1.45510   -9999.25    4.67040    4.66100
 14171.00000  114.23450    0.18100    0.00400    4.85340   -0.00910    2.70300   77.08880   76.44790  145.36230   -1.55300   -9999.25    4.77390    4.51500
 14171.50000  112.66740    0.18570    0.00780    4.84440   -0.00900    2.69690   77.59980   77.26020  147.79630   -1.65090   -9999.25    4.74760    4.48830
 14172.00000  113.48290    0.19370    0.01240    4.84360   -0.01020    2.68960   78.28420   77.73540  150.46940   -1.76660   -9999.25    4.41100    4.35060
 14172.50000  115.58010    0.20420    0.01470    4.85960   -0.01020    2.68570   79.66090   78.79650  153.94900   -1.81960   -9999.25    4.17060    4.22230
 14173.00000  117.93880    0.20960    0.01720    4.90320   -0.01020    2.68130   80.58480   79.85750  154.43460   -1.81090   -9999.25    4.03020    4.05560
 14173.50000  119.28690    0.20830    0.02360    4.92850   -0.01130    2.67070   80.36890   79.60070  152.15750   -1.79960   -9999.25    4.00570    4.02930
 14174.00000  118.18970    0.19800    0.02770    4.91750   -0.01330    2.66430   78.90620   78.29410  146.82690   -1.84580   -9999.25    4.17400    4.21140
 14174.50000  113.71100    0.18120    0.02680    4.89630   -0.01300    2.66540   76.79890   76.35900  142.30090   -1.87580   -9999.25    4.66950    4.82070
 14175.00000  108.77450    0.17440    0.02480    4.88700   -0.01310    2.66890   74.73150   74.44450  139.67890   -1.81500   -9999.25    5.78910    5.84930
 14175.50000  109.37950    0.18070    0.02520    4.88580   -0.01370    2.66810   74.40300   73.95810  140.13540   -1.87740   -9999.25    5.72640    5.80160
 14176.00000  114.71540    0.19120    0.02630    4.88700   -0.01430    2.66630   75.35550   74.67780  143.97590   -1.91610   -9999.25    5.14400    5.21150
 14176.50000  121.75130    0.19580    0.02570    4.88100   -0.01370    2.66640   76.72020   76.13320  147.82730   -2.15950   -9999.25    4.70070    4.75790
 14177.00000  128.35710    0.19480    0.02190    4.86640   -0.01240    2.67250   77.98300   77.37240  150.10610   -1.84040   -9999.25    4.41760    4.44830
 14177.50000  133.73930    0.19310    0.01910    4.87290   -0.00950    2.67830   78.42130   77.87050  149.28510   -1.83270   -9999.25    4.54640    4.57800
 14178.00000  136.55150    0.19470    0.01950    4.87940   -0.00930    2.67810   78.25470   77.74050  147.58100   -1.82490   -9999.25    4.65510    4.68500
 14178.50000  133.94530    0.19590    0.01970    4.88290   -0.00930    2.67720   77.94750   77.57570  146.31080   -1.50190   -9999.25    4.70670    4.73460
