~Version ---------------------------------------------------
VERS.   2.0 : CWLS log ASCII Standard -VERSION 2.0
WRAP.    NO : One line per depth step
DLM . SPACE : Column Data Section Delimiter
~Well ------------------------------------------------------
STRT .F               11631.0 : START DEPTH
STOP .F               14352.0 : STOP DEPTH
STEP .F                   0.5 : STEP
NULL .               -9999.25 : NULL VALUE
COMP .                        : COMPANY
WELL .                        : WELL
FLD  .                        : FIELD
LOC  .                        : LOCATION
PROV .                        : PROVINCE
CNTY .                        : COUNTY
STAT .                        : STATE
CTRY .                        : COUNTRY
SRVC .                        : SERVICE COMPANY
DATE .                        : DATE
UWI  .                        : UNIQUE WELL ID
API  .                        : API NUMBER
SLAT .WGS84 5.826932938948104 : SURFACE LATITUDE
SLON .WGS84  4.33391969463699 : SURFACE LONGITUDE
DATUM.F               2104.33 : DEPTH DATUM ELEV
~Curve Information -----------------------------------------
DEPT.F     : 
GRD .GAPI  : GAMMA RAY
NPHI.DEC   : NEUTRON POROSITY LIMESTONE
DPOR.DEC   : DENSITY POROSITY LIMESTONE
CALD.IN    : CALIPER FDC LOG
DRH .G/C3  : DENSITY CORRECTION
RHOM.G/C3  : BULK DENSITY CORRECTED
DT  .US/F  : INTERVAL TRANSIT TIME
DTCO.US/F  : COMPRESSIONAL-WAVE INTERVAL TRANSIT TIME ACOUSTIC SLOWNESS
DTSM.US/F  : SHEAR-WAVE INTERVAL TRANSIT TIME DELTA-T
SPR .MV    : SPONTANEOUS POTENTIAL FROM RES.
AT10.OHMM  : 10-IN. RESISTIVITY, 2-FT RESOLUTION
AT30.OHMM  : 30-IN. RESISTIVITY, 2-FT RESOLUTION
AT90.OHMM  : 90-IN. RESISTIVITY, 2-FT RESOLUTION
~Params ----------------------------------------------------
~Other -----------------------------------------------------
~ASCII -----------------------------------------------------
# ...
 13295.00000   58.99840    0.05150   -0.00940    5.01510   -0.00470    2.72850   57.44080   56.84170  110.09000  -18.47880   -9999.25   21.86670   22.72720
 13295.50000   70.10280    0.07040   -0.00090    5.01640   -0.00470    2.71480   58.59840   58.43380  125.44200  -18.44740   -9999.25   16.47570   14.64470
 13296.00000   75.53540    0.07720    0.00670    5.01780   -0.00470    2.70080   60.36950   59.99990  121.28210  -18.11150   -9999.25   13.72000   12.19540
 13296.50000   75.33220    0.07680    0.01020    5.01910   -0.00420    2.69440   62.14060   61.29830  113.85580  -18.12080   -9999.25   14.70150   13.23670
 13297.00000   76.51140    0.08280    0.01390    5.02040   -0.00280    2.68800   64.04240   63.09970  112.69000  -18.13010   -9999.25   17.46620   15.59970
 13297.50000   81.65800    0.08940    0.02250    5.02180   -0.00950    2.67330   65.70150   64.99660  114.35550  -18.37950   -9999.25   16.08670   14.41230
 13298.00000   84.77040    0.08950    0.02960    5.02130   -0.01240    2.66120   66.68200   66.17350  115.95010  -18.42940   -9999.25   12.47460   11.37230
 13298.50000   79.89420    0.07770    0.02800    5.01980   -0.01370    2.66250   66.46100   66.00000  116.09330  -18.45250   -9999.25   12.59550   12.29690
 13299.00000   68.80290    0.05430    0.01600    5.01830   -0.01200    2.68270   63.36520   63.08190  113.28300  -18.79040   -9999.25   18.54760   16.25300
 13299.50000   55.15760    0.03930    0.00380    5.01680   -0.00960    2.70450   59.17620   59.18130  106.62210  -18.74400   -9999.25   30.65410   25.69240
 13300.00000   44.58230    0.02820   -0.00320    5.01530   -0.00990    2.71630   55.97730   56.22770   99.96130  -18.60520   -9999.25   51.00220   40.61410
 13300.50000   40.56020    0.02590    0.00090    5.01380   -0.01120    2.70890   54.97810   54.67670   94.69710  -18.49850   -9999.25   59.06730   48.66960
 13301.00000   43.56320    0.02690    0.01260    5.01220   -0.01460    2.68720   55.45670   54.93550   94.73750  -18.75070   -9999.25   52.71040   42.54470
 13301.50000   48.80180    0.02820    0.02330    5.01070   -0.01770    2.66930   56.41490   55.67240   95.93250  -18.79300   -9999.25   44.06060   36.35220
 13302.00000   53.70480    0.03010    0.02740    5.00920   -0.02020    2.66400   57.93260   57.10940   98.43050  -18.94430   -9999.25   37.94970   35.35960
 13302.50000   60.47620    0.03850    0.02890    5.00770   -0.02260    2.66150   59.63290   58.97820  102.18580  -19.17380   -9999.25   30.70270   29.25400
 13303.00000   71.06310    0.05760    0.03160    5.00620   -0.02490    2.65550   62.15800   61.14060  106.69550  -19.06650   -9999.25   19.43010   20.32040
 13303.50000   82.34740    0.06850    0.03700    5.00470   -0.02680    2.64540   63.94310   63.26520  111.20520  -18.95920   -9999.25   13.82850   15.12950
 13304.00000   86.25530    0.06800    0.04190    5.00310   -0.02590    2.63900   64.47600   63.78010  112.32160  -19.08570   -9999.25   14.57950   16.16140
 13304.50000   83.95500    0.06570    0.04420    5.00160   -0.02460    2.63670   64.12680   63.59450  111.26060  -19.19100   -9999.25   17.44460   20.77600
 13305.00000   80.73300    0.06370    0.04190    5.00010   -0.02310    2.63950   63.05550   62.58210  108.65280  -19.21600   -9999.25   18.06760   22.65920
 13305.50000   77.59360    0.06230    0.03530    4.99860   -0.02070    2.65070   61.67580   61.29940  106.91010  -19.35920   -9999.25   16.95920   21.32230
 13306.00000   74.75240    0.06120    0.02440    4.99710   -0.01840    2.66880   61.03530   60.78620  105.34670  -19.69620   -9999.25   16.82100   21.05990
 13306.50000   76.36520    0.06280    0.01870    4.99560   -0.01650    2.67870   60.80500   60.42660  110.36020  -20.06340   -9999.25   16.67240   20.96810
 13307.00000   81.62410    0.07930    0.02100    4.99400   -0.01460    2.67350   61.77720   61.24750  120.97270  -20.40140   -9999.25   15.83660   18.87370
 13307.50000   87.80510    0.09840    0.02670    4.99250   -0.01310    2.66440   64.58990   64.02700  121.81480  -20.87350   -9999.25   14.32120   16.47050
 13308.00000   86.26680    0.10200    0.02710    4.99100   -0.01160    2.66540   66.48080   65.63870  120.16450  -21.17770   -9999.25   13.77500   15.49710
 13308.50000   76.33660    0.08890    0.02160    4.98950   -0.00980    2.67600   65.37610   64.77380  118.48350  -21.28590   -9999.25   14.12450   15.03880
 13309.00000   61.84470    0.06240    0.01280    4.98800   -0.00720    2.69150   61.98390   61.66020  123.97080  -21.41780   -9999.25   16.74030   17.41620
 13309.50000   54.69630    0.04430    0.00590    4.98650   -0.00470    2.70240   58.21450   57.81790  132.13720  -21.48040   -9999.25   25.27300   24.36950
 13310.00000   56.27640    0.04610    0.00620    4.98490   -0.00640    2.70300   56.19820   56.14970  127.76020  -21.54310   -9999.25   32.36330   31.73880
 13310.50000   63.58030    0.05440    0.01280    4.98340   -0.00820    2.68600   57.41800   56.74940  124.86340  -21.57150   -9999.25   32.40620   30.99360
 13311.00000   69.71770    0.06020    0.02440    4.98190   -0.01190    2.66710   59.07150   59.02980  123.27860  -21.58150   -9999.25   30.61610   26.54740
 13311.50000   69.21030    0.05720    0.03080    4.98040   -0.01340    2.65720   60.42340   59.91960  121.69380  -21.59150   -9999.25   27.90510   23.16390
 13312.00000   64.20290    0.05070    0.03210    4.97890   -0.01410    2.65720   60.57370   60.12790  122.36910  -21.58400   -9999.25   28.22250   23.72550
 13312.50000   62.17680    0.04500    0.03080    4.97740   -0.01410    2.65930   60.63920   60.09210  122.08030  -21.54800   -9999.25   35.50840   27.09370
 13313.00000   62.48220    0.04230    0.02970    4.97580   -0.01400    2.66030   59.79150   59.69200  119.37550  -21.51190   -9999.25   35.28800   29.60560
 13313.50000   63.35110    0.03870    0.03100    4.97430   -0.01400    2.65750   58.69660   58.74760  126.03540  -21.58950   -9999.25   31.88080   26.28430
 13314.00000   66.85640    0.04110    0.03520    4.97280   -0.01430    2.65070   58.84710   59.04350  140.94260  -21.99660   -9999.25   24.95790   21.70960
 13314.50000   78.90380    0.06090    0.03830    4.97130   -0.01420    2.64540   61.76890   60.84620  158.90240  -22.66620   -9999.25   19.51160   17.93100
 13315.00000   95.37900    0.09930    0.03860    4.96980   -0.01250    2.64490   65.31740   64.16150  160.65750  -23.50170   -9999.25   15.25380   14.81020
 13315.50000  104.65970    0.12940    0.03720    4.96820   -0.01100    2.64710   68.86600   68.67200  152.68710  -23.68520   -9999.25   12.30010   12.95370
 13316.00000  101.12600    0.13620    0.03560    4.96670   -0.01030    2.64990   71.41730   70.68100  141.49080  -23.67130   -9999.25   11.29040   12.20860
 13316.50000   88.51750    0.11920    0.03400    4.96680   -0.00930    2.65270   70.15090   69.88300  131.91430  -23.67570   -9999.25   11.01190   12.07060
 13317.00000   79.00690    0.09120    0.02960    4.96840   -0.00880    2.66120   67.52960   67.46400  124.02840  -24.07790   -9999.25   11.54880   12.73160
 13317.50000   73.70950    0.07070    0.02520    4.97010   -0.00930    2.66820   65.43600   64.86670  116.91240  -24.82460   -9999.25   11.04090   13.49200
 13318.00000   72.60390    0.06230    0.02530    4.97180   -0.00970    2.66760   63.39030   62.69590  112.98270  -25.33440   -9999.25   11.24840   13.26380
 13318.50000   74.80920    0.06610    0.03070    4.97350   -0.01170    2.65800   62.52580   62.18810  110.02070  -25.63760   -9999.25   12.46700   14.98660
 13319.00000   82.39800    0.09060    0.03930    4.97520   -0.01460    2.64310   64.37040   63.74090  115.90190  -25.98970   -9999.25   14.52230   19.85630
 13319.50000   95.38090    0.12730    0.04570    4.97680   -0.01860    2.63280   68.52830   67.57360  130.68830  -26.34190   -9999.25   12.17860   16.66590
 13320.00000  102.59940    0.14760    0.04360    4.97850   -0.01830    2.63800   71.72450   70.96330  145.47470  -26.95830   -9999.25    9.07190   10.69420
 13320.50000   95.65750    0.13500    0.02630    4.98020   -0.01600    2.66420   71.64510   70.96840  142.63950  -27.73600   -9999.25    6.89530    7.29180
