~Version ---------------------------------------------------
VERS.   2.0 : CWLS log ASCII Standard -VERSION 2.0
WRAP.    NO : One line per depth step
DLM . SPACE : Column Data Section Delimiter
~Well ------------------------------------------------------
STRT .F               11631.0 : START DEPTH
STOP .F               14352.0 : STOP DEPTH
STEP .F                   0.5 : STEP
NULL .               -9999.25 : NULL VALUE
COMP .                        : COMPANY
WELL .                        : WELL
FLD  .                        : FIELD
LOC  .                        : LOCATION
PROV .                        : PROVINCE
CNTY .                        : COUNTY
STAT .                        : STATE
CTRY .                        : COUNTRY
SRVC .                        : SERVICE COMPANY
DATE .                        : DATE
UWI  .                        : UNIQUE WELL ID
API  .                        : API NUMBER
SLAT .WGS84 5.826932938948104 : SURFACE LATITUDE
SLON .WGS84  4.33391969463699 : SURFACE LONGITUDE
DATUM.F               2104.33 : DEPTH DATUM ELEV
~Curve Information -----------------------------------------
DEPT.F     : 
GRD .GAPI  : GAMMA RAY
NPHI.DEC   : NEUTRON POROSITY LIMESTONE
DPOR.DEC   : DENSITY POROSITY LIMESTONE
CALD.IN    : CALIPER FDC LOG
DRH .G/C3  : DENSITY CORRECTION
RHOM.G/C3  : BULK DENSITY CORRECTED
DT  .US/F  : INTERVAL TRANSIT TIME
DTCO.US/F  : COMPRESSIONAL-WAVE INTERVAL TRANSIT TIME ACOUSTIC SLOWNESS
DTSM.US/F  : SHEAR-WAVE INTERVAL TRANSIT TIME DELTA-T
SPR .MV    : SPONTANEOUS POTENTIAL FROM RES.
AT10.OHMM  : 10-IN. RESISTIVITY, 2-FT RESOLUTION
AT30.OHMM  : 30-IN. RESISTIVITY, 2-FT RESOLUTION
AT90.OHMM  : 90-IN. RESISTIVITY, 2-FT RESOLUTION
~Params ----------------------------------------------------
~Other -----------------------------------------------------
~ASCII -----------------------------------------------------
# ...
 13165.00000   79.11900    0.08420    0.01380    4.93970   -0.00830    2.68610   61.71590   61.27180  108.33040  -14.56510   -9999.25   11.19160    9.87690
 13165.50000   84.38370    0.08320    0.01290    4.94290   -0.00730    2.68820   63.06700   62.25940  112.56020  -14.75210   -9999.25   11.39890   10.00090
 13166.00000  100.83410    0.10300    0.01470    4.94710   -0.00780    2.68520   65.80610   64.22470  127.14080  -15.00570   -9999.25   11.63640   10.56220
 13166.50000  112.44960    0.14330    0.01920    4.95320   -0.00980    2.67720   71.28790   69.09270  138.94540  -15.12570   -9999.25    6.94610    7.21440
 13167.00000  107.53480    0.17240    0.02440    4.95930   -0.01170    2.66800   76.23910   74.71210  150.75010  -15.24880   -9999.25    4.58380    4.76900
 13167.50000   87.35000    0.16260    0.02680    4.96550   -0.01420    2.66430   77.83390   77.36560  151.29580  -15.37190   -9999.25    4.42200    4.46550
 13168.00000   65.80490    0.13120    0.02520    4.97160   -0.01350    2.66670   72.97120   73.97970  135.82470  -15.25220   -9999.25    5.19750    5.28440
 13168.50000   55.37680    0.08770    0.02050    4.97770   -0.01250    2.67540   66.83530   67.25130  120.32640  -15.06400   -9999.25    6.39030    6.58080
 13169.00000   58.33490    0.05850    0.01710    4.98380   -0.01240    2.68080   60.63160   61.00230  107.53610  -15.09450   -9999.25    9.73490   10.10210
 13169.50000   63.20790    0.04830    0.01690    4.98940   -0.01320    2.68130   57.39690   57.18420  101.65720  -15.28380   -9999.25   17.57500   17.97170
 13170.00000   62.98310    0.04870    0.01820    4.98690   -0.01460    2.67880   56.87110   56.17990  100.69230  -15.45500   -9999.25   24.03160   19.85500
 13170.50000   58.77450    0.04910    0.01980    4.98430   -0.01600    2.67590   57.49430   56.75080  101.55380  -15.47200   -9999.25   24.10020   19.45070
 13171.00000   58.76240    0.05220    0.02010    4.98180   -0.01700    2.67610   58.20260   57.49630  103.42740  -15.48890   -9999.25   25.29750   19.96460
 13171.50000   64.52970    0.06380    0.01700    4.97920   -0.01590    2.68300   60.04240   58.96520  105.29620  -15.49220   -9999.25   30.04270   22.92640
 13172.00000   71.00490    0.07480    0.01050    4.97660   -0.01480    2.69480   61.89350   60.88650  107.45930  -15.45400   -9999.25   30.16200   24.39690
 13172.50000   67.93560    0.07100    0.00520    4.97650   -0.01380    2.69890   63.04550   62.57980  110.76300  -15.43320   -9999.25   16.25050   14.69870
 13173.00000   56.04980    0.05850    0.00680    4.97740   -0.01270    2.69810   63.69620   63.13980  113.30580  -15.34340   -9999.25   12.50470   11.18450
 13173.50000   46.52070    0.05240    0.00490    4.97820   -0.01130    2.70290   61.71710   61.56800  108.78480  -14.94290   -9999.25   14.17890   12.75220
 13174.00000   43.16070    0.05480    0.00150    4.97910   -0.00930    2.70920   57.90350   57.86540  100.61930  -14.72290   -9999.25   20.80550   18.09410
 13174.50000   47.46060    0.05890   -0.00150    4.98000   -0.00840    2.71270   56.26150   55.80980   97.49530  -14.55180   -9999.25   30.52910   27.05930
 13175.00000   56.17280    0.05420    0.00050    4.98080   -0.00960    2.70740   56.56390   55.95130   98.24250  -14.67430   -9999.25   34.75660   33.33930
 13175.50000   58.71520    0.04300    0.00550    4.99000   -0.01100    2.70120   57.60690   57.09550  100.75460  -14.87980   -9999.25   23.93540   25.13920
 13176.00000   52.58170    0.03440    0.00790    5.01330   -0.01050    2.69710   58.31260   57.65290  102.71540  -15.13300   -9999.25   19.49020   21.92240
 13176.50000   48.00420    0.03820    0.00690    5.03660   -0.00990    2.70030   58.31430   57.62810  102.38340  -15.46490   -9999.25   21.35250   25.19640
 13177.00000   53.19220    0.05210    0.00580    5.04260   -0.00940    2.70050   57.70240   57.22770  101.80420  -15.53600   -9999.25   27.33910   33.35750
 13177.50000   61.60600    0.05930    0.00640    5.04010   -0.00890    2.69960   57.45820   56.92670  101.47440  -15.60720   -9999.25   24.61880   34.76650
 13178.00000   59.65120    0.05220    0.00510    5.03760   -0.00820    2.70440   57.89280   57.21050  104.32450  -15.75500   -9999.25   16.53930   19.41930
 13178.50000   51.59330    0.04160   -0.00060    5.03520   -0.00750    2.71560   58.32890   57.56390  104.72710  -15.83850   -9999.25   14.08420   16.67070
 13179.00000   42.32120    0.03070   -0.01320    5.03270   -0.00670    2.73620   57.36850   56.75410  101.76360  -15.80800   -9999.25   17.06470   19.98680
 13179.50000   38.59340    0.02770   -0.02310    5.03020   -0.00600    2.75210   54.66150   55.01050   97.31410  -15.56310   -9999.25   24.66870   25.81120
 13180.00000   37.91020    0.02710   -0.02890    5.05180   -0.00660    2.75940   53.45380   53.10880   93.21000  -15.42720   -9999.25   32.97460   31.74550
 13180.50000   39.66460    0.02750   -0.02790    5.09000   -0.00750    2.75640   52.43230   51.94500   91.93900  -15.38420   -9999.25   36.49720   33.42220
 13181.00000   48.39490    0.03770   -0.01740    5.11750   -0.01070    2.73600   53.17020   52.93070   93.36940  -15.40380   -9999.25   37.38620   33.10380
 13181.50000   61.61430    0.06270   -0.00040    5.11360   -0.01340    2.70750   55.76750   55.02080  109.83540  -15.36350   -9999.25   33.97540   27.84030
 13182.00000   74.67230    0.07740    0.01360    5.12730   -0.01370    2.68810   59.42440   58.81460  124.14700  -15.38570   -9999.25   26.14760   23.10760
 13182.50000   86.28470    0.09120    0.01590    5.14060   -0.01040    2.68390   62.24930   61.69480  120.27650  -15.44790   -9999.25   20.25400   18.74430
 13183.00000   87.14720    0.09290    0.01120    5.16220   -0.00720    2.69220   64.28320   63.44500  113.20680  -15.41450   -9999.25   16.34920   14.64890
 13183.50000   84.69080    0.09360    0.01010    5.17980   -0.00640    2.69230   65.21980   64.68480  112.67240  -15.10450   -9999.25   16.03500   14.58770
 13184.00000   83.76780    0.09460    0.01720    5.18370   -0.00880    2.67930   65.47760   65.03490  113.79240  -14.79460   -9999.25   16.65800   14.98560
 13184.50000   83.49260    0.09250    0.02590    5.16680   -0.01120    2.66510   65.28590   64.91230  113.28200  -14.67100   -9999.25   17.38610   15.78510
 13185.00000   80.82190    0.08360    0.02710    5.14990   -0.01230    2.66410   64.34980   63.72670  112.52720  -14.70180   -9999.25   18.38170   16.48950
 13185.50000   74.42350    0.06990    0.02090    5.12680   -0.01200    2.67470   62.38260   61.88330  108.96050  -15.07400   -9999.25   19.16860   16.88620
 13186.00000   67.90630    0.06350    0.01400    5.10590   -0.00990    2.68790   60.59400   60.14100  105.94940  -15.34290   -9999.25   20.95410   17.79320
 13186.50000   66.12880    0.06290    0.01130    5.07680   -0.00910    2.69000   59.72490   59.40880  104.62620  -15.31510   -9999.25   20.45350   18.68690
 13187.00000   71.84330    0.06990    0.01620    5.03560   -0.00900    2.68330   60.63360   60.13640  106.43210  -15.28740   -9999.25   16.70050   15.54050
 13187.50000   84.04960    0.08350    0.02300    4.98900   -0.00760    2.67080   64.02750   63.13540  113.02970  -15.25960   -9999.25   13.63930   12.82470
 13188.00000   99.87390    0.10740    0.03020    4.94230   -0.00680    2.65820   69.59000   68.79460  122.71710  -15.21950   -9999.25    9.96000   10.70320
 13188.50000  114.50170    0.13980    0.03880    4.91300   -0.00720    2.64300   75.70720   74.61000  137.43210  -15.21550   -9999.25    6.91140    7.29020
 13189.00000  128.91250    0.17990    0.04660    4.91100   -0.00770    2.62920   80.23380   78.52070  154.48610  -15.25430   -9999.25    4.51490    4.77630
 13189.50000  134.61250    0.19430    0.05320    4.90300   -0.00890    2.61920   82.18910   81.06340  160.95050  -15.34510   -9999.25    3.88610    3.92460
 13190.00000  133.05060    0.19100    0.05800    4.91600   -0.01020    2.61050   83.03480   82.19020  161.71160  -15.57720   -9999.25    4.12020    4.23040
 13190.50000  130.63970    0.18680    0.06190    4.92040   -0.01310    2.60540   82.95250   82.35620  159.98170  -15.80930   -9999.25    4.85860    5.00720
