~Version ---------------------------------------------------
VERS.   2.0 : CWLS log ASCII Standard -VERSION 2.0
WRAP.    NO : One line per depth step
DLM . SPACE : Column Data Section Delimiter
~Well ------------------------------------------------------
STRT .F               11631.0 : START DEPTH
STOP .F               14352.0 : STOP DEPTH
STEP .F                   0.5 : STEP
NULL .               -9999.25 : NULL VALUE
COMP .                        : COMPANY
WELL .                        : WELL
FLD  .                        : FIELD
LOC  .                        : LOCATION
PROV .                        : PROVINCE
CNTY .                        : COUNTY
STAT .                        : STATE
CTRY .                        : COUNTRY
SRVC .                        : SERVICE COMPANY
DATE .                        : DATE
UWI  .                        : UNIQUE WELL ID
API  .                        : API NUMBER
SLAT .WGS84 5.826932938948104 : SURFACE LATITUDE
SLON .WGS84  4.33391969463699 : SURFACE LONGITUDE
DATUM.F               2104.33 : DEPTH DATUM ELEV
~Curve Information -----------------------------------------
DEPT.F     : 
GRD .GAPI  : GAMMA RAY
NPHI.DEC   : NEUTRON POROSITY LIMESTONE
DPOR.DEC   : DENSITY POROSITY LIMESTONE
CALD.IN    : CALIPER FDC LOG
DRH .G/C3  : DENSITY CORRECTION
RHOM.G/C3  : BULK DENSITY CORRECTED
DT  .US/F  : INTERVAL TRANSIT TIME
DTCO.US/F  : COMPRESSIONAL-WAVE INTERVAL TRANSIT TIME ACOUSTIC SLOWNESS
DTSM.US/F  : SHEAR-WAVE INTERVAL TRANSIT TIME DELTA-T
SPR .MV    : SPONTANEOUS POTENTIAL FROM RES.
AT10.OHMM  : 10-IN. RESISTIVITY, 2-FT RESOLUTION
AT30.OHMM  : 30-IN. RESISTIVITY, 2-FT RESOLUTION
AT90.OHMM  : 90-IN. RESISTIVITY, 2-FT RESOLUTION
~Params ----------------------------------------------------
~Other -----------------------------------------------------
~ASCII -----------------------------------------------------
# ...
 14023.00000   89.01010    0.07900    0.01470    4.89690   -0.01230    2.68480   65.90950   64.92320  133.69470   -7.41550   -9999.25    8.70850    8.98560
 14023.50000  100.18700    0.09920    0.01480    4.89730   -0.01100    2.68670   68.53400   67.27480  123.55510   -7.57680   -9999.25    8.40390    8.50300
 14024.00000  101.44400    0.10680    0.01000    4.89760   -0.00900    2.69480   67.58080   66.90330  121.04560   -7.49900   -9999.25    9.85520   10.11300
 14024.50000   88.47950    0.10010    0.00130    4.89790   -0.00840    2.71000   64.32320   64.10150  122.31510   -7.52310   -9999.25   13.86990   14.26220
 14025.00000   73.19130    0.07710   -0.00520    4.89830   -0.00860    2.71990   61.20320   61.08000  124.34390   -7.54610   -9999.25   17.80730   18.12420
 14025.50000   65.22780    0.05740   -0.00280    4.89860   -0.01100    2.71360   59.99520   60.74570  117.32950   -7.30090   -9999.25   15.01070   15.29900
 14026.00000   68.62930    0.05370    0.00940    4.89890   -0.01340    2.69330   61.93250   61.17000  109.50520   -7.00150   -9999.25   11.64990   11.75470
 14026.50000   78.83170    0.06070    0.02030    4.89930   -0.01460    2.67630   64.49010   63.38470  112.96910   -6.90410   -9999.25   11.08380   11.27600
 14027.00000   88.91270    0.07440    0.02420    4.89960   -0.01320    2.66880   66.13980   65.29280  116.27770   -7.37610   -9999.25    9.81640   10.18750
 14027.50000   95.40250    0.08870    0.02730    4.90000   -0.01170    2.66310   66.87180   66.32230  117.73080   -7.53130   -9999.25    9.23600   10.07540
 14028.00000   97.19330    0.09630    0.03070    4.90030   -0.01050    2.65840   67.39900   66.77370  119.18390   -7.48480   -9999.25    9.05110    9.83770
 14028.50000   95.82680    0.10230    0.03130    4.90060   -0.00930    2.65900   67.35870   67.00770  120.54930   -7.56700   -9999.25    9.03590    9.58650
 14029.00000   92.15440    0.10280    0.02690    4.90100   -0.00920    2.66530   66.60710   66.24060  122.00740   -7.97730   -9999.25    8.77150    9.44460
 14029.50000   89.21480    0.09820    0.02220    4.90130   -0.00970    2.67500   65.97810   65.60810  120.40410   -8.38750   -9999.25    9.21570    9.62050
 14030.00000   87.86330    0.09220    0.02130    4.90470   -0.01140    2.67290   66.61740   65.93300  131.59630   -8.74000   -9999.25    9.60210    9.50350
 14030.50000   90.24550    0.09180    0.02400    4.90760   -0.01340    2.66690   67.50860   67.23120  145.64410   -8.61560   -9999.25    8.62990    8.07550
 14031.00000   95.39860    0.10140    0.02800    4.89810   -0.01420    2.66090   69.98140   69.37450  141.99570   -7.78530   -9999.25    7.33180    7.09570
 14031.50000  103.00000    0.11540    0.03260    4.88740   -0.01410    2.65470   72.31980   71.51220  134.05360   -7.47030   -9999.25    6.06880    6.18680
 14032.00000  109.44200    0.12880    0.03870    4.88810   -0.01390    2.64500   73.82450   73.14410  137.27770   -7.44150   -9999.25    5.39570    5.44910
 14032.50000  116.18740    0.13750    0.04630    4.88890   -0.01380    2.63070   74.72000   74.28840  142.74530   -7.50870   -9999.25    5.39240    5.43980
 14033.00000  121.54730    0.14220    0.05120    4.89430   -0.01360    2.62360   75.36810   74.88670  148.98200   -7.56710   -9999.25    5.67180    5.72130
 14033.50000  125.10610    0.14290    0.04840    4.90780   -0.01250    2.63100   75.38460   74.87640  150.42120   -7.57270   -9999.25    5.96560    6.01750
 14034.00000  126.53520    0.13640    0.03860    4.91980   -0.01010    2.64930   74.51770   74.09370  146.60280   -7.55330   -9999.25    6.27460    6.33080
 14034.50000  126.55150    0.12560    0.02890    4.93640   -0.00790    2.66320   72.51960   72.16870  140.18760   -7.53390   -9999.25    6.99320    7.14600
 14035.00000  127.01570    0.11300    0.02450    4.94230   -0.00940    2.66940   70.17930   69.94080  131.76700   -7.51450   -9999.25    7.86630    7.95190
 14035.50000  127.07930    0.09800    0.02240    4.94210   -0.01080    2.67270   67.73550   67.53430  139.37210   -7.49500   -9999.25    8.68770    9.12100
 14036.00000  124.96920    0.08620    0.02030    4.94180   -0.01210    2.67670   65.17960   65.27790  154.95900   -7.47560   -9999.25    9.14510    9.80090
 14036.50000  120.65740    0.07650    0.01980    4.94310   -0.01320    2.67690   64.85370   64.21010  142.84530   -7.45310   -9999.25   10.30410   11.85080
 14037.00000  118.67740    0.07290    0.02430    4.94540   -0.01500    2.66930   65.07770   64.45970  121.47610   -7.42860   -9999.25   11.49850   14.01720
 14037.50000  121.50010    0.08120    0.02690    4.95730   -0.01470    2.66580   65.72920   65.23440  114.53170   -7.34030   -9999.25   10.61530   10.76080
 14038.00000  123.12490    0.09320    0.02010    4.95470   -0.01150    2.67740   66.58680   65.88710  117.03770   -7.58480   -9999.25   10.27130   10.34070
 14038.50000  123.09370    0.09830    0.01140    4.95210   -0.00730    2.69510   66.97190   66.30270  118.75310   -7.82920   -9999.25   10.01390   10.08150
 14039.00000  121.11250    0.10150    0.00860    4.94940   -0.00540    2.69600   67.11150   66.49100  119.91490   -8.07370   -9999.25    9.40930    9.68860
 14039.50000  119.42960    0.10390    0.01160    4.94420   -0.00090    2.69090   67.96970   67.27350  120.88050   -8.23340   -9999.25    9.13750    9.56870
 14040.00000  117.76450    0.10800    0.01680    4.94170   -0.00030    2.68350   69.36140   68.48750  121.84610   -8.20830   -9999.25    8.99540    9.60510
 14040.50000  115.19800    0.11350    0.02380    4.94660   -0.00420    2.66750   70.70720   69.81880  125.44780   -8.19490   -9999.25    8.40810    8.53340
 14041.00000  113.50480    0.11740    0.03800    4.94460   -0.00890    2.64510   72.03640   71.24030  128.80520   -7.93900   -9999.25    7.66090    7.74720
 14041.50000  114.20630    0.12490    0.05190    4.93180   -0.01260    2.61870   73.81110   73.17180  135.31310   -7.57540   -9999.25    6.95690    7.06210
 14042.00000  119.13870    0.13190    0.05960    4.91900   -0.01350    2.61010   74.25340   73.64340  138.21570   -7.47320   -9999.25    6.41040    6.46220
 14042.50000  127.31180    0.13550    0.05670    4.90630   -0.01210    2.61590   74.14360   73.60200  137.54680   -7.37100   -9999.25    6.57210    6.67710
 14043.00000  137.97020    0.13100    0.04820    4.89370   -0.01040    2.63000   73.96890   73.37440  134.37490   -7.26880   -9999.25    7.80560    7.90030
 14043.50000  147.22710    0.12650    0.04410    4.88420   -0.01000    2.63630   73.36260   72.93890  130.52750   -7.54640   -9999.25    8.16120    8.22210
 14044.00000  152.70210    0.12250    0.04500    4.89280   -0.01160    2.63400   72.59510   72.17890  127.83230   -7.78340   -9999.25    8.58610    8.68200
 14044.50000  155.37670    0.11650    0.04610    4.90110   -0.01300    2.63300   71.11920   70.93290  125.28000   -7.88690   -9999.25    9.24890    9.35050
 14045.00000  147.66600    0.10620    0.04120    4.89500   -0.01210    2.64100   69.56350   69.29820  122.48310   -7.50900   -9999.25   10.34450   10.52260
 14045.50000  139.95530    0.09890    0.03420    4.88890   -0.01080    2.65290   68.52120   68.05770  120.03660   -7.13100   -9999.25   11.77360   11.36860
 14046.00000  131.47250    0.10090    0.03040    4.88860   -0.01010    2.65830   68.69720   67.79890  119.68320   -6.75300   -9999.25   10.72320   10.24610
 14046.50000  125.06410    0.10590    0.03240    4.89080   -0.01050    2.65580   70.02040   69.19550  120.52410   -6.63350   -9999.25   11.19650    9.99890
 14047.00000  123.60970    0.11280    0.03940    4.89110   -0.01150    2.64310   71.53420   70.73950  124.06620   -6.69670   -9999.25   10.40820   10.00190
 14047.50000  126.71370    0.11530    0.04600    4.90030   -0.01340    2.63300   71.93280   71.25930  127.09180   -7.23710   -9999.25    8.59970    8.49110
 14048.00000  129.27440    0.11440    0.04620    4.90060   -0.01440    2.63320   72.03480   71.55440  127.15090   -7.45570   -9999.25    7.57680    7.55100
 14048.50000  124.65020    0.11290    0.04210    4.90080   -0.01350    2.64110   71.85390   71.36810  126.52530   -7.43260   -9999.25    7.90650    7.84880
