~Version ---------------------------------------------------
VERS.   2.0 : CWLS log ASCII Standard -VERSION 2.0
WRAP.    NO : One line per depth step
DLM . SPACE : Column Data Section Delimiter
~Well ------------------------------------------------------
STRT .F               11631.0 : START DEPTH
STOP .F               14352.0 : STOP DEPTH
STEP .F                   0.5 : STEP
NULL .               -9999.25 : NULL VALUE
COMP .                        : COMPANY
WELL .                        : WELL
FLD  .                        : FIELD
LOC  .                        : LOCATION
PROV .                        : PROVINCE
CNTY .                        : COUNTY
STAT .                        : STATE
CTRY .                        : COUNTRY
SRVC .                        : SERVICE COMPANY
DATE .                        : DATE
UWI  .                        : UNIQUE WELL ID
API  .                        : API NUMBER
SLAT .WGS84 5.826932938948104 : SURFACE LATITUDE
SLON .WGS84  4.33391969463699 : SURFACE LONGITUDE
DATUM.F               2104.33 : DEPTH DATUM ELEV
~Curve Information -----------------------------------------
DEPT.F     : 
GRD .GAPI  : GAMMA RAY
NPHI.DEC   : NEUTRON POROSITY LIMESTONE
DPOR.DEC   : DENSITY POROSITY LIMESTONE
CALD.IN    : CALIPER FDC LOG
DRH .G/C3  : DENSITY CORRECTION
RHOM.G/C3  : BULK DENSITY CORRECTED
DT  .US/F  : INTERVAL TRANSIT TIME
DTCO.US/F  : COMPRESSIONAL-WAVE INTERVAL TRANSIT TIME ACOUSTIC SLOWNESS
DTSM.US/F  : SHEAR-WAVE INTERVAL TRANSIT TIME DELTA-T
SPR .MV    : SPONTANEOUS POTENTIAL FROM RES.
AT10.OHMM  : 10-IN. RESISTIVITY, 2-FT RESOLUTION
AT30.OHMM  : 30-IN. RESISTIVITY, 2-FT RESOLUTION
AT90.OHMM  : 90-IN. RESISTIVITY, 2-FT RESOLUTION
~Params ----------------------------------------------------
~Other -----------------------------------------------------
~ASCII -----------------------------------------------------
# ...
 13009.00000  131.96300    0.22910    0.01130    5.66640    0.00220    2.69240   82.33640   81.74480  171.31380  -10.95450   -9999.25    4.45560    4.48350
 13009.50000  133.80150    0.22930    0.02030    5.67410   -0.00020    2.67670   82.55120   82.00260  164.37520  -10.91040   -9999.25    4.50210    4.52870
 13010.00000  134.60390    0.23950    0.03340    5.68260   -0.00430    2.65430   83.03170   82.61770  158.80440  -10.86630   -9999.25    4.39520    4.43130
 13010.50000  132.82260    0.24900    0.04610    5.68680   -0.01200    2.63280   83.66360   83.39030  161.91270  -10.95180   -9999.25    4.23870    4.27340
 13011.00000  129.74920    0.25750    0.05840    5.68800   -0.02010    2.61090   84.62190   84.27210  171.90380  -10.97510   -9999.25    4.05780    4.09080
 13011.50000  128.97650    0.26390    0.06250    5.70320   -0.02700    2.60440   85.81130   85.35040  181.32550  -10.68080   -9999.25    3.91070    3.93960
 13012.00000  132.32610    0.26900    0.05680    5.72530   -0.02470    2.61400   86.32570   85.93330  179.23390  -10.71980   -9999.25    3.79800    3.82780
 13012.50000  135.71780    0.27100    0.05180    5.71720   -0.02290    2.62230   86.60680   86.09130  176.26400  -10.89130   -9999.25    3.64710    3.67430
 13013.00000  138.75810    0.26820    0.05110    5.69730   -0.02240    2.62320   86.72910   86.23330  174.60110  -11.06270   -9999.25    3.50550    3.52970
 13013.50000  140.92200    0.27030    0.04900    5.67730   -0.01970    2.62730   86.91630   86.46950  173.17650  -10.83880   -9999.25    3.40280    3.42560
 13014.00000  142.54260    0.27280    0.04350    5.64450   -0.01470    2.63680   87.19110   86.70930  168.36330  -11.14310   -9999.25    3.32550    3.34720
 13014.50000  141.19620    0.27050    0.03940    5.60260   -0.01190    2.64400   87.27020   86.81100  165.20080  -11.41590   -9999.25    3.18550    3.21690
 13015.00000  138.02850    0.25910    0.03700    5.54450   -0.00940    2.64850   86.23090   86.03540  163.56300  -11.10240   -9999.25    3.10800    3.13000
 13015.50000  133.37020    0.24500    0.03450    5.51830   -0.00770    2.65350   84.36010   84.16860  162.41610  -11.05440   -9999.25    3.31230    3.35260
 13016.00000  131.11820    0.23560    0.02960    5.51200   -0.00650    2.66150   82.75690   82.65550  164.35470  -11.05240   -9999.25    3.83900    3.90620
 13016.50000  130.39900    0.23250    0.02600    5.50570   -0.00590    2.66710   81.65790   81.45520  165.21500  -10.94540   -9999.25    4.44580    4.48640
 13017.00000  130.25170    0.23160    0.02670    5.50360   -0.00720    2.66530   81.59720   81.09690  164.79390  -10.79440   -9999.25    4.52460    4.55140
 13017.50000  130.06790    0.23280    0.03060    5.50360   -0.00900    2.65920   82.01730   81.47530  165.18980  -10.73890   -9999.25    4.54850    4.57540
 13018.00000  130.17990    0.23640    0.03140    5.50910   -0.00740    2.65770   82.15590   81.78310  167.27440  -11.12920   -9999.25    4.56800    4.59560
 13018.50000  130.69830    0.23990    0.02860    5.52230   -0.00540    2.66220   82.12400   81.64220  168.37670  -11.34660   -9999.25    4.63260    4.66280
 13019.00000  131.98400    0.24190    0.02660    5.51080   -0.00410    2.66600   81.88770   81.47130  166.89500  -11.39620   -9999.25    4.73960    4.77130
 13019.50000  135.00580    0.24030    0.02790    5.48440   -0.00400    2.66310   81.64650   81.04430  163.32130  -11.44580   -9999.25    4.73880    4.76770
 13020.00000  137.52690    0.24100    0.02880    5.45800   -0.00440    2.66190   81.41470   80.56480  160.49200  -11.44860   -9999.25    4.63790    4.75930
 13020.50000  138.17260    0.25020    0.02890    5.43040   -0.00510    2.66210   81.40620   80.66730  160.16510  -11.44580   -9999.25    4.74840    4.79220
 13021.00000  136.65560    0.25320    0.02820    5.40660   -0.00570    2.66250   81.57190   80.83950  160.02480  -11.44300   -9999.25    4.73100    4.76160
 13021.50000  137.09200    0.25620    0.03050    5.40170   -0.00600    2.65850   81.62660   80.93800  159.60220  -11.41450   -9999.25    4.70300    4.73090
 13022.00000  137.89340    0.25550    0.03560    5.37770   -0.00610    2.65250   81.81080   81.06180  157.81950  -11.23370   -9999.25    4.72670    4.75470
 13022.50000  137.12250    0.25270    0.03660    5.36120   -0.00490    2.64760   81.90800   81.05020  156.88320  -11.05290   -9999.25    4.75710    4.78560
 13023.00000  135.59270    0.25190    0.03360    5.34470    0.00000    2.65340   81.86540   80.91610  156.48590  -11.03990   -9999.25    4.64940    4.68290
 13023.50000  136.29160    0.25090    0.03000    5.34400    0.00600    2.65940   81.89740   80.87440  156.08860  -11.26480   -9999.25    4.55020    4.58090
 13024.00000  138.95930    0.24980    0.02780    5.34690    0.01690    2.66370   81.85780   80.93320  157.41080  -11.43030   -9999.25    4.59970    4.62780
 13024.50000  142.26360    0.24840    0.02420    5.34760    0.02760    2.67120   81.75740   81.01370  159.09790  -11.46020   -9999.25    4.58840    4.61580
 13025.00000  144.53390    0.24300    0.01600    5.34610    0.03870    2.68320   81.62060   80.90070  161.07370  -11.51020   -9999.25    4.53540    4.56360
 13025.50000  144.63480    0.23950    0.00980    5.34580    0.04330    2.69420   81.54930   80.64180  163.03270  -11.52800   -9999.25    4.43530    4.46660
 13026.00000  142.14650    0.24180    0.00610    5.34580    0.04480    2.70000   81.95270   80.93400  164.64470  -11.54570   -9999.25    4.34650    4.37240
 13026.50000  139.67570    0.24930    0.00440    5.34590    0.04630    2.70300   82.44930   82.03610  161.48790  -11.56010   -9999.25    4.30260    4.32890
 13027.00000  139.28380    0.25510    0.00500    5.34600    0.04780    2.70180   82.94600   82.58880  152.31810  -11.56110   -9999.25    4.29720    4.32310
 13027.50000  138.57660    0.25650    0.01140    5.34610    0.03840    2.69260   83.42950   83.00650  152.40150  -11.56220   -9999.25    4.31930    4.34480
 13028.00000  135.83100    0.25910    0.01860    5.34560    0.02570    2.68070   83.43780   82.99560  159.26640  -11.56320   -9999.25    4.25750    4.28450
 13028.50000  131.84330    0.26220    0.02320    5.34150    0.01150    2.67240   82.89470   82.40580  160.14310  -11.56430   -9999.25    4.15150    4.17850
 13029.00000  129.63280    0.26260    0.02340    5.33470    0.00560    2.67100   82.08040   81.75210  157.26560  -11.56530   -9999.25    4.13420    4.18050
 13029.50000  130.89790    0.26310    0.02230    5.32790    0.00320    2.67310   81.53530   81.24680  153.08740  -11.54180   -9999.25    4.39560    4.46540
 13030.00000  133.77600    0.26260    0.02250    5.32800    0.00070    2.67170   81.46800   81.31260  156.53990  -11.47860   -9999.25    4.64940    4.89880
 13030.50000  136.04900    0.26250    0.02560    5.32950   -0.00180    2.66720   81.92800   81.61450  161.98460  -11.44210   -9999.25    4.63230    5.02180
 13031.00000  136.88230    0.26390    0.03040    5.33100   -0.00320    2.65970   82.68830   82.14120  164.99550  -11.44590   -9999.25    4.43600    4.54390
 13031.50000  137.49170    0.26600    0.03350    5.34420   -0.00350    2.65310   83.06880   82.57240  165.44710  -11.44880   -9999.25    4.19380    4.27590
 13032.00000  137.67080    0.26520    0.03630    5.36020   -0.00390    2.64860   83.31050   82.96790  165.18330  -11.26780   -9999.25    3.97740    4.18740
 13032.50000  136.91760    0.26420    0.03880    5.37420   -0.00420    2.64410   83.54310   83.25490  164.66800  -11.09780   -9999.25    3.97720    4.13950
 13033.00000  134.64600    0.26070    0.04090    5.38740   -0.00270    2.64170   84.00970   83.58970  164.42030  -11.05520   -9999.25    4.07560    4.19540
 13033.50000  135.18140    0.25890    0.04060    5.38370   -0.00050    2.64250   84.76560   84.19000  168.69510  -11.04100   -9999.25    4.36550    4.41470
 13034.00000  136.89050    0.25760    0.04100    5.36060   -0.00050    2.64110   85.49030   84.92670  173.38190  -11.07980 1238.40750    4.47000    4.49640
 13034.50000  140.84260    0.26030    0.04310    5.33070   -0.00050    2.63740   86.34370   86.06050  171.92000  -11.19570  797.51150    4.19580    4.25520
