~Version ---------------------------------------------------
VERS.   2.0 : CWLS log ASCII Standard -VERSION 2.0
WRAP.    NO : One line per depth step
DLM . SPACE : Column Data Section Delimiter
~Well ------------------------------------------------------
STRT .F               11631.0 : START DEPTH
STOP .F               14352.0 : STOP DEPTH
STEP .F                   0.5 : STEP
NULL .               -9999.25 : NULL VALUE
COMP .                        : COMPANY
WELL .                        : WELL
FLD  .                        : FIELD
LOC  .                        : LOCATION
PROV .                        : PROVINCE
CNTY .                        : COUNTY
STAT .                        : STATE
CTRY .                        : COUNTRY
SRVC .                        : SERVICE COMPANY
DATE .                        : DATE
UWI  .                        : UNIQUE WELL ID
API  .                        : API NUMBER
SLAT .WGS84 5.826932938948104 : SURFACE LATITUDE
SLON .WGS84  4.33391969463699 : SURFACE LONGITUDE
DATUM.F               2104.33 : DEPTH DATUM ELEV
~Curve Information -----------------------------------------
DEPT.F     : 
GRD .GAPI  : GAMMA RAY
NPHI.DEC   : NEUTRON POROSITY LIMESTONE
DPOR.DEC   : DENSITY POROSITY LIMESTONE
CALD.IN    : CALIPER FDC LOG
DRH .G/C3  : DENSITY CORRECTION
RHOM.G/C3  : BULK DENSITY CORRECTED
DT  .US/F  : INTERVAL TRANSIT TIME
DTCO.US/F  : COMPRESSIONAL-WAVE INTERVAL TRANSIT TIME ACOUSTIC SLOWNESS
DTSM.US/F  : SHEAR-WAVE INTERVAL TRANSIT TIME DELTA-T
SPR .MV    : SPONTANEOUS POTENTIAL FROM RES.
AT10.OHMM  : 10-IN. RESISTIVITY, 2-FT RESOLUTION
AT30.OHMM  : 30-IN. RESISTIVITY, 2-FT RESOLUTION
AT90.OHMM  : 90-IN. RESISTIVITY, 2-FT RESOLUTION
~Params ----------------------------------------------------
~Other -----------------------------------------------------
~ASCII -----------------------------------------------------
# ...
 13451.00000  123.91270    0.20800    0.06530    4.95760   -0.01750    2.60280   88.07640   87.46860  179.55000  -17.32440  719.94260    2.90670    2.95980
 13451.50000  127.23240    0.20490    0.07450    4.95280   -0.01710    2.58750   88.41410   87.99440  191.61140  -17.22580 1579.49240    3.34210    3.36500
 13452.00000  129.63630    0.19870    0.07320    4.94800   -0.01650    2.58640   88.37550   88.03650  197.46890  -17.21030   -9999.25    3.29710    3.32150
 13452.50000  132.29760    0.19170    0.06730    4.94200   -0.01550    2.59540   87.85180   87.44650  196.62430  -17.21980   -9999.25    3.48420    3.59210
 13453.00000  134.08130    0.18780    0.05630    4.94200   -0.01390    2.61290   85.76490   85.48750  189.39600  -17.22930   -9999.25    4.43670    4.58370
 13453.50000  134.14100    0.20140    0.04230    4.94480   -0.01120    2.63650   82.65830   82.79480  183.65720  -17.23890   -9999.25    5.71280    5.90120
 13454.00000  132.12590    0.21680    0.02920    4.93800   -0.00640    2.65800   80.60400   80.25320  178.56970  -17.24840   -9999.25    6.98180    7.13600
 13454.50000  131.02870    0.21530    0.02730    4.94440   -0.00120    2.66450   80.23600   79.26910  174.92550  -17.24790   -9999.25    7.03660    7.27560
 13455.00000  133.16050    0.19660    0.04310    4.95090    0.00110    2.63660   82.50220   82.26880  179.85270  -17.05240   -9999.25    5.54850    5.71990
 13455.50000  136.57920    0.18720    0.07250    4.95740   -0.00280    2.58780   89.02390   87.15480  194.69100  -16.99470   -9999.25    4.48320    4.57800
 13456.00000  138.27840    0.19520    0.10310    4.95270   -0.00950    2.53990   97.02390   94.95660  204.42080  -17.18310   -9999.25    3.77880    3.86800
 13456.50000  137.81650    0.21160    0.11630    4.94450   -0.01450    2.51150  103.01200  102.04500  205.82200  -17.36210   -9999.25    3.39860    3.43530
 13457.00000  135.53450    0.22610    0.10320    4.94650   -0.01330    2.52930  102.86170  102.31930  194.83030  -17.66920   -9999.25    3.57970    3.64290
 13457.50000  133.26050    0.23070    0.06920    4.94840   -0.00760    2.58680   97.10070   97.57500  176.78260  -18.06930   -9999.25    4.39510    4.51820
 13458.00000  131.96420    0.23020    0.04730    4.94730   -0.00680    2.62510   88.97810   89.21440  159.55790  -18.46950   -9999.25    5.11050    5.40590
 13458.50000  131.22180    0.22920    0.04350    4.94630   -0.00970    2.63620   80.06410   81.64480  145.89170  -18.85520   -9999.25    5.35360    5.70520
 13459.00000  131.51420    0.22820    0.04310    4.94610   -0.01280    2.63650   77.32650   77.35280  136.08190  -19.02600   -9999.25    5.42190    5.88770
 13459.50000  133.49760    0.22740    0.04110    4.94540   -0.01120    2.63940   77.35980   76.93480  135.80020  -18.90840   -9999.25    5.49110    6.02750
 13460.00000  136.29700    0.22500    0.04100    4.94400   -0.00950    2.64100   78.03620   77.38740  138.82680  -18.48350   -9999.25    5.74710    5.90290
 13460.50000  139.32810    0.22140    0.04260    4.94280   -0.00880    2.63800   78.43500   78.12020  142.24100  -18.05850  672.69790    5.63620    5.86490
 13461.00000  140.33930    0.22080    0.04710    4.93730   -0.00860    2.63050   78.50790   78.24580  141.59680  -17.63360  261.35130    5.81680    6.10810
 13461.50000  139.76850    0.22140    0.05200    4.93190   -0.01150    2.62210   78.81630   78.40470  140.34050  -17.36500  105.89690    5.61540    6.10790
 13462.00000  137.49860    0.22370    0.05790    4.92640   -0.01170    2.61240   79.69460   79.45520  141.34930  -17.17950   68.09460    4.75900    4.96480
 13462.50000  134.11590    0.22610    0.06190    4.92390   -0.01140    2.60450   81.25940   80.79790  143.41830  -17.04460   42.99980    3.78110    3.89000
 13463.00000  132.68190    0.22420    0.06320    4.92390   -0.01040    2.60280   84.38560   83.47750  146.62260  -17.21700   22.05740    3.03170    3.11950
 13463.50000  132.46200    0.22060    0.06120    4.92380   -0.00920    2.60480   89.06020   87.90650  154.85610  -17.02300   10.86080    2.45150    2.49790
 13464.00000  131.86040    0.21820    0.05580    4.92070   -0.00580    2.61400   92.49070   91.69500  169.92930  -16.77540    6.42060    2.20660    2.22310
 13464.50000  129.65420    0.22030    0.05130    4.91210   -0.00530    2.62230   93.95900   93.04910  182.18170  -16.64480    6.74360    2.14040    2.15320
 13465.00000  129.80500    0.22270    0.04940    4.90340   -0.00480    2.62570   92.49520   92.21150  176.83440  -16.80490   14.41220    2.16820    2.18280
 13465.50000  132.24880    0.22450    0.04900    4.88770   -0.00420    2.62700   90.25300   90.29530  167.38160  -17.00570   25.79420    2.54730    2.62860
 13466.00000  134.72610    0.22500    0.04740    4.87060   -0.00370    2.62970   89.95330   89.72260  166.85720  -17.04330   31.66710    3.02620    3.04770
 13466.50000  136.23030    0.22470    0.04480    4.86560   -0.00400    2.63410   90.72970   90.38800  177.97290  -17.00700   20.10420    2.40980    2.48670
 13467.00000  137.40210    0.22250    0.04500    4.88530   -0.00530    2.63470   92.06840   91.45190  179.48900  -16.97060    9.56210    2.05190    2.07870
 13467.50000  139.11940    0.21990    0.04980    4.89370   -0.00810    2.62680   92.19300   91.49490  176.18250  -16.93430   35.25450    2.17300    2.20360
 13468.00000  141.32180    0.21530    0.05820    4.89220   -0.00840    2.61290   90.56130   90.32100  170.09860  -16.98850   43.08930    2.80950    2.86560
 13468.50000  147.05670    0.21090    0.06680    4.89080   -0.00930    2.59830   89.36400   89.05920  165.05540  -17.14970   74.99690    3.32320    3.37920
 13469.00000  154.81450    0.20990    0.07610    4.89160   -0.01100    2.58180   89.88580   89.21820  163.72040  -17.38260  110.46070    3.72410    3.76680
 13469.50000  165.21160    0.21110    0.08490    4.88920   -0.01190    2.56730   91.29060   90.55810  165.58130  -17.55200  228.19990    3.86010    3.88330
 13470.00000  171.13690    0.21240    0.08970    4.89020   -0.01240    2.55820   92.36770   91.78630  173.99040  -17.98720  525.95660    3.78650    3.81160
 13470.50000  166.55930    0.21290    0.08690    4.89790   -0.01270    2.56110   92.33280   91.76980  183.86530  -18.57300 1099.40030    3.75760    3.78140
 13471.00000  154.58650    0.21340    0.07880    4.89120   -0.01300    2.57500   91.20010   90.87730  179.66200  -19.14690 1883.97940    3.84140    3.86800
 13471.50000  138.83510    0.21300    0.07050    4.88450   -0.01330    2.58890   89.67840   89.53010  169.98880  -19.35960   -9999.25    3.77070    3.79520
 13472.00000  125.50480    0.21250    0.06480    4.87650   -0.01370    2.59810   87.91020   87.70780  164.54150  -19.25050   -9999.25    3.95540    4.01660
 13472.50000  118.51950    0.21480    0.06210    4.86090   -0.01410    2.60420   86.63140   86.21450  160.59190  -18.90160   -9999.25    4.37550    4.42570
 13473.00000  113.89160    0.21740    0.06130    4.84740   -0.01410    2.60560   86.02380   85.69810  157.22970  -18.55270   -9999.25    5.09320    5.18100
 13473.50000  111.53970    0.21860    0.06500    4.86960   -0.01400    2.59960   85.73590   85.64620  155.56620  -18.20380   -9999.25    5.40740    5.45140
 13474.00000  113.34880    0.21600    0.07020    4.91070   -0.01400    2.59250   86.17200   85.78680  154.37450  -17.85490   -9999.25    4.99630    5.04410
 13474.50000  117.09870    0.21970    0.06980    4.95220   -0.01410    2.59210   87.56490   87.09770  155.84450  -17.54570   -9999.25    4.80880    4.84410
 13475.00000  123.82890    0.23120    0.06330    4.96380   -0.01190    2.60060   89.92820   89.34290  160.51720  -17.90420   -9999.25    4.97460    5.01100
 13475.50000  129.30490    0.23310    0.05620    4.95090   -0.00820    2.61240   92.05020   91.41360  164.63030  -18.35540   -9999.25    5.27190    5.33450
 13476.00000  128.00770    0.22030    0.05030    4.93780   -0.00480    2.62290   91.65560   91.50180  164.05140  -18.19000   -9999.25    5.68900    5.77650
 13476.50000  123.48400    0.21100    0.04520    4.92480   -0.00140    2.63180   90.11380   89.91040  162.86830  -17.82550   -9999.25    6.29870    6.42630
