~Version ---------------------------------------------------
VERS.   2.0 : CWLS log ASCII Standard -VERSION 2.0
WRAP.    NO : One line per depth step
DLM . SPACE : Column Data Section Delimiter
~Well ------------------------------------------------------
STRT .F                 9250.0 : START DEPTH
STOP .F                15908.0 : STOP DEPTH
STEP .F                    0.5 : STEP
NULL .                -9999.25 : NULL VALUE
COMP .                         : COMPANY
WELL .                         : WELL
FLD  .                         : FIELD
LOC  .                         : LOCATION
PROV .                         : PROVINCE
CNTY .                         : COUNTY
STAT .                         : STATE
CTRY .                         : COUNTRY
SRVC .                         : SERVICE COMPANY
DATE .                         : DATE
UWI  .                         : UNIQUE WELL ID
API  .                         : API NUMBER
SLAT .WGS84  5.959390092250096 : SURFACE LATITUDE
SLON .WGS84 2.8158245771146966 : SURFACE LONGITUDE
DATUM.F                 1449.0 : DEPTH DATUM ELEV
~Curve Information -----------------------------------------
DEPT   .F     : 
CALD   .IN    : CALIPER FROM DENSITY LOG
DPHI_LS.DEC   : DENSITY POROSITY LIMESTONE
DRHO   .G/C3  : BULK DENSITY CORRECTION
DTCO   .US/F  : DELTA-T COMPRESSIONAL
DTSM   .US/F  : DELTA-T SHEAR
GRD    .GAPI  : GAMMA RAY FROM DENSITY LOG
PEF    .B/E   : PHOTOELECTRIC FACTOR
RHOB   .G/C3  : BULK DENSITY
SPHI   .DEC   : SONIC POROSITY
TBIT20 .OHMM  : AUTOMATICALLY ADDED BY PROCLASCURVE_INSERT.
TBIT30 .OHMM  : AUTOMATICALLY ADDED BY PROCLASCURVE_INSERT.
TBIT60 .OHMM  : AUTOMATICALLY ADDED BY PROCLASCURVE_INSERT.
TBIT90 .OHMM  : AUTOMATICALLY ADDED BY PROCLASCURVE_INSERT.
TNPH_LS.DEC   : THERMAL NEUTRON POROSITY [LIMESTONE]
~Params ----------------------------------------------------
~Other -----------------------------------------------------
~ASCII -----------------------------------------------------
# ...
 10177.50000    9.03720    0.01570    0.02340   -9999.25   -9999.25   64.23910    3.67470    2.69100   -9999.25    5.43580    5.31650    5.32260    5.18810    0.22130
 10178.00000    9.04070    0.01890    0.02340   -9999.25   -9999.25   64.17440    3.66890    2.68860   -9999.25    5.44770    5.32810    5.32150    5.18700    0.22250
 10178.50000    9.04430    0.02420    0.02050   -9999.25   -9999.25   64.22300    3.64850    2.67010   -9999.25    5.45960    5.33980    5.38550    5.24940    0.23320
 10179.00000    9.04790    0.02590    0.01760   -9999.25   -9999.25   64.50490    3.62810    2.66210   -9999.25    5.47150    5.35140    5.38440    5.24830    0.24320
 10179.50000    9.05140    0.02410    0.01560   -9999.25   -9999.25   63.48890    3.60770    2.66790   -9999.25    5.48340    5.36310    5.38320    5.24710    0.25320
 10180.00000    9.05500    0.02310    0.00880   -9999.25   -9999.25   62.28210    3.61500    2.67580   -9999.25    5.49540    5.37470    5.41500    5.27810    0.25760
 10180.50000    9.05850    0.02400    0.00580   -9999.25   -9999.25   58.80600    3.65410    2.66940   -9999.25    5.52800    5.43150    5.41560    5.27880    0.25080
 10181.00000    9.06210    0.02830    0.00870   -9999.25   -9999.25   58.83550    3.66140    2.66310   -9999.25    5.55410    5.43210    5.41630    5.27940    0.23220
 10181.50000    9.06560    0.03260    0.01580   -9999.25   -9999.25   59.74530    3.67370    2.65680   -9999.25    5.55480    5.43290    5.41710    5.28020    0.21700
 10182.00000    9.06920    0.03690    0.02150   -9999.25   -9999.25   60.24120    3.65610    2.65050   -9999.25    5.49970    5.37900    5.38490    5.24880    0.22080
 10182.50000    9.07280    0.04000    0.00980   -9999.25   -9999.25   59.75780    3.62680    2.64420   -9999.25    5.45570    5.33590    5.32030    5.18590    0.22300
 10183.00000    9.07630    0.04130    0.00580   -9999.25   -9999.25   59.81710    3.59740    2.63880   -9999.25    5.50640    5.38550    5.32110    5.18660    0.21890
 10183.50000    9.07920    0.04160    0.00390   -9999.25   -9999.25   60.47690    3.56810    2.63880   -9999.25    5.62870    5.50510    5.45230    5.28300    0.21900
 10184.00000    9.07920    0.03850    0.00580   -9999.25   -9999.25   62.64160    3.56810    2.64120   -9999.25    5.74750    5.62130    5.61630    5.48030    0.22380
 10184.50000    9.09870    0.03010    0.01170   -9999.25   -9999.25   64.18830    3.59550    2.67640   -9999.25    5.84570    5.71740    5.71500    5.61610    0.22910
 10185.00000    9.13780    0.02360    0.01740   -9999.25   -9999.25   64.05710    3.62860    2.67710   -9999.25    5.84650    5.71820    5.70900    5.61690    0.23940
 10185.50000    9.13780    0.02290    0.02170   -9999.25   -9999.25   63.41690    3.59890    2.67000   -9999.25    5.84710    5.71880    5.69840    5.61760    0.24720
 10186.00000    9.11090    0.02630    0.02340   -9999.25   -9999.25   63.11140    3.57200    2.66280   -9999.25    5.85870    5.73010    5.68780    5.58430    0.25070
 10186.50000    9.14650    0.03000    0.02340   -9999.25   -9999.25   63.87700    3.56350    2.65710   -9999.25    5.87290    5.74410    5.67730    5.51750    0.24480
 10187.00000    9.15820    0.02670    0.02340   -9999.25   -9999.25   64.64270    3.58350    2.65750   -9999.25    5.88720    5.75800    5.66670    5.51820    0.23930
 10187.50000    9.16990    0.02120    0.02540   -9999.25   -9999.25   64.86320    3.59280    2.66530   -9999.25    5.90140    5.77190    5.64170    5.51890    0.24110
 10188.00000    9.18160    0.01680    0.03410   -9999.25   -9999.25   64.79230    3.54430    2.68400   -9999.25    5.91570    5.78590    5.64440    5.52360    0.24200
 10188.50000    9.19330    0.01610    0.04100   -9999.25   -9999.25   66.52490    3.60700    2.68830   -9999.25    5.92990    5.79980    5.64850    5.53430    0.24160
 10189.00000    9.20680    0.00910    0.04020   -9999.25   -9999.25   65.22550    3.60450    2.69720   -9999.25    5.98780    5.85640    5.65270    5.54500    0.24280
 10189.50000    9.22040    0.00260    0.03600   -9999.25   -9999.25   62.82850    3.60260    2.70620   -9999.25    6.01590    5.88390    5.65680    5.55570    0.25100
 10190.00000    9.23310   -0.00140    0.03180   -9999.25   -9999.25   60.21560    3.60730    2.71510   -9999.25    6.01760    5.88470    5.66090    5.56640    0.25660
 10190.50000    9.23740    0.00230    0.02760   -9999.25   -9999.25   61.16410    3.63850    2.71720   -9999.25    5.95890    5.82820    5.66510    5.57710    0.25340
 10191.00000    9.24670    0.01870    0.02340   -9999.25   -9999.25   63.40260    3.67160    2.69480   -9999.25    5.90020    5.77080    5.66920    5.58780    0.24000
 10191.50000    9.26860    0.03150    0.01930   -9999.25   -9999.25   62.02670    3.70500    2.66670   -9999.25    5.84160    5.71340    5.67340    5.59240    0.22650
 10192.00000    9.28980    0.03490    0.01560   -9999.25   -9999.25   59.79190    3.66140    2.65470   -9999.25    5.83020    5.70230    5.73370    5.62700    0.22670
 10192.50000    9.31180    0.03220    0.01520   -9999.25   -9999.25   57.28920    3.55580    2.65790   -9999.25    5.87840    5.74950    5.77890    5.76620    0.24110
 10193.00000    9.31790    0.02870    0.01470   -9999.25   -9999.25   55.69640    3.48260    2.66450   -9999.25    5.93870    5.80840    5.75310    5.76670    0.24310
 10193.50000    9.30710    0.02510    0.01410   -9999.25   -9999.25   54.94040    3.42470    2.66970   -9999.25    5.93920    5.80880    5.70130    5.66280    0.23810
 10194.00000    9.29130    0.02280    0.01360   -9999.25   -9999.25   55.84740    3.42310    2.67370   -9999.25    5.99410    5.86260    5.65740    5.62890    0.22060
 10194.50000    9.27220    0.02530    0.01310   -9999.25   -9999.25   57.28160    3.44690    2.66480   -9999.25    5.90890    5.77920    5.62460    5.52740    0.19930
 10195.00000    9.24500    0.02970    0.01260   -9999.25   -9999.25   58.61840    3.48860    2.65770   -9999.25    5.82370    5.69590    5.63630    5.59970    0.17790
 10195.50000    9.20580    0.02670    0.01200   -9999.25   -9999.25   59.48420    3.50570    2.66890   -9999.25    5.80710    5.67960    5.64800    5.60520    0.18220
 10196.00000    9.16840    0.02360    0.01170   -9999.25   -9999.25   59.15110    3.50640    2.67690   -9999.25    5.80760    5.68010    5.65970    5.61060    0.20170
 10196.50000    9.15390    0.02480    0.01170   -9999.25   -9999.25   56.16840    3.50700    2.67000   -9999.25    5.80800    5.68050    5.67140    5.61610    0.22120
 10197.00000    9.16250    0.02870    0.01170   -9999.25   -9999.25   54.37570    3.50770    2.66150   -9999.25    5.84970    5.72130    5.68310    5.62160    0.24070
 10197.50000    9.17100    0.03030    0.01270   -9999.25   -9999.25   56.83750    3.50620    2.65770   -9999.25    5.89140    5.76210    5.69480    5.62710    0.26020
 10198.00000    9.17960    0.03330    0.01370   -9999.25   -9999.25   60.36110    3.56280    2.65150   -9999.25    5.94360    5.81320    5.70430    5.63260    0.26840
 10198.50000    9.16540    0.03650    0.01560   -9999.25   -9999.25   61.71430    3.58970    2.64480   -9999.25    5.91340    5.78360    5.70470    5.63300    0.26810
 10199.00000    9.16680    0.03340    0.01560   -9999.25   -9999.25   62.13530    3.64820    2.64890   -9999.25    5.83690    5.70880    5.61560    5.57980    0.26300
 10199.50000    9.16820    0.02610    0.01560   -9999.25   -9999.25   63.30070    3.69290    2.65740   -9999.25    5.76040    5.63390    5.52640    5.48280    0.27860
 10200.00000    9.17890    0.02490    0.01560   -9999.25   -9999.25   65.43720    3.68180    2.66470   -9999.25    5.68390    5.55910    5.43720    5.38580    0.29410
 10200.50000    9.18450    0.02630    0.01560   -9999.25   -9999.25   65.21700    3.66520    2.67190   -9999.25    5.60740    5.48430    5.39780    5.36610    0.30030
 10201.00000    9.17730    0.02400    0.01570   -9999.25   -9999.25   64.96950    3.63800    2.67920   -9999.25    5.53090    5.40950    5.39150    5.36560    0.28090
