~Version ---------------------------------------------------
VERS.   2.0 : CWLS log ASCII Standard -VERSION 2.0
WRAP.    NO : One line per depth step
DLM . SPACE : Column Data Section Delimiter
~Well ------------------------------------------------------
STRT .F                 9250.0 : START DEPTH
STOP .F                15908.0 : STOP DEPTH
STEP .F                    0.5 : STEP
NULL .                -9999.25 : NULL VALUE
COMP .                         : COMPANY
WELL .                         : WELL
FLD  .                         : FIELD
LOC  .                         : LOCATION
PROV .                         : PROVINCE
CNTY .                         : COUNTY
STAT .                         : STATE
CTRY .                         : COUNTRY
SRVC .                         : SERVICE COMPANY
DATE .                         : DATE
UWI  .                         : UNIQUE WELL ID
API  .                         : API NUMBER
SLAT .WGS84  5.959390092250096 : SURFACE LATITUDE
SLON .WGS84 2.8158245771146966 : SURFACE LONGITUDE
DATUM.F                 1449.0 : DEPTH DATUM ELEV
~Curve Information -----------------------------------------
DEPT   .F     : 
CALD   .IN    : CALIPER FROM DENSITY LOG
DPHI_LS.DEC   : DENSITY POROSITY LIMESTONE
DRHO   .G/C3  : BULK DENSITY CORRECTION
DTCO   .US/F  : DELTA-T COMPRESSIONAL
DTSM   .US/F  : DELTA-T SHEAR
GRD    .GAPI  : GAMMA RAY FROM DENSITY LOG
PEF    .B/E   : PHOTOELECTRIC FACTOR
RHOB   .G/C3  : BULK DENSITY
SPHI   .DEC   : SONIC POROSITY
TBIT20 .OHMM  : AUTOMATICALLY ADDED BY PROCLASCURVE_INSERT.
TBIT30 .OHMM  : AUTOMATICALLY ADDED BY PROCLASCURVE_INSERT.
TBIT60 .OHMM  : AUTOMATICALLY ADDED BY PROCLASCURVE_INSERT.
TBIT90 .OHMM  : AUTOMATICALLY ADDED BY PROCLASCURVE_INSERT.
TNPH_LS.DEC   : THERMAL NEUTRON POROSITY [LIMESTONE]
~Params ----------------------------------------------------
~Other -----------------------------------------------------
~ASCII -----------------------------------------------------
# ...
 9740.00000    8.97230   -0.00970    0.01370   -9999.25   -9999.25   17.23540    4.95340    2.72010   -9999.25  113.11740   76.80170   59.90590   58.39310    0.06300
 9740.50000    8.97470   -0.01760    0.01830   -9999.25   -9999.25   16.05350    5.03160    2.73040   -9999.25  172.51050  136.46030  106.02260  100.98140    0.06170
 9741.00000    8.97710   -0.01550    0.02270   -9999.25   -9999.25   15.40380    5.07070    2.73570   -9999.25  240.59280  198.52450  158.28460  152.86880    0.05690
 9741.50000    8.97940   -0.01150    0.02540   -9999.25   -9999.25   15.40230    5.09040    2.73760   -9999.25  453.26970  382.72880  188.17200  181.19680    0.05580
 9742.00000    8.98080   -0.01280    0.02260   -9999.25   -9999.25   15.09140    5.02510    2.73870   -9999.25 1095.18680  896.21460  436.23600  406.98650    0.05620
 9742.50000    8.98670   -0.01500    0.02340   -9999.25   -9999.25   14.55380    4.95310    2.73870   -9999.25 1737.10380 1409.70040  741.97960  630.55360    0.05680
 9743.00000    8.99400   -0.01400    0.02670   -9999.25   -9999.25   14.72790    4.94570    2.73760   -9999.25 1895.66390 1854.08980 1278.44170  854.12070    0.05630
 9743.50000    9.00140   -0.00380    0.02930   -9999.25   -9999.25   15.52020    4.93830    2.73530   -9999.25 1967.46410 1924.31420 1475.02730 1148.91850    0.05490
 9744.00000    9.00880    0.01860    0.02340   -9999.25   -9999.25   15.89050    4.91440    2.70390   -9999.25 1971.85860 1928.61120 1578.68150 1461.52390    0.05340
 9744.50000    9.01610    0.04200    0.01870   -9999.25   -9999.25   16.50420    4.87530    2.67250   -9999.25 1976.25310 1932.90830 1682.33570 1774.12940    0.05320
 9745.00000    9.02350    0.06120    0.01450   -9999.25   -9999.25   16.31100    4.83130    2.64110   -9999.25 1980.64770 1937.20540 1785.99000 1881.69490    0.05880
 9745.50000    9.03090    0.06950    0.01370   -9999.25   -9999.25   15.89170    4.76320    2.60970   -9999.25 1985.04220 1941.50240 1831.92460 1896.57670    0.06990
 9746.00000    9.03820    0.07520    0.01370   -9999.25   -9999.25   15.36830    4.76400    2.58340   -9999.25 1989.43680 1945.79960 1832.33720 1908.55800    0.08100
 9746.50000    9.04560    0.07750    0.01760   -9999.25   -9999.25   14.68620    4.77700    2.57740   -9999.25 1993.83130 1950.09670 1676.14760 1909.01730    0.09210
 9747.00000    9.05300    0.08270    0.02150   -9999.25   -9999.25   13.90890    4.71110    2.57130   -9999.25 1998.22580 1954.39370 1457.03470 1837.81590    0.10050
 9747.50000    9.06030    0.08910    0.02150   -9999.25   -9999.25   13.80700    4.62090    2.56530   -9999.25 2002.62040 1958.69080 1322.55510 1671.59000    0.10330
 9748.00000    9.06770    0.09170    0.02150   -9999.25   -9999.25   15.23090    4.53800    2.55920   -9999.25 2007.01490 1962.98790 1090.78370 1380.82210    0.10350
 9748.50000    9.07510    0.09230    0.02150   -9999.25   -9999.25   15.25910    4.44320    2.55320   -9999.25 2006.71560 1945.63510  859.01240 1090.05440    0.10370
 9749.00000    9.08240    0.09300    0.01410   -9999.25   -9999.25   15.11470    4.36730    2.54940   -9999.25 2006.59690 1696.36170  627.24100  799.28670    0.10050
 9749.50000    9.08980    0.09140    0.00190   -9999.25   -9999.25   14.06120    4.37380    2.54840   -9999.25 1988.77870 1346.00380  395.46960  508.51890    0.09140
 9750.00000    9.03940    0.07520    0.00190   -9999.25   -9999.25   14.49190    4.45640    2.54880   -9999.25 1689.78170 1032.80510  265.37400  502.44850    0.08220
 9750.50000    8.98890    0.05900    0.00190   -9999.25   -9999.25   15.53650    4.70680    2.58220   -9999.25 1135.87370  775.34520  203.06230  360.18530    0.07300
 9751.00000    8.94910    0.04280    0.00390   -9999.25   -9999.25   17.53660    4.95170    2.62370   -9999.25  816.94000  517.88530  164.65890  167.87600    0.06390
 9751.50000    8.95180    0.02660    0.00840   -9999.25   -9999.25   19.13150    5.17450    2.66510   -9999.25  314.17300  260.42540  149.25320  138.43040    0.05470
 9752.00000    8.95450    0.00650    0.01300   -9999.25   -9999.25   20.19600    5.39730    2.70650   -9999.25  182.49830  138.29290  115.76660  102.27090    0.04960
 9752.50000    8.95710   -0.00700    0.01760   -9999.25   -9999.25   20.04030    5.44190    2.72690   -9999.25  143.59670  100.05290   82.28000   79.83870    0.04850
 9753.00000    8.95980   -0.01360    0.02210   -9999.25   -9999.25   20.05230    5.28050    2.73320   -9999.25  104.69510   74.32800   63.00250   62.08480    0.04940
 9753.50000    8.95940   -0.01670    0.02670   -9999.25   -9999.25   20.11740    5.15150    2.74040   -9999.25   69.98170   55.73260   47.27730   44.33090    0.05040
 9754.00000    8.95900   -0.02070    0.03130   -9999.25   -9999.25   20.20020    5.00070    2.74970   -9999.25   52.02170   37.13720   31.55220   26.57700    0.05280
 9754.50000    8.95630   -0.01730    0.03130   -9999.25   -9999.25   21.94140    4.79790    2.75180   -9999.25   34.06160   19.60570   15.82700   12.20410    0.05720
 9755.00000    8.94980   -0.00850    0.03130   -9999.25   -9999.25   25.92630    4.59520    2.73540   -9999.25   16.10160   12.75020   11.87330   11.35520    0.06560
 9755.50000    8.94340    0.00320    0.02420   -9999.25   -9999.25   31.21050    4.39240    2.71050   -9999.25   11.65860   11.40450   10.86240   10.50620    0.08700
 9756.00000    8.93820    0.01260    0.01810   -9999.25   -9999.25   33.83240    4.19300    2.68560   -9999.25   10.84030   10.57360   10.25550    9.99650    0.10550
 9756.50000    8.93800    0.00930    0.01170   -9999.25   -9999.25   34.59190    4.09760    2.68900   -9999.25   16.17010   10.76750   10.63580   10.36720    0.12480
 9757.00000    8.93740    0.00100    0.00580   -9999.25   -9999.25   32.11520    4.11880    2.70270   -9999.25   22.28590   17.51390   15.08870   14.70760    0.11580
 9757.50000    8.93710   -0.00380    0.00510   -9999.25   -9999.25   28.04190    4.21540    2.71650   -9999.25   25.95500   24.26020   22.07380   21.51640    0.09740
 9758.00000    8.93680   -0.00680    0.00780   -9999.25   -9999.25   24.81370    4.33220    2.72190   -9999.25   23.64810   20.01560   18.34450   17.88120    0.08920
 9758.50000    8.93770   -0.00310    0.01080   -9999.25   -9999.25   23.60820    4.41570    2.71400   -9999.25   17.53960   15.77100   14.61550   14.24630    0.09480
 9759.00000    8.93860    0.00160    0.01370   -9999.25   -9999.25   26.09190    4.47040    2.70160   -9999.25   12.65260   12.37510   12.07990   11.77480    0.12260
 9759.50000    8.93950    0.00130    0.01670   -9999.25   -9999.25   30.64640    4.47260    2.70020   -9999.25   12.65120   12.37380   12.83660   12.51240    0.13750
 9760.00000    8.94050   -0.00190    0.01970   -9999.25   -9999.25   32.87260    4.45720    2.71700   -9999.25   14.87100   14.54490   14.55220   14.18470    0.13140
 9760.50000    8.94140   -0.00220    0.02340   -9999.25   -9999.25   32.95680    4.39270    2.71250   -9999.25   17.09080   16.71600   16.26780   15.85690    0.11370
 9761.00000    8.94230    0.00440    0.01960   -9999.25   -9999.25   31.44400    4.34170    2.70650   -9999.25   19.31060   18.88720   17.75340   17.30510    0.09990
 9761.50000    8.94330    0.00440    0.01570   -9999.25   -9999.25   28.26260    4.27870    2.70290   -9999.25   21.58970   21.11630   20.21570   19.70520    0.08610
 9762.00000    8.94420   -0.00220    0.01190   -9999.25   -9999.25   27.83610    4.23220    2.71130   -9999.25   24.13890   23.60960   22.67800   22.10530    0.08610
 9762.50000    8.94510   -0.01100    0.00800   -9999.25   -9999.25   28.74910    4.16050    2.73050   -9999.25   26.68800   26.10280   25.14040   24.50540    0.09170
 9763.00000    8.94600   -0.00920    0.00570   -9999.25   -9999.25   29.59040    4.13270    2.72560   -9999.25   28.72570   28.09580   26.76600   26.09000    0.09560
 9763.50000    8.94700   -0.00440    0.00380   -9999.25   -9999.25   30.97370    4.07890    2.71480   -9999.25   27.18840   26.91770   26.43680   25.45660    0.09860
 9764.00000    8.94790    0.00760    0.00370   -9999.25   -9999.25   31.84960    4.04530    2.70410   -9999.25   23.04580   22.54050   21.89930   21.34630    0.10480
