~Version ---------------------------------------------------
VERS.   2.0 : CWLS log ASCII Standard -VERSION 2.0
WRAP.    NO : One line per depth step
DLM . SPACE : Column Data Section Delimiter
~Well ------------------------------------------------------
STRT .F                 9250.0 : START DEPTH
STOP .F                15908.0 : STOP DEPTH
STEP .F                    0.5 : STEP
NULL .                -9999.25 : NULL VALUE
COMP .                         : COMPANY
WELL .                         : WELL
FLD  .                         : FIELD
LOC  .                         : LOCATION
PROV .                         : PROVINCE
CNTY .                         : COUNTY
STAT .                         : STATE
CTRY .                         : COUNTRY
SRVC .                         : SERVICE COMPANY
DATE .                         : DATE
UWI  .                         : UNIQUE WELL ID
API  .                         : API NUMBER
SLAT .WGS84  5.959390092250096 : SURFACE LATITUDE
SLON .WGS84 2.8158245771146966 : SURFACE LONGITUDE
DATUM.F                 1449.0 : DEPTH DATUM ELEV
~Curve Information -----------------------------------------
DEPT   .F     : 
CALD   .IN    : CALIPER FROM DENSITY LOG
DPHI_LS.DEC   : DENSITY POROSITY LIMESTONE
DRHO   .G/C3  : BULK DENSITY CORRECTION
DTCO   .US/F  : DELTA-T COMPRESSIONAL
DTSM   .US/F  : DELTA-T SHEAR
GRD    .GAPI  : GAMMA RAY FROM DENSITY LOG
PEF    .B/E   : PHOTOELECTRIC FACTOR
RHOB   .G/C3  : BULK DENSITY
SPHI   .DEC   : SONIC POROSITY
TBIT20 .OHMM  : AUTOMATICALLY ADDED BY PROCLASCURVE_INSERT.
TBIT30 .OHMM  : AUTOMATICALLY ADDED BY PROCLASCURVE_INSERT.
TBIT60 .OHMM  : AUTOMATICALLY ADDED BY PROCLASCURVE_INSERT.
TBIT90 .OHMM  : AUTOMATICALLY ADDED BY PROCLASCURVE_INSERT.
TNPH_LS.DEC   : THERMAL NEUTRON POROSITY [LIMESTONE]
~Params ----------------------------------------------------
~Other -----------------------------------------------------
~ASCII -----------------------------------------------------
# ...
 11929.50000    8.77650    0.04740    0.00830   60.14940  105.67530   95.96950    3.32420    2.62720    0.09140  174.96150  158.55530  117.32460  112.00190    0.09920
 11930.00000    8.78550    0.05060    0.01270   60.10150  105.47550   96.14320    3.29240    2.63090    0.09190  174.80990  158.55530  117.40790  112.22160    0.09820
 11930.50000    8.78220    0.05250    0.01350   60.09990  104.89370   95.35960    3.24250    2.63020    0.09190  174.65820  154.37820  117.49110  111.91250    0.09740
 11931.00000    8.79350    0.04780    0.01540   60.09840  103.95870   95.13540    3.25030    2.62330    0.09190  172.24610  153.36520  117.57440  110.21370    0.09760
 11931.50000    8.79100    0.04390    0.01530   60.09680  102.17520   95.35610    3.29630    2.62190    0.09190  167.55100  152.67160  117.65770  108.51490    0.09860
 11932.00000    8.78850    0.04820    0.01910   60.09950  102.43160   95.90250    3.33560    2.64330    0.09190  170.65200  153.94770  117.74100  107.48930    0.09870
 11932.50000    8.79250    0.05680    0.01890   60.11930  103.14530   96.46660    3.34930    2.63470    0.09190  174.53760  154.76720  117.82430  107.46370    0.09700
 11933.00000    8.79660    0.05120    0.02080   60.13910  102.08410   97.81910    3.35530    2.60810    0.09190  176.06420  153.22810  117.90760  108.09500    0.09530
 11933.50000    8.79140    0.04020    0.02260   60.15090  101.50930   98.79580    3.32590    2.60740    0.09110  174.26790  153.62820  117.99090  109.99530    0.09550
 11934.00000    8.79380    0.03020    0.02840   60.15090  100.20880   99.31190    3.33800    2.67510    0.09110  174.38480  154.13680  118.07420  111.54980    0.09600
 11934.50000    8.79620    0.03320    0.04100   60.15090   99.98790   99.95920    3.38130    2.65840    0.09090  175.69210  154.25150  118.83520  113.10440    0.09460
 11935.00000    8.79850    0.04300    0.04330   60.15090  102.02110  100.29350    3.40160    2.64160    0.09080  177.89050  153.33020  118.81060  114.08830    0.09270
 11935.50000    8.80200    0.05340    0.03750   60.14930  103.96390  101.50400    3.42190    2.62490    0.09040  176.67250  150.98640  119.50810  114.75740    0.09090
 11936.00000    8.78920    0.05720    0.02680   60.14730  104.57030  102.48770    3.43800    2.61160    0.09090  170.55620  149.71250  119.48320  114.73010    0.09020
 11936.50000    8.79740    0.05390    0.01620   60.14520  104.82510  102.58440    3.41760    2.61200    0.09120  165.65590  146.76900  118.82430  114.35830    0.09200
 11937.00000    8.80560    0.05510    0.00910   60.14320  105.23990  100.86540    3.38930    2.61570    0.09120  164.10860  153.52110  117.74380  112.51380    0.09410
 11937.50000    8.79850    0.06040    0.00540   60.14110  105.28300   98.83920    3.33770    2.62260    0.09110  167.20500  154.47760  116.66340  110.64730    0.09570
 11938.00000    8.75360    0.06830    0.00400   60.13910  104.35950   97.77410    3.20240    2.62120    0.09110  170.14140  155.43400  115.79900  108.78090    0.09680
 11938.50000    8.80090    0.07620    0.00390   60.13710  102.97320  100.05550    3.12870    2.59710    0.09110  170.10720  156.39050  115.06510  106.91440    0.09810
 11939.00000    8.79870    0.07730    0.00370   60.13500  103.50860  102.47010    3.07430    2.57780    0.09110  169.29010  157.31230  114.10980  105.04790    0.09720
 11939.50000    8.79650    0.07310    0.00370   60.13300  105.33420  104.88460    3.02940    2.57800    0.09110  167.90900  154.56140  113.62440  103.91580    0.09580
 11940.00000    8.79430    0.06340    0.00290   60.13100  102.87570  105.50700    3.01620    2.57860    0.09110  166.91840  154.16500  114.62110  104.52830    0.09480
 11940.50000    8.79210    0.05780    0.00590   60.12890  101.88340  103.28030    3.05890    2.61500    0.09110  166.90540  154.88950  116.29930  109.07470    0.09450
 11941.00000    8.78990    0.05810    0.00890   60.12690  103.38590  101.05360    3.16950    2.61500    0.09080  171.82090  158.60310  117.97750  110.85670    0.09530
 11941.50000    8.78200    0.06000    0.01080   60.12480  103.46500   99.27270    3.23610    2.60810    0.09030  177.92960  160.99200  119.65570  113.82660    0.09480
 11942.00000    8.78230    0.05870    0.01580   60.12280   99.77330   99.37000    3.18420    2.60810    0.09030  176.60600  159.21050  119.48910  113.82660    0.09450
 11942.50000    8.79490    0.05380    0.02070   60.12080   97.85130   99.49100    3.13230    2.61000    0.09030  171.54380  154.33500  117.43010  112.44760    0.09550
 11943.00000    8.79630    0.04840    0.02560   60.11580   97.66370   99.78910    3.10140    2.62060    0.09030  169.20870  155.24050  115.37110  111.76540    0.09490
 11943.50000    8.79490    0.04620    0.02830   60.09900   99.29980   99.46320    3.12640    2.63370    0.09030  169.20870  156.14610  113.31210  111.76540    0.09310
 11944.00000    8.79350    0.04770    0.02680   60.08230  100.93590   97.80060    3.24770    2.63260    0.09030  168.89750  157.05160  112.90030  111.76540    0.09270
 11944.50000    8.79210    0.05190    0.02520   60.10850  101.47710   97.63980    3.44500    2.62330    0.09030  168.58620  157.95710  112.90030  111.76540    0.09310
 11945.00000    8.79070    0.05560    0.02370   60.13470  102.60720   99.48820    3.71570    2.61200    0.09030  168.27490  158.86270  112.90030  111.76540    0.09510
 11945.50000    8.78930    0.05840    0.02220   60.16090  104.12760  104.28030    3.82150    2.60670    0.09090  167.96370  159.76820  113.59010  111.76540    0.09560
 11946.00000    8.78790    0.05890    0.02100   60.15540  105.49800  107.54570    3.79900    2.60880    0.09120  167.65240  160.74340  114.84790  112.44760    0.09520
 11946.50000    8.78680    0.05890    0.01830   60.14990  105.72240  106.60660    3.67080    2.61230    0.09190  167.34120  158.30370  116.25740  112.44760    0.09500
 11947.00000    8.78680    0.06200    0.01380   60.14440  105.73120  104.56420    3.45530    2.61370    0.09190  167.02990  155.25410  117.10310  112.44760    0.09330
 11947.50000    8.78670    0.06650    0.00940   60.13890  105.69730  102.37060    3.32550    2.61230    0.09190  167.95720  150.84250  117.10310  108.57550    0.09210
 11948.00000    8.78670    0.07120    0.00490   60.13340  104.84600  100.80950    3.24090    2.58880    0.09130  169.71010  152.02090  117.10310  107.44860    0.09100
 11948.50000    8.78660    0.06950    0.00040   60.12790  101.60440  101.89660    3.13030    2.58880    0.09070  170.76190  153.71500  119.26270  109.11500    0.09380
 11949.00000    8.78660    0.06380   -0.00400   60.12240  102.49370  104.14460    3.11510    2.58850    0.09080  168.09850  155.40920  119.99140  110.78130    0.09560
 11949.50000    8.78650    0.05690    0.00050   60.13080  103.24220  106.39700    3.11700    2.62020    0.09020  166.40400  157.10330  119.99140  112.44760    0.09720
 11950.00000    8.78650    0.05940    0.00510   60.16010  102.30720  106.59480    3.11890    2.62020    0.09020  165.39750  158.79750  119.77280  112.44760    0.09870
 11950.50000    8.78640    0.06960    0.00970   60.13260  101.37220  107.92030    3.12080    2.60240    0.09030  165.64840  156.79380  119.22640  112.47800    0.09900
 11951.00000    8.78680    0.06890    0.01420   60.15600  101.91450  105.73590    3.12270    2.59080    0.09010  166.77300  154.79000  118.68000  112.50480    0.09900
 11951.50000    8.78740    0.06150    0.01880   60.21680  102.75500  102.51020    3.12470    2.59160    0.09010  170.10830  150.89870  118.13360  111.98270    0.09900
 11952.00000    8.80830    0.05400    0.02440   60.15400  101.92860   97.42030    3.12660    2.62820    0.09040  172.49440  151.81950  117.58710  111.32600    0.09680
 11952.50000    8.79680    0.05440    0.02640   60.14740  102.84880   99.55740    3.18520    2.62640    0.09020  173.31920  152.74030  117.04070  110.66920    0.09440
 11953.00000    8.79430    0.05770    0.02480   60.14090  104.18550  100.98570    3.21450    2.61950    0.09030  173.36190  153.66110  116.49430  110.01240    0.09260
