~Version ---------------------------------------------------
VERS.   2.0 : CWLS log ASCII Standard -VERSION 2.0
WRAP.    NO : One line per depth step
DLM . SPACE : Column Data Section Delimiter
~Well ------------------------------------------------------
STRT .F                 9250.0 : START DEPTH
STOP .F                15908.0 : STOP DEPTH
STEP .F                    0.5 : STEP
NULL .                -9999.25 : NULL VALUE
COMP .                         : COMPANY
WELL .                         : WELL
FLD  .                         : FIELD
LOC  .                         : LOCATION
PROV .                         : PROVINCE
CNTY .                         : COUNTY
STAT .                         : STATE
CTRY .                         : COUNTRY
SRVC .                         : SERVICE COMPANY
DATE .                         : DATE
UWI  .                         : UNIQUE WELL ID
API  .                         : API NUMBER
SLAT .WGS84  5.959390092250096 : SURFACE LATITUDE
SLON .WGS84 2.8158245771146966 : SURFACE LONGITUDE
DATUM.F                 1449.0 : DEPTH DATUM ELEV
~Curve Information -----------------------------------------
DEPT   .F     : 
CALD   .IN    : CALIPER FROM DENSITY LOG
DPHI_LS.DEC   : DENSITY POROSITY LIMESTONE
DRHO   .G/C3  : BULK DENSITY CORRECTION
DTCO   .US/F  : DELTA-T COMPRESSIONAL
DTSM   .US/F  : DELTA-T SHEAR
GRD    .GAPI  : GAMMA RAY FROM DENSITY LOG
PEF    .B/E   : PHOTOELECTRIC FACTOR
RHOB   .G/C3  : BULK DENSITY
SPHI   .DEC   : SONIC POROSITY
TBIT20 .OHMM  : AUTOMATICALLY ADDED BY PROCLASCURVE_INSERT.
TBIT30 .OHMM  : AUTOMATICALLY ADDED BY PROCLASCURVE_INSERT.
TBIT60 .OHMM  : AUTOMATICALLY ADDED BY PROCLASCURVE_INSERT.
TBIT90 .OHMM  : AUTOMATICALLY ADDED BY PROCLASCURVE_INSERT.
TNPH_LS.DEC   : THERMAL NEUTRON POROSITY [LIMESTONE]
~Params ----------------------------------------------------
~Other -----------------------------------------------------
~ASCII -----------------------------------------------------
# ...
 12817.50000    8.80110    0.05160    0.00970   60.28000   97.37380   90.81370    3.17980    2.61900    0.09640  142.07650  132.23980  102.47500   99.21110    0.08800
 12818.00000    8.80410    0.05380    0.00950   60.20300   97.31950   89.04900    3.24380    2.61490    0.09640  142.10810  132.21810  102.56460   99.30390    0.08850
 12818.50000    8.80700    0.05960    0.00920   60.28380   97.17150   89.68910    3.30780    2.61080    0.09680  141.21900  135.66510  102.65410   99.32750    0.08820
 12819.00000    8.81000    0.06290    0.00800   60.42870   98.12820   89.84850    3.33290    2.60680    0.09750  140.33000  132.89920  102.74370   99.34510    0.08860
 12819.50000    8.81290    0.06580    0.00680   60.68070  100.39080   90.00780    3.37400    2.60270    0.09750  139.62490  130.13890  102.83320   99.36860    0.09160
 12820.00000    8.78710    0.06720    0.00560   60.68600  101.20500   90.16720    3.41170    2.59870    0.09740  138.38590  130.92890  102.92280   99.39100    0.09280
 12820.50000    8.76850    0.06810    0.00440   60.69120  102.43910   90.32650    3.46610    2.59500    0.09730  138.06690  131.71890  103.01230   99.37000    0.09200
 12821.00000    8.77670    0.06860    0.00390   60.53820  103.08050   91.10330    3.45830    2.59390    0.09680  138.89600  132.50890  103.10180   99.35190    0.09080
 12821.50000    8.79050    0.06520    0.00390   60.53970   99.99060   91.70650    3.43670    2.59530    0.09620  139.72510  133.10300  103.19140   99.34300    0.08900
 12822.00000    8.78970    0.05820    0.00520   60.57920   99.10960   92.00310    3.38920    2.60760    0.09600  140.55430  133.16080  103.28090   99.34300    0.08770
 12822.50000    8.77350    0.05130    0.00730   60.54490  100.39660   91.84320    3.34250    2.61870    0.09590  141.38340  133.21860  103.37050   99.28000    0.08610
 12823.00000    8.76700    0.04960    0.00940   60.67380   99.17450   92.33280    3.27300    2.62400    0.09590  143.34410  133.27640  103.46000   99.25900    0.08390
 12823.50000    8.76640    0.05070    0.00990   60.67380   97.29270   93.33570    3.20350    2.62490    0.09600  143.97110  133.33420  103.54960   99.23800    0.08150
 12824.00000    8.76570    0.05180    0.01190   60.67380   97.32480   94.90090    3.22420    2.62580    0.09620  143.93830  133.39200  103.63910   99.21700    0.08010
 12824.50000    8.76510    0.04940    0.01290   60.67380   97.36510   94.38120    3.26730    2.62820    0.09640  142.86280  131.80220  103.72870   99.19310    0.08140
 12825.00000    8.76450    0.04650    0.01530   60.53900   97.39280   93.20760    3.30740    2.63710    0.09680  140.89600  129.79060  103.81820   99.17220    0.08340
 12825.50000    8.76380    0.04280    0.01780   60.38470   97.37040   91.80730    3.32540    2.64420    0.09760  139.31610  128.82370  103.88360   99.14820    0.08520
 12826.00000    8.76320    0.04290    0.01980   60.44230   97.43160   91.22050    3.35930    2.64470    0.09740  139.08100  132.50210  103.86170   99.12730    0.08690
 12826.50000    8.76250    0.04760    0.02110   60.53690   97.42620   91.85400    3.40240    2.63090    0.09750  138.84590  130.22310  103.79800   97.88040    0.08600
 12827.00000    8.76190    0.05070    0.01980   60.53780   97.42080   92.44560    3.42440    2.62330    0.09750  138.61090  127.32420  103.55820   96.29660    0.08460
 12827.50000    8.76130    0.04960    0.01890   60.53880   97.41540   90.68770    3.47340    2.62660    0.09750  138.37580  126.66020  103.31840   94.71280    0.08510
 12828.00000    8.76060    0.04820    0.01740   60.65790   97.41000   88.48910    3.47680    2.63100    0.09750  138.14070  127.16070  103.07870   92.61910    0.08680
 12828.50000    8.76000    0.04950    0.01590   61.00350   97.40460   86.29040    3.46190    2.63120    0.09750  137.90560  127.66120  102.83890   92.60240    0.08830
 12829.00000    8.75940    0.05330    0.01440   61.04690   98.93440   86.58810    3.45560    2.62270    0.09750  137.67050  128.16180  102.59920   94.00420    0.08820
 12829.50000    8.75870    0.05650    0.01290   60.78080  100.93150   90.11140    3.40360    2.61420    0.09750  137.43550  128.34650  102.44610   96.35450    0.08820
 12830.00000    8.75810    0.06010    0.01150   60.65710   99.62440   90.26040    3.34760    2.60570    0.09700  137.20040  128.86990  103.04990   98.35350    0.08820
 12830.50000    8.75750    0.06160    0.01000   60.68510   99.07150   89.45530    3.31170    2.60560    0.09640  139.07850  129.76190  103.07120   98.97350    0.08930
 12831.00000    8.75680    0.06100    0.00680   60.54530  101.34450   88.65010    3.27970    2.61320    0.09630  140.71290  130.65380  103.11760   98.99390    0.08990
 12831.50000    8.76980    0.05710    0.00680   60.54840  102.21560   87.84500    3.25320    2.61740    0.09630  142.34740  131.54570  103.17950   99.01730    0.09030
 12832.00000    8.76520    0.05640    0.00880   60.82020  100.81030   87.26500    3.22000    2.61500    0.09630  142.37270  132.84910  103.24150   99.03780    0.09080
 12832.50000    8.76430    0.05820    0.01270   61.09990   97.53220   86.80420    3.20520    2.61150    0.09630  142.40750  132.04570  103.30350   99.06110    0.09080
 12833.00000    8.78980    0.05630    0.01460   61.28880   97.19550   88.27050    3.23370    2.61020    0.09650  142.43600  131.69340  103.36550   98.62100    0.09000
 12833.50000    8.78820    0.04840    0.02050   61.06270   97.36580   90.03000    3.36050    2.63050    0.09650  142.47410  131.34110  103.42750   98.18090    0.08810
 12834.00000    8.76970    0.04110    0.03030   60.82720   97.38220   89.44350    3.42790    2.65090    0.09670  142.14560  130.98880  103.48950   96.74290    0.08710
 12834.50000    8.75900    0.03560    0.04010   60.71580   97.35910   89.15020    3.48280    2.64990    0.09680  141.81710  130.94550  103.55140   95.86030    0.08570
 12835.00000    8.77120    0.03870    0.04080   60.78890   97.33590   89.83450    3.52370    2.63830    0.09760  141.48870  130.94550  103.61340   94.30150    0.08630
 12835.50000    8.76560    0.04660    0.03280   60.81610   97.31270   93.16340    3.51700    2.62430    0.09760  141.16020  130.99990  103.67540   92.74280    0.08870
 12836.00000    8.76010    0.05470    0.02490   60.83360   97.28960   94.36500    3.48310    2.61040    0.09760  140.83180  129.06470  103.73740   91.18400    0.08940
 12836.50000    8.75460    0.06170    0.01660   60.95570   97.19460   95.79860    3.41600    2.59920    0.09760  139.44230  127.12950  103.79940   90.57110    0.08840
 12837.00000    8.74900    0.06380    0.01330   60.95050   97.09050   97.44750    3.38800    2.60120    0.09760  138.20160  128.05040  103.86140   91.69810    0.08750
 12837.50000    8.74680    0.06240    0.01270   60.80410   97.40490   98.58340    3.36540    2.60810    0.09770  138.23240  132.56110  103.92340   93.84720    0.08620
 12838.00000    8.74680    0.05970    0.01270   60.70030   97.88200   96.59690    3.33450    2.61500    0.09770  142.56070  134.58050  103.98530   96.02660    0.08460
 12838.50000    8.74680    0.05530    0.01270   60.68500  100.58390   93.85450    3.32430    2.61850    0.09770  146.08740  133.22360  104.04730   98.20610    0.08460
 12839.00000    8.74680    0.05390    0.01460   60.45970  100.96140   92.69870    3.33760    2.61920    0.09770  146.12000  132.73520  104.09070   99.95550    0.08640
 12839.50000    8.74820    0.05640    0.01370   60.69280  100.77100   94.70530    3.35090    2.61290    0.09770  144.68850  132.24690  104.21120   98.96760    0.08760
 12840.00000    8.75170    0.06030    0.01270   60.89020  101.13680   96.67020    3.36410    2.60050    0.09770  142.89100  128.18880  104.70650   98.19460    0.08720
 12840.50000    8.76720    0.06270    0.01290   60.95410  101.32220   98.50590    3.37350    2.60300    0.09770  141.57040  128.38260  105.20170   99.38560    0.08310
 12841.00000    8.78590    0.05890    0.01340   60.81610  101.58810   98.37960    3.38020    2.60720    0.09770  141.54710  130.25600  106.03480  100.58760    0.08120
