~Version ---------------------------------------------------
VERS.   2.0 : CWLS log ASCII Standard -VERSION 2.0
WRAP.    NO : One line per depth step
DLM . SPACE : Column Data Section Delimiter
~Well ------------------------------------------------------
STRT .F                 9250.0 : START DEPTH
STOP .F                15908.0 : STOP DEPTH
STEP .F                    0.5 : STEP
NULL .                -9999.25 : NULL VALUE
COMP .                         : COMPANY
WELL .                         : WELL
FLD  .                         : FIELD
LOC  .                         : LOCATION
PROV .                         : PROVINCE
CNTY .                         : COUNTY
STAT .                         : STATE
CTRY .                         : COUNTRY
SRVC .                         : SERVICE COMPANY
DATE .                         : DATE
UWI  .                         : UNIQUE WELL ID
API  .                         : API NUMBER
SLAT .WGS84  5.959390092250096 : SURFACE LATITUDE
SLON .WGS84 2.8158245771146966 : SURFACE LONGITUDE
DATUM.F                 1449.0 : DEPTH DATUM ELEV
~Curve Information -----------------------------------------
DEPT   .F     : 
CALD   .IN    : CALIPER FROM DENSITY LOG
DPHI_LS.DEC   : DENSITY POROSITY LIMESTONE
DRHO   .G/C3  : BULK DENSITY CORRECTION
DTCO   .US/F  : DELTA-T COMPRESSIONAL
DTSM   .US/F  : DELTA-T SHEAR
GRD    .GAPI  : GAMMA RAY FROM DENSITY LOG
PEF    .B/E   : PHOTOELECTRIC FACTOR
RHOB   .G/C3  : BULK DENSITY
SPHI   .DEC   : SONIC POROSITY
TBIT20 .OHMM  : AUTOMATICALLY ADDED BY PROCLASCURVE_INSERT.
TBIT30 .OHMM  : AUTOMATICALLY ADDED BY PROCLASCURVE_INSERT.
TBIT60 .OHMM  : AUTOMATICALLY ADDED BY PROCLASCURVE_INSERT.
TBIT90 .OHMM  : AUTOMATICALLY ADDED BY PROCLASCURVE_INSERT.
TNPH_LS.DEC   : THERMAL NEUTRON POROSITY [LIMESTONE]
~Params ----------------------------------------------------
~Other -----------------------------------------------------
~ASCII -----------------------------------------------------
# ...
 13249.50000    8.75870    0.07140    0.02820   61.43930   99.32930  103.97800    2.88230    2.59080    0.10350  121.58050  118.38740  104.07040   96.20530    0.10370
 13250.00000    8.77570    0.07330    0.02550   61.47970   99.69190  105.13490    2.87060    2.58710    0.10480  121.00570  117.19290  103.16030   95.79380    0.10320
 13250.50000    8.78490    0.07440    0.02280   61.42790  100.43590  107.14470    2.86280    2.58350    0.10610  119.36020  115.99830  102.25010   95.38230    0.10100
 13251.00000    8.76470    0.07460    0.02010   61.12770  102.81480  108.44300    2.92140    2.58070    0.10710  117.73700  114.80370  101.62980   96.24610    0.09760
 13251.50000    8.77780    0.07430    0.01740   60.89460  104.33680  110.07120    2.96050    2.58000    0.10710  117.20080  114.08700  102.83740   99.02280    0.09480
 13252.00000    8.78110    0.07400    0.01470   60.71720  105.30290  110.13950    3.00930    2.58070    0.10600  124.87260  120.08120  104.04510   99.57810    0.09410
 13252.50000    8.78820    0.07270    0.01490   60.54710  105.35590  109.40380    3.03860    2.58620    0.10410  129.58010  122.73000  104.76970   98.24530    0.09360
 13253.00000    8.80390    0.06950    0.01590   60.53050  105.35590  110.70830    3.01610    2.59020    0.10220  124.70420  115.69870  104.45280   96.02390    0.09240
 13253.50000    8.78310    0.06730    0.01660   60.39430  105.35590  112.83330    2.99590    2.59420    0.10030  120.45470  111.34310  103.66070   96.00780    0.09260
 13254.00000    8.76910    0.06830    0.01510   60.42400  105.38240  111.53420    3.00720    2.59610    0.09730  122.11530  117.58630  102.87430   97.77660    0.09410
 13254.50000    8.76120    0.07130    0.01270   60.41400  105.48860  104.44630    3.08530    2.59390    0.09560  130.76830  121.24570  102.87430   98.67330    0.09570
 13255.00000    8.77760    0.07300    0.01020   60.22790  105.59480   98.48360    3.07640    2.59090    0.09440  126.67760  118.68480  102.87430   97.77660    0.09570
 13255.50000    8.77080    0.07510    0.00780   60.14100  105.67980   93.90660    3.06740    2.58560    0.09320  124.36520  115.48370  102.87430   96.00780    0.09570
 13256.00000    8.78490    0.07700    0.00540   60.17780  105.67980   95.29590    3.05850    2.58020    0.09200  125.23430  120.81420  102.87430   96.51320    0.09600
 13256.50000    8.77550    0.07960    0.00290   60.33160  105.67980  100.39840    3.04950    2.57840    0.09160  129.58010  124.23250  104.22820   97.14490    0.09640
 13257.00000    8.76010    0.08100    0.00050   60.54540  105.67980  102.94270    3.04060    2.57490    0.09110  126.86420  121.64410  105.40920   97.77660    0.09880
 13257.50000    8.76440    0.08020   -0.00200   60.74420  105.58160  101.72590    3.03160    2.57240    0.09070  119.17190  115.17320  104.60990   95.77340    0.10110
 13258.00000    8.76860    0.07680   -0.00300   60.91520  105.40850   96.98940    3.02270    2.57620    0.09160  113.51560  109.99650  102.61180   94.27090    0.10160
 13258.50000    8.77290    0.07140   -0.00300   61.02010  105.23550   93.08110    2.99960    2.58250    0.09230  113.51560  111.03250   99.79120   94.76010    0.10140
 13259.00000    8.77710    0.06900   -0.00300   61.09180  103.55510   92.04140    3.01350    2.59060    0.09340  113.81710  112.32740   99.18580   95.98300    0.10100
 13259.50000    8.77390    0.07180   -0.00300   61.32030  101.24650   93.36900    3.03640    2.59250    0.09500  115.32480  113.62240   98.58400   97.20580    0.10060
 13260.00000    8.76570    0.07580   -0.00300   61.45320   98.55010   94.89710    3.04720    2.58870    0.09660  116.83240  114.91730   99.93280   98.42870    0.10010
 13260.50000    8.78230    0.07780   -0.00210   61.47530   97.60650   97.53840    3.06900    2.58370    0.09810  117.73700  116.21220  101.61880   98.67330    0.09900
 13261.00000    8.79290    0.07730    0.00190   61.34610   96.78960  100.17980    3.13970    2.57870    0.09930  117.73700  115.31940  103.30480   98.75550    0.09360
 13261.50000    8.78530    0.07400    0.00600   61.10570   96.40520  101.56170    3.21680    2.57760    0.10050  116.66710  116.89850  104.99080   99.16680    0.08750
 13262.00000    8.77760    0.06930    0.00880   61.04270   95.14870  100.82910    3.30500    2.58680    0.10180  124.65860  125.08880  106.67680   99.57810    0.08470
 13262.50000    8.76920    0.06110    0.01110   60.85190   93.79680   98.17860    3.41980    2.59650    0.10070  128.99000  127.24450  107.35120   99.57810    0.08620
 13263.00000    8.75970    0.05570    0.01220   60.74730   93.63840   96.53830    3.50580    2.60730    0.09850  128.40260  123.64180  105.75710   99.57810    0.08890
 13263.50000    8.76230    0.05200    0.01320   60.60740   96.03740   96.43190    3.51410    2.61540    0.09730  121.00570  111.54080  104.16300   97.85620    0.09350
 13264.00000    8.76800    0.05330    0.01420   60.59880  101.43600   95.92330    3.48260    2.62340    0.09600  114.55650  106.70030  102.56890   89.24660    0.09800
 13264.50000    8.76800    0.05360    0.01460   60.59020  103.98030   95.41480    3.42920    2.62480    0.09470  115.08060  109.35870  102.25010   92.30330    0.09920
 13265.00000    8.76420    0.05330    0.01350   60.58160  105.43250   94.90620    3.33730    2.62150    0.09390  122.57410  116.11950  102.16150   96.12400    0.09910
 13265.50000    8.76050    0.05570    0.01070   60.46890  104.86670   94.39760    3.20410    2.61710    0.09340  126.07970  122.88030  102.05070   96.88820    0.09890
 13266.00000    8.75680    0.05990    0.00790   60.24380  104.01030   94.06980    3.08740    2.61270    0.09290  126.65650  124.99120  101.94000   96.88820    0.09880
 13266.50000    8.76330    0.06380    0.00490   60.52220  104.01320   94.28500    3.04330    2.60830    0.09210  126.65650  121.24250  101.82920   96.88820    0.09880
 13267.00000    8.78610    0.06610    0.00290   60.76500  102.97970   96.29510    3.01400    2.60390    0.09180  122.67390  114.99470  101.71840   96.00780    0.09960
 13267.50000    8.78450    0.06730    0.00290   61.07880  101.68710   97.28400    3.04700    2.59950    0.09180  113.75560  109.32880  101.01330   92.50910    0.10000
 13268.00000    8.78290    0.06800    0.00290   61.06600   95.98510   96.09080    2.99790    2.59510    0.09180  108.45110  106.05270   98.23060   90.24610    0.09990
 13268.50000    8.78130    0.06730    0.00290   61.05320   94.53210   93.50040    2.99070    2.59440    0.09300  108.45110  106.15440   95.62960   88.43570    0.09780
 13269.00000    8.77970    0.06500    0.00290   60.96810   94.23860   93.75700    3.00790    2.59510    0.09410  109.94630  108.29650   96.43460   90.37110    0.09320
 13269.50000    8.78330    0.06240    0.00620   61.06030   94.41750   95.03290    3.04340    2.59540    0.09590  114.55650  114.34450  100.45940   95.99340    0.09250
 13270.00000    8.78790    0.06090    0.01160   60.95160   99.22330   96.19390    3.05690    2.60160    0.09710  126.33850  125.16240  103.50220  100.49120    0.09460
 13270.50000    8.79240    0.05530    0.01700   60.78910  105.09110   95.85680    3.13750    2.61440    0.09710  131.36650  125.79030  104.45470   99.57810    0.09520
 13271.00000    8.79520    0.04820    0.02250   60.77060  105.00770   95.30500    3.19590    2.62710    0.09620  122.51340  115.36460  103.66740   97.26380    0.09540
 13271.50000    8.79640    0.04170    0.02250   60.77970  105.04790   95.19810    3.27710    2.63990    0.09500  114.03490  112.20370  102.88000   94.91460    0.09610
 13272.00000    8.80460    0.04470    0.02120   61.01300  105.27320   95.20040    3.36630    2.64830    0.09350  114.15580  110.83160  102.25010   92.56550    0.09810
 13272.50000    8.79460    0.05320    0.01920   61.07470  103.75240   96.69470    3.42910    2.63720    0.09230  114.76050  110.96980  102.25010   93.10580    0.10000
 13273.00000    8.79260    0.05990    0.01720   61.09250  102.24890   98.66890    3.42950    2.61860    0.09210  115.36520  114.34450  102.25010   95.80750    0.10150
