~Version ---------------------------------------------------
VERS.   2.0 : CWLS log ASCII Standard -VERSION 2.0
WRAP.    NO : One line per depth step
DLM . SPACE : Column Data Section Delimiter
~Well ------------------------------------------------------
STRT .F                 9250.0 : START DEPTH
STOP .F                15908.0 : STOP DEPTH
STEP .F                    0.5 : STEP
NULL .                -9999.25 : NULL VALUE
COMP .                         : COMPANY
WELL .                         : WELL
FLD  .                         : FIELD
LOC  .                         : LOCATION
PROV .                         : PROVINCE
CNTY .                         : COUNTY
STAT .                         : STATE
CTRY .                         : COUNTRY
SRVC .                         : SERVICE COMPANY
DATE .                         : DATE
UWI  .                         : UNIQUE WELL ID
API  .                         : API NUMBER
SLAT .WGS84  5.959390092250096 : SURFACE LATITUDE
SLON .WGS84 2.8158245771146966 : SURFACE LONGITUDE
DATUM.F                 1449.0 : DEPTH DATUM ELEV
~Curve Information -----------------------------------------
DEPT   .F     : 
CALD   .IN    : CALIPER FROM DENSITY LOG
DPHI_LS.DEC   : DENSITY POROSITY LIMESTONE
DRHO   .G/C3  : BULK DENSITY CORRECTION
DTCO   .US/F  : DELTA-T COMPRESSIONAL
DTSM   .US/F  : DELTA-T SHEAR
GRD    .GAPI  : GAMMA RAY FROM DENSITY LOG
PEF    .B/E   : PHOTOELECTRIC FACTOR
RHOB   .G/C3  : BULK DENSITY
SPHI   .DEC   : SONIC POROSITY
TBIT20 .OHMM  : AUTOMATICALLY ADDED BY PROCLASCURVE_INSERT.
TBIT30 .OHMM  : AUTOMATICALLY ADDED BY PROCLASCURVE_INSERT.
TBIT60 .OHMM  : AUTOMATICALLY ADDED BY PROCLASCURVE_INSERT.
TBIT90 .OHMM  : AUTOMATICALLY ADDED BY PROCLASCURVE_INSERT.
TNPH_LS.DEC   : THERMAL NEUTRON POROSITY [LIMESTONE]
~Params ----------------------------------------------------
~Other -----------------------------------------------------
~ASCII -----------------------------------------------------
# ...
 12361.50000    8.77180    0.03430    0.02440   59.82650  103.38130  104.64340    3.20550    2.64200    0.08770  172.82440  152.72530  113.77300  106.60370    0.09420
 12362.00000    8.77240    0.03750    0.02510   59.79190  103.39150  102.47570    3.20270    2.65630    0.08770  170.51030  153.23830  114.06950  106.60370    0.09260
 12362.50000    8.77190    0.04160    0.02540   59.74740  103.40160  100.34410    3.21750    2.65000    0.08720  172.33520  153.08900  114.36600  106.75580    0.09090
 12363.00000    8.77070    0.04340    0.02540   59.84530  103.34820   99.35480    3.22070    2.64270    0.08720  172.60930  152.93970  114.66250  107.51630    0.09130
 12363.50000    8.76930    0.04240    0.02340   59.84210  103.45830  100.05830    3.22880    2.64100    0.08720  173.56140  154.10840  114.95900  108.27690    0.09270
 12364.00000    8.77620    0.04320    0.02220   59.83880  103.78070  101.96560    3.23690    2.63690    0.08720  175.33300  154.60390  115.25550  109.03740    0.09260
 12364.50000    8.79120    0.04860    0.02070   59.83560  104.01820  102.72200    3.23830    2.63410    0.08720  177.10450  154.93010  115.55210  109.79790    0.09130
 12365.00000    8.79290    0.05390    0.01950   59.83240  104.25560  102.67790    3.21540    2.62790    0.08720  176.47580  154.12490  115.84860  110.55840    0.09090
 12365.50000    8.79450    0.05800    0.01530   59.82920  104.29530  101.61300    3.24040    2.62160    0.08720  174.24670  154.07720  115.34340  111.31890    0.09060
 12366.00000    8.79610    0.05670    0.01240   59.82720  103.98880  101.75950    3.25730    2.61540    0.08710  174.08960  154.02950  115.67340  112.07940    0.08890
 12366.50000    8.79840    0.05680    0.00950   59.82700  103.98370  104.86230    3.33130    2.61340    0.08710  174.45050  153.98180  116.00340  112.84000    0.08810
 12367.00000    8.77370    0.05830    0.00780   59.82680  103.97870  109.29340    3.39060    2.61340    0.08720  174.91880  153.93410  116.33330  113.29630    0.09050
 12367.50000    8.76880    0.06070    0.00580   59.82660  103.97360  111.43690    3.40760    2.60720    0.08720  172.62110  154.34280  116.66330  113.29630    0.09360
 12368.00000    8.77190    0.05920    0.00580   59.82650  103.96850  108.14610    3.41330    2.60720    0.08720  171.44200  153.40850  116.99330  111.72160    0.09460
 12368.50000    8.77030    0.05430    0.00660   59.82640  103.96350  103.57420    3.33580    2.60720    0.08720  170.97040  152.89010  117.32330  109.75320    0.09250
 12369.00000    8.76860    0.04920    0.00730   59.82630  103.69250  102.47560    3.20050    2.61170    0.08650  170.80940  152.37170  117.65330  107.78480    0.09050
 12369.50000    8.76700    0.04870    0.00800   59.82630  103.63140  104.39880    3.16980    2.63060    0.08610  171.62120  151.85340  117.98320  106.60370    0.08950
 12370.00000    8.77410    0.05150    0.00870   59.82620  103.46610  105.36480    3.13910    2.62630    0.08640  170.08000  153.32950  118.31320  106.60370    0.08970
 12370.50000    8.78690    0.05480    0.00950   59.82680  103.52730  105.50730    3.10840    2.61990    0.08650  170.68940  153.61630  118.64320  106.58630    0.09120
 12371.00000    8.79980    0.05470    0.00980   59.82750  103.58850  103.40090    3.07770    2.61610    0.08650  174.52470  153.07760  118.97320  106.77320    0.09290
 12371.50000    8.79790    0.05050    0.00980   59.82820  103.64970  100.86940    3.07770    2.61680    0.08660  178.35990  152.53900  119.30320  107.09190    0.09440
 12372.00000    8.79610    0.04590    0.00980   59.82890  103.80350  100.12220    3.07770    2.62180    0.08720  176.50590  152.00030  119.35390  107.41060    0.09490
 12372.50000    8.80460    0.04340    0.00990   59.82970  103.98540  100.44220    3.07770    2.63070    0.08740  173.66760  153.35840  118.19510  107.72940    0.09480
 12373.00000    8.79880    0.04560    0.01070   59.83040  103.98450  101.98030    3.08990    2.63960    0.08780  172.57300  150.47640  116.74960  108.04810    0.09450
 12373.50000    8.82160    0.04760    0.01140   59.83110  103.98360  103.61690    3.09730    2.63960    0.08820  171.22640  152.56080  115.30420  108.36680    0.09410
 12374.00000    8.81170    0.04550    0.01170   59.83180  103.98280  104.90990    3.13630    2.63500    0.08800  169.87980  151.47730  115.00310  108.68560    0.09590
 12374.50000    8.80180    0.04640    0.01560   59.83260  103.98190  102.29830    3.21490    2.62820    0.08760  168.53330  152.44270  115.68330  109.00430    0.09760
 12375.00000    8.77400    0.05340    0.01760   59.83330  103.98110   99.74420    3.26470    2.61640    0.08740  168.81700  153.85550  115.80370  109.32300    0.09720
 12375.50000    8.78040    0.06460    0.01950   59.83400  103.98020   97.71610    3.31460    2.60450    0.08730  169.53250  152.72830  115.92410  109.64180    0.09550
 12376.00000    8.78720    0.06690    0.02150   59.83480  103.97940   97.93970    3.36550    2.59260    0.08740  170.24810  150.25630  116.04440  109.69180    0.09470
 12376.50000    8.78160    0.06110    0.02340   59.83550  103.65230  100.14600    3.39920    2.59260    0.08740  170.96360  151.33120  116.16480  109.68040    0.09520
 12377.00000    8.79380    0.05200    0.02320   59.83620  102.51450  102.14710    3.39970    2.60760    0.08740  171.67920  153.22130  116.28520  109.65980    0.09560
 12377.50000    8.79120    0.04670    0.02300   59.83690   99.17630  102.64550    3.36660    2.62260    0.08740  172.39470  154.42960  116.40550  109.64620    0.09370
 12378.00000    8.77930    0.04160    0.02270   59.80230   97.60600  100.94460    3.28100    2.63540    0.08740  173.11020  155.63790  116.52590  110.78950    0.09200
 12378.50000    8.80070    0.03850    0.02240   59.75590   97.29210   98.10400    3.25320    2.64520    0.08740  173.82580  156.84610  116.64630  112.22710    0.08950
 12379.00000    8.79570    0.04140    0.02220   59.84420   97.32000   97.54590    3.20450    2.64780    0.08740  174.38940  157.24920  116.76670  113.66470    0.08850
 12379.50000    8.79910    0.04530    0.02190   59.84330   97.38990   97.30950    3.15580    2.64780    0.08740  173.70010  155.67510  116.88700  113.65040    0.08950
 12380.00000    8.80250    0.04780    0.02160   59.74050   97.45970   96.66390    3.11680    2.63980    0.08750  172.57050  154.10090  116.90240  113.63210    0.09060
 12380.50000    8.80590    0.05030    0.01950   59.64800   97.49720   95.74540    3.18110    2.63170    0.08790  171.44100  152.52670  116.53540  111.48800    0.09240
 12381.00000    8.80930    0.05270    0.01560   59.53330   97.48620   99.20380    3.22320    2.62370    0.08840  171.23520  151.91030  116.07670  108.80480    0.09260
 12381.50000    8.79390    0.05600    0.01560   59.61900   97.47520  105.12740    3.26680    2.61560    0.08880  170.29280  152.56350  115.61790  107.62550    0.09290
 12382.00000    8.80210    0.06010    0.01330   59.76290   97.46420  107.18610    3.31880    2.60760    0.08870  172.53050  153.37140  115.15920  107.64140    0.09380
 12382.50000    8.82990    0.06560    0.01240   59.75610   97.41680  107.60090    3.37650    2.59950    0.08800  173.36050  154.36120  114.70050  107.99840    0.09480
 12383.00000    8.82450    0.06750    0.01170   59.85420   97.44990  106.22900    3.39410    2.59470    0.08750  171.74540  151.69390  114.24180  108.44190    0.09640
 12383.50000    8.81500    0.06490    0.01170   59.83640   97.48290  103.94340    3.36610    2.60290    0.08740  165.68070  149.02660  113.78310  108.88540    0.09960
 12384.00000    8.82010    0.06040    0.01170   59.81870   97.42420  101.55950    3.33760    2.61330    0.08700  165.38670  148.92620  113.32440  109.32900    0.10030
 12384.50000    8.82520    0.05990    0.01170   59.80100   99.40450  100.28160    3.30910    2.60850    0.08650  167.29040  150.72450  112.86560  109.77250    0.09890
 12385.00000    8.83030    0.06360    0.01170   59.78320  102.61410   99.89410    3.27560    2.60060    0.08660  169.06360  153.82130  112.88230  110.21600    0.09520
