~Version ---------------------------------------------------
VERS.   2.0 : CWLS log ASCII Standard -VERSION 2.0
WRAP.    NO : One line per depth step
DLM . SPACE : Column Data Section Delimiter
~Well ------------------------------------------------------
STRT .F                 9250.0 : START DEPTH
STOP .F                15908.0 : STOP DEPTH
STEP .F                    0.5 : STEP
NULL .                -9999.25 : NULL VALUE
COMP .                         : COMPANY
WELL .                         : WELL
FLD  .                         : FIELD
LOC  .                         : LOCATION
PROV .                         : PROVINCE
CNTY .                         : COUNTY
STAT .                         : STATE
CTRY .                         : COUNTRY
SRVC .                         : SERVICE COMPANY
DATE .                         : DATE
UWI  .                         : UNIQUE WELL ID
API  .                         : API NUMBER
SLAT .WGS84  5.959390092250096 : SURFACE LATITUDE
SLON .WGS84 2.8158245771146966 : SURFACE LONGITUDE
DATUM.F                 1449.0 : DEPTH DATUM ELEV
~Curve Information -----------------------------------------
DEPT   .F     : 
CALD   .IN    : CALIPER FROM DENSITY LOG
DPHI_LS.DEC   : DENSITY POROSITY LIMESTONE
DRHO   .G/C3  : BULK DENSITY CORRECTION
DTCO   .US/F  : DELTA-T COMPRESSIONAL
DTSM   .US/F  : DELTA-T SHEAR
GRD    .GAPI  : GAMMA RAY FROM DENSITY LOG
PEF    .B/E   : PHOTOELECTRIC FACTOR
RHOB   .G/C3  : BULK DENSITY
SPHI   .DEC   : SONIC POROSITY
TBIT20 .OHMM  : AUTOMATICALLY ADDED BY PROCLASCURVE_INSERT.
TBIT30 .OHMM  : AUTOMATICALLY ADDED BY PROCLASCURVE_INSERT.
TBIT60 .OHMM  : AUTOMATICALLY ADDED BY PROCLASCURVE_INSERT.
TBIT90 .OHMM  : AUTOMATICALLY ADDED BY PROCLASCURVE_INSERT.
TNPH_LS.DEC   : THERMAL NEUTRON POROSITY [LIMESTONE]
~Params ----------------------------------------------------
~Other -----------------------------------------------------
~ASCII -----------------------------------------------------
# ...
 14113.50000    8.78450    0.06090    0.00710   60.90120  100.34780  134.17470    3.19670    2.60580    0.09550  204.88990  181.16850  124.91280  116.72430    0.10880
 14114.00000    8.79440    0.06300    0.00800   61.07970  100.37350  137.38900    3.23750    2.59960    0.09540  202.98620  181.17830  124.84610  114.38900    0.10650
 14114.50000    8.79430    0.06370    0.00880   61.11220  100.39920  137.02380    3.27200    2.60030    0.09520  197.86340  174.09720  123.35580  111.41110    0.10380
 14115.00000    8.79410    0.06220    0.00880   61.14470  100.42490  133.73150    3.32160    2.60840    0.09530  196.96230  168.35750  121.65530  109.16370    0.10360
 14115.50000    8.79400    0.06320    0.01460   61.11300  100.45060  130.43930    3.37480    2.60750    0.09550  199.87710  166.17660  120.62400  107.87390    0.10820
 14116.00000    8.79390    0.06760    0.01460   61.07960  100.47630  127.14700    3.40190    2.59510    0.09570  187.00570  164.34650  120.22790  107.69300    0.11090
 14116.50000    8.78910    0.07080    0.01460   61.00290  100.50210  124.38340    3.35750    2.59040    0.09620  186.25980  161.93710  118.93240  109.88570    0.11510
 14117.00000    8.77340    0.06690    0.01460   60.90090  100.52780  123.04520    3.31310    2.58930    0.09650  190.49530  165.03520  120.81090  112.07840    0.11670
 14117.50000    8.79490    0.06120    0.01460   61.09640  100.55350  122.13990    3.27990    2.60100    0.09660  191.28010  167.39540  122.68940  114.27110    0.11670
 14118.00000    8.79210    0.05950    0.01460   61.29810  100.57920  123.60610    3.23330    2.61410    0.09670  190.55370  168.27080  124.19430  116.02530    0.11670
 14118.50000    8.78930    0.06170    0.01460   61.50670  100.60490  125.65890    3.17250    2.61180    0.09700  190.38200  166.36920  123.82610  116.02530    0.11670
 14119.00000    8.78640    0.05780    0.01460   61.67470  100.63060  124.55110    3.16020    2.60790    0.09700  190.21040  165.46070  123.45790  116.02530    0.11610
 14119.50000    8.78760    0.05520    0.01460   61.57640  100.65630  121.94440    3.17110    2.60720    0.09700  190.64480  163.60900  123.08970  116.04910    0.11380
 14120.00000    8.78980    0.05450    0.01460   61.56340  100.68200  120.38040    3.17890    2.61070    0.09740  191.23080  166.58180  122.72990  117.25230    0.11130
 14120.50000    8.79190    0.05410    0.01460   61.55030  100.70770  123.41090    3.18370    2.61520    0.09700  191.81690  168.17350  123.47910  118.45540    0.11010
 14121.00000    8.79180    0.05440    0.01460   61.53720  100.73340  124.71260    3.18840    2.61960    0.09700  190.48320  165.48940  123.47910  119.65860    0.10830
 14121.50000    8.76800    0.05790    0.01460   61.53070  100.75920  124.86180    3.19320    2.62100    0.09780  186.83550  165.48940  123.27160  120.38050    0.10660
 14122.00000    8.76420    0.06140    0.01460   61.52850  100.78490  124.39610    3.19800    2.62030    0.09780  186.68570  165.48940  123.06420  119.48790    0.10580
 14122.50000    8.79120    0.05780    0.01270   61.52630  100.79230  122.60180    3.20280    2.60540    0.09790  185.90640  165.44920  122.85670  118.37220    0.10740
 14123.00000    8.79090    0.05230    0.01460   61.52420  100.72680  122.61000    3.19460    2.61560    0.09790  184.60740  165.40890  122.64920  117.25650    0.10920
 14123.50000    8.79070    0.04420    0.02640   61.52200  100.66130  125.61560    3.24300    2.62570    0.09770  183.30850  166.37710  122.44170  116.14090    0.10950
 14124.00000    8.77640    0.03800    0.03610   61.56900  100.55080  130.41840    3.30730    2.64250    0.09710  182.47370  164.66060  122.23430  115.02520    0.10980
 14124.50000    8.78590    0.03940    0.03810   61.66560  100.57150  132.69790    3.38510    2.64720    0.09660  179.26830  161.39720  122.02680  113.90950    0.11400
 14125.00000    8.76900    0.04570    0.03190   61.66500  100.59230  131.47160    3.42510    2.64010    0.09660  180.10230  160.84420  121.98530  112.79380    0.11640
 14125.50000    8.76810    0.05240    0.02120   61.63660  100.61300  129.93870    3.41950    2.63130    0.09660  181.56500  158.67670  120.91980  112.12440    0.11530
 14126.00000    8.76680    0.05760    0.01070   61.49920   99.28400  129.41250    3.38570    2.62250    0.09660  178.71030  156.50930  120.00870  109.63450    0.11300
 14126.50000    8.76310    0.06160    0.00290   61.52760   96.82370  131.44650    3.36810    2.61370    0.09650  178.00690  158.61110  120.74530  109.81500    0.11170
 14127.00000    8.75950    0.06540    0.00490   61.55590   94.38740  133.13780    3.36890    2.60480    0.09660  185.94090  164.73580  122.67730  112.78950    0.11360
 14127.50000    8.75750    0.07010    0.00490   61.66840   93.96370  131.17620    3.36980    2.59600    0.09660  187.26000  172.95100  126.49060  116.11320    0.11390
 14128.00000    8.76230    0.07380    0.00800   61.66840   93.95800  128.53370    3.36290    2.58720    0.09660  190.85030  172.08780  127.17440  115.15100    0.11420
 14128.50000    8.76720    0.06900    0.01330   61.66840   93.95230  125.68040    3.40170    2.58370    0.09660  188.04170  169.77240  123.38670  115.79810    0.11450
 14129.00000    8.77740    0.05880    0.01860   61.63660   94.14570  126.20940    3.39380    2.58370    0.09660  183.70880  169.25520  123.17570  115.72570    0.11450
 14129.50000    8.77410    0.05110    0.01790   61.53930   94.14760  127.97370    3.37240    2.63130    0.09660  182.47370  165.03010  122.99730  116.92270    0.11540
 14130.00000    8.79130    0.04990    0.01630   61.51440   94.14940  130.68470    3.34590    2.62990    0.09670  179.99450  165.65460  122.94870  116.61680    0.11640
 14130.50000    8.78730    0.05630    0.01460   61.48950   94.15130  131.90620    3.38410    2.62280    0.09660  180.51940  170.66060  122.90020  116.31090    0.11820
 14131.00000    8.78750    0.06150    0.01460   61.37860   94.15320  132.50120    3.42240    2.61580    0.09660  181.37410  173.67650  122.85160  115.27210    0.11830
 14131.50000    8.79040    0.06430    0.01460   61.37530   94.15500  132.59340    3.45960    2.60880    0.09660  179.53950  168.57830  122.80310  113.83690    0.11640
 14132.00000    8.79330    0.06660    0.01460   61.31180   94.28190  132.05730    3.49540    2.60180    0.09660  175.91210  163.47620  122.80630  111.82410    0.11250
 14132.50000    8.79170    0.06880    0.01460   61.25600   94.18270  130.32810    3.49490    2.59470    0.09660  174.47850  162.63370  122.82730  109.81140    0.10980
 14133.00000    8.78110    0.06890    0.01460   61.23230   94.08350  128.53980    3.49430    2.59210    0.09650  177.78440  165.06400  122.84830  108.24970    0.10760
 14133.50000    8.76570    0.06790    0.01450   61.21860   93.98440  129.37690    3.45750    2.59260    0.09610  181.09040  166.22360  122.45450  108.49240    0.10680
 14134.00000    8.76720    0.06870    0.01250   61.24000   93.91870  130.65590    3.36610    2.59260    0.09600  184.39630  168.34820  122.06060  108.73510    0.10730
 14134.50000    8.77970    0.06710    0.01060   61.12630   93.87540  131.17440    3.27280    2.59470    0.09550  186.88140  168.84920  121.66680  108.97770    0.10850
 14135.00000    8.76770    0.06220    0.01020   61.12170   93.83200  128.23510    3.20560    2.60350    0.09550  189.36350  170.37220  122.98550  109.22040    0.10820
 14135.50000    8.74760    0.05630    0.00940   61.15150   93.78870  125.29580    3.17010    2.61230    0.09530  191.35230  170.23250  121.54510  109.28260    0.10720
 14136.00000    8.77860    0.05340    0.00850   61.12680   93.74540  122.67030    3.15490    2.62120    0.09530  190.51350  172.91220  123.11870  110.66170    0.10600
 14136.50000    8.77920    0.05500    0.01440   61.13460   93.70210  123.35970    3.18790    2.62290    0.09520  190.52310  173.29410  124.39390  111.87470    0.10610
 14137.00000    8.76690    0.05840    0.01740   61.11970   93.65880  127.32890    3.22900    2.60500    0.09520  191.93310  173.67600  124.47580  113.38400    0.10540
