~Version ---------------------------------------------------
VERS.   2.0 : CWLS log ASCII Standard -VERSION 2.0
WRAP.    NO : One line per depth step
DLM . SPACE : Column Data Section Delimiter
~Well ------------------------------------------------------
STRT .F                 9250.0 : START DEPTH
STOP .F                15908.0 : STOP DEPTH
STEP .F                    0.5 : STEP
NULL .                -9999.25 : NULL VALUE
COMP .                         : COMPANY
WELL .                         : WELL
FLD  .                         : FIELD
LOC  .                         : LOCATION
PROV .                         : PROVINCE
CNTY .                         : COUNTY
STAT .                         : STATE
CTRY .                         : COUNTRY
SRVC .                         : SERVICE COMPANY
DATE .                         : DATE
UWI  .                         : UNIQUE WELL ID
API  .                         : API NUMBER
SLAT .WGS84  5.959390092250096 : SURFACE LATITUDE
SLON .WGS84 2.8158245771146966 : SURFACE LONGITUDE
DATUM.F                 1449.0 : DEPTH DATUM ELEV
~Curve Information -----------------------------------------
DEPT   .F     : 
CALD   .IN    : CALIPER FROM DENSITY LOG
DPHI_LS.DEC   : DENSITY POROSITY LIMESTONE
DRHO   .G/C3  : BULK DENSITY CORRECTION
DTCO   .US/F  : DELTA-T COMPRESSIONAL
DTSM   .US/F  : DELTA-T SHEAR
GRD    .GAPI  : GAMMA RAY FROM DENSITY LOG
PEF    .B/E   : PHOTOELECTRIC FACTOR
RHOB   .G/C3  : BULK DENSITY
SPHI   .DEC   : SONIC POROSITY
TBIT20 .OHMM  : AUTOMATICALLY ADDED BY PROCLASCURVE_INSERT.
TBIT30 .OHMM  : AUTOMATICALLY ADDED BY PROCLASCURVE_INSERT.
TBIT60 .OHMM  : AUTOMATICALLY ADDED BY PROCLASCURVE_INSERT.
TBIT90 .OHMM  : AUTOMATICALLY ADDED BY PROCLASCURVE_INSERT.
TNPH_LS.DEC   : THERMAL NEUTRON POROSITY [LIMESTONE]
~Params ----------------------------------------------------
~Other -----------------------------------------------------
~ASCII -----------------------------------------------------
# ...
 9299.00000   13.53000    0.07420    0.13400   -9999.25   -9999.25   37.86000   12.06480    2.29890   -9999.25   21.54810    5.32320    5.08660    6.58440    0.22520
 9299.50000   12.73710   -0.03610    0.13400   -9999.25   -9999.25   39.91720   10.04750    2.62200   -9999.25   30.15810   10.12910    8.76170    5.99020    0.16710
 9300.00000   12.33750   -0.02110    0.08070   -9999.25   -9999.25   44.79500    6.60010    2.74650   -9999.25   39.15510   14.93510   12.43690    5.73470    0.14640
 9300.50000   12.23320    0.00300    0.03620   -9999.25   -9999.25   48.81840    5.27740    2.74880   -9999.25   45.99230   28.39970   16.11210    5.29980    0.14720
 9301.00000   12.24370   -0.00310    0.02510   -9999.25   -9999.25   47.28620    5.21890    2.73940   -9999.25   71.14320   41.60130   28.73810    5.14090    0.14370
 9301.50000   12.25430   -0.01330    0.01980   -9999.25   -9999.25   44.75250    5.21930    2.72340   -9999.25   87.37790   54.80280   42.35600    5.68010    0.12980
 9302.00000   12.26490   -0.01000    0.01460   -9999.25   -9999.25   39.54370    5.09760    2.70730   -9999.25  122.64280   66.57240  223.64080    7.94130    0.11600
 9302.50000   12.27550    0.00060    0.02050   -9999.25   -9999.25   36.12070    4.97600    2.70410   -9999.25  137.63080   73.84880  212.84170   10.82360    0.10500
 9303.00000   12.28610   -0.00280    0.03200   -9999.25   -9999.25   38.25380    4.85440    2.70610   -9999.25  169.46160   78.02360  177.28990   15.42770    0.11320
 9303.50000   12.29660   -0.01070    0.03820   -9999.25   -9999.25   41.42100    4.75710    2.72270   -9999.25  190.27580   74.29660  126.69690   25.19160    0.12960
 9304.00000   12.30720   -0.01980    0.04440   -9999.25   -9999.25   42.52670    4.73790    2.73920   -9999.25  224.26250   64.95340   76.10400   41.56100    0.12700
 9304.50000   12.30670   -0.02190    0.05060   -9999.25   -9999.25   39.54680    4.89310    2.74450   -9999.25  376.74580   80.42940   54.06530   82.86470    0.12060
 9305.00000   12.30270   -0.02420    0.05180   -9999.25   -9999.25   34.60780    5.06250    2.74710   -9999.25  529.22910  135.26550   54.28570  195.02980    0.12090
 9305.50000   12.29880   -0.02640    0.05560   -9999.25   -9999.25   31.50960    5.23200    2.75040   -9999.25  725.91990  190.10170   61.24180  538.57300    0.12410
 9306.00000   12.29480   -0.02960    0.06480   -9999.25   -9999.25   30.82490    5.40100    2.76450   -9999.25  954.58040  203.25310   71.71730  957.59760    0.12580
 9306.50000   12.29090   -0.04170    0.07400   -9999.25   -9999.25   33.86240    5.54350    2.78700   -9999.25 1183.86550  221.61350  106.04700  901.79630    0.12380
 9307.00000   12.28950   -0.05430    0.08320   -9999.25   -9999.25   40.46590    5.62290    2.80290   -9999.25 1382.22750  241.46390  166.83150  513.89390    0.11170
 9307.50000   12.28970   -0.03880    0.07280   -9999.25   -9999.25   44.06070    5.66850    2.80380   -9999.25 1456.89810  261.31430  299.80010  277.31950    0.09000
 9308.00000   12.15320    0.01750    0.01170   -9999.25   -9999.25   50.79890    5.67690    2.71560   -9999.25 1470.12240  281.16460  445.53110  165.85850    0.06840
 9308.50000   11.19600    0.10140   -0.01660   -9999.25   -9999.25   57.53710    5.52250    2.53920   -9999.25 1251.62220  304.25680  590.07290  117.11570    0.04670
 9309.00000   10.23890    0.09950    0.02540   -9999.25   -9999.25   64.27530    5.41370    2.55150   -9999.25  881.76590  361.18820  729.85780   86.77350    0.04320
 9309.50000    9.28170    0.02330    0.05960   -9999.25   -9999.25   68.61430    5.27280    2.61000   -9999.25 1219.00930  430.31480  785.55040   67.09360    0.04200
 9310.00000    8.97540   -0.02240    0.04740   -9999.25   -9999.25   68.91340    5.08520    2.66850   -9999.25 1132.75760  359.35690  598.81900   50.42010    0.04260
 9310.50000    8.94240   -0.01590    0.03030   -9999.25   -9999.25   58.77630    4.92890    2.72700   -9999.25  386.22700  241.21160  400.81870   41.48650    0.04490
 9311.00000    8.93740   -0.01800    0.02830   -9999.25   -9999.25   56.36030    4.84890    2.74130   -9999.25   71.00810  123.06630  202.81830   40.62480    0.05330
 9311.50000    8.92900   -0.02540    0.04790   -9999.25   -9999.25   55.71160    4.84770    2.74410   -9999.25   54.85580   64.19120  127.11790   39.36760    0.07340
 9312.00000    8.92060   -0.02930    0.06740   -9999.25   -9999.25   52.17720    4.94050    2.74650   -9999.25   38.70360   44.82950   83.65490   27.57390    0.09340
 9312.50000    8.91220   -0.02610    0.07130   -9999.25   -9999.25   45.86190    5.03330    2.76670   -9999.25   22.55140   25.46780   40.19200   15.78020    0.11340
 9313.00000    8.90380   -0.02290    0.06820   -9999.25   -9999.25   39.54660    5.12610    2.75710   -9999.25   12.88950   13.64140   14.37450   12.50520    0.10530
 9313.50000    8.89540   -0.02200    0.06430   -9999.25   -9999.25   37.99200    5.16710    2.74510   -9999.25   22.52100   21.12750   24.73740   23.62300    0.08400
 9314.00000    8.88700   -0.01640    0.06350   -9999.25   -9999.25   41.32020    5.09830    2.73310   -9999.25   34.44960   30.38100   35.19500   34.75720    0.07200
 9314.50000    8.87860   -0.00880    0.02590   -9999.25   -9999.25   46.86560    4.96480    2.72110   -9999.25   41.98870   35.49800   33.93190   32.85060    0.06880
 9315.00000    8.87020   -0.00690    0.01270   -9999.25   -9999.25   47.68370    4.78150    2.72110   -9999.25   33.29440   29.42990   27.41340   25.42130    0.07520
 9315.50000    8.86180   -0.01310    0.01270   -9999.25   -9999.25   45.96040    4.67290    2.73360   -9999.25   24.94260   23.89150   20.89490   19.91560    0.08270
 9316.00000    8.85340   -0.01940    0.01660   -9999.25   -9999.25   45.04120    4.65360    2.74850   -9999.25   24.29710   21.60690   15.12900   15.94350    0.09530
 9316.50000    8.84500   -0.02500    0.02210   -9999.25   -9999.25   50.01110    4.64210    2.76340   -9999.25   21.84750   11.82190   10.49210   11.97150    0.12870
 9317.00000    8.83660   -0.02100    0.02340   -9999.25   -9999.25   67.47360    4.57590    2.76340   -9999.25   12.67590    8.62940    7.17800    7.99950    0.20030
 9317.50000    8.82820   -0.00970    0.02100   -9999.25   -9999.25   83.40790    4.25880    2.72160   -9999.25    5.19320    5.43690    4.13940    4.02750    0.27180
 9318.00000    8.81980    0.00770    0.02050   -9999.25   -9999.25   91.88080    3.94180    2.67990   -9999.25    4.04430    3.84420    3.60780    3.40870    0.34210
 9318.50000    8.81140    0.00240    0.02050   -9999.25   -9999.25   94.72460    3.62480    2.67960   -9999.25    3.55860    3.43360    3.33190    3.26500    0.33060
 9319.00000    8.80810   -0.01700    0.03860   -9999.25   -9999.25   96.96580    3.30770    2.72960   -9999.25    3.83120    3.67800    3.61080    3.48300    0.31290
 9319.50000    8.81130   -0.03650    0.05910   -9999.25   -9999.25  100.55430    3.22980    2.77970   -9999.25    4.13100    4.06780    3.99710    3.84650    0.30220
 9320.00000    8.81440   -0.03940    0.07040   -9999.25   -9999.25  103.38700    3.17150    2.78040   -9999.25    4.39090    4.22380    4.08300    4.04140    0.27240
 9320.50000    8.81760   -0.01550    0.04240   -9999.25   -9999.25  101.92850    3.15350    2.76380   -9999.25    4.36090    4.18600    4.07070    4.04190    0.27240
 9321.00000    8.82080    0.00840    0.00680   -9999.25   -9999.25  100.28510    3.14130    2.72220   -9999.25    4.27610    4.15380    4.05430    4.03060    0.29170
 9321.50000    8.82400    0.02840    0.00680   -9999.25   -9999.25   99.99930    3.15590    2.68060   -9999.25    4.19120    4.12170    4.03790    4.01140    0.33070
 9322.00000    8.82710    0.03380    0.00680   -9999.25   -9999.25   99.49790    3.15590    2.64710   -9999.25    4.12170    4.08950    4.02160    3.99220    0.35400
 9322.50000    8.83030    0.03200    0.00680   -9999.25   -9999.25   97.63680    3.15590    2.64720   -9999.25    4.07990    4.05740    4.00520    3.97300    0.33420
 9323.00000    8.83350    0.03060    0.00680   -9999.25   -9999.25   95.95120    3.15590    2.65370   -9999.25    4.06800    4.00240    3.98890    3.91450    0.30120
