~Version ---------------------------------------------------
VERS.   2.0 : CWLS log ASCII Standard -VERSION 2.0
WRAP.    NO : One line per depth step
DLM . SPACE : Column Data Section Delimiter
~Well ------------------------------------------------------
STRT .F                 9250.0 : START DEPTH
STOP .F                15908.0 : STOP DEPTH
STEP .F                    0.5 : STEP
NULL .                -9999.25 : NULL VALUE
COMP .                         : COMPANY
WELL .                         : WELL
FLD  .                         : FIELD
LOC  .                         : LOCATION
PROV .                         : PROVINCE
CNTY .                         : COUNTY
STAT .                         : STATE
CTRY .                         : COUNTRY
SRVC .                         : SERVICE COMPANY
DATE .                         : DATE
UWI  .                         : UNIQUE WELL ID
API  .                         : API NUMBER
SLAT .WGS84  5.959390092250096 : SURFACE LATITUDE
SLON .WGS84 2.8158245771146966 : SURFACE LONGITUDE
DATUM.F                 1449.0 : DEPTH DATUM ELEV
~Curve Information -----------------------------------------
DEPT   .F     : 
CALD   .IN    : CALIPER FROM DENSITY LOG
DPHI_LS.DEC   : DENSITY POROSITY LIMESTONE
DRHO   .G/C3  : BULK DENSITY CORRECTION
DTCO   .US/F  : DELTA-T COMPRESSIONAL
DTSM   .US/F  : DELTA-T SHEAR
GRD    .GAPI  : GAMMA RAY FROM DENSITY LOG
PEF    .B/E   : PHOTOELECTRIC FACTOR
RHOB   .G/C3  : BULK DENSITY
SPHI   .DEC   : SONIC POROSITY
TBIT20 .OHMM  : AUTOMATICALLY ADDED BY PROCLASCURVE_INSERT.
TBIT30 .OHMM  : AUTOMATICALLY ADDED BY PROCLASCURVE_INSERT.
TBIT60 .OHMM  : AUTOMATICALLY ADDED BY PROCLASCURVE_INSERT.
TBIT90 .OHMM  : AUTOMATICALLY ADDED BY PROCLASCURVE_INSERT.
TNPH_LS.DEC   : THERMAL NEUTRON POROSITY [LIMESTONE]
~Params ----------------------------------------------------
~Other -----------------------------------------------------
~ASCII -----------------------------------------------------
# ...
 11065.50000    8.77980    0.01520    0.01860   58.77180  100.62020   83.18380    4.39570    2.67130    0.08970  161.51040  174.38090  129.90870  123.47630    0.08380
 11066.00000    8.78020    0.01100    0.01620   58.91250  100.49960   84.31450    4.39920    2.68140    0.09010  169.04410  176.48550  131.00930  123.46540    0.08280
 11066.50000    8.78050    0.00970    0.01410   59.06290  100.59030   83.37490    4.41230    2.69180    0.09010  175.68230  179.02720  134.44310  124.80760    0.08150
 11067.00000    8.78090    0.01020    0.01210   59.12850  100.43860   80.75460    4.42530    2.69460    0.09010  180.98850  183.27730  135.25190  126.48570    0.08090
 11067.50000    8.78130    0.01260    0.01000   59.13560  100.42120   77.65640    4.43570    2.68700    0.09010  175.85650  177.46700  134.41370  122.62990    0.08050
 11068.00000    8.77380    0.01790    0.00490   59.16870  100.40370   78.07820    4.41110    2.67930    0.09060  166.66540  170.08020  131.35610  116.83480    0.08140
 11068.50000    8.76570    0.02350    0.00490   59.22620  100.38630   79.79410    4.38660    2.66550    0.09070  166.64620  171.09570  128.55640  118.93800    0.08240
 11069.00000    8.78230    0.02330    0.00490   59.23070  100.36880   80.84530    4.36270    2.67010    0.09070  170.52420  176.53450  131.14240  122.33890    0.08200
 11069.50000    8.78230    0.02040    0.00490   59.29250  100.19330   80.37170    4.31980    2.67520    0.09070  174.63140  182.27310  134.40740  125.73990    0.08170
 11070.00000    8.78230    0.01610    0.00490   59.37850  100.01780   81.06420    4.22500    2.68040    0.09110  178.73870  188.01160  137.49210  127.19110    0.08300
 11070.50000    8.77460    0.01540    0.00500   59.40770   99.84230   83.94040    4.17620    2.68220    0.09110  182.84600  193.75020  140.57670  126.80390    0.08470
 11071.00000    8.78460    0.01680    0.00540   59.48520   99.66680   86.57360    4.13770    2.68180    0.09120  186.95320  199.48880  143.66140  124.86800    0.08670
 11071.50000    8.79160    0.01700    0.00580   59.49180   99.49130   85.16160    4.13290    2.68190    0.09160  191.06050  205.32650  146.30950  122.93210    0.08730
 11072.00000    8.79580    0.01670    0.00630   59.69530   99.31580   82.98910    4.14160    2.68240    0.09170  185.98870  200.43120  137.77060  120.99620    0.08700
 11072.50000    8.79160    0.01680    0.00670   59.79660   99.22390   81.70000    4.16240    2.68280    0.09170  176.96890  191.31020  134.90200  119.06030    0.08590
 11073.00000    8.78750    0.01550    0.00720   59.81970   99.22870   82.32960    4.21490    2.68380    0.09170  179.42990  184.01350  135.17550  118.18600    0.08440
 11073.50000    8.78340    0.01410    0.00760   59.89630   99.05430   82.60220    4.20010    2.68590    0.09170  181.89100  187.10170  135.17550  121.55820    0.08380
 11074.00000    8.77920    0.01590    0.00810   59.90730   98.87830   82.31320    4.18520    2.69140    0.09170  185.89680  194.11120  135.17550  124.93040    0.08310
 11074.50000    8.78200    0.02000    0.00850   59.91830   98.84320   81.47290    4.12570    2.68210    0.09210  194.58230  201.12080  135.17550  128.30260    0.08450
 11075.00000    8.78480    0.02420    0.00900   59.92930   98.97030   81.72310    4.08480    2.66860    0.09220  200.55220  205.32650  135.17550  131.12220    0.08630
 11075.50000    8.78760    0.02230    0.00940   60.06730   99.09740   82.66220    4.08660    2.66450    0.09230  202.74570  205.32650  135.17550  127.60070    0.08730
 11076.00000    8.78580    0.01850    0.00980   60.14060   99.64600   84.56180    4.13290    2.68720    0.09270  204.98410  205.32650  136.50950  124.79890    0.08730
 11076.50000    8.78750    0.01250    0.01030   60.14520  100.64840   85.55810    4.15530    2.69630    0.09250  207.22250  205.32650  138.17720  124.64970    0.08810
 11077.00000    8.78910    0.01280    0.01070   60.27640  101.60060   87.96710    4.19620    2.69370    0.09280  209.46090  207.84140  139.84480  125.87320    0.08820
 11077.50000    8.79080    0.01530    0.01070   60.31600  101.16050   90.35630    4.15420    2.68940    0.09280  212.21850  208.47640  141.20270  124.61720    0.08800
 11078.00000    8.81560    0.01800    0.01070   60.29720  100.58760   92.57260    4.03930    2.68440    0.09350  214.16550  209.11140  141.32190  125.04650    0.08760
 11078.50000    8.82230    0.02160    0.01070   60.34170  100.01480   92.85630    3.94810    2.67640    0.09310  214.16550  210.17610  141.03280  124.72450    0.08820
 11079.00000    8.81590    0.02550    0.01070   60.34710  100.63290   92.49010    3.91260    2.66840    0.09250  214.16550  212.96600  141.14880  124.75930    0.08890
 11079.50000    8.80940    0.02810    0.01070   60.42890  102.24130   92.26610    3.89830    2.66040    0.09230  214.44020  212.96600  140.22980  124.90730    0.08960
 11080.00000    8.79150    0.02830    0.01070   60.42670  105.10810   90.78030    3.94430    2.65840    0.09230  215.81410  212.96600  139.52640  125.87080    0.08890
 11080.50000    8.78980    0.02830    0.01270   60.42450  105.09510   89.90030    4.04280    2.66040    0.09230  217.18800  212.96600  137.76780  124.86380    0.08740
 11081.00000    8.78810    0.02810    0.01310   60.39500  104.84900   89.63760    4.10830    2.66400    0.09230  218.56190  212.96600  136.19330  123.96400    0.08550
 11081.50000    8.78640    0.02630    0.01350   60.34630  104.84070   89.18040    4.13780    2.66760    0.09280  221.73170  213.33450  140.23270  125.86820    0.08450
 11082.00000    8.79900    0.02440    0.01400   60.46040  104.83240   89.00320    4.11200    2.67120    0.09280  225.19770  214.25590  140.70660  126.53800    0.08540
 11082.50000    8.79870    0.02280    0.01450   60.47440  105.12380   87.76840    4.08620    2.67480    0.09280  226.22840  215.17720  141.21270  126.26300    0.08760
 11083.00000    8.79840    0.02090    0.01500   60.58680  105.61500   88.55280    4.09160    2.67770    0.09280  226.22840  216.09860  141.35800  124.48510    0.08910
 11083.50000    8.79810    0.02110    0.01540   60.58750  106.10620   91.39440    4.08270    2.67540    0.09280  226.22840  217.01990  140.96210  124.26990    0.09070
 11084.00000    8.79780    0.02520    0.01590   60.58820  105.63110   98.52290    4.03700    2.66970    0.09280  228.30400  217.94130  141.65570  124.19150    0.09250
 11084.50000    8.79750    0.02550    0.01640   60.58890  105.56530  102.21330    4.02760    2.66390    0.09290  232.21670  218.86270  142.62160  124.66070    0.09390
 11085.00000    8.79720    0.02240    0.01680   60.58960  105.94860  103.78420    4.01820    2.67080    0.09330  236.03470  219.78400  142.17290  125.94280    0.09450
 11085.50000    8.79700    0.01740    0.01730   60.59020  106.40990  104.04830    4.00880    2.67770    0.09340  236.53970  220.70540  140.56830  124.48490    0.09440
 11086.00000    8.79670    0.01400    0.01780   60.70140  107.00770  103.31060    3.99950    2.68470    0.09340  233.18360  223.59520  138.96380  124.22730    0.09430
 11086.50000    8.79540    0.01250    0.01830   60.72490  107.60560  102.14830    3.99010    2.69160    0.09330  232.51240  225.59350  138.48730  123.96970    0.09590
 11087.00000    8.79010    0.01810    0.01860   60.76790  107.96250  100.58970    4.00920    2.69430    0.09280  232.51240  228.75390  139.91190  124.50030    0.09780
 11087.50000    8.78970    0.02450    0.01860   60.88520  107.95780  101.14230    4.00920    2.67190    0.09280  235.77890  231.91430  141.51640  126.20870    0.09970
 11088.00000    8.79240    0.02720    0.01860   61.10770  107.95320  102.71250    4.00300    2.66470    0.09280  241.22320  230.50800  141.35980  124.33240    0.09890
 11088.50000    8.79510    0.02180    0.01860   61.10530  107.94860  105.78240    3.95370    2.67050    0.09280  244.48970  227.67160  139.59100  123.84170    0.09580
 11089.00000    8.79780    0.01620    0.02000   61.10280  107.94400  104.69310    3.94210    2.68150    0.09220  239.34060  222.94420  138.43300  123.35090    0.09270
