~Version ---------------------------------------------------
VERS.   2.0 : CWLS log ASCII Standard -VERSION 2.0
WRAP.    NO : One line per depth step
DLM . SPACE : Column Data Section Delimiter
~Well ------------------------------------------------------
STRT .F                 9250.0 : START DEPTH
STOP .F                15908.0 : STOP DEPTH
STEP .F                    0.5 : STEP
NULL .                -9999.25 : NULL VALUE
COMP .                         : COMPANY
WELL .                         : WELL
FLD  .                         : FIELD
LOC  .                         : LOCATION
PROV .                         : PROVINCE
CNTY .                         : COUNTY
STAT .                         : STATE
CTRY .                         : COUNTRY
SRVC .                         : SERVICE COMPANY
DATE .                         : DATE
UWI  .                         : UNIQUE WELL ID
API  .                         : API NUMBER
SLAT .WGS84  5.959390092250096 : SURFACE LATITUDE
SLON .WGS84 2.8158245771146966 : SURFACE LONGITUDE
DATUM.F                 1449.0 : DEPTH DATUM ELEV
~Curve Information -----------------------------------------
DEPT   .F     : 
CALD   .IN    : CALIPER FROM DENSITY LOG
DPHI_LS.DEC   : DENSITY POROSITY LIMESTONE
DRHO   .G/C3  : BULK DENSITY CORRECTION
DTCO   .US/F  : DELTA-T COMPRESSIONAL
DTSM   .US/F  : DELTA-T SHEAR
GRD    .GAPI  : GAMMA RAY FROM DENSITY LOG
PEF    .B/E   : PHOTOELECTRIC FACTOR
RHOB   .G/C3  : BULK DENSITY
SPHI   .DEC   : SONIC POROSITY
TBIT20 .OHMM  : AUTOMATICALLY ADDED BY PROCLASCURVE_INSERT.
TBIT30 .OHMM  : AUTOMATICALLY ADDED BY PROCLASCURVE_INSERT.
TBIT60 .OHMM  : AUTOMATICALLY ADDED BY PROCLASCURVE_INSERT.
TBIT90 .OHMM  : AUTOMATICALLY ADDED BY PROCLASCURVE_INSERT.
TNPH_LS.DEC   : THERMAL NEUTRON POROSITY [LIMESTONE]
~Params ----------------------------------------------------
~Other -----------------------------------------------------
~ASCII -----------------------------------------------------
# ...
 11497.50000    8.79740    0.06000    0.01170   59.48800  103.63270   90.24320    3.02550    2.60870    0.08540  186.46640  175.26590  124.88880  118.62850    0.09160
 11498.00000    8.80220    0.05400    0.01170   59.38330  104.11780   89.35950    3.08290    2.61560    0.08540  186.46640  177.05480  123.37720  114.18500    0.09330
 11498.50000    8.77880    0.05140    0.01370   59.34520  104.14860   89.71320    3.18960    2.62260    0.08540  183.51420  177.41260  121.88410  113.29630    0.09480
 11499.00000    8.76900    0.05460    0.01760   59.23380  104.17940   90.73770    3.25900    2.62270    0.08540  181.42690  174.45470  120.96200  113.29630    0.09600
 11499.50000    8.77020    0.05800    0.01710   59.39370  104.18290   92.37780    3.35200    2.61810    0.08470  186.46640  166.93260  120.40880  114.87510    0.09670
 11500.00000    8.76230    0.05810    0.01460   59.54390  104.14560   92.59820    3.36480    2.61360    0.08430  185.61680  166.51120  120.79660  115.19360    0.09610
 11500.50000    8.77740    0.05660    0.01220   59.49020  104.10830   92.18620    3.29390    2.61250    0.08430  181.43450  167.49590  121.76590  115.38470    0.09540
 11501.00000    8.76910    0.05490    0.00980   59.47940  104.15620   92.89310    3.22260    2.61290    0.08430  178.14310  168.48060  122.73530  115.38470    0.09470
 11501.50000    8.77720    0.05330    0.00980   59.46850  104.26080   95.10630    3.13540    2.62030    0.08430  179.00550  169.46530  123.70470  115.38470    0.09410
 11502.00000    8.78880    0.05440    0.00980   59.42460  104.36540   96.99630    3.09610    2.62080    0.08450  180.44270  170.45000  124.67400  116.10060    0.09220
 11502.50000    8.79510    0.05900    0.00900   59.38070  104.40730   98.43000    3.10880    2.60840    0.08490  181.88000  171.43470  125.64340  116.15510    0.08990
 11503.00000    8.79350    0.06410    0.00780   59.36990  104.40730   99.86370    3.15270    2.59740    0.08540  183.31720  172.31380  126.41890  116.20960    0.08760
 11503.50000    8.79190    0.06590    0.00660   59.35910  104.40730   99.04390    3.18350    2.59570    0.08550  184.75450  173.19290  124.13080  116.26400    0.08700
 11504.00000    8.77090    0.06270    0.00540   59.35400  104.40730   96.10280    3.18440    2.61320    0.08550  185.40590  174.07200  123.64240  116.31850    0.08990
 11504.50000    8.78820    0.05860    0.00410   59.47730  103.53540   94.69460    3.18530    2.61780    0.08550  184.87860  174.95110  123.15390  116.37300    0.09370
 11505.00000    8.79460    0.05990    0.00390   59.48940  102.08230   93.93840    3.12690    2.61780    0.08550  184.35120  175.83020  122.66550  116.42750    0.09560
 11505.50000    8.79390    0.06540    0.00000   59.50150   99.81180   93.74450    3.06300    2.59950    0.08550  183.92940  176.70930  122.17710  116.48200    0.09410
 11506.00000    8.79310    0.07120    0.00000   59.56560   99.48360   93.80200    2.99500    2.58120    0.08550  183.87300  177.41260  121.88410  116.53650    0.09220
 11506.50000    8.79240    0.07080    0.00000   59.49410  102.10560   93.94970    2.99630    2.58260    0.08550  183.81650  179.58560  121.88410  116.59090    0.08920
 11507.00000    8.78950    0.06790    0.00000   59.50550  103.96500   95.00440    3.06140    2.58690    0.08550  183.76010  177.54240  122.08120  116.64540    0.08750
 11507.50000    8.77820    0.06800    0.00000   59.51680  104.39890   96.49080    3.12420    2.59180    0.08550  183.70370  174.13690  123.06710  116.69990    0.08880
 11508.00000    8.76750    0.06790    0.00000   59.90640  104.26680   97.08850    3.16970    2.59670    0.08550  183.64730  172.09360  124.05290  116.75440    0.09060
 11508.50000    8.77010    0.06470    0.00000   59.87110  103.56440   96.20350    3.21520    2.60160    0.08550  183.59080  170.04990  125.03870  116.79800    0.09230
 11509.00000    8.77270    0.06370    0.00000   59.71640  102.45430   96.01750    3.22430    2.60640    0.08560  183.53440  170.25070  126.02460  116.79800    0.09220
 11509.50000    8.79010    0.06910    0.00000   59.50600   99.54780   95.89880    3.19790    2.60740    0.08590  183.47800  170.45150  126.41890  116.79800    0.09050
 11510.00000    8.78960    0.07520    0.00000   59.50040   98.41900   94.93390    3.15370    2.56740    0.08590  183.42150  170.65230  126.11130  115.68160    0.08960
 11510.50000    8.79000    0.07780    0.00000   59.50170   97.39770   93.29640    3.10960    2.56900    0.08590  183.36510  170.85320  125.73300  115.00150    0.09090
 11511.00000    8.79050    0.07050    0.00000   59.50290   97.39770   93.65980    3.05760    2.57670    0.08600  183.30870  169.07830  123.89970  114.32140    0.09200
 11511.50000    8.79090    0.06590    0.00000   59.50420   97.39770   95.57050    3.04240    2.58880    0.08650  183.25230  166.75410  123.27900  113.64130    0.09160
 11512.00000    8.79130    0.06300    0.00310   59.53850   97.39770   96.82320    3.10750    2.60090    0.08700  183.19580  166.43290  122.04750  113.22610    0.09110
 11512.50000    8.79180    0.06260    0.00700   59.45610   97.39770   97.08320    3.20200    2.60540    0.08710  183.13940  168.24760  121.77520  113.90120    0.09390
 11513.00000    8.78890    0.06220    0.00920   59.39940   97.39770   95.70070    3.24990    2.61110    0.08710  183.08300  170.06220  121.64470  114.57930    0.09780
 11513.50000    8.78100    0.05960    0.01140   59.49530   97.39770   95.16290    3.28120    2.61690    0.08700  183.02660  170.76810  121.72700  115.25990    0.10040
 11514.00000    8.76950    0.05580    0.01360   59.56470   97.39770   95.44520    3.28150    2.62260    0.08670  182.97010  170.70130  121.89450  115.94460    0.09920
 11514.50000    8.79340    0.05190    0.01580   59.69120   97.39770   97.56340    3.27570    2.62840    0.08650  182.91370  170.62490  122.29140  117.34480    0.09680
 11515.00000    8.79580    0.05300    0.01370   59.62590   97.39770   99.70840    3.18980    2.62900    0.08710  182.85730  170.54860  122.68840  117.32750    0.09440
 11515.50000    8.79820    0.05940    0.01160   59.70470   97.39770  101.81720    3.13220    2.60930    0.08710  182.80090  170.47220  123.08530  117.30780    0.09380
 11516.00000    8.79980    0.06410    0.00950   59.74300   97.39770  101.22770    3.13150    2.59590    0.08720  182.74440  170.24030  123.48220  117.28810    0.09300
 11516.50000    8.79830    0.06220    0.00740   59.66440   97.39770   98.74510    3.15850    2.60260    0.08760  182.68800  170.66610  123.87920  116.60330    0.09270
 11517.00000    8.79690    0.05330    0.00610   59.51220   97.39770   94.91170    3.27150    2.61690    0.08760  181.76280  168.91740  124.27610  115.64590    0.09260
 11517.50000    8.78940    0.04500    0.00810   59.51030   97.39770   90.67890    3.40890    2.63120    0.08810  180.83770  170.62910  123.83500  116.21670    0.09250
 11518.00000    8.75810    0.04380    0.00940   59.55410   97.39770   89.65220    3.52310    2.64260    0.08840  179.91250  170.40870  122.46800  115.18230    0.09230
 11518.50000    8.77140    0.04830    0.01080   59.69480   97.39770   92.52350    3.50800    2.63690    0.08850  178.98730  170.16660  123.20160  113.36290    0.09430
 11519.00000    8.77330    0.04990    0.01210   59.70700   97.39770   93.91870    3.44520    2.62720    0.08860  178.06220  169.92450  123.93530  112.82540    0.09670
 11519.50000    8.79370    0.04980    0.01350   59.80580   97.39770   95.49340    3.25000    2.62530    0.08860  177.13700  169.68240  124.66900  112.99950    0.09650
 11520.00000    8.79060    0.05010    0.01460   59.81590   97.39770   97.32360    3.08910    2.62650    0.08800  176.21180  169.44030  125.25120  112.68100    0.09630
 11520.50000    8.78740    0.05120    0.01310   59.72450   97.39770  101.11900    3.02890    2.62410    0.08750  175.28670  169.19820  123.00380  113.06440    0.09580
 11521.00000    8.78420    0.05240    0.01050   59.73310   97.39770  102.97680    3.09770    2.62150    0.08720  174.36150  168.95610  121.31790  112.53080    0.09400
