~Version ---------------------------------------------------
VERS.   2.0 : CWLS log ASCII Standard -VERSION 2.0
WRAP.    NO : One line per depth step
DLM . SPACE : Column Data Section Delimiter
~Well ------------------------------------------------------
STRT .F                 9250.0 : START DEPTH
STOP .F                15908.0 : STOP DEPTH
STEP .F                    0.5 : STEP
NULL .                -9999.25 : NULL VALUE
COMP .                         : COMPANY
WELL .                         : WELL
FLD  .                         : FIELD
LOC  .                         : LOCATION
PROV .                         : PROVINCE
CNTY .                         : COUNTY
STAT .                         : STATE
CTRY .                         : COUNTRY
SRVC .                         : SERVICE COMPANY
DATE .                         : DATE
UWI  .                         : UNIQUE WELL ID
API  .                         : API NUMBER
SLAT .WGS84  5.959390092250096 : SURFACE LATITUDE
SLON .WGS84 2.8158245771146966 : SURFACE LONGITUDE
DATUM.F                 1449.0 : DEPTH DATUM ELEV
~Curve Information -----------------------------------------
DEPT   .F     : 
CALD   .IN    : CALIPER FROM DENSITY LOG
DPHI_LS.DEC   : DENSITY POROSITY LIMESTONE
DRHO   .G/C3  : BULK DENSITY CORRECTION
DTCO   .US/F  : DELTA-T COMPRESSIONAL
DTSM   .US/F  : DELTA-T SHEAR
GRD    .GAPI  : GAMMA RAY FROM DENSITY LOG
PEF    .B/E   : PHOTOELECTRIC FACTOR
RHOB   .G/C3  : BULK DENSITY
SPHI   .DEC   : SONIC POROSITY
TBIT20 .OHMM  : AUTOMATICALLY ADDED BY PROCLASCURVE_INSERT.
TBIT30 .OHMM  : AUTOMATICALLY ADDED BY PROCLASCURVE_INSERT.
TBIT60 .OHMM  : AUTOMATICALLY ADDED BY PROCLASCURVE_INSERT.
TBIT90 .OHMM  : AUTOMATICALLY ADDED BY PROCLASCURVE_INSERT.
TNPH_LS.DEC   : THERMAL NEUTRON POROSITY [LIMESTONE]
~Params ----------------------------------------------------
~Other -----------------------------------------------------
~ASCII -----------------------------------------------------
# ...
 14545.50000    8.78490    0.02810    0.02520   59.90150  100.19020  118.19320    3.46150    2.66380    0.08490  200.63750  175.83850  125.89970  124.09240    0.10950
 14546.00000    8.78590    0.03110    0.02710   59.85470  100.17870  118.04610    3.49430    2.67060    0.08490  201.96700  176.83870  125.95810  124.30640    0.10930
 14546.50000    8.78090    0.04230    0.01820   59.84700  100.16730  117.89900    3.52030    2.67130    0.08500  203.29650  177.90880  126.01640  124.09240    0.10900
 14547.00000    8.77210    0.06030    0.01140   59.77190  100.15580  118.01620    3.52050    2.63300    0.08550  204.62590  181.80160  126.07480  123.41820    0.10880
 14547.50000    8.78480    0.06540    0.01140   59.76380  100.14440  117.80530    3.51400    2.59470    0.08550  205.95540  183.05080  126.13310  122.05390    0.10840
 14548.00000    8.77060    0.06290    0.01140   59.78840  100.13290  117.25700    3.47250    2.59470    0.08550  207.28490  181.61820  127.70200  120.68950    0.10790
 14548.50000    8.78590    0.06540    0.01140   59.86220  100.12150  118.30170    3.43090    2.60500    0.08550  208.61440  180.35100  128.48200  120.17920    0.10700
 14549.00000    8.78570    0.06860    0.00990   59.86640  100.11000  119.97210    3.43840    2.60570    0.08500  209.94380  179.35330  129.26660  119.40980    0.10730
 14549.50000    8.78560    0.06650    0.00740   59.87060  100.09860  121.70120    3.45850    2.59230    0.08510  211.27330  180.02160  128.80370  117.94710    0.11090
 14550.00000    8.77180    0.06350    0.00550   59.91170  100.08710  122.32430    3.46580    2.59270    0.08530  212.60280  180.68990  127.64670  117.20750    0.11280
 14550.50000    8.78590    0.05990    0.00490   59.91120  100.07560  121.98510    3.49950    2.60010    0.08570  213.84290  180.67830  126.48970  116.84150    0.11430
 14551.00000    8.78510    0.05620    0.00300   59.91060  100.06420  121.67930    3.53330    2.60750    0.08690  213.41290  181.75770  125.33270  116.47540    0.11210
 14551.50000    8.78430    0.05250    0.00300   59.91000  100.05270  121.55350    3.59150    2.61490    0.08810  211.26260  181.93120  124.62590  116.10930    0.11050
 14552.00000    8.77680    0.05220    0.00310   59.90920  100.04130  121.30040    3.66060    2.62230    0.08890  209.97240  178.36350  122.67640  115.74320    0.11080
 14552.50000    8.78670    0.05570    0.00510   59.90500  100.02980  121.58120    3.71350    2.62370    0.08900  210.80450  174.79580  120.89260  115.37710    0.11060
 14553.00000    8.78950    0.05830    0.00720   59.90080  100.01840  125.42330    3.73280    2.61600    0.08910  214.96460  182.94900  123.32700  115.01100    0.10980
 14553.50000    8.79240    0.05510    0.00930   59.89660  100.00690  129.04940    3.68540    2.61140    0.08920  219.12470  184.81730  124.35640  114.64490    0.10840
 14554.00000    8.79520    0.05040    0.01130   59.89240   99.99550  131.57690    3.64100    2.61900    0.08920  221.79920  182.42460  125.38570  114.27880    0.10670
 14554.50000    8.79310    0.04420    0.01340   59.88830   99.98400  130.37000    3.61470    2.62660    0.08910  221.97480  183.46820  126.41510  113.91270    0.10590
 14555.00000    8.78670    0.04000    0.01600   59.88410   99.97260  127.74220    3.60480    2.63420    0.08910  222.41380  184.51180  127.06260  113.54660    0.10670
 14555.50000    8.79110    0.03550    0.01700   59.87990  100.12490  124.48610    3.64180    2.64180    0.08940  222.85290  184.96530  126.87470  113.18050    0.11110
 14556.00000    8.81070    0.03190    0.01900   59.87570  102.47900  123.40680    3.69520    2.65150    0.09010  223.29190  184.73910  127.78650  115.13560    0.11270
 14556.50000    8.78630    0.03120    0.01900   59.87150  101.39460  123.90380    3.75960    2.65740    0.09030  223.73090  186.03260  127.34730  116.60220    0.11020
 14557.00000    8.78630    0.03390    0.01910   59.86730  100.85510  126.28950    3.82390    2.65560    0.09100  224.16990  191.00170  127.04700  118.06880    0.10760
 14557.50000    8.78630    0.04070    0.01820   59.86310  100.51560  126.63600    3.85360    2.65010    0.09130  224.42180  189.55580  126.92690  119.53550    0.10560
 14558.00000    8.78630    0.04620    0.01660   59.85890  100.17610  126.41950    3.85090    2.64360    0.09250  224.62680  189.62450  126.92690  121.00210    0.10550
 14558.50000    8.78630    0.04870    0.01510   59.85470   99.83650  123.95820    3.78640    2.63620    0.09360  221.72430  187.00010  126.92690  121.55720    0.10530
 14559.00000    8.78630    0.04950    0.01360   59.85060   99.56490  123.78220    3.73160    2.62880    0.09360  228.02400  186.47220  126.92690  121.50730    0.10440
 14559.50000    8.78630    0.05150    0.01200   59.84640   99.56490  125.17670    3.66700    2.62260    0.09350  228.70190  184.97820  126.92690  119.99490    0.10340
 14560.00000    8.78630    0.05160    0.01050   59.84220   99.53280  125.87260    3.66190    2.62230    0.09310  227.97440  184.77620  128.48200  118.48240    0.10320
 14560.50000    8.78630    0.04820    0.00890   59.83800   99.56720  131.41470    3.69560    2.62230    0.09170  227.53790  187.94360  130.51120  116.97000    0.10420
 14561.00000    8.78640    0.04330    0.00740   59.83380   99.58930  132.66910    3.72930    2.62590    0.09070  238.92350  191.11100  131.64940  115.45750    0.10380
 14561.50000    8.81910    0.04140    0.00680   59.82960   99.61150  133.26980    3.72690    2.63480    0.08990  237.65800  189.59090  129.34450  114.55010    0.10150
 14562.00000    8.82140    0.04440    0.00680   59.82540   99.63370  133.83040    3.72890    2.64370    0.08990  231.47620  185.18390  128.02990  116.34930    0.09980
 14562.50000    8.83300    0.05250    0.00680   59.93290   99.56490  133.10550    3.70810    2.62640    0.08990  229.00340  185.09450  127.96050  115.82280    0.09980
 14563.00000    8.82930    0.05720    0.00670   60.09350   99.56490  131.60300    3.65380    2.60920    0.09030  230.05150  187.27640  127.35270  116.03380    0.10000
 14563.50000    8.82550    0.04840    0.00980   60.13780   99.56490  130.69700    3.62240    2.60500    0.09030  231.10440  189.45830  127.07970  116.24490    0.10040
 14564.00000    8.82180    0.03190    0.01580   60.25920   99.56490  130.97350    3.60740    2.64060    0.09110  231.10440  189.37630  126.80660  115.79650    0.10090
 14564.50000    8.81800    0.01940    0.02230   60.32270   99.56490  132.76460    3.59140    2.68790    0.09100  231.10440  187.13910  127.22990  115.18330    0.09980
 14565.00000    8.81430    0.01940    0.02620   60.32030   99.56490  132.31910    3.58180    2.67840    0.09100  228.59470  187.02030  126.86760  114.91980    0.10130
 14565.50000    8.81060    0.02690    0.02370   60.31790   99.56490  129.46680    3.58420    2.66650    0.09090  226.92150  188.56740  128.20780  115.89640    0.10330
 14566.00000    8.80680    0.03500    0.02060   60.27450   99.66190  125.69700    3.60470    2.65460    0.09090  239.70300  188.82200  129.63820  116.89920    0.10290
 14566.50000    8.80310    0.03840    0.01820   60.06700   99.57900  125.12490    3.62530    2.64510    0.09100  236.44170  186.28700  129.00900  114.81320    0.10050
 14567.00000    8.79940    0.03840    0.01680   59.81000   99.60260  127.73600    3.64400    2.64510    0.09110  230.05150  185.36030  127.40730  113.40380    0.09980
 14567.50000    8.79560    0.03960    0.01540   59.69830   99.62610  130.21420    3.64100    2.64440    0.09100  233.22470  187.47040  128.57620  113.66330    0.10200
 14568.00000    8.79190    0.04120    0.01400   59.52750   99.64970  131.44540    3.66040    2.64330    0.09100  234.29210  190.41940  128.94400  113.58510    0.10470
 14568.50000    8.78810    0.04580    0.01260   59.50290   99.56610  132.83110    3.63320    2.64080    0.09020  234.29210  190.98980  128.87310  113.31790    0.10520
 14569.00000    8.78440    0.04840    0.01040   59.24050   99.56810  135.32510    3.59410    2.63540    0.08970  234.10370  189.48470  127.41530  112.62880    0.10520
