~Version ---------------------------------------------------
VERS.   2.0 : CWLS log ASCII Standard -VERSION 2.0
WRAP.    NO : One line per depth step
DLM . SPACE : Column Data Section Delimiter
~Well ------------------------------------------------------
STRT .F                 9250.0 : START DEPTH
STOP .F                15908.0 : STOP DEPTH
STEP .F                    0.5 : STEP
NULL .                -9999.25 : NULL VALUE
COMP .                         : COMPANY
WELL .                         : WELL
FLD  .                         : FIELD
LOC  .                         : LOCATION
PROV .                         : PROVINCE
CNTY .                         : COUNTY
STAT .                         : STATE
CTRY .                         : COUNTRY
SRVC .                         : SERVICE COMPANY
DATE .                         : DATE
UWI  .                         : UNIQUE WELL ID
API  .                         : API NUMBER
SLAT .WGS84  5.959390092250096 : SURFACE LATITUDE
SLON .WGS84 2.8158245771146966 : SURFACE LONGITUDE
DATUM.F                 1449.0 : DEPTH DATUM ELEV
~Curve Information -----------------------------------------
DEPT   .F     : 
CALD   .IN    : CALIPER FROM DENSITY LOG
DPHI_LS.DEC   : DENSITY POROSITY LIMESTONE
DRHO   .G/C3  : BULK DENSITY CORRECTION
DTCO   .US/F  : DELTA-T COMPRESSIONAL
DTSM   .US/F  : DELTA-T SHEAR
GRD    .GAPI  : GAMMA RAY FROM DENSITY LOG
PEF    .B/E   : PHOTOELECTRIC FACTOR
RHOB   .G/C3  : BULK DENSITY
SPHI   .DEC   : SONIC POROSITY
TBIT20 .OHMM  : AUTOMATICALLY ADDED BY PROCLASCURVE_INSERT.
TBIT30 .OHMM  : AUTOMATICALLY ADDED BY PROCLASCURVE_INSERT.
TBIT60 .OHMM  : AUTOMATICALLY ADDED BY PROCLASCURVE_INSERT.
TBIT90 .OHMM  : AUTOMATICALLY ADDED BY PROCLASCURVE_INSERT.
TNPH_LS.DEC   : THERMAL NEUTRON POROSITY [LIMESTONE]
~Params ----------------------------------------------------
~Other -----------------------------------------------------
~ASCII -----------------------------------------------------
# ...
 15865.50000    8.83150    0.07460    0.01220   61.07010  101.84500   -9999.25    2.74190    2.58640    0.09630  130.26400  118.68690  100.66160   92.84760   -9999.25
 15866.00000    8.83960    0.07780    0.01190   61.07010  100.34120   -9999.25    2.77130    2.58670    0.09610  130.51110  120.05420  100.70220   92.84760   -9999.25
 15866.50000    8.84450    0.08440    0.01180   61.07010   98.24850   -9999.25    2.81990    2.57810    0.09590  131.06330  123.39920   98.88750   92.84760   -9999.25
 15867.00000    8.84450    0.09110    0.01170   61.07010   96.78110   -9999.25    2.82420    2.56320    0.09550  132.24040  123.25130   98.88750   92.84760   -9999.25
 15867.50000   -9999.25   -9999.25   -9999.25   61.07010   97.09120   -9999.25   -9999.25   -9999.25    0.09530  133.84540  123.10340   98.98830   92.84760   -9999.25
 15868.00000   -9999.25   -9999.25   -9999.25   61.07010   97.40130   -9999.25   -9999.25   -9999.25    0.09490  135.45050  122.95550   99.08900   92.84760   -9999.25
 15868.50000   -9999.25   -9999.25   -9999.25   61.06170   97.57640   -9999.25   -9999.25   -9999.25    0.09490  134.50750  122.80760   99.18980   93.69940   -9999.25
 15869.00000   -9999.25   -9999.25   -9999.25   61.18780   97.23890   -9999.25   -9999.25   -9999.25    0.09480  133.56460  122.65970   99.29050   93.69940   -9999.25
 15869.50000   -9999.25   -9999.25   -9999.25   61.20610   96.77900   -9999.25   -9999.25   -9999.25    0.09480  132.99890  122.51180   99.39120   93.69940   -9999.25
 15870.00000   -9999.25   -9999.25   -9999.25   61.16550   97.03160   -9999.25   -9999.25   -9999.25    0.09440  132.56800  122.36390   99.49200   95.42660   -9999.25
 15870.50000   -9999.25   -9999.25   -9999.25   61.20850   97.27860   -9999.25   -9999.25   -9999.25    0.09440  134.51380  122.21600   99.59270   95.42660   -9999.25
 15871.00000   -9999.25   -9999.25   -9999.25   61.22080   97.42290   -9999.25   -9999.25   -9999.25    0.09450  135.45050  122.06800   99.69350   95.42660   -9999.25
 15871.50000   -9999.25   -9999.25   -9999.25   61.30030   97.56720   -9999.25   -9999.25   -9999.25    0.09480  134.66430  121.92010   99.79420   95.42660   -9999.25
 15872.00000   -9999.25   -9999.25   -9999.25   61.30650   98.03620   -9999.25   -9999.25   -9999.25    0.09480  134.38240  121.77220   99.89490   95.42660   -9999.25
 15872.50000   -9999.25   -9999.25   -9999.25   61.31270   98.07300   -9999.25   -9999.25   -9999.25    0.09480  134.10060  121.62430   99.99570   95.42660   -9999.25
 15873.00000   -9999.25   -9999.25   -9999.25   61.31900   97.76490   -9999.25   -9999.25   -9999.25    0.09480  133.81880  121.47640  100.09640   95.42660   -9999.25
 15873.50000   -9999.25   -9999.25   -9999.25   61.32520   97.30700   -9999.25   -9999.25   -9999.25    0.09480  133.53700  121.46590  100.19720   94.55910   -9999.25
 15874.00000   -9999.25   -9999.25   -9999.25   61.30440   96.49150   -9999.25   -9999.25   -9999.25    0.09480  133.25520  121.58750  100.29790   92.84760   -9999.25
 15874.50000   -9999.25   -9999.25   -9999.25   61.19880   96.61330   -9999.25   -9999.25   -9999.25    0.09480  132.97340  121.70910  100.39870   92.00350   -9999.25
 15875.00000   -9999.25   -9999.25   -9999.25   61.18580   96.73510   -9999.25   -9999.25   -9999.25    0.09480  132.69160  121.83070  100.49940   92.00350   -9999.25
 15875.50000   -9999.25   -9999.25   -9999.25   61.17280   96.89850   -9999.25   -9999.25   -9999.25    0.09480  132.40970  121.95220  100.60010   92.00350   -9999.25
 15876.00000   -9999.25   -9999.25   -9999.25   61.15980   99.24600   -9999.25   -9999.25   -9999.25    0.09480  132.12790  122.07380  100.70090   92.00350   -9999.25
 15876.50000   -9999.25   -9999.25   -9999.25   61.17140  102.50100   -9999.25   -9999.25   -9999.25    0.09480  131.84610  122.19540  100.80160   92.00350   -9999.25
 15877.00000   -9999.25   -9999.25   -9999.25   61.03920  105.75590   -9999.25   -9999.25   -9999.25    0.09480  131.95550  122.31700  100.90240   92.00350   -9999.25
 15877.50000   -9999.25   -9999.25   -9999.25   60.95950  105.74320   -9999.25   -9999.25   -9999.25    0.09480  133.23250  122.43860  101.00310   92.00350   -9999.25
 15878.00000   -9999.25   -9999.25   -9999.25   60.62280  105.73050   -9999.25   -9999.25   -9999.25    0.09480  134.50940  122.56020  101.10380   92.84760   -9999.25
 15878.50000   -9999.25   -9999.25   -9999.25   60.18850  105.71780   -9999.25   -9999.25   -9999.25    0.09480  135.78640  122.68180  101.20460   93.69940   -9999.25
 15879.00000   -9999.25   -9999.25   -9999.25   60.50610  105.70500   -9999.25   -9999.25   -9999.25    0.09480  137.06340  122.80340  101.30530   93.69940   -9999.25
 15879.50000   -9999.25   -9999.25   -9999.25   60.93200  105.69230   -9999.25   -9999.25   -9999.25    0.09480  137.94720  123.97590  101.32550   94.55910   -9999.25
 15880.00000   -9999.25   -9999.25   -9999.25   60.92100  105.67960   -9999.25   -9999.25   -9999.25    0.09480  137.97290  124.97850  101.32550   95.42660   -9999.25
 15880.50000   -9999.25   -9999.25   -9999.25   60.64860  105.64330   -9999.25   -9999.25   -9999.25    0.09480  137.06440  124.16270  101.32550   95.42660   -9999.25
 15881.00000   -9999.25   -9999.25   -9999.25   60.14470  105.70110   -9999.25   -9999.25   -9999.25    0.09480  137.06440  123.34700  100.71040   96.30210   -9999.25
 15881.50000   -9999.25   -9999.25   -9999.25   60.56920  105.69720   -9999.25   -9999.25   -9999.25    0.09480  136.87760  122.53120  100.68710   96.30210   -9999.25
 15882.00000   -9999.25   -9999.25   -9999.25   61.01610  105.69320   -9999.25   -9999.25   -9999.25    0.09480  139.61430  123.35250  100.66390   96.30210   -9999.25
 15882.50000   -9999.25   -9999.25   -9999.25   61.01620  105.68930   -9999.25   -9999.25   -9999.25    0.09480  142.21280  124.74240  100.64070   96.28530   -9999.25
 15883.00000   -9999.25   -9999.25   -9999.25   61.01620  105.68540   -9999.25   -9999.25   -9999.25    0.09480  139.57840  127.40730  100.61750   96.20110   -9999.25
 15883.50000   -9999.25   -9999.25   -9999.25   61.01620  105.68150   -9999.25   -9999.25   -9999.25    0.09480  137.31490  124.88040  100.59430   96.11690   -9999.25
 15884.00000   -9999.25   -9999.25   -9999.25   61.01620  105.62520   -9999.25   -9999.25   -9999.25    0.09480  138.45300  122.35360  100.57110   96.03270   -9999.25
 15884.50000   -9999.25   -9999.25   -9999.25   61.01630  105.64150   -9999.25   -9999.25   -9999.25    0.09480  139.59100  123.65760  100.54790   95.94850   -9999.25
 15885.00000   -9999.25   -9999.25   -9999.25   61.01630  105.65780   -9999.25   -9999.25   -9999.25    0.09480  139.90180  123.42260  100.52470   95.86440   -9999.25
 15885.50000   -9999.25   -9999.25   -9999.25   61.01630  105.67400   -9999.25   -9999.25   -9999.25    0.09510  140.67880  125.46970  100.50150   95.78020   -9999.25
 15886.00000   -9999.25   -9999.25   -9999.25   61.01630  105.67850   -9999.25   -9999.25   -9999.25    0.09530  137.98390  127.00390  100.47830   95.69600   -9999.25
 15886.50000   -9999.25   -9999.25   -9999.25   61.00570  105.67510   -9999.25   -9999.25   -9999.25    0.09530  138.17010  126.62210  100.45510   95.61180   -9999.25
 15887.00000   -9999.25   -9999.25   -9999.25   60.57820  105.67170   -9999.25   -9999.25   -9999.25    0.09530  138.35630  126.24040  100.43190   95.52760   -9999.25
 15887.50000   -9999.25   -9999.25   -9999.25   60.15960  105.66830   -9999.25   -9999.25   -9999.25    0.09530  138.54250  125.85870  100.40870   95.44350   -9999.25
 15888.00000   -9999.25   -9999.25   -9999.25   60.54170  105.66490   -9999.25   -9999.25   -9999.25    0.09520  138.72870  125.47700  100.38540   94.55910   -9999.25
 15888.50000   -9999.25   -9999.25   -9999.25   60.99580  105.66150   -9999.25   -9999.25   -9999.25    0.09490  138.91490  125.09520  100.36220   94.55910   -9999.25
 15889.00000   -9999.25   -9999.25   -9999.25   61.00200  105.65810   -9999.25   -9999.25   -9999.25    0.09480  139.10110  124.78980  100.33900   94.55910   -9999.25
