~Version ---------------------------------------------------
VERS.   2.0 : CWLS log ASCII Standard -VERSION 2.0
WRAP.    NO : One line per depth step
DLM . SPACE : Column Data Section Delimiter
~Well ------------------------------------------------------
STRT .F                 9250.0 : START DEPTH
STOP .F                15908.0 : STOP DEPTH
STEP .F                    0.5 : STEP
NULL .                -9999.25 : NULL VALUE
COMP .                         : COMPANY
WELL .                         : WELL
FLD  .                         : FIELD
LOC  .                         : LOCATION
PROV .                         : PROVINCE
CNTY .                         : COUNTY
STAT .                         : STATE
CTRY .                         : COUNTRY
SRVC .                         : SERVICE COMPANY
DATE .                         : DATE
UWI  .                         : UNIQUE WELL ID
API  .                         : API NUMBER
SLAT .WGS84  5.959390092250096 : SURFACE LATITUDE
SLON .WGS84 2.8158245771146966 : SURFACE LONGITUDE
DATUM.F                 1449.0 : DEPTH DATUM ELEV
~Curve Information -----------------------------------------
DEPT   .F     : 
CALD   .IN    : CALIPER FROM DENSITY LOG
DPHI_LS.DEC   : DENSITY POROSITY LIMESTONE
DRHO   .G/C3  : BULK DENSITY CORRECTION
DTCO   .US/F  : DELTA-T COMPRESSIONAL
DTSM   .US/F  : DELTA-T SHEAR
GRD    .GAPI  : GAMMA RAY FROM DENSITY LOG
PEF    .B/E   : PHOTOELECTRIC FACTOR
RHOB   .G/C3  : BULK DENSITY
SPHI   .DEC   : SONIC POROSITY
TBIT20 .OHMM  : AUTOMATICALLY ADDED BY PROCLASCURVE_INSERT.
TBIT30 .OHMM  : AUTOMATICALLY ADDED BY PROCLASCURVE_INSERT.
TBIT60 .OHMM  : AUTOMATICALLY ADDED BY PROCLASCURVE_INSERT.
TBIT90 .OHMM  : AUTOMATICALLY ADDED BY PROCLASCURVE_INSERT.
TNPH_LS.DEC   : THERMAL NEUTRON POROSITY [LIMESTONE]
~Params ----------------------------------------------------
~Other -----------------------------------------------------
~ASCII -----------------------------------------------------
# ...
 13681.50000    8.75730    0.03280    0.02050   60.43740   99.01700  100.82250    3.43650    2.65800    0.09270  181.05390  154.55780  106.26050   98.09120    0.09960
 13682.00000    8.75860    0.03640    0.02150   60.43080   99.01780  103.80420    3.43910    2.65010    0.09270  182.03360  154.27100  104.49830   97.96150    0.09790
 13682.50000    8.74680    0.03940    0.02620   60.42430   99.01860  103.00760    3.47270    2.63960    0.09210  181.11660  154.17100  104.14590   97.83180    0.09610
 13683.00000    8.75570    0.03610    0.02050   60.33520   99.01940   97.21570    3.49840    2.63920    0.09160  182.48140  156.77410  105.72240   97.70210    0.09470
 13683.50000    8.76460    0.03720    0.02050   60.34740   99.02030   93.62490    3.50090    2.64490    0.09100  190.51220  165.72230  110.42330   97.69780    0.09470
 13684.00000    8.77870    0.04100    0.01880   60.46020   99.02110   92.42290    3.50330    2.64720    0.09050  191.55600  166.94360  114.80740   98.19500    0.09510
 13684.50000    8.78290    0.04620    0.01710   60.45060   99.02190   92.67020    3.50580    2.63610    0.09010  191.97040  161.97030  111.87070   99.39830    0.09780
 13685.00000    8.77940    0.05270    0.01530   60.44090   99.02270   92.82750    3.50820    2.62510    0.09020  189.86770  158.73020  109.73970  100.00590    0.10050
 13685.50000    8.77600    0.05890    0.01070   60.43130   99.02360   92.60200    3.50560    2.61410    0.09020  187.76500  159.88500  109.75700  100.00590    0.10320
 13686.00000    8.77260    0.06430    0.00580   60.42170   99.02440   93.09390    3.47710    2.60310    0.09070  187.89600  158.43730  109.77420   99.36390    0.10480
 13686.50000    8.76910    0.05850    0.00490   60.32970   99.02520   94.39580    3.44860    2.61160    0.09070  186.94360  156.98970  109.79200   98.56140    0.10220
 13687.00000    8.76600    0.04940    0.00490   60.32680   99.02610   96.00290    3.40980    2.62490    0.09070  185.71600  153.44420  107.64340   97.75880    0.09890
 13687.50000    8.76410    0.04300    0.00580   60.32380   99.02690   96.12570    3.37090    2.63820    0.09070  183.12290  155.91280  107.97100   97.59830    0.09550
 13688.00000    8.76230    0.03630    0.00680   60.27260   99.02770   94.52230    3.35390    2.65160    0.09070  189.93680  158.21640  108.29860   97.59830    0.09220
 13688.50000    8.76040    0.03120    0.00880   60.33090   99.02850   93.11010    3.35950    2.66060    0.09070  186.61010  156.67110  108.62620   97.59830    0.09020
 13689.00000    8.75860    0.03190    0.01380   60.31740   99.02940   93.06980    3.37310    2.65610    0.09020  186.75320  155.98220  108.95370   97.59830    0.09060
 13689.50000    8.75670    0.03610    0.02000   60.30380   99.03020   94.28310    3.40850    2.64690    0.09020  186.75320  156.05430  109.28130   97.59830    0.09100
 13690.00000    8.77160    0.03590    0.02250   60.26750   99.03100   97.05410    3.44440    2.65070    0.09020  187.60960  157.13080  110.68710   97.59830    0.09210
 13690.50000    8.77770    0.03100    0.02200   60.31890   99.03180   98.45120    3.44780    2.65970    0.09020  189.03700  158.99140  111.36350   98.19500    0.09350
 13691.00000    8.76800    0.02590    0.02090   60.33100   99.03270   98.72580    3.42520    2.66860    0.09020  191.02460  159.88500  111.36350   98.19500    0.09330
 13691.50000    8.78000    0.03060    0.01660   60.32230   99.03350   97.23730    3.39010    2.67750    0.09020  187.82290  157.48320  111.21360   98.19500    0.09440
 13692.00000    8.76440    0.03810    0.01460   60.27730   99.03430   94.28400    3.42070    2.65990    0.09020  185.73670  155.08140  110.46440   98.19500    0.09640
 13692.50000    8.76260    0.04710    0.01120   60.32410   99.03520   92.07480    3.45230    2.63790    0.09020  186.45840  156.98970  110.01490   98.19500    0.10100
 13693.00000    8.76080    0.05270    0.00940   60.30360   99.03600   90.89660    3.49170    2.61990    0.09070  187.46380  156.08640  110.01490   97.89660    0.10210
 13693.50000    8.75900    0.05110    0.00760   60.28310   99.03680   89.62150    3.50270    2.62640    0.09120  186.45200  159.49360  110.01490   97.59830    0.10320
 13694.00000    8.75720    0.04980    0.00580   60.09390   99.03760   87.49800    3.50500    2.63060    0.09190  185.69920  159.72690  110.01490   97.01110    0.10530
 13694.50000    8.75540    0.05050    0.00490   60.11580   99.03850   86.63110    3.52250    2.62990    0.09160  184.56940  157.45210  110.01490   96.42390    0.10540
 13695.00000    8.75350    0.05490    0.00560   60.12740   99.03930   88.45280    3.53720    2.62330    0.09120  180.63750  154.94720  109.65270   95.83680    0.10280
 13695.50000    8.70260    0.05890    0.00640   60.12350   99.04010   91.17880    3.54040    2.61040    0.09110  178.41310  153.09520  108.92830   95.24960    0.10080
 13696.00000    8.77730    0.05730    0.00720   60.11950   99.04090   90.51320    3.54370    2.61190    0.09110  180.32350  153.56080  109.34980   95.24960    0.10070
 13696.50000    8.77580    0.05320    0.00800   60.11560   99.04180   89.40530    3.54520    2.61760    0.09120  182.78650  154.83580  109.77130   95.24960    0.10060
 13697.00000    8.77440    0.05000    0.00880   60.11170   99.04260   89.40240    3.54000    2.62320    0.09160  184.04130  153.74200  110.31140   96.41680    0.09970
 13697.50000    8.78030    0.04690    0.00940   60.10780   99.04340   92.08020    3.53470    2.62890    0.09170  185.64890  154.31900  110.43160   97.00620    0.09750
 13698.00000    8.76060    0.04640    0.00940   60.10380   99.04430   95.42820    3.51700    2.63150    0.09170  184.38360  154.89590  110.68710   98.55720    0.09600
 13698.50000    8.75480    0.04990    0.00940   60.15230   99.04510   98.77730    3.49570    2.62780    0.09170  183.37130  154.14680  109.03190   99.16080    0.09700
 13699.00000    8.75930    0.05330    0.00830   60.32030   99.04590   98.88450    3.48770    2.62400    0.09180  183.78060  154.97740  107.37670   99.76450    0.09980
 13699.50000    8.76390    0.05620    0.00570   60.31330   99.04670   98.27400    3.44630    2.62020    0.09180  184.18980  154.80310  106.71460  100.00590    0.10260
 13700.00000    8.76850    0.05730    0.00310   60.14020   99.04760   96.20310    3.40500    2.61570    0.09180  182.00740  154.89990  106.71460  100.00590    0.10410
 13700.50000    8.76170    0.05850    0.00190   60.10470   99.04840   93.69500    3.37850    2.61010    0.09120  180.56680  154.99670  107.54220  100.00590    0.10250
 13701.00000    8.77170    0.06040    0.00350   60.11400   99.04920   91.00560    3.34840    2.60670    0.09120  180.05260  155.09350  108.36980  100.00590    0.10110
 13701.50000    8.78050    0.06040    0.00420   60.12340   99.05000   90.17590    3.33400    2.61080    0.09120  179.53850  154.04610  109.19740  100.00590    0.10230
 13702.00000    8.77080    0.05520    0.00500   60.13300   99.05090   92.48010    3.28130    2.62010    0.09190  178.68540  153.72590  110.02500  100.00590    0.10340
 13702.50000    8.76500    0.05010    0.00570   60.14300   99.05170   93.69500    3.29400    2.62940    0.09220  180.73930  154.43010  110.68710  100.00590    0.10380
 13703.00000    8.77150    0.04570    0.00650   60.15300   99.05250   95.08800    3.30670    2.63680    0.09360  182.45200  154.61970  110.68710  100.00590    0.10420
 13703.50000    8.77800    0.04620    0.00720   60.33450   99.05340   96.62750    3.31570    2.63550    0.09450  181.17860  153.45470  110.60950  100.00590    0.10450
 13704.00000    8.78460    0.04810    0.00790   60.24370   99.05420   95.28690    3.32540    2.62920    0.09530  180.54350  152.28980  110.48030  100.61730    0.10420
 13704.50000    8.78780    0.04910    0.00870   60.32860   99.05500   93.10850    3.34100    2.62290    0.09540  180.86570  152.41640  110.35100  100.00590    0.10270
 13705.00000    8.79020    0.05060    0.00940   60.42240   99.05580   94.72140    3.34110    2.62020    0.09610  181.18790  152.74480  110.22180   99.39830    0.10090
