~Version ---------------------------------------------------
VERS.   2.0 : CWLS log ASCII Standard -VERSION 2.0
WRAP.    NO : One line per depth step
DLM . SPACE : Column Data Section Delimiter
~Well ------------------------------------------------------
STRT .F                 9250.0 : START DEPTH
STOP .F                15908.0 : STOP DEPTH
STEP .F                    0.5 : STEP
NULL .                -9999.25 : NULL VALUE
COMP .                         : COMPANY
WELL .                         : WELL
FLD  .                         : FIELD
LOC  .                         : LOCATION
PROV .                         : PROVINCE
CNTY .                         : COUNTY
STAT .                         : STATE
CTRY .                         : COUNTRY
SRVC .                         : SERVICE COMPANY
DATE .                         : DATE
UWI  .                         : UNIQUE WELL ID
API  .                         : API NUMBER
SLAT .WGS84  5.959390092250096 : SURFACE LATITUDE
SLON .WGS84 2.8158245771146966 : SURFACE LONGITUDE
DATUM.F                 1449.0 : DEPTH DATUM ELEV
~Curve Information -----------------------------------------
DEPT   .F     : 
CALD   .IN    : CALIPER FROM DENSITY LOG
DPHI_LS.DEC   : DENSITY POROSITY LIMESTONE
DRHO   .G/C3  : BULK DENSITY CORRECTION
DTCO   .US/F  : DELTA-T COMPRESSIONAL
DTSM   .US/F  : DELTA-T SHEAR
GRD    .GAPI  : GAMMA RAY FROM DENSITY LOG
PEF    .B/E   : PHOTOELECTRIC FACTOR
RHOB   .G/C3  : BULK DENSITY
SPHI   .DEC   : SONIC POROSITY
TBIT20 .OHMM  : AUTOMATICALLY ADDED BY PROCLASCURVE_INSERT.
TBIT30 .OHMM  : AUTOMATICALLY ADDED BY PROCLASCURVE_INSERT.
TBIT60 .OHMM  : AUTOMATICALLY ADDED BY PROCLASCURVE_INSERT.
TBIT90 .OHMM  : AUTOMATICALLY ADDED BY PROCLASCURVE_INSERT.
TNPH_LS.DEC   : THERMAL NEUTRON POROSITY [LIMESTONE]
~Params ----------------------------------------------------
~Other -----------------------------------------------------
~ASCII -----------------------------------------------------
# ...
 15001.50000    8.78800    0.04820    0.02110   60.92050  108.84340  122.43830    3.14410    2.65270    0.09160  195.29780  175.42570  132.45330  126.06470    0.10360
 15002.00000    8.78830    0.05420    0.02250   61.11240  108.47920  122.17670    3.09770    2.64690    0.09160  188.71870  171.32400  131.49890  127.64490    0.10370
 15002.50000    8.78860    0.05570    0.02860   60.92630  109.09570  120.06800    3.13870    2.62440    0.09170  184.77120  167.47520  130.54450  125.82800    0.10450
 15003.00000    8.78890    0.05420    0.03550   60.93570  109.15530  117.28880    3.22330    2.61420    0.09170  183.30450  166.80150  129.59000  124.64070    0.10480
 15003.50000    8.78920    0.05060    0.04410   61.10380  106.20990  116.51510    3.51500    2.62500    0.09140  181.83790  166.80150  128.63560  123.87310    0.10480
 15004.00000    8.80500    0.04830    0.05240   61.39800  103.09660  117.21600    3.59390    2.63010    0.09070  180.37130  165.29870  127.68120  123.10540    0.10450
 15004.50000    8.77920    0.05290    0.04370   61.34140   99.98330  118.20360    3.56200    2.62260    0.09030  178.90460  169.57900  126.72680  122.33780    0.10170
 15005.00000    8.87930    0.06550    0.03080   61.30240   96.87000  117.81160    3.44940    2.61330    0.09110  182.28600  169.20840  125.77240  121.57010    0.09980
 15005.50000    8.83180    0.07860    0.01800   61.33410   94.16720  117.09620    3.30880    2.59540    0.09190  181.67060  167.80470  125.39060  120.80250    0.09980
 15006.00000    8.82740    0.08380    0.01100   61.36580   94.32180  119.10550    3.28940    2.57190    0.09300  178.95850  168.25020  124.62950  120.03480    0.10510
 15006.50000    8.83730    0.07920    0.01880   61.39740   94.59610  123.31920    3.34350    2.56660    0.09400  176.80270  168.69570  124.62950  119.26720    0.11390
 15007.00000    8.87730    0.07410    0.01880   61.51450   95.05550  128.26270    3.41780    2.57470    0.09520  175.12720  161.85100  124.45830  118.49960    0.11760
 15007.50000    8.82830    0.07180    0.01880   61.62360   95.05660  131.69850    3.49830    2.58350    0.09620  172.53890  163.02320  124.17300  117.73190    0.11340
 15008.00000    8.83050    0.07040    0.01870   61.63550   95.05770  133.61010    3.53440    2.58820    0.09710  171.68720  162.79960  123.88760  116.66160    0.10490
 15008.50000    8.83570    0.06690    0.01810   61.64740   95.05880  134.51210    3.43410    2.59600    0.09800  170.26770  162.12550  123.60220  116.66160    0.10380
 15009.00000    8.82380    0.06170    0.01750   61.81440   94.50030  133.85750    3.26680    2.60670    0.09930  171.66450  161.45150  123.31690  116.66160    0.10280
 15009.50000    8.81200    0.05380    0.01700   61.90620   94.23360  132.60010    3.25330    2.61740    0.10060  175.13530  160.77750  123.03150  116.66160    0.10170
 15010.00000    8.79540    0.05100    0.01700   61.76480   93.59590  131.10320    3.21910    2.62520    0.10180  176.52360  160.10340  122.74610  116.66160    0.10360
 15010.50000    8.77610    0.05760    0.01660   61.77610   93.97750  128.82680    3.18500    2.62450    0.10310  173.52370  159.83830  122.46080  114.79780    0.10820
 15011.00000    8.78630    0.06590    0.01560   61.78750   93.88620  126.85840    3.13780    2.58930    0.10380  169.81660  156.21620  121.59360  113.47000    0.11150
 15011.50000    8.79550    0.06920    0.01170   61.79880   93.79490  125.79610    3.11860    2.58960    0.10380  166.11740  149.82560  119.78860  110.93420    0.10940
 15012.00000    8.79500    0.06560    0.00980   61.81020   93.70360  125.64190    3.10700    2.60770    0.10320  167.08930  152.12640  119.35240  111.69600    0.10670
 15012.50000    8.79460    0.05750    0.01050   61.92970   93.62830  125.77990    3.09620    2.62170    0.10290  173.38590  158.99910  121.29360  113.27450    0.10590
 15013.00000    8.79410    0.05250    0.01130   61.93280   93.61720  127.07820    3.10700    2.61720    0.10260  176.77270  162.87700  123.75320  115.54230    0.10800
 15013.50000    8.78200    0.05630    0.01170   61.90570   93.56970  130.21400    3.14090    2.60580    0.10230  178.58610  162.06290  124.49290  116.24320    0.11010
 15014.00000    8.75940    0.06020    0.01370   61.96020   93.59010  134.38110    3.17790    2.60510    0.10200  178.74810  161.05390  124.25660  116.94400    0.11070
 15014.50000    8.76490    0.06260    0.01750   61.94990   93.56090  137.35240    3.19120    2.60650    0.10170  176.43330  160.04490  123.69900  117.64480    0.10900
 15015.00000    8.77040    0.05720    0.01980   61.93960   93.53180  140.32370    3.20440    2.61410    0.10140  174.56330  159.54310  123.14140  118.34560    0.10700
 15015.50000    8.77590    0.05310    0.02210   61.89790   93.62360  140.05890    3.20160    2.62170    0.10100  175.49030  162.21040  122.90540  119.04640    0.10430
 15016.00000    8.78140    0.05530    0.02450   61.93530   93.62580  137.26860    3.19890    2.62310    0.10100  177.03380  164.73400  123.63480  119.74720    0.10430
 15016.50000    8.78690    0.06060    0.01810   61.92970   93.62800  134.47830    3.19620    2.60440    0.10100  177.36340  164.75360  124.15450  120.44800    0.10520
 15017.00000    8.79240    0.05930    0.01560   61.74420   93.63010  131.19890    3.19340    2.61330    0.10100  177.69310  164.77310  124.80740  121.14880    0.10750
 15017.50000    8.79420    0.05530    0.01560   61.66730   94.64690  127.22100    3.19070    2.62240    0.10070  178.02270  164.79270  125.46040  121.84970    0.11220
 15018.00000    8.79050    0.05700    0.01560   61.78520   96.91800  123.30710    3.18790    2.62000    0.10030  178.35230  164.81230  126.11330  122.55050    0.11680
 15018.50000    8.79120    0.06350    0.01560   61.83000  102.71140  120.67540    3.18520    2.61170    0.10000  178.68200  164.83180  126.76620  123.25130    0.11850
 15019.00000    8.79310    0.06660    0.01560   61.89790  105.01750  121.06640    3.19110    2.60350    0.09970  179.01160  164.85140  127.41920  123.95210    0.11770
 15019.50000    8.79490    0.06710    0.01560   61.75030  105.45310  123.02150    3.20100    2.59520    0.09930  179.34120  164.87100  128.07210  124.65290    0.11370
 15020.00000    8.78470    0.06810    0.01560   61.67360  105.45310  124.64690    3.21990    2.58850    0.09850  179.67090  164.89050  128.72500  125.35370    0.10940
 15020.50000    8.76650    0.06780    0.01430   61.65700  105.45310  124.53670    3.25520    2.58850    0.09810  180.00050  165.07590  129.37800  126.05450    0.10720
 15021.00000    8.77280    0.06320    0.01200   61.79340  105.45310  122.83540    3.27740    2.59340    0.09810  179.79540  166.24640  129.63920  126.75530    0.10920
 15021.50000    8.78590    0.06000    0.01010   61.74150  105.45310  121.64090    3.31780    2.60160    0.09800  181.47960  167.95350  129.59000  127.45620    0.11310
 15022.00000    8.78010    0.05970    0.01130   61.78170  105.45310  120.34640    3.34210    2.60720    0.09780  183.62920  169.66060  129.50810  128.15700    0.11720
 15022.50000    8.76930    0.05630    0.01630   61.88750  105.45330  120.77290    3.36080    2.60850    0.09750  185.49470  171.26600  129.42620  128.57750    0.11780
 15023.00000    8.76800    0.04300    0.02130   61.75450  105.41310  123.73990    3.41530    2.63840    0.09700  186.59860  168.70360  129.34420  126.89200    0.11700
 15023.50000    8.76350    0.02890    0.02640   61.82160  105.37290  126.01290    3.45270    2.67900    0.09640  187.70240  167.33880  129.26230  125.20660    0.11450
 15024.00000    8.75900    0.03180    0.02340   61.97220  105.36610  125.67030    3.46750    2.66450    0.09660  188.80630  168.18180  129.18040  123.52120    0.11210
 15024.50000    8.76720    0.05170    0.01800   61.95200  105.40970  124.85360    3.42720    2.62650    0.09680  189.91010  169.02470  129.09850  121.83580    0.11110
 15025.00000    8.79280    0.06490    0.01670   61.83870  105.45330  124.34230    3.35140    2.58850    0.09720  191.01400  169.86770  129.01650  120.15040    0.11190
