~Version ---------------------------------------------------
VERS.   2.0 : CWLS log ASCII Standard -VERSION 2.0
WRAP.    NO : One line per depth step
DLM . SPACE : Column Data Section Delimiter
~Well ------------------------------------------------------
STRT .F                 9250.0 : START DEPTH
STOP .F                15908.0 : STOP DEPTH
STEP .F                    0.5 : STEP
NULL .                -9999.25 : NULL VALUE
COMP .                         : COMPANY
WELL .                         : WELL
FLD  .                         : FIELD
LOC  .                         : LOCATION
PROV .                         : PROVINCE
CNTY .                         : COUNTY
STAT .                         : STATE
CTRY .                         : COUNTRY
SRVC .                         : SERVICE COMPANY
DATE .                         : DATE
UWI  .                         : UNIQUE WELL ID
API  .                         : API NUMBER
SLAT .WGS84  5.959390092250096 : SURFACE LATITUDE
SLON .WGS84 2.8158245771146966 : SURFACE LONGITUDE
DATUM.F                 1449.0 : DEPTH DATUM ELEV
~Curve Information -----------------------------------------
DEPT   .F     : 
CALD   .IN    : CALIPER FROM DENSITY LOG
DPHI_LS.DEC   : DENSITY POROSITY LIMESTONE
DRHO   .G/C3  : BULK DENSITY CORRECTION
DTCO   .US/F  : DELTA-T COMPRESSIONAL
DTSM   .US/F  : DELTA-T SHEAR
GRD    .GAPI  : GAMMA RAY FROM DENSITY LOG
PEF    .B/E   : PHOTOELECTRIC FACTOR
RHOB   .G/C3  : BULK DENSITY
SPHI   .DEC   : SONIC POROSITY
TBIT20 .OHMM  : AUTOMATICALLY ADDED BY PROCLASCURVE_INSERT.
TBIT30 .OHMM  : AUTOMATICALLY ADDED BY PROCLASCURVE_INSERT.
TBIT60 .OHMM  : AUTOMATICALLY ADDED BY PROCLASCURVE_INSERT.
TBIT90 .OHMM  : AUTOMATICALLY ADDED BY PROCLASCURVE_INSERT.
TNPH_LS.DEC   : THERMAL NEUTRON POROSITY [LIMESTONE]
~Params ----------------------------------------------------
~Other -----------------------------------------------------
~ASCII -----------------------------------------------------
# ...
 15433.50000    8.74170    0.04640    0.01880   61.16500   97.06960  100.56250    3.19990    2.63880    0.09610  118.50820  110.60300   93.48040   89.61630    0.08650
 15434.00000    8.74230    0.03930    0.02290   61.16400   97.09500  102.28260    3.20430    2.65330    0.09610  118.77900  109.89590   93.54850   89.64760    0.08530
 15434.50000    8.74290    0.02960    0.02420   61.16290   97.10170   99.67350    3.21410    2.66780    0.09610  119.04990  110.29590   93.61660   89.67900    0.08340
 15435.00000    8.74350    0.03190    0.02280   61.16180   97.10850   95.43160    3.18750    2.66450    0.09600  119.32080  110.40280   93.68470   89.71030    0.08310
 15435.50000    8.74400    0.04110    0.01790   61.16070   97.11520   91.92670    3.15430    2.64770    0.09600  119.59170  110.78100   93.75280   89.74160    0.08370
 15436.00000    8.74460    0.04960    0.01300   61.15960   97.12200   94.19650    3.12110    2.63090    0.09560  119.86260  111.98310   93.82090   89.77300    0.08380
 15436.50000    8.74520    0.05260    0.01110   61.15860   97.12870   97.97590    3.08790    2.62090    0.09600  120.13350  113.18530   93.88900   89.80430    0.08170
 15437.00000    8.74580    0.05200    0.00760   61.01600   97.13540   98.95080    3.06790    2.62090    0.09620  120.40440  114.15060   93.95710   89.83560    0.08260
 15437.50000    8.74640    0.05350    0.00410   60.87610   97.14220   96.92080    3.00930    2.62090    0.09630  120.57450  114.07450   94.02520   89.86700    0.08310
 15438.00000    8.74700    0.05720    0.00340   61.11220   97.14890   94.79620    3.01980    2.61190    0.09630  120.30680  113.85740   94.09330   89.89830    0.08260
 15438.50000    8.74760    0.06000    0.00410   61.17570   97.15570   95.76190    3.04610    2.60960    0.09640  119.85120  113.64040   94.16140   89.92960    0.08320
 15439.00000    8.74810    0.05510    0.00760   61.17760   97.16240   97.79030    3.07250    2.61210    0.09640  119.39560  113.42330   94.22950   89.96100    0.08320
 15439.50000    8.74870    0.04920    0.01100   61.17960   97.16920   99.59660    3.09880    2.61950    0.09640  118.93990  113.20620   94.29760   89.99230    0.08190
 15440.00000    8.74930    0.04630    0.01450   61.18150   97.17590  100.26530    3.12510    2.62690    0.09640  118.48430  112.98920   94.36570   90.02360    0.08030
 15440.50000    8.74990    0.04690    0.01660   61.18350   97.18260   99.31950    3.15210    2.62980    0.09640  118.48430  112.77210   94.43380   90.05490    0.07910
 15441.00000    8.75050    0.04860    0.01660   61.18550   97.19890   97.21040    3.18220    2.62980    0.09640  118.89310  112.55500   94.50190   90.08630    0.07790
 15441.50000    8.75110    0.05120    0.01460   61.18740   97.25330   93.31220    3.21220    2.62920    0.09660  119.91500  112.46820   94.57000   90.11760    0.07780
 15442.00000    8.75160    0.05370    0.00930   61.08650   97.30760   92.01150    3.22430    2.62620    0.09640  120.11940  113.18290   94.63810   90.14890    0.07920
 15442.50000    8.75220    0.05480    0.00760   60.92650   97.38030   93.87360    3.20470    2.62330    0.09620  120.11940  113.89750   94.70620   90.18030    0.08130
 15443.00000    8.75280    0.05460    0.00590   61.09890   97.39730   96.17520    3.15170    2.62030    0.09610  120.37020  114.61210   94.77430   90.21160    0.08160
 15443.50000    8.75340    0.05590    0.00490   61.19830   97.39730   98.48960    3.08550    2.61730    0.09630  120.99730  115.80840   94.84240   90.24290    0.08100
 15444.00000    8.75400    0.05800    0.00580   61.20590   97.38570   98.66530    3.10380    2.61220    0.09640  120.80240  114.75510   94.91050   90.27430    0.08030
 15444.50000    8.75460    0.05860    0.00710   61.21350   97.32750  100.36190    3.11080    2.60830    0.09660  120.91070  113.85210   94.97860   90.30560    0.08010
 15445.00000    8.75520    0.05220    0.00830   61.20380   97.26940   99.88960    3.14570    2.61440    0.09640  120.93610  112.72340   95.04670   90.33690    0.08000
 15445.50000    8.75570    0.04280    0.00950   60.95100   97.21130   99.61630    3.14490    2.62100    0.09640  120.62970  111.59470   95.11480   90.36820    0.07920
 15446.00000    8.75630    0.03850    0.01070   60.57220   97.18800   99.75170    3.12160    2.64000    0.09640  120.53170  110.63660   95.18290   90.39960    0.07910
 15446.50000    8.75690    0.04190    0.01070   60.51890   97.18800   98.92410    3.12580    2.64420    0.09650  120.74640  110.39660   95.25100   90.43090    0.07990
 15447.00000    8.75750    0.04960    0.01070   60.95930   97.18800   96.31560    3.12990    2.63590    0.09640  120.96110  110.52700   95.31910   90.46220    0.08200
 15447.50000    8.75810    0.05560    0.01070   61.20750   97.18800   94.00220    3.13400    2.62210    0.09650  121.17590  112.37950   95.38720   90.49360    0.08300
 15448.00000    8.75870    0.05560    0.01070   61.06760   97.18800   92.98630    3.14670    2.61450    0.09620  121.39060  114.75510   95.45530   90.52490    0.08320
 15448.50000    8.75920    0.05060    0.01070   60.80350   97.18800   93.75480    3.19390    2.61580    0.09560  121.60530  116.87140   95.52340   90.55620    0.08180
 15449.00000    8.75980    0.04700    0.01070   60.98060   97.18800   93.63510    3.24270    2.62290    0.09550  121.77710  114.62090   95.59150   90.58760    0.08010
 15449.50000    8.75330    0.04960    0.01200   61.18900   97.18800   93.37910    3.29970    2.62670    0.09540  121.51760  111.65220   95.45340   90.61260    0.08020
 15450.00000    8.75550    0.05040    0.01370   61.08350   97.18800   93.86420    3.33850    2.63050    0.09510  120.22000  111.65220   95.00580   89.78840    0.08130
 15450.50000    8.77110    0.04650    0.01470   60.91760   97.18800   95.11880    3.37890    2.63430    0.09520  118.92250  111.09150   94.55830   89.78840    0.08400
 15451.00000    8.73120    0.04290    0.01670   61.05770   97.35370   95.03640    3.38640    2.63800    0.09510  117.62500  111.00540   94.11080   89.78840    0.08490
 15451.50000    8.74490    0.04560    0.01390   60.94090   97.62890   93.56900    3.39020    2.63880    0.09520  116.32740  110.91930   93.66330   89.67730    0.08430
 15452.00000    8.73890    0.05100    0.01120   60.86530   97.90420   91.63210    3.36070    2.63240    0.09500  116.33870  110.83310   93.21570   89.12170    0.08370
 15452.50000    8.74760    0.05670    0.00900   61.05570   97.43470   90.06070    3.30920    2.62460    0.09510  116.50480  110.74700   92.76820   88.56610    0.08320
 15453.00000    8.75200    0.05880    0.00750   61.21830   97.41420   91.20460    3.27620    2.61680    0.09520  116.78160  110.66090   92.32070   88.01050    0.08360
 15453.50000    8.74660    0.05960    0.00510   61.06500   97.42230   92.60370    3.27550    2.60900    0.09520  117.05840  110.55440   91.87320   87.45500    0.08400
 15454.00000    8.74610    0.06100    0.00400   61.16600   97.46420   93.23890    3.28100    2.60110    0.09510  117.33520  110.44280   91.42560   86.89940    0.08470
 15454.50000    8.74560    0.06260    0.00770   61.21400   97.38510   92.97140    3.27070    2.60040    0.09520  117.61200  110.33120   90.97810   86.56600    0.08450
 15455.00000    8.74520    0.05750    0.01150   61.20690   97.30600   92.55980    3.26680    2.59980    0.09520  117.88890  110.21960   90.53060   86.56600    0.08340
 15455.50000    8.74470    0.04810    0.01530   61.06130   97.22680   93.12690    3.22810    2.63980    0.09510  118.48430  110.37400   90.53060   86.72990    0.08200
 15456.00000    8.74420    0.04820    0.01900   60.77090   97.07930   94.53120    3.18390    2.63980    0.09520  119.02680  111.46590   91.03540   87.13980    0.08050
 15456.50000    8.74370    0.05480    0.01450   60.74010   96.97720   96.50910    3.15080    2.62930    0.09550  119.02680  110.93730   91.66630   87.54960    0.07660
 15457.00000    8.74330    0.06340    0.01010   60.69810   96.97360   99.10940    3.13290    2.61880    0.09550  119.02680  111.63310   92.29730   87.95940    0.07650
