~Version ---------------------------------------------------
VERS.   2.0 : CWLS log ASCII Standard -VERSION 2.0
WRAP.    NO : One line per depth step
DLM . SPACE : Column Data Section Delimiter
~Well ------------------------------------------------------
STRT .F                 9250.0 : START DEPTH
STOP .F                15908.0 : STOP DEPTH
STEP .F                    0.5 : STEP
NULL .                -9999.25 : NULL VALUE
COMP .                         : COMPANY
WELL .                         : WELL
FLD  .                         : FIELD
LOC  .                         : LOCATION
PROV .                         : PROVINCE
CNTY .                         : COUNTY
STAT .                         : STATE
CTRY .                         : COUNTRY
SRVC .                         : SERVICE COMPANY
DATE .                         : DATE
UWI  .                         : UNIQUE WELL ID
API  .                         : API NUMBER
SLAT .WGS84  5.959390092250096 : SURFACE LATITUDE
SLON .WGS84 2.8158245771146966 : SURFACE LONGITUDE
DATUM.F                 1449.0 : DEPTH DATUM ELEV
~Curve Information -----------------------------------------
DEPT   .F     : 
CALD   .IN    : CALIPER FROM DENSITY LOG
DPHI_LS.DEC   : DENSITY POROSITY LIMESTONE
DRHO   .G/C3  : BULK DENSITY CORRECTION
DTCO   .US/F  : DELTA-T COMPRESSIONAL
DTSM   .US/F  : DELTA-T SHEAR
GRD    .GAPI  : GAMMA RAY FROM DENSITY LOG
PEF    .B/E   : PHOTOELECTRIC FACTOR
RHOB   .G/C3  : BULK DENSITY
SPHI   .DEC   : SONIC POROSITY
TBIT20 .OHMM  : AUTOMATICALLY ADDED BY PROCLASCURVE_INSERT.
TBIT30 .OHMM  : AUTOMATICALLY ADDED BY PROCLASCURVE_INSERT.
TBIT60 .OHMM  : AUTOMATICALLY ADDED BY PROCLASCURVE_INSERT.
TBIT90 .OHMM  : AUTOMATICALLY ADDED BY PROCLASCURVE_INSERT.
TNPH_LS.DEC   : THERMAL NEUTRON POROSITY [LIMESTONE]
~Params ----------------------------------------------------
~Other -----------------------------------------------------
~ASCII -----------------------------------------------------
# ...
 10633.50000    8.78010   -0.02560    0.04420   -9999.25   -9999.25   53.26100    6.70130    2.76980   -9999.25  125.65930  122.46400  108.31630   91.86600    0.05850
 10634.00000    8.77400   -0.00440    0.03980   -9999.25   -9999.25   62.87570    6.65160    2.74110   -9999.25  164.24040  130.27450  117.59070  106.11000    0.06450
 10634.50000    8.76790    0.01060    0.03500   -9999.25   -9999.25   77.60220    6.24930    2.69590   -9999.25  158.35170  133.32730  118.66900  114.65910    0.07940
 10635.00000    8.76290    0.02000    0.03300   -9999.25   -9999.25   92.06180    5.73020    2.67760   -9999.25  131.38520  115.97810  111.18860  102.02250    0.09430
 10635.50000    8.78210    0.02810    0.03060   -9999.25   -9999.25  102.75060    5.28550    2.65720   -9999.25  107.28350   98.62900   87.17390   86.22680    0.10320
 10636.00000    8.84040    0.03910    0.02810   -9999.25   -9999.25  100.05410    4.88150    2.64400   -9999.25   83.18170   81.27990   63.15930   70.43110    0.09430
 10636.50000    8.84010    0.05020    0.02710   -9999.25   -9999.25   94.21620    4.49100    2.62940   -9999.25   59.08000   63.93070   39.14460   54.63540    0.08260
 10637.00000    8.81870    0.05680    0.02300   -9999.25   -9999.25   86.69210    4.11570    2.60720   -9999.25   52.63370   49.74760   39.86580   45.15800    0.07220
 10637.50000    8.79210    0.05300    0.02200   -9999.25   -9999.25   79.16790    4.04120    2.61220   -9999.25   60.98740   50.05140   50.51210   45.52880    0.06920
 10638.00000    8.76540    0.04580    0.02120   -9999.25   -9999.25   71.64380    4.21690    2.63730   -9999.25   69.40670   60.37280   59.29920   52.01070    0.06910
 10638.50000    8.73870    0.03950    0.02210   -9999.25   -9999.25   69.50290    4.20700    2.64780   -9999.25   77.82610   70.69410   58.49460   56.30930    0.06380
 10639.00000    8.71210    0.03710    0.02700   -9999.25   -9999.25   68.63010    4.26480    2.64620   -9999.25   86.24540   81.01550   58.22640   53.61410    0.06130
 10639.50000    8.70130    0.04030    0.03200   -9999.25   -9999.25   65.68400    4.46990    2.64050   -9999.25   94.66470   91.33680   70.67540   57.47450    0.05500
 10640.00000    8.70360    0.03720    0.03700   -9999.25   -9999.25   60.31450    4.61460    2.64180   -9999.25   99.71630   97.52960   83.50470   62.62160    0.04700
 10640.50000    8.70990    0.02620    0.04200   -9999.25   -9999.25   55.33740    4.64330    2.66100   -9999.25   95.68070   93.58250   84.42460   63.13590    0.04040
 10641.00000    8.71630    0.01460    0.04210   -9999.25   -9999.25   51.99890    4.66840    2.68020   -9999.25   92.69400   90.66130   84.61730   64.70300    0.03560
 10641.50000    8.73710    0.01100    0.04210   -9999.25   -9999.25   57.39820    4.72600    2.69630   -9999.25  101.04930   98.83340   85.43220   67.40200    0.04090
 10642.00000    8.75660    0.01430    0.03820   -9999.25   -9999.25   62.34130    4.68730    2.69770   -9999.25  135.80490  120.08360  102.45210   80.70170    0.05190
 10642.50000    8.80550    0.02290    0.03230   -9999.25   -9999.25   72.43600    4.59910    2.68420   -9999.25  207.14040  157.99680  131.94590  114.79710    0.06330
 10643.00000    8.81530    0.03200    0.02770   -9999.25   -9999.25   80.39460    4.58860    2.66730   -9999.25  246.91890  180.74470  143.08880  138.37370    0.07480
 10643.50000    8.82900    0.03620    0.02650   -9999.25   -9999.25   86.32070    4.66880    2.65040   -9999.25  202.91000  150.17340  116.90460  111.28870    0.08750
 10644.00000    8.81920    0.02020    0.04010   -9999.25   -9999.25   98.16890    4.73840    2.64250   -9999.25  144.31700  114.69370   90.72030   80.23730    0.08810
 10644.50000    8.80550    0.00300    0.05710   -9999.25   -9999.25  111.48640    4.85000    2.69270   -9999.25   85.72410   79.21410   64.53600   54.94540    0.09080
 10645.00000    8.75660    0.00030    0.07400   -9999.25   -9999.25  124.80380    4.93440    2.71290   -9999.25   73.63110   63.84590   58.31880   56.80180    0.09700
 10645.50000    8.70400    0.01810    0.07740   -9999.25   -9999.25  138.12130    5.26160    2.69230   -9999.25   74.00550   63.84590   59.21280   58.65810    0.09850
 10646.00000    8.63630    0.04070    0.07740   -9999.25   -9999.25  140.76690    5.58900    2.65810   -9999.25   68.98810   60.57970   57.13950   55.42010    0.08770
 10646.50000    8.56860    0.04670    0.07750   -9999.25   -9999.25  128.80510    6.06270    2.62380   -9999.25   58.68230   56.49690   51.06220   48.51840    0.07290
 10647.00000    8.54890    0.04340    0.07550   -9999.25   -9999.25  109.97360    6.53650    2.63570   -9999.25   58.72670   52.41410   46.34590   42.99700    0.05810
 10647.50000    8.56110    0.03110    0.07320   -9999.25   -9999.25   94.91460    7.01020    2.65540   -9999.25  107.68400   51.59760   52.20870   46.97840    0.04330
 10648.00000    8.61980    0.01880    0.06150   -9999.25   -9999.25   75.43700    7.29460    2.67520   -9999.25  164.27510   93.64460   64.25030   53.61410    0.02840
 10648.50000    8.68020    0.00460    0.05020   -9999.25   -9999.25   65.69090    7.20960    2.69490   -9999.25  220.86630  162.13870   98.32910   61.31590    0.02470
 10649.00000    8.71570   -0.00340    0.04820   -9999.25   -9999.25   62.19120    6.95800    2.71460   -9999.25  277.45740  230.63270  132.40780   73.83260    0.02470
 10649.50000    8.73710   -0.00660    0.04820   -9999.25   -9999.25   70.11490    6.55940    2.71670   -9999.25  326.68420  271.72910  347.50010   86.13240    0.03410
 10650.00000    8.72950    0.00270    0.04570   -9999.25   -9999.25   83.62950    5.87280    2.69060   -9999.25  310.03450  265.19610  388.77560  129.90670    0.05570
 10650.50000    8.71060    0.01980    0.04240   -9999.25   -9999.25   96.03980    5.54620    2.67370   -9999.25  266.07090  263.65400  311.40240  173.68090    0.07730
 10651.00000    8.69160    0.03440    0.03910   -9999.25   -9999.25  117.88660    5.22110    2.66290   -9999.25  248.51440  262.11190  237.56180  242.07300    0.09890
 10651.50000    8.67270    0.04590    0.03710   -9999.25   -9999.25  130.85770    5.24520    2.64230   -9999.25  260.84820  260.56980  232.46050  284.22770    0.10600
 10652.00000    8.63790    0.04920    0.03710   -9999.25   -9999.25  129.20820    5.33740    2.61990   -9999.25  267.44250  261.57120  223.95650  275.13600    0.09290
 10652.50000    8.61830    0.03900    0.03700   -9999.25   -9999.25  119.75420    5.49670    2.62710   -9999.25  269.11790  263.21560  163.71230  197.36840    0.07370
 10653.00000    8.65680    0.02770    0.03700   -9999.25   -9999.25  107.53160    5.81100    2.66000   -9999.25  234.67350  221.49720   84.78580  119.60080    0.05450
 10653.50000    8.73460    0.02580    0.03500   -9999.25   -9999.25   91.12330    5.97100    2.66900   -9999.25  119.46170  109.18910   67.45120  100.71060    0.03530
 10654.00000    8.81250    0.03080    0.02460   -9999.25   -9999.25   78.80330    5.94250    2.65970   -9999.25  161.72630  109.20480   70.29010   99.89370    0.03090
 10654.50000    8.81220    0.04860    0.01410   -9999.25   -9999.25   64.33710    5.84730    2.63980   -9999.25  243.75690  157.80830   92.32690  101.57100    0.02560
 10655.00000    8.81210    0.06190    0.00370   -9999.25   -9999.25   51.84840    5.77300    2.59770   -9999.25  325.78740  247.67410  107.49910  106.93500    0.02030
 10655.50000    8.81160    0.05710   -0.00120   -9999.25   -9999.25   46.90880    5.65160    2.60760   -9999.25  531.66520  337.53990  144.00280  113.07620    0.01770
 10656.00000    8.81160    0.04550   -0.00420   -9999.25   -9999.25   44.93460    5.53770    2.62510   -9999.25  820.10780  413.21570  228.85140  121.43270    0.01580
 10656.50000    8.81080    0.03400   -0.00330   -9999.25   -9999.25   44.41960    5.38700    2.64440   -9999.25  805.41920  623.29850  313.70000  133.11200    0.01400
 10657.00000    8.85680    0.02530    0.00160   -9999.25   -9999.25   44.20950    5.23780    2.65410   -9999.25  576.55430  516.88910  285.73410  116.10570    0.01210
