~Version ---------------------------------------------------
VERS.   2.0 : CWLS log ASCII Standard -VERSION 2.0
WRAP.    NO : One line per depth step
DLM . SPACE : Column Data Section Delimiter
~Well ------------------------------------------------------
STRT .F                 200.0 : START DEPTH
STOP .F                9773.0 : STOP DEPTH
STEP .F                   0.5 : STEP
NULL .               -9999.25 : NULL VALUE
COMP .                        : COMPANY
WELL .                        : WELL
FLD  .                        : FIELD
LOC  .                        : LOCATION
PROV .                        : PROVINCE
CNTY .                        : COUNTY
STAT .                        : STATE
CTRY .                        : COUNTRY
SRVC .                        : SERVICE COMPANY
DATE .                        : DATE
UWI  .                        : UNIQUE WELL ID
API  .                        : API NUMBER
SLAT .WGS84 1.380030958957505 : SURFACE LATITUDE
SLON .WGS84 6.107931134328993 : SURFACE LONGITUDE
DATUM.F                   nan : DEPTH DATUM ELEV
~Curve Information -----------------------------------------
DEPT   .F     : 
SGRDD  .GAPI  : SPECTROSCOPY GAMMA RAY FROM DENSITY LOG
TNPH_LS.DEC   : THERMAL NEUTRON POROSITY [LIMESTONE]
CALD   .IN    : CALIPER FROM DENSITY LOG
PEFZ   .B/E   : HRDD STANDARD RESOLUTION FORMATION PHOTOELECTRIC FACTOR
DPHZ_LS.DEC   : HGRD STANDARD RESOLUTION DENSITY POROSITY
RHOZ   .G/C3  : HRDD STANDARD RESOLUTION FORMATION DENSITY
DTCO   .US/F  : DELTA-T COMPRESSIONAL
DTSM   .US/F  : DELTA-T SHEAR
HDRA   .G/C3  : HRDD SPINE AND RIBS DENSITY CORRECTION
AT10   .OHMM  : ARRAY INDUCTION TWO FOOT RESISTIVITY A10
AT30   .OHMM  : ARRAY INDUCTION TWO FOOT RESISTIVITY A30
AT90   .OHMM  : ARRAY INDUCTION TWO FOOT RESISTIVITY A90
~Params ----------------------------------------------------
~Other -----------------------------------------------------
~ASCII -----------------------------------------------------
# ...
 8460.00000  116.42220    0.22140    8.61300    3.28390    0.08010    2.57530   80.08170  141.63840   -0.01180    4.91780    4.61020    4.46780
 8460.50000  115.90510    0.22350    8.61120    3.27710    0.08240    2.56940   77.64520  136.24060   -0.01110    5.11010    4.76580    4.53700
 8461.00000  110.61740    0.20050    8.61070    3.35920    0.08310    2.56810   77.45230  135.62810   -0.00920    6.76730    5.67950    5.26570
 8461.50000   98.47560    0.18040    8.60860    3.59480    0.07900    2.57110   75.73720  130.52300   -0.00560   10.35220    8.34160    7.73440
 8462.00000   84.17410    0.15640    8.60900    3.81260    0.06490    2.60500   70.04830  127.13220   -0.00120   15.46790   13.34200   11.94270
 8462.50000   71.05630    0.13570    8.62090    4.19260    0.04250    2.64170   68.65460  123.83290    0.00170   29.10350   23.35030   21.10260
 8463.00000   57.23770    0.11610    8.62360    4.51000    0.01960    2.67840   67.76350  124.00100    0.00030   47.02540   39.14190   35.50250
 8463.50000   51.87540    0.09920    8.62460    4.58810    0.01290    2.68690   67.39960  123.61950   -0.00530   41.22770   41.03580   41.25980
 8464.00000   58.45810    0.10100    8.62560    4.38570    0.02620    2.66500   68.51240  124.27670   -0.00920   23.91000   28.97750   32.06570
 8464.50000   70.73480    0.12490    8.62880    4.00670    0.04720    2.63430   69.92880  126.28360   -0.01060   16.57190   20.65610   23.90000
 8465.00000   86.93620    0.15470    8.61900    3.61110    0.06640    2.59770   72.46780  130.15510   -0.00900   10.82110   14.36060   19.50850
 8465.50000  101.43730    0.18320    8.61690    3.32700    0.07370    2.58680   75.14580  135.03750   -0.00700    7.40280    7.94780    9.20910
 8466.00000  108.85810    0.18780    8.61960    3.24240    0.07440    2.58140   76.08950  136.92950   -0.00770    5.65310    6.18220    6.59490
 8466.50000  111.64420    0.19220    8.61690    3.22620    0.07450    2.58130   78.00030  139.77580   -0.01000    4.93080    5.26480    5.46050
 8467.00000  112.26420    0.19070    8.62090    3.22680    0.07270    2.58430   79.27140  141.85240   -0.01160    5.09360    5.27880    5.70060
 8467.50000  107.24430    0.18680    8.62310    3.23310    0.06690    2.59250   81.77610  145.05610   -0.01180    5.61680    5.92480    6.25160
 8468.00000   99.40790    0.17510    8.62200    3.27100    0.06210    2.60230   81.81040  146.34930   -0.01180    6.30650    6.64980    6.93160
 8468.50000   96.14870    0.16460    8.62550    3.36660    0.06170    2.60490   81.82090  147.56770   -0.01180    6.94760    7.42830    7.70150
 8469.00000   98.48530    0.17500    8.63500    3.44850    0.06460    2.60120   82.59590  148.48380   -0.01010    6.13140    6.51920    6.84230
 8469.50000  109.37470    0.20690    8.62190    3.50220    0.07080    2.59350   82.48700  149.19600   -0.00570    5.14880    5.37170    5.66330
 8470.00000  112.43440    0.21900    8.61800    3.48540    0.07250    2.58640   82.85350  150.50450   -0.00440    4.51830    4.75380    5.05920
 8470.50000  115.53240    0.22160    8.62710    3.44260    0.07110    2.58870   83.40930  151.76080   -0.00690    4.44920    4.58690    4.75820
 8471.00000  118.25480    0.21760    8.62230    3.42760    0.06950    2.59070   84.88020  153.00250   -0.01040    4.13790    4.34490    4.43450
 8471.50000  122.37960    0.22670    8.61610    3.42650    0.06750    2.59240   85.72980  154.16080   -0.01180    4.01140    4.21900    4.38080
 8472.00000  120.66400    0.22730    8.61170    3.45160    0.06790    2.59310   86.16220  154.72580   -0.01160    4.17780    4.26720    4.40660
 8472.50000  118.84900    0.22680    8.60920    3.47670    0.06670    2.59450   86.18740  155.16040   -0.01020    4.18610    4.30870    4.49650
 8473.00000  119.66880    0.22750    8.60750    3.47590    0.06460    2.59980   86.21630  154.71240   -0.00700    4.18610    4.39150    4.58820
 8473.50000  119.97340    0.22190    8.60600    3.47710    0.06660    2.59760   85.81880  152.87990   -0.00690    4.33200    4.50290    4.68550
 8474.00000  119.28670    0.21860    8.60770    3.48620    0.07110    2.59110   85.36510  150.26450   -0.00670    4.32200    4.47560    4.69490
 8474.50000  112.98840    0.21770    8.60860    3.50370    0.07700    2.58030   84.45130  147.53340   -0.00720    4.28660    4.42620    4.66090
 8475.00000  105.26010    0.22100    8.60080    3.62550    0.07700    2.57780   83.54460  140.88540   -0.00800    4.70310    4.86990    5.30940
 8475.50000   88.61580    0.19560    8.59190    3.78840    0.06990    2.58610   78.06480  137.89650   -0.00900    5.94190    6.52370    6.93490
 8476.00000   69.88420    0.15450    8.59920    3.97800    0.05640    2.60570   76.52700  136.97090   -0.00980    7.86960    9.08500    9.33420
 8476.50000   59.95140    0.11440    8.60850    4.03000    0.03820    2.64480   76.29280  136.42490   -0.00870   10.49680   11.96460   12.56030
 8477.00000   60.26710    0.10110    8.60220    3.95610    0.02860    2.66050   75.87370  136.30810   -0.00700   13.06820   14.32430   15.00130
 8477.50000   80.96740    0.13180    8.59650    3.79750    0.04040    2.64560   76.63940  136.57480   -0.00840    7.95010    9.54790   10.76360
 8478.00000   95.53870    0.16780    8.60180    3.63400    0.05640    2.61730   77.00330  137.27550   -0.01080    5.89260    6.33600    6.79290
 8478.50000  102.17680    0.18940    8.61800    3.52940    0.06720    2.59460   77.43510  137.76660   -0.01180    5.56430    5.79390    6.08750
 8479.00000  101.86990    0.18380    8.62580    3.47480    0.06820    2.59380   78.95340  140.14430   -0.01180    5.98870    6.42440    6.87920
 8479.50000  101.77810    0.18580    8.61580    3.44010    0.06850    2.59320   79.96600  142.53110   -0.01180    7.06930    7.61430    8.03420
 8480.00000  105.12400    0.19370    8.61180    3.38870    0.07300    2.58750   81.47350  143.87800   -0.01150    6.59180    7.02440    7.84450
 8480.50000  108.93170    0.20800    8.62200    3.37130    0.07910    2.57660   82.21330  145.81220   -0.01160    5.88130    6.11120    6.70500
 8481.00000  107.48380    0.22060    8.63430    3.40220    0.08060    2.57160   82.46420  146.29830   -0.01170    5.45330    5.84280    6.15530
 8481.50000   99.83720    0.21890    8.60750    3.44920    0.07670    2.57670   82.75010  147.09440   -0.01040    5.64080    6.04080    6.41990
 8482.00000   95.73210    0.19210    8.59640    3.43140    0.06970    2.58710   83.01630  147.10500   -0.00830    5.88670    6.24770    6.84240
 8482.50000   99.74270    0.17640    8.59920    3.39670    0.06680    2.59620   83.66190  147.03380   -0.00690    5.85420    6.06840    6.94200
 8483.00000  107.89930    0.19010    8.60900    3.39490    0.07080    2.59110   82.47720  146.88750   -0.00800    5.52370    5.71350    6.44780
 8483.50000  112.37340    0.20220    8.61060    3.43340    0.07560    2.58250   83.01480  144.29290   -0.01120    5.14340    5.38040    5.98870
 8484.00000  108.43950    0.20520    8.60730    3.50320    0.07690    2.57700   82.13530  144.10600   -0.01180    5.07780    5.31640    5.96020
 8484.50000  101.70130    0.18940    8.59220    3.53090    0.07370    2.58190   80.72240  144.00940   -0.01180    5.79840    6.38810    7.01250
 8485.00000   95.56070    0.18430    8.56860    3.50810    0.07160    2.58670   80.50390  143.91290   -0.01180    7.12440    7.95770    9.01650
 8485.50000   92.21260    0.18320    8.58990    3.50960    0.07020    2.58870   80.36170  143.88900   -0.01180    9.25620   10.51870   11.27060
 8486.00000   91.57760    0.18210    8.59930    3.54890    0.06810    2.59290   80.70160  144.74130   -0.01180    9.14270   10.11010   12.65580
 8486.50000   93.91240    0.17850    8.60530    3.57310    0.06370    2.60300   81.19030  145.55430   -0.01060    8.15110    8.75370   10.99580
 8487.00000   98.81180    0.16740    8.60910    3.56130    0.06050    2.60670   81.58090  145.77220   -0.01000    6.06920    7.11160    8.58220
 8487.50000  107.50790    0.17600    8.60990    3.51870    0.06240    2.60460   82.23110  146.40580   -0.00990    5.04590    5.73600    6.69840
