~Version ---------------------------------------------------
VERS.   2.0 : CWLS log ASCII Standard -VERSION 2.0
WRAP.    NO : One line per depth step
DLM . SPACE : Column Data Section Delimiter
~Well ------------------------------------------------------
STRT .F                 200.0 : START DEPTH
STOP .F                9773.0 : STOP DEPTH
STEP .F                   0.5 : STEP
NULL .               -9999.25 : NULL VALUE
COMP .                        : COMPANY
WELL .                        : WELL
FLD  .                        : FIELD
LOC  .                        : LOCATION
PROV .                        : PROVINCE
CNTY .                        : COUNTY
STAT .                        : STATE
CTRY .                        : COUNTRY
SRVC .                        : SERVICE COMPANY
DATE .                        : DATE
UWI  .                        : UNIQUE WELL ID
API  .                        : API NUMBER
SLAT .WGS84 1.380030958957505 : SURFACE LATITUDE
SLON .WGS84 6.107931134328993 : SURFACE LONGITUDE
DATUM.F                   nan : DEPTH DATUM ELEV
~Curve Information -----------------------------------------
DEPT   .F     : 
SGRDD  .GAPI  : SPECTROSCOPY GAMMA RAY FROM DENSITY LOG
TNPH_LS.DEC   : THERMAL NEUTRON POROSITY [LIMESTONE]
CALD   .IN    : CALIPER FROM DENSITY LOG
PEFZ   .B/E   : HRDD STANDARD RESOLUTION FORMATION PHOTOELECTRIC FACTOR
DPHZ_LS.DEC   : HGRD STANDARD RESOLUTION DENSITY POROSITY
RHOZ   .G/C3  : HRDD STANDARD RESOLUTION FORMATION DENSITY
DTCO   .US/F  : DELTA-T COMPRESSIONAL
DTSM   .US/F  : DELTA-T SHEAR
HDRA   .G/C3  : HRDD SPINE AND RIBS DENSITY CORRECTION
AT10   .OHMM  : ARRAY INDUCTION TWO FOOT RESISTIVITY A10
AT30   .OHMM  : ARRAY INDUCTION TWO FOOT RESISTIVITY A30
AT90   .OHMM  : ARRAY INDUCTION TWO FOOT RESISTIVITY A90
~Params ----------------------------------------------------
~Other -----------------------------------------------------
~ASCII -----------------------------------------------------
# ...
 6136.00000  107.85630    0.20920    8.64480    3.35550    0.10130    2.54000   80.72100  138.61570   -0.01140    5.89330    5.54700    5.25230
 6136.50000  108.05680    0.21670    8.64440    3.40910    0.10540    2.53080   81.92420  140.98860   -0.01190    6.26060    5.95810    5.63060
 6137.00000  107.10990    0.22410    8.64400    3.45690    0.10630    2.52850   81.94900  141.15440   -0.01180    7.04300    6.87110    6.62840
 6137.50000  105.33140    0.22100    8.64360    3.45200    0.10220    2.53280   81.21090  137.91480   -0.01080    7.59110    7.28220    7.14250
 6138.00000  103.97510    0.21640    8.64320    3.41300    0.09820    2.54080   80.95500  136.23510   -0.00990    7.28590    6.97920    6.84690
 6138.50000  102.47520    0.21050    8.64280    3.38580    0.09640    2.54430   80.16830  135.26740   -0.01030    7.11440    6.87110    6.74850
 6139.00000   98.09790    0.19680    8.64240    3.33810    0.09790    2.54310   79.56670  134.76680   -0.01090    6.97960    6.67970    6.54810
 6139.50000   91.14040    0.18330    8.64200    3.28300    0.09810    2.54210   78.24330  132.90970   -0.01180    6.48370    6.19610    6.01790
 6140.00000   85.65390    0.17140    8.64160    3.20590    0.09610    2.54390   77.83180  131.87700   -0.01030    5.95600    5.63330    5.35560
 6140.50000   84.20070    0.16690    8.64120    3.14570    0.09410    2.54590   77.30730  132.15860   -0.00960    5.56080    5.35550    5.09940
 6141.00000   85.00110    0.16880    8.64080    3.13960    0.09610    2.54640   76.23850  132.21710   -0.00970    5.63860    5.47610    5.30280
 6141.50000   85.06350    0.17090    8.64020    3.13760    0.10110    2.54020   76.42600  131.98780   -0.00980    5.79620    5.59940    5.43530
 6142.00000   83.70070    0.17010    8.64730    3.13080    0.10460    2.53150   76.00130  131.69200   -0.00770    5.81440    5.61200    5.55380
 6142.50000   82.56600    0.16540    8.65600    3.12410    0.10430    2.53040   75.83920  131.27410   -0.00240    5.55380    5.34610    5.23680
 6143.00000   83.91670    0.16130    8.65430    3.13880    0.10350    2.53290   75.36080  128.85460   -0.00370    5.33190    5.09690    4.95940
 6143.50000   84.34860    0.16490    8.65150    3.20670    0.09850    2.53840   75.07690  129.54140   -0.00640    5.45170    5.23060    4.96640
 6144.00000   80.01100    0.17210    8.65120    3.39350    0.08540    2.55860   72.72140  129.21620   -0.01030    6.56110    6.10620    5.85140
 6144.50000   72.31630    0.16840    8.65120    3.66020    0.06200    2.59800   71.88840  128.57030   -0.01150    9.17380    8.36770    7.85990
 6145.00000   66.27330    0.15190    8.64400    3.82390    0.03850    2.63510   71.84540  128.50450   -0.01030   12.10110   11.26750   10.77420
 6145.50000   65.51870    0.13490    8.63870    3.74920    0.04540    2.63780   72.28790  128.26910   -0.00980   10.55760    9.43960    8.86710
 6146.00000   71.45340    0.13920    8.64830    3.54190    0.06450    2.61120   72.48760  127.48630   -0.01030    7.68800    7.28480    6.72180
 6146.50000   78.57950    0.15170    8.64810    3.37970    0.08710    2.56510   72.54370  128.34590   -0.01160    6.95090    6.77840    6.44280
 6147.00000   87.15390    0.16740    8.64280    3.36080    0.09850    2.54510   73.11180  127.71060   -0.01180    7.37540    7.10370    6.74020
 6147.50000   95.36000    0.18550    8.64600    3.41230    0.10100    2.53820   74.33550  131.22340   -0.01180    7.85910    7.48970    7.13340
 6148.00000   96.82920    0.19180    8.63660    3.44810    0.09850    2.53980   75.61660  133.15790   -0.01180    7.63130    7.31400    7.15700
 6148.50000   96.84510    0.18850    8.64460    3.45690    0.09510    2.54670   77.12760  134.46810   -0.01180    7.08830    6.85260    6.62130
 6149.00000   95.73910    0.18180    8.63950    3.46020    0.09140    2.55160   77.92050  136.30530   -0.01180    6.63940    6.42030    6.12570
 6149.50000   97.17650    0.18160    8.63820    3.47360    0.08840    2.55500   78.42910  137.19600   -0.01180    6.35200    6.25300    5.98660
 6150.00000   95.77910    0.19310    8.62440    3.51620    0.08620    2.55820   79.36210  138.49650   -0.01180    7.36920    6.89900    6.66920
 6150.50000   94.62330    0.19730    8.61200    3.57420    0.08620    2.56140   79.75220  139.40840   -0.01180    8.39940    8.03750    7.76930
 6151.00000   96.07650    0.19730    8.62390    3.61680    0.09410    2.55280   80.04140  140.21550   -0.01180   10.01820    9.36380    9.05090
 6151.50000  103.03420    0.20810    8.63280    3.61740    0.10040    2.53830   80.61830  141.47830   -0.01180    9.83630    9.18140    8.83140
 6152.00000  107.41750    0.23000    8.64320    3.60180    0.09570    2.54130   80.99180  141.87190   -0.01090    8.29390    7.65540    7.36410
 6152.50000  106.15580    0.24830    8.65280    3.57740    0.08490    2.56240   81.23170  142.71340   -0.00980    7.01040    6.44220    6.22020
 6153.00000  103.73560    0.23640    8.65690    3.56170    0.07470    2.57850   81.20570  142.57410   -0.00980    5.92790    5.49640    5.30570
 6153.50000  102.79130    0.22380    8.65210    3.53980    0.07350    2.58600   81.09530  142.48770   -0.00980    4.99770    4.77410    4.52560
 6154.00000  100.54240    0.21720    8.65090    3.50850    0.07520    2.58290   81.21890  142.41970   -0.00870    4.97980    4.72980    4.55140
 6154.50000   98.22180    0.20620    8.64340    3.45890    0.07700    2.57940   81.42970  142.75330   -0.00520    5.85220    5.46720    5.25880
 6155.00000   97.21510    0.18590    8.63000    3.43090    0.08520    2.56900   81.60810  143.30160   -0.00750    7.00510    6.55170    6.30250
 6155.50000  101.70460    0.18460    8.64370    3.46780    0.09280    2.55470   81.95850  144.06500   -0.00980    8.12940    7.76910    7.51450
 6156.00000  105.60120    0.19800    8.64820    3.53340    0.09770    2.54030   82.54900  145.26460   -0.01130    8.11950    7.74340    7.36080
 6156.50000  106.46010    0.21200    8.64620    3.59890    0.09380    2.54610   82.85960  146.38240   -0.01180    6.75460    6.27510    5.74760
 6157.00000  105.06850    0.22560    8.64910    3.60860    0.08170    2.56610   83.12480  147.03360   -0.01130    5.68010    5.14780    4.83380
 6157.50000  104.08430    0.23210    8.64720    3.58140    0.07490    2.58000   83.42660  147.71120   -0.01060    4.32810    4.04970    3.86500
 6158.00000  103.71080    0.23350    8.63900    3.56770    0.07570    2.58100   83.73800  147.51970   -0.01120    4.09470    3.69640    3.55680
 6158.50000  103.16650    0.22670    8.63040    3.55300    0.07710    2.57850   83.99770  146.56840   -0.01150    4.58850    4.15980    3.85810
 6159.00000  100.18770    0.22080    8.64590    3.52130    0.08000    2.57550   84.06550  146.82140   -0.00990    5.48890    5.02880    4.81970
 6159.50000   98.08630    0.21720    8.64900    3.50830    0.08640    2.56670   83.50740  144.22020   -0.01130    6.72710    6.15740    5.90120
 6160.00000   99.38210    0.21810    8.65090    3.53200    0.09270    2.55490   83.02410  143.66120   -0.01180    7.48690    7.00200    6.80200
 6160.50000  100.83010    0.22000    8.65090    3.55610    0.09710    2.54690   82.59560  142.52770   -0.01180    8.00830    7.57350    7.38520
 6161.00000  101.09060    0.21610    8.65020    3.55520    0.09380    2.54680   82.20850  142.80580   -0.01180    8.19540    7.87240    7.60370
 6161.50000   96.36850    0.21270    8.63820    3.55670    0.09270    2.55170   81.89750  142.67160   -0.01180    7.97880    7.66490    7.50780
 6162.00000   95.17540    0.21280    8.63190    3.55910    0.09130    2.55410   81.90710  142.75490   -0.01180    7.39570    7.07610    6.88800
 6162.50000   95.90090    0.21390    8.63380    3.56140    0.09190    2.55430   81.94490  142.81500   -0.01180    6.69090    6.43730    6.27930
 6163.00000  100.49070    0.21680    8.63260    3.56580    0.09340    2.55180   82.20210  143.26610   -0.01180    6.09330    5.87730    5.75460
 6163.50000  104.48470    0.23240    8.63180    3.57490    0.09860    2.54450   82.36630  143.29300   -0.01180    6.27390    5.94560    5.78620
