~Version ---------------------------------------------------
VERS.   2.0 : CWLS log ASCII Standard -VERSION 2.0
WRAP.    NO : One line per depth step
DLM . SPACE : Column Data Section Delimiter
~Well ------------------------------------------------------
STRT .F                 200.0 : START DEPTH
STOP .F                9773.0 : STOP DEPTH
STEP .F                   0.5 : STEP
NULL .               -9999.25 : NULL VALUE
COMP .                        : COMPANY
WELL .                        : WELL
FLD  .                        : FIELD
LOC  .                        : LOCATION
PROV .                        : PROVINCE
CNTY .                        : COUNTY
STAT .                        : STATE
CTRY .                        : COUNTRY
SRVC .                        : SERVICE COMPANY
DATE .                        : DATE
UWI  .                        : UNIQUE WELL ID
API  .                        : API NUMBER
SLAT .WGS84 1.380030958957505 : SURFACE LATITUDE
SLON .WGS84 6.107931134328993 : SURFACE LONGITUDE
DATUM.F                   nan : DEPTH DATUM ELEV
~Curve Information -----------------------------------------
DEPT   .F     : 
SGRDD  .GAPI  : SPECTROSCOPY GAMMA RAY FROM DENSITY LOG
TNPH_LS.DEC   : THERMAL NEUTRON POROSITY [LIMESTONE]
CALD   .IN    : CALIPER FROM DENSITY LOG
PEFZ   .B/E   : HRDD STANDARD RESOLUTION FORMATION PHOTOELECTRIC FACTOR
DPHZ_LS.DEC   : HGRD STANDARD RESOLUTION DENSITY POROSITY
RHOZ   .G/C3  : HRDD STANDARD RESOLUTION FORMATION DENSITY
DTCO   .US/F  : DELTA-T COMPRESSIONAL
DTSM   .US/F  : DELTA-T SHEAR
HDRA   .G/C3  : HRDD SPINE AND RIBS DENSITY CORRECTION
AT10   .OHMM  : ARRAY INDUCTION TWO FOOT RESISTIVITY A10
AT30   .OHMM  : ARRAY INDUCTION TWO FOOT RESISTIVITY A30
AT90   .OHMM  : ARRAY INDUCTION TWO FOOT RESISTIVITY A90
~Params ----------------------------------------------------
~Other -----------------------------------------------------
~ASCII -----------------------------------------------------
# ...
 7424.00000   82.10590    0.18060    8.68080    3.59460    0.06630    2.59840   77.97130  135.01850   -0.00430    8.27380    9.87120   10.60530
 7424.50000   87.20850    0.19290    8.67200    3.42600    0.08210    2.57250   78.45570  136.70450   -0.00710    7.06920    8.46060    9.17230
 7425.00000   89.63960    0.18640    8.66860    3.39660    0.09320    2.55600   80.84760  141.27270   -0.00790    7.41590    8.78260    9.61900
 7425.50000   91.17200    0.19830    8.66530    3.37920    0.09850    2.54410   82.76180  143.34910   -0.00700    8.00770    9.70900   10.89440
 7426.00000   94.07080    0.20390    8.66190    3.31140    0.10510    2.53230   84.26790  145.73880   -0.00760    7.70210    9.24450   10.65610
 7426.50000   96.75670    0.20990    8.65850    3.23680    0.11300    2.51730   84.09980  147.03600   -0.00990    7.09790    8.39880    9.34840
 7427.00000   97.78900    0.20280    8.65520    3.22640    0.11580    2.51180   83.87600  147.82340   -0.01150    6.45100    7.63040    8.20120
 7427.50000   96.89340    0.20950    8.66540    3.40120    0.10640    2.52940   83.65220  148.02880   -0.01180    6.56290    7.27730    7.91520
 7428.00000   92.46940    0.20010    8.67840    3.64350    0.09600    2.54540   83.74640  148.33190   -0.01180    7.25650    7.81720    8.40980
 7428.50000   89.03770    0.18790    8.68850    3.81000    0.08540    2.56730   83.92230  148.95210   -0.01120    7.96320    8.45970    8.99350
 7429.00000   88.96190    0.18230    8.69810    3.78630    0.07590    2.57940   83.94360  148.78120   -0.00870    7.44050    7.81250    8.36800
 7429.50000   94.47420    0.19490    8.70950    3.67680    0.07670    2.57830   83.78500  148.72060   -0.00690    6.23330    6.54790    6.93290
 7430.00000   98.73930    0.20930    8.69780    3.63180    0.08030    2.57400   83.35300  148.63850   -0.00640    5.74530    5.88710    6.22820
 7430.50000  100.46630    0.21810    8.67230    3.63840    0.08330    2.57000   83.18000  148.64240   -0.00620    6.16870    6.29770    6.60270
 7431.00000   96.35970    0.20970    8.65070    3.74900    0.08080    2.56910   83.42310  148.68570   -0.00590    6.64880    6.76410    7.09040
 7431.50000   90.54620    0.20210    8.65030    3.78430    0.07260    2.58170   84.29330  149.11550   -0.00630    6.84360    7.26380    7.54260
 7432.00000   87.94450    0.20030    8.65960    3.70570    0.07460    2.58570   84.81380  148.99890   -0.00670    6.55990    6.74060    6.92670
 7432.50000   91.38310    0.21360    8.67270    3.58930    0.08370    2.57010   85.34450  148.70450   -0.00710    5.86380    6.13090    6.26440
 7433.00000   98.74750    0.22550    8.66600    3.46520    0.10370    2.54180   85.68430  149.03890   -0.00890    6.24090    6.38880    6.57600
 7433.50000  104.70200    0.22690    8.65200    3.35690    0.11160    2.52020   86.25380  150.26050   -0.00980    6.73220    6.89040    7.06130
 7434.00000  105.52820    0.21740    8.65120    3.28810    0.11230    2.51850   86.33220  149.32760   -0.00980    6.76870    7.03780    7.16950
 7434.50000  106.53890    0.20840    8.65110    3.26220    0.11350    2.51640   86.40420  150.43060   -0.00980    6.78270    7.00920    7.20010
 7435.00000  110.52550    0.21100    8.65060    3.29830    0.11910    2.51010   86.31620  150.41970   -0.00980    6.79680    6.95440    7.13890
 7435.50000  113.90510    0.21590    8.65110    3.34780    0.11800    2.50920   86.36310  149.39220   -0.00980    6.93580    6.93840    7.24450
 7436.00000  111.89610    0.21080    8.65170    3.41210    0.11340    2.51600   85.45590  148.38590   -0.01080    7.28330    7.34430    7.68830
 7436.50000  108.06280    0.20140    8.65150    3.52760    0.10860    2.52580   84.26900  147.40040   -0.01170    7.50910    7.83340    8.08720
 7437.00000  100.74310    0.20450    8.65300    3.64510    0.09940    2.54030   83.42780  144.64640   -0.01130    8.16990    8.83140    9.23860
 7437.50000   88.76930    0.19850    8.66450    3.77780    0.08370    2.56980   82.41880  143.86240   -0.00850   10.44790   10.90910   11.28550
 7438.00000   84.26950    0.17930    8.68000    3.90760    0.07030    2.59310   82.27940  143.55990   -0.00420   11.18370   12.10360   12.55970
 7438.50000   84.56450    0.18220    8.69380    3.80180    0.07190    2.58280   81.55540  143.26180   -0.00240   10.32800   11.40130   12.26250
 7439.00000   90.12640    0.19750    8.69800    3.69610    0.08500    2.56260   81.77320  143.69060   -0.00490    8.91070   10.71030   11.75260
 7439.50000   91.89840    0.21610    8.67990    3.77350    0.08680    2.55790   81.87780  143.81470   -0.00680    9.24280   10.48210   11.02800
 7440.00000   89.17740    0.21680    8.67960    3.87760    0.07660    2.57490   82.58820  145.24330   -0.00530    9.79310   10.46880   10.90050
 7440.50000   88.42400    0.21680    8.68810    3.88100    0.06960    2.59030   83.06890  146.34130   -0.00450    9.16320    9.57540   10.05350
 7441.00000   92.34290    0.21460    8.68240    3.72640    0.08140    2.57850   84.04810  148.01240   -0.00640    7.89150    8.27820    8.77360
 7441.50000   97.38960    0.21100    8.67510    3.60490    0.09090    2.55750   84.26950  148.57670   -0.00910    6.92570    7.14850    7.49710
 7442.00000  100.51560    0.20770    8.66180    3.50190    0.09220    2.55300   83.81530  148.66720   -0.00980    6.47230    6.78310    6.89630
 7442.50000  101.51220    0.21100    8.65080    3.48010    0.08810    2.55740   83.43240  148.45120   -0.01040    6.46740    6.59960    6.74770
 7443.00000  102.46770    0.22310    8.65110    3.58080    0.08500    2.56380   82.16560  147.91980   -0.01150    7.02720    6.91150    7.38520
 7443.50000   96.67950    0.21610    8.66540    3.82560    0.07630    2.58080   81.90200  146.91530   -0.01160    8.06690    8.18400    8.61400
 7444.00000   88.65910    0.19700    8.67640    4.02700    0.06510    2.59970   81.68430  144.92250   -0.00920    9.22380    9.56860    9.90020
 7444.50000   81.60170    0.18120    8.68160    4.11550    0.05820    2.61130   81.46370  144.22390   -0.00630    9.86810   10.19800   10.42330
 7445.00000   82.75940    0.18070    8.68150    3.99280    0.06350    2.59560   81.32970  145.22450   -0.00390    8.46160    8.98860    9.34050
 7445.50000   93.02030    0.19460    8.68140    3.81190    0.07980    2.57420   81.46860  144.09980   -0.00480    7.63920    7.93620    8.34270
 7446.00000  100.25200    0.20990    8.66230    3.70420    0.08700    2.56390   82.28990  144.20810   -0.00640    8.01040    8.22740    8.43490
 7446.50000  103.78720    0.20090    8.65140    3.65170    0.09080    2.55680   82.82470  144.74250   -0.00830    8.42450    8.61190    8.90680
 7447.00000  106.47270    0.19670    8.66270    3.58250    0.09130    2.55260   83.68490  145.40510   -0.00700    8.05960    8.37560    8.70310
 7447.50000  109.78660    0.21080    8.67030    3.49580    0.10080    2.54270   84.75030  146.49180   -0.00840    7.45760    7.87640    8.19310
 7448.00000  112.03070    0.22590    8.66670    3.47260    0.10610    2.52970   85.25170  147.11390   -0.00980    7.10200    7.57730    7.84570
 7448.50000  112.67800    0.23690    8.66300    3.51110    0.10680    2.52520   85.35020  147.08870   -0.00980    6.68610    7.03530    7.32790
 7449.00000  110.00590    0.24400    8.65080    3.59260    0.09950    2.53640   85.61900  146.50490   -0.00980    5.37810    5.87860    6.25710
 7449.50000  105.69420    0.23460    8.64830    3.57390    0.09440    2.54730   85.45800  145.21770   -0.00980    5.05780    5.25410    5.49150
 7450.00000  100.86130    0.21440    8.66670    3.53160    0.09620    2.54440   85.34470  144.79390   -0.00980    6.07290    6.37710    6.66260
 7450.50000  101.85240    0.20050    8.67310    3.47410    0.10170    2.53340   85.06900  144.07140   -0.00990    7.47460    7.65720    8.11270
 7451.00000  104.87640    0.20760    8.66070    3.40430    0.11350    2.52050   83.78070  143.19770   -0.01050    8.37760    8.60230    8.98630
 7451.50000  105.93090    0.22620    8.66020    3.43680    0.12200    2.50660   82.67090  140.82340   -0.01180    9.21650    9.50990    9.95580
