~Version ---------------------------------------------------
VERS.   2.0 : CWLS log ASCII Standard -VERSION 2.0
WRAP.    NO : One line per depth step
DLM . SPACE : Column Data Section Delimiter
~Well ------------------------------------------------------
STRT .F                 200.0 : START DEPTH
STOP .F                9773.0 : STOP DEPTH
STEP .F                   0.5 : STEP
NULL .               -9999.25 : NULL VALUE
COMP .                        : COMPANY
WELL .                        : WELL
FLD  .                        : FIELD
LOC  .                        : LOCATION
PROV .                        : PROVINCE
CNTY .                        : COUNTY
STAT .                        : STATE
CTRY .                        : COUNTRY
SRVC .                        : SERVICE COMPANY
DATE .                        : DATE
UWI  .                        : UNIQUE WELL ID
API  .                        : API NUMBER
SLAT .WGS84 1.380030958957505 : SURFACE LATITUDE
SLON .WGS84 6.107931134328993 : SURFACE LONGITUDE
DATUM.F                   nan : DEPTH DATUM ELEV
~Curve Information -----------------------------------------
DEPT   .F     : 
SGRDD  .GAPI  : SPECTROSCOPY GAMMA RAY FROM DENSITY LOG
TNPH_LS.DEC   : THERMAL NEUTRON POROSITY [LIMESTONE]
CALD   .IN    : CALIPER FROM DENSITY LOG
PEFZ   .B/E   : HRDD STANDARD RESOLUTION FORMATION PHOTOELECTRIC FACTOR
DPHZ_LS.DEC   : HGRD STANDARD RESOLUTION DENSITY POROSITY
RHOZ   .G/C3  : HRDD STANDARD RESOLUTION FORMATION DENSITY
DTCO   .US/F  : DELTA-T COMPRESSIONAL
DTSM   .US/F  : DELTA-T SHEAR
HDRA   .G/C3  : HRDD SPINE AND RIBS DENSITY CORRECTION
AT10   .OHMM  : ARRAY INDUCTION TWO FOOT RESISTIVITY A10
AT30   .OHMM  : ARRAY INDUCTION TWO FOOT RESISTIVITY A30
AT90   .OHMM  : ARRAY INDUCTION TWO FOOT RESISTIVITY A90
~Params ----------------------------------------------------
~Other -----------------------------------------------------
~ASCII -----------------------------------------------------
# ...
 8208.00000  108.13760    0.19920    8.60230    3.36540    0.10250    2.53510   83.87690  145.66580   -0.00880   12.07810   13.48910   14.40140
 8208.50000  105.11090    0.20020    8.61010    3.40150    0.10210    2.53740   83.47910  144.43280   -0.00980   12.79480   13.40310   15.13070
 8209.00000   97.35290    0.19430    8.60820    3.57690    0.09050    2.55410   83.37910  144.73320   -0.00950   12.79850   13.79590   15.97380
 8209.50000   93.16490    0.18250    8.59200    3.74880    0.07440    2.57850   82.71080  145.19400   -0.00750   12.61570   14.69660   17.20210
 8210.00000   95.87040    0.18180    8.59100    3.73430    0.07240    2.58560   82.69320  145.65490   -0.00670   12.67950   14.00550   16.23750
 8210.50000  102.99950    0.19590    8.59400    3.63440    0.07880    2.57760   83.02750  146.15150   -0.00780   11.28150   11.87810   14.17410
 8211.00000  110.21980    0.21330    8.59930    3.58710    0.08280    2.56990   83.16870  146.97170   -0.00970    9.37760   10.07390   12.37290
 8211.50000  112.19460    0.22810    8.60270    3.60110    0.08090    2.57260   85.14040  147.18620   -0.01120    8.55370    9.57130   11.52000
 8212.00000  110.27860    0.22280    8.59110    3.61110    0.07730    2.57800   83.68420  148.03550   -0.01200    8.77850    9.75990   11.51990
 8212.50000  107.19870    0.21640    8.59160    3.59940    0.08000    2.57380   84.86490  149.31980   -0.01200    9.00910   10.01520   12.16800
 8213.00000  109.84910    0.21610    8.58470    3.56710    0.09130    2.55660   87.12010  150.07400   -0.01200    9.24170   10.27710   13.27930
 8213.50000  113.51840    0.21870    8.58180    3.49700    0.10290    2.53430   87.42440  150.71210   -0.01200    8.72200   11.26390   13.82140
 8214.00000  114.67390    0.21910    8.58130    3.42000    0.10390    2.52890   85.93900  151.47140   -0.01200    7.85030   10.86050   12.75110
 8214.50000  112.30110    0.21280    8.58420    3.34200    0.10110    2.53770   86.04890  151.65770   -0.01200    7.14270    9.28350   11.76370
 8215.00000  110.55800    0.20740    8.58630    3.28950    0.09960    2.54000   87.93080  151.65270   -0.01200    7.01360    9.19780   12.24470
 8215.50000  111.74450    0.21030    8.58440    3.30460    0.10220    2.53670   88.20860  151.36760   -0.01200    7.01360    9.69420   12.92780
 8216.00000  113.90320    0.21950    8.59370    3.32130    0.10740    2.52900   87.81560  149.42680   -0.01190    7.34500   10.22900   12.96940
 8216.50000  119.35870    0.23380    8.60310    3.40720    0.10990    2.52130   87.38410  148.35780   -0.01190    7.73380   10.94060   13.46250
 8217.00000  115.27030    0.24030    8.59920    3.49680    0.10360    2.53290   86.86250  148.23140   -0.01180    8.14320   12.09350   14.65110
 8217.50000  106.57790    0.20570    8.59730    3.58650    0.09060    2.55050   86.05890  148.15510   -0.01050    8.72670   14.16620   16.40390
 8218.00000  102.63080    0.18580    8.60650    3.65880    0.07510    2.58070   85.94390  148.63060   -0.00800    9.37320   16.69160   18.74330
 8218.50000  104.35690    0.18600    8.60880    3.63330    0.06760    2.59240   86.03760  148.21340   -0.00620    9.25080   16.95160   20.85780
 8219.00000  109.33650    0.20080    8.60520    3.51820    0.07240    2.59380   85.77030  148.17710   -0.00520    9.01300   15.54320   19.53550
 8219.50000  116.15470    0.21740    8.60170    3.48100    0.08790    2.57030   85.72820  148.61210   -0.00890    8.94980   15.45020   19.24570
 8220.00000  118.02290    0.22240    8.60890    3.52200    0.09290    2.54880   85.69470  148.78200   -0.01130    8.88710   15.81020   20.22470
 8220.50000  118.06620    0.22690    8.60860    3.55650    0.08770    2.55270   85.80680  149.06750   -0.01180    8.82480   15.26740   21.31930
 8221.00000  110.88390    0.21280    8.59780    3.55460    0.07880    2.57070   85.78180  149.33210   -0.01000    9.19280   15.41250   22.60770
 8221.50000  106.28760    0.19820    8.59000    3.54720    0.07810    2.57470   85.66700  149.43730   -0.00890    9.92180   16.40380   24.67350
 8222.00000  107.02550    0.20380    8.59050    3.53970    0.08590    2.56390   85.05920  149.40490   -0.01030   10.69220   17.45890   27.74620
 8222.50000  107.91280    0.21470    8.59140    3.52860    0.09120    2.55680   84.55480  149.17270   -0.01180   11.05890   18.51100   29.12590
 8223.00000  106.21560    0.20900    8.60230    3.50460    0.08610    2.56010   83.56830  148.13670   -0.01180   12.18840   18.82590   28.15040
 8223.50000   97.21650    0.19740    8.60960    3.46890    0.07890    2.57200   83.02850  148.00310   -0.01180   13.57530   19.15860   25.57680
 8224.00000   94.74970    0.18210    8.61440    3.45690    0.07580    2.57860   83.01400  147.77150   -0.01180   15.05110   19.60010   22.94410
 8224.50000   97.85210    0.17300    8.61570    3.48040    0.07650    2.57950   83.22190  147.25330   -0.01180   16.80810   22.11650   22.14010
 8225.00000  101.32250    0.17810    8.60070    3.53580    0.07680    2.57820   83.81160  147.41710   -0.00990   24.34780   32.56790   24.04610
 8225.50000  102.64490    0.18510    8.54920    3.55430    0.08380    2.57190   83.91860  147.77450   -0.00740   31.26370   40.47380   20.82540
 8226.00000  102.90610    0.19420    8.57310    3.53460    0.09120    2.55760   84.03860  147.88590   -0.00300   26.24750   24.98640   15.52360
 8226.50000  107.83750    0.19860    8.59760    3.46700    0.10090    2.54260   84.64640  147.72800   -0.00150   21.31630   19.63530   13.00300
 8227.00000  112.19010    0.20230    8.60060    3.43440    0.10270    2.53180   85.31850  146.98560    0.00040   20.31910   19.28060   11.38370
 8227.50000  117.09300    0.20720    8.59900    3.40830    0.10480    2.53070   84.83450  144.76420   -0.00530   22.96760   21.46140   11.83280
 8228.00000  116.04990    0.21500    8.59740    3.44870    0.09910    2.53520   84.16150  142.43070   -0.00830   25.30530   23.99860   12.83640
 8228.50000  112.26430    0.20020    8.59750    3.61560    0.08810    2.55220   83.05890  138.29730   -0.00980   25.69680   28.71860   13.92520
 8229.00000   93.07980    0.15230    8.58180    3.94170    0.06160    2.60400   87.18820  135.82210   -0.00840   22.44920   28.54380   14.41810
 8229.50000   66.03400    0.09180    8.58020    4.28650    0.02200    2.65920   76.33660  133.04460   -0.00650   20.29420   26.06000   14.89980
 8230.00000   44.57060    0.05860    8.58170    4.53700   -0.00430    2.71410   74.82470  133.20630   -0.00430   22.01460   27.39080   15.64590
 8230.50000   47.72410    0.05800    8.58310    4.34680   -0.00170    2.71380   72.83680  134.01190   -0.00320   20.20630   25.89750   21.08730
 8231.00000   66.00400    0.09360    8.58460    3.93640    0.02660    2.68160   75.19320  134.96430   -0.00490   14.29290   17.24920   19.00220
 8231.50000   97.81080    0.13050    8.58610    3.67720    0.06280    2.62760   75.59520  136.83170   -0.00880   10.83360   13.47470   13.95880
 8232.00000  116.60290    0.18240    8.58900    3.52050    0.08660    2.57430   76.45770  138.68160   -0.01090    9.87880   12.34610   13.41170
 8232.50000  128.48280    0.21130    8.59260    3.45700    0.09280    2.55350   77.37360  141.42860   -0.01190    9.19870   11.48280   13.13240
 8233.00000  133.60040    0.22040    8.59780    3.46840    0.09250    2.55290   80.27490  143.14330   -0.01330    8.36280   10.43420   12.19360
 8233.50000  132.47860    0.23070    8.58930    3.48930    0.09080    2.55420   83.39790  146.12610   -0.01430    7.83970    9.19400   11.39450
 8234.00000  129.42110    0.22570    8.58680    3.50440    0.08950    2.55720   85.74330  147.18890   -0.01330    8.47080    9.58120   11.48190
 8234.50000  126.39840    0.21060    8.59660    3.52290    0.08880    2.55860   85.52540  147.10480   -0.01190    9.68310   11.07490   12.86030
 8235.00000  117.99880    0.19900    8.60680    3.60350    0.08650    2.56070   85.05570  145.87490   -0.01200   11.31720   12.80140   14.41270
 8235.50000  106.07270    0.19580    8.60250    3.70280    0.08390    2.56450   84.59040  144.24840   -0.01240   13.25930   14.79710   15.87850
