~Version ---------------------------------------------------
VERS.   2.0 : CWLS log ASCII Standard -VERSION 2.0
WRAP.    NO : One line per depth step
DLM . SPACE : Column Data Section Delimiter
~Well ------------------------------------------------------
STRT .F                 200.0 : START DEPTH
STOP .F                9773.0 : STOP DEPTH
STEP .F                   0.5 : STEP
NULL .               -9999.25 : NULL VALUE
COMP .                        : COMPANY
WELL .                        : WELL
FLD  .                        : FIELD
LOC  .                        : LOCATION
PROV .                        : PROVINCE
CNTY .                        : COUNTY
STAT .                        : STATE
CTRY .                        : COUNTRY
SRVC .                        : SERVICE COMPANY
DATE .                        : DATE
UWI  .                        : UNIQUE WELL ID
API  .                        : API NUMBER
SLAT .WGS84 1.380030958957505 : SURFACE LATITUDE
SLON .WGS84 6.107931134328993 : SURFACE LONGITUDE
DATUM.F                   nan : DEPTH DATUM ELEV
~Curve Information -----------------------------------------
DEPT   .F     : 
SGRDD  .GAPI  : SPECTROSCOPY GAMMA RAY FROM DENSITY LOG
TNPH_LS.DEC   : THERMAL NEUTRON POROSITY [LIMESTONE]
CALD   .IN    : CALIPER FROM DENSITY LOG
PEFZ   .B/E   : HRDD STANDARD RESOLUTION FORMATION PHOTOELECTRIC FACTOR
DPHZ_LS.DEC   : HGRD STANDARD RESOLUTION DENSITY POROSITY
RHOZ   .G/C3  : HRDD STANDARD RESOLUTION FORMATION DENSITY
DTCO   .US/F  : DELTA-T COMPRESSIONAL
DTSM   .US/F  : DELTA-T SHEAR
HDRA   .G/C3  : HRDD SPINE AND RIBS DENSITY CORRECTION
AT10   .OHMM  : ARRAY INDUCTION TWO FOOT RESISTIVITY A10
AT30   .OHMM  : ARRAY INDUCTION TWO FOOT RESISTIVITY A30
AT90   .OHMM  : ARRAY INDUCTION TWO FOOT RESISTIVITY A90
~Params ----------------------------------------------------
~Other -----------------------------------------------------
~ASCII -----------------------------------------------------
# ...
 8712.00000   96.44310    0.16320    8.60050    3.67520    0.05910    2.60980   78.31590  135.68300   -0.01340   10.29460    9.78720    9.61520
 8712.50000   97.81970    0.17380    8.60750    3.64190    0.06040    2.60720   77.81930  134.40520   -0.01180    9.89020    9.53950    9.37080
 8713.00000   97.70520    0.18900    8.60970    3.60590    0.06230    2.60460   77.30400  133.38770   -0.01110   10.32220    9.75370    9.52690
 8713.50000   95.50460    0.19070    8.59990    3.57950    0.05890    2.60650   76.03290  132.32320   -0.00930   11.19580   10.58560   10.33820
 8714.00000   93.21380    0.17940    8.60860    3.57790    0.05210    2.62030   76.75420  130.67250   -0.00720   12.08180   11.40940   11.15670
 8714.50000   90.98230    0.16420    8.61000    3.55440    0.04290    2.63440   75.93100  130.41390   -0.00490   12.72080   12.22760   11.99070
 8715.00000   86.56100    0.14490    8.59570    3.49880    0.03500    2.64850   76.20220  130.73020   -0.00300   13.67760   13.05920   12.54700
 8715.50000   90.70520    0.13960    8.59750    3.46400    0.04010    2.64760   76.71750  131.16290   -0.00420   12.60040   11.79220   10.94930
 8716.00000   96.80420    0.15610    8.60710    3.46690    0.05420    2.62400   77.26490  131.57370   -0.00780   10.91270   10.36330    9.85710
 8716.50000  103.67000    0.17910    8.61050    3.50490    0.06830    2.59900   77.36670  131.72030   -0.01050   11.05330   10.38530    9.87650
 8717.00000  104.78360    0.20010    8.61050    3.54840    0.07350    2.58310   78.60040  133.27840   -0.01110   11.65600   11.13010   10.63360
 8717.50000  104.44490    0.20490    8.61050    3.56950    0.06760    2.58890   79.68910  134.43110   -0.00860   12.12010   11.66720   11.15840
 8718.00000  104.65740    0.20140    8.60870    3.55500    0.06320    2.60070   79.91140  134.83300   -0.00670   11.16430   10.63990   10.39370
 8718.50000  105.67520    0.20230    8.60370    3.54050    0.05980    2.60800   80.00230  135.25590   -0.00710   10.27910    9.69540    9.45500
 8719.00000  105.98160    0.20920    8.60250    3.55330    0.05690    2.61210   78.99530  135.59450   -0.00780    9.46410    8.81960    8.60100
 8719.50000  104.16790    0.19600    8.59010    3.58020    0.05370    2.61650   78.44350  135.30980   -0.00840    8.65220    8.03500    7.84280
 8720.00000  100.73920    0.18310    8.58620    3.67820    0.05140    2.62190   78.00150  134.35350   -0.01090    7.81440    7.35910    7.18240
 8720.50000   95.56910    0.17030    8.59200    3.80030    0.04930    2.62540   77.62610  133.47420   -0.01200    7.45850    7.37360    7.14360
 8721.00000   89.82040    0.16370    8.59290    3.99840    0.04830    2.62720   77.22290  132.57230   -0.01190   11.72600    9.70430    9.19290
 8721.50000   88.19830    0.15150    8.58910    4.11480    0.04990    2.62590   76.51540  131.49210   -0.01190   16.26180   11.60710   10.96290
 8722.00000   91.34920    0.15620    8.60270    4.09250    0.05730    2.61570   75.88940  130.58360   -0.01180   11.79980   10.19110    9.61100
 8722.50000   94.94340    0.16670    8.61030    4.02080    0.06410    2.60620   75.12480  129.71600   -0.01180    8.92630    8.58620    8.31250
 8723.00000   92.65450    0.18140    8.59630    3.97440    0.06090    2.60120   73.34130  127.33330   -0.01160    9.16930    8.65740    8.38360
 8723.50000   78.75570    0.15820    8.58140    4.16410    0.04550    2.62400   72.40300  126.53440   -0.00570   10.40040    9.75310    9.36460
 8724.00000   68.14910    0.11970    8.58620    4.30950    0.02790    2.65210   71.76120  126.39710   -0.00370   12.25630   10.98750   10.46030
 8724.50000   62.19780    0.09540    8.58470    4.34930    0.01700    2.68010   72.09970  126.39830   -0.00340   17.18940   12.33050   11.58360
 8725.00000   65.07640    0.10320    8.58760    4.20460    0.02300    2.67470   72.99740  127.21620   -0.00650   15.77980   12.31640   11.11270
 8725.50000   80.04720    0.12230    8.59790    3.88100    0.03370    2.65890   73.68040  128.06650   -0.00840   14.73720   11.97530   10.33450
 8726.00000   93.86680    0.14600    8.60210    3.67040    0.04420    2.63250   74.99960  128.79520   -0.00840   15.08690   12.84970   10.65300
 8726.50000  106.42590    0.16780    8.60410    3.50050    0.04730    2.62870   74.74640  129.29140   -0.00710   15.81410   12.54970   10.69950
 8727.00000  110.18450    0.18820    8.60610    3.42920    0.05170    2.62270   74.44630  129.52440   -0.00790   16.30750   12.67890   10.69950
 8727.50000  106.93810    0.18940    8.60830    3.43760    0.05550    2.61670   74.73860  129.30270   -0.00900   17.90630   14.80510   10.74750
 8728.00000  100.79790    0.17240    8.61090    3.55330    0.05710    2.61310   73.73830  128.63350   -0.01090   17.23220   14.39020   10.93010
 8728.50000   88.66910    0.14270    8.61350    3.71590    0.04880    2.62300   73.27240  128.25350   -0.01140   17.22540   13.83010   11.16300
 8729.00000   70.44680    0.10720    8.62820    3.84640    0.03010    2.65610   73.41780  128.26640   -0.00920   18.24460   14.09480   11.70490
 8729.50000   60.57080    0.08600    8.62330    3.80480    0.01830    2.67610   73.49400  128.20180   -0.00460   17.69240   13.11720   11.97690
 8730.00000   71.33390    0.10070    8.61570    3.76310    0.02920    2.65980   72.87060  127.06430   -0.00530   14.37850   11.37980   10.52290
 8730.50000   88.35910    0.13620    8.61130    3.72000    0.04640    2.63650   73.15860  127.13130   -0.00880   10.97900   10.10940    9.28930
 8731.00000   94.21040    0.16100    8.61550    3.74840    0.05340    2.62160   72.37200  127.08410   -0.01030   10.73150    9.49120    8.77780
 8731.50000   94.87810    0.15830    8.61900    3.85130    0.05080    2.62210   72.46600  128.31180   -0.01010   10.25300    8.96390    8.33670
 8732.00000   97.24300    0.15880    8.62210    3.99030    0.04390    2.63090   73.00190  130.35030   -0.00850    9.60830    8.46590    7.91780
 8732.50000   98.40410    0.16190    8.62520    4.16550    0.03920    2.64090   73.53830  132.62830   -0.00420    8.71340    8.12800    7.52220
 8733.00000   91.82110    0.14600    8.62830    4.27900    0.03320    2.65280   74.42670  134.75900   -0.00330    9.13220    8.53020    8.01000
 8733.50000   89.42940    0.12850    8.62530    4.18970    0.02650    2.66270   76.15060  136.37230    0.00030    9.76080    9.11060    8.66090
 8734.00000   98.80650    0.14570    8.61530    3.98570    0.03500    2.65070   76.73210  137.03130   -0.00260    8.50140    8.08050    7.58460
 8734.50000  110.57110    0.17720    8.61110    3.74100    0.04390    2.63100   76.84010  137.26520   -0.00420    7.42970    7.16830    6.77510
 8735.00000  113.07680    0.20970    8.61020    3.68440    0.05410    2.61950   78.24570  138.78970   -0.00970    7.47900    7.35810    7.13620
 8735.50000  108.24280    0.20150    8.60660    3.69920    0.04920    2.62360   78.64380  139.39150   -0.00980    7.93450    7.74710    7.68540
 8736.00000  102.90350    0.19590    8.60270    3.71000    0.04650    2.62960   79.67790  139.82880   -0.00810    8.32930    8.19200    8.27680
 8736.50000  102.56370    0.19190    8.59940    3.69420    0.04920    2.62780   79.89990  140.05140   -0.00720    8.64970    8.66240    8.83690
 8737.00000  103.97220    0.19800    8.61040    3.66090    0.05580    2.61670   80.68590  140.01220   -0.00800    8.81460    9.13030    9.27610
 8737.50000  108.48360    0.20640    8.61170    3.62520    0.06280    2.60690   80.91830  139.97290   -0.00890    8.92800    9.52330    9.73720
 8738.00000  109.04310    0.21060    8.61170    3.59460    0.06330    2.60080   80.65760  140.02370   -0.00980    9.14090    9.93540   10.23650
 8738.50000  108.59590    0.21500    8.61170    3.57060    0.06060    2.60510   80.27380  140.13200   -0.00980    9.45360   10.36600   10.76630
 8739.00000  106.85100    0.20350    8.61160    3.54350    0.05740    2.61160   81.16670  140.20690   -0.00980    9.88250   10.81530   11.32360
 8739.50000  107.27350    0.19410    8.61150    3.50840    0.05720    2.61200   81.47200  140.51100   -0.00980   10.08840   11.28400   11.89500
