~Version ---------------------------------------------------
VERS.   2.0 : CWLS log ASCII Standard -VERSION 2.0
WRAP.    NO : One line per depth step
DLM . SPACE : Column Data Section Delimiter
~Well ------------------------------------------------------
STRT .F                 200.0 : START DEPTH
STOP .F                9773.0 : STOP DEPTH
STEP .F                   0.5 : STEP
NULL .               -9999.25 : NULL VALUE
COMP .                        : COMPANY
WELL .                        : WELL
FLD  .                        : FIELD
LOC  .                        : LOCATION
PROV .                        : PROVINCE
CNTY .                        : COUNTY
STAT .                        : STATE
CTRY .                        : COUNTRY
SRVC .                        : SERVICE COMPANY
DATE .                        : DATE
UWI  .                        : UNIQUE WELL ID
API  .                        : API NUMBER
SLAT .WGS84 1.380030958957505 : SURFACE LATITUDE
SLON .WGS84 6.107931134328993 : SURFACE LONGITUDE
DATUM.F                   nan : DEPTH DATUM ELEV
~Curve Information -----------------------------------------
DEPT   .F     : 
SGRDD  .GAPI  : SPECTROSCOPY GAMMA RAY FROM DENSITY LOG
TNPH_LS.DEC   : THERMAL NEUTRON POROSITY [LIMESTONE]
CALD   .IN    : CALIPER FROM DENSITY LOG
PEFZ   .B/E   : HRDD STANDARD RESOLUTION FORMATION PHOTOELECTRIC FACTOR
DPHZ_LS.DEC   : HGRD STANDARD RESOLUTION DENSITY POROSITY
RHOZ   .G/C3  : HRDD STANDARD RESOLUTION FORMATION DENSITY
DTCO   .US/F  : DELTA-T COMPRESSIONAL
DTSM   .US/F  : DELTA-T SHEAR
HDRA   .G/C3  : HRDD SPINE AND RIBS DENSITY CORRECTION
AT10   .OHMM  : ARRAY INDUCTION TWO FOOT RESISTIVITY A10
AT30   .OHMM  : ARRAY INDUCTION TWO FOOT RESISTIVITY A30
AT90   .OHMM  : ARRAY INDUCTION TWO FOOT RESISTIVITY A90
~Params ----------------------------------------------------
~Other -----------------------------------------------------
~ASCII -----------------------------------------------------
# ...
 9496.00000   42.06500    0.03270    8.60360    4.72220    0.00610    2.69950   55.25980  100.13700   -0.00980   74.92790   68.46670   61.92770
 9496.50000   40.14730    0.03060    8.60360    4.78740    0.00860    2.69490   54.42480   99.75120   -0.01160   83.04850   75.03290   69.48360
 9497.00000   37.63940    0.02690    8.60360    4.86010    0.01170    2.69060   54.29350   99.34190   -0.01280   92.04910   82.49740   79.88600
 9497.50000   35.03720    0.02320    8.60360    4.89740    0.01370    2.69150   54.23280   99.07980   -0.01120  104.24500   94.09330   91.22340
 9498.00000   33.25400    0.02340    8.60360    4.90120    0.00800    2.69810   54.24470   98.60650   -0.00790  113.72810  104.54560  102.72190
 9498.50000   33.19640    0.02590    8.60360    4.85790    0.00440    2.70330   54.30510   98.52660   -0.00720  103.19040   97.63960   94.78270
 9499.00000   35.18130    0.02870    8.60360    4.82220    0.00540    2.70180   54.32780   98.65400   -0.00790   93.37420   86.27680   83.75600
 9499.50000   38.22930    0.03100    8.60360    4.82960    0.01240    2.69790   54.19280   98.41470   -0.00890   83.15090   78.09810   74.01220
 9500.00000   39.50510    0.02800    8.60360    4.83600    0.01270    2.69660   54.22810   98.52210   -0.00860   83.47150   77.93740   75.78890
 9500.50000   34.88320    0.02360    8.60360    4.84660    0.00810    2.70070   54.11260   98.65520   -0.00710  107.09160   95.30600   91.51430
 9501.00000   30.48910    0.01780    8.60360    4.88950    0.00460    2.70480   54.40860   98.36130   -0.00710  141.83810  133.74780  124.95090
 9501.50000   30.25240    0.01690    8.60360    4.85360    0.00210    2.70750   54.91660   99.00700   -0.00720  136.02270  126.25000  117.78330
 9502.00000   36.59630    0.02260    8.60360    4.77620    0.00380    2.70390   55.20180   98.94440   -0.00880  101.08350   90.98920   85.41410
 9502.50000   43.52110    0.03150    8.60360    4.67210    0.00530    2.70050   55.46490   98.89590   -0.00980   74.64550   67.26030   64.23940
 9503.00000   47.78870    0.03880    8.60360    4.58640    0.00460    2.70140   55.55690   99.46820   -0.00830   59.90280   56.02080   50.03590
 9503.50000   48.80530    0.03990    8.60360    4.54570    0.00180    2.70810   55.59960  100.08100   -0.00610   54.35350   52.77220   50.63580
 9504.00000   43.41010    0.03890    8.60360    4.56070   -0.00070    2.71370   55.66560  100.09790   -0.00470   59.63590   57.22200   55.50690
 9504.50000   38.00820    0.03290    8.60360    4.58560   -0.00260    2.71480   55.54080  100.14810   -0.00480   70.03830   65.13270   63.17920
 9505.00000   35.10150    0.02730    8.60360    4.59030   -0.00260    2.71500   56.40920  100.45570   -0.00500   88.15050   79.44870   74.29780
 9505.50000   38.06370    0.02860    8.60360    4.56520    0.00130    2.70980   56.10720  100.47300   -0.00620   72.89110   68.35170   65.38850
 9506.00000   43.20010    0.03460    8.60360    4.52380    0.00440    2.70450   55.96100  100.57650   -0.00680   58.56800   55.14270   52.73420
 9506.50000   47.17400    0.03740    8.60360    4.51940    0.00820    2.69790   55.83750  100.67990   -0.00680   49.71530   46.73930   45.66740
 9507.00000   44.56990    0.03220    8.60360    4.57200    0.00290    2.70340   55.86560  100.12810   -0.00590   67.21600   61.51960   58.82480
 9507.50000   39.29280    0.02720    8.60380    4.62440   -0.00350    2.71360   55.74120   99.89230   -0.00490   81.48230   76.17140   72.83170
 9508.00000   39.96590    0.02770    8.60410    4.64080   -0.00490    2.71770   55.59010  100.09770   -0.00500   83.49090   78.56640   76.14580
 9508.50000   42.95770    0.03300    8.60440    4.65730   -0.00050    2.71300   55.38850  100.63870   -0.00610   73.43060   70.79800   66.83440
 9509.00000   44.69270    0.03780    8.60470    4.68510    0.00510    2.70480   55.82720  100.51290   -0.00890   71.47470   67.16340   64.27670
 9509.50000   42.58770    0.03700    8.60510    4.72330    0.00580    2.70150   55.88860  100.57360   -0.00980   70.81870   66.88260   64.58790
 9510.00000   43.95040    0.03650    8.60540    4.73540    0.00360    2.70300   55.47880  101.08120   -0.00940   66.37770   63.02500   61.55270
 9510.50000   47.90490    0.04070    8.60570    4.73550    0.00320    2.70460   55.98680  101.09780   -0.00770   57.14950   53.85680   51.84680
 9511.00000   49.59430    0.04220    8.60600    4.74260    0.00350    2.70320   55.86860  100.94090   -0.00690   55.38620   50.02550   47.57510
 9511.50000   45.08620    0.03520    8.60630    4.81530    0.00580    2.69970   56.06730  100.84830   -0.00790   66.65420   61.88280   59.00010
 9512.00000   39.57820    0.02720    8.60660    4.89240    0.00580    2.69740   56.15470  100.92960   -0.00840   85.56090   78.38150   73.91500
 9512.50000   39.15700    0.02350    8.60690    4.90180    0.00360    2.70480   56.23970  101.02470   -0.00740   87.85590   79.46100   74.65580
 9513.00000   45.97440    0.03010    8.60720    4.88040    0.00500    2.70330   56.05060  101.14080   -0.00960   65.74140   59.39840   56.32680
 9513.50000   53.25080    0.03750    8.60750    4.80770    0.00780    2.69820   56.25610  101.72940   -0.00990   52.99930   51.05060   48.38350
 9514.00000   55.55130    0.04120    8.60780    4.73690    0.01090    2.69340   56.45220  101.94810   -0.00980   52.47860   50.24390   48.90960
 9514.50000   55.39460    0.04180    8.60810    4.67470    0.00920    2.69470   56.48230  101.90470   -0.00940   53.19560   51.54660   50.57630
 9515.00000   52.13340    0.03720    8.60840    4.62340    0.00490    2.70000   56.46680  101.94520   -0.00750   58.01290   55.08480   53.78750
 9515.50000   45.84170    0.03290    8.60870    4.61520    0.00160    2.70650   56.03720  102.04190   -0.00690   66.71870   63.55340   61.36860
 9516.00000   43.98930    0.03370    8.60900    4.60570   -0.00170    2.71190   56.46070  101.96970   -0.00680   69.37210   65.60190   63.49120
 9516.50000   43.01260    0.03610    8.60930    4.58900   -0.00420    2.71710   56.60360  101.80740   -0.00680   60.39240   56.85550   55.06520
 9517.00000   44.77070    0.03850    8.60960    4.57280   -0.00490    2.71840   56.40560  102.16680   -0.00630   54.39200   51.96820   50.85110
 9517.50000   46.79670    0.04060    8.60990    4.55100   -0.00610    2.71940   56.20240  102.29980   -0.00540   54.16250   52.37050   49.97500
 9518.00000   49.47940    0.04260    8.61020    4.51590   -0.00710    2.72230   56.63000  102.35050   -0.00490   52.67010   50.33410   49.09430
 9518.50000   53.53810    0.04490    8.61060    4.50970   -0.00790    2.72390   56.75430  102.48790   -0.00490   50.04270   48.96470   48.11330
 9519.00000   55.81180    0.04530    8.61090    4.53890   -0.00640    2.72130   56.69020  102.76590   -0.00490   49.47860   47.59440   46.70090
 9519.50000   49.69230    0.04290    8.61120    4.60190   -0.00320    2.71600   57.70990  102.53070   -0.00490   49.15990   47.07540   45.99140
 9520.00000   43.96720    0.03940    8.61150    4.65580   -0.00100    2.71210   57.58720  102.92930   -0.00480   57.05420   52.38870   51.17600
 9520.50000   44.12570    0.04100    8.61180    4.66520    0.00120    2.70880   57.36200  103.31310   -0.00540   49.92350   46.63250   44.52070
 9521.00000   51.85840    0.04620    8.61210    4.58010    0.00490    2.70430   57.96350  103.63930   -0.00690   39.97060   38.46810   35.65490
 9521.50000   57.03430    0.05020    8.61240    4.57660    0.01070    2.69630   58.06580  103.90180   -0.00890   41.69850   39.13960   37.44550
 9522.00000   55.04730    0.04780    8.61270    4.56610    0.00740    2.69390   58.01920  103.73820   -0.00800   46.43130   43.97220   42.59470
 9522.50000   55.05190    0.04540    8.61260    4.54570    0.00280    2.70370   57.80100  103.64440   -0.00680   44.20310   41.96790   40.78630
 9523.00000   54.75320    0.04320    8.61210    4.51830    0.00040    2.70790   57.86600  103.47230   -0.00700   38.24320   37.40420   36.57770
 9523.50000   49.26780    0.03650    8.61170    4.54550    0.00370    2.70640   57.80030  103.46180   -0.00790   47.44760   44.27600   42.52060
