~Version ---------------------------------------------------
VERS.   2.0 : CWLS log ASCII Standard -VERSION 2.0
WRAP.    NO : One line per depth step
DLM . SPACE : Column Data Section Delimiter
~Well ------------------------------------------------------
STRT .F                 200.0 : START DEPTH
STOP .F                9773.0 : STOP DEPTH
STEP .F                   0.5 : STEP
NULL .               -9999.25 : NULL VALUE
COMP .                        : COMPANY
WELL .                        : WELL
FLD  .                        : FIELD
LOC  .                        : LOCATION
PROV .                        : PROVINCE
CNTY .                        : COUNTY
STAT .                        : STATE
CTRY .                        : COUNTRY
SRVC .                        : SERVICE COMPANY
DATE .                        : DATE
UWI  .                        : UNIQUE WELL ID
API  .                        : API NUMBER
SLAT .WGS84 1.380030958957505 : SURFACE LATITUDE
SLON .WGS84 6.107931134328993 : SURFACE LONGITUDE
DATUM.F                   nan : DEPTH DATUM ELEV
~Curve Information -----------------------------------------
DEPT   .F     : 
SGRDD  .GAPI  : SPECTROSCOPY GAMMA RAY FROM DENSITY LOG
TNPH_LS.DEC   : THERMAL NEUTRON POROSITY [LIMESTONE]
CALD   .IN    : CALIPER FROM DENSITY LOG
PEFZ   .B/E   : HRDD STANDARD RESOLUTION FORMATION PHOTOELECTRIC FACTOR
DPHZ_LS.DEC   : HGRD STANDARD RESOLUTION DENSITY POROSITY
RHOZ   .G/C3  : HRDD STANDARD RESOLUTION FORMATION DENSITY
DTCO   .US/F  : DELTA-T COMPRESSIONAL
DTSM   .US/F  : DELTA-T SHEAR
HDRA   .G/C3  : HRDD SPINE AND RIBS DENSITY CORRECTION
AT10   .OHMM  : ARRAY INDUCTION TWO FOOT RESISTIVITY A10
AT30   .OHMM  : ARRAY INDUCTION TWO FOOT RESISTIVITY A30
AT90   .OHMM  : ARRAY INDUCTION TWO FOOT RESISTIVITY A90
~Params ----------------------------------------------------
~Other -----------------------------------------------------
~ASCII -----------------------------------------------------
# ...
 5884.00000   62.59330    0.25830   -9999.25   -9999.25   -9999.25   -9999.25   -9999.25   -9999.25   -9999.25   -9999.25   -9999.25   -9999.25
 5884.50000   62.31210    0.26560   -9999.25   -9999.25   -9999.25   -9999.25   -9999.25   -9999.25   -9999.25   -9999.25   -9999.25   -9999.25
 5885.00000   54.48740    0.25890   -9999.25   -9999.25   -9999.25   -9999.25   -9999.25   -9999.25   -9999.25   -9999.25   -9999.25   -9999.25
 5885.50000   46.13290    0.23760   -9999.25   -9999.25   -9999.25   -9999.25   -9999.25   -9999.25   -9999.25   -9999.25   -9999.25   -9999.25
 5886.00000   41.15930    0.20840   -9999.25   -9999.25   -9999.25   -9999.25   -9999.25   -9999.25   -9999.25   -9999.25   -9999.25   -9999.25
 5886.50000   43.96820    0.20420   -9999.25   -9999.25   -9999.25   -9999.25   -9999.25   -9999.25   -9999.25   -9999.25   -9999.25   -9999.25
 5887.00000   55.35430    0.24160   -9999.25   -9999.25   -9999.25   -9999.25   -9999.25   -9999.25   -9999.25   -9999.25   -9999.25   -9999.25
 5887.50000   62.44760    0.27860   -9999.25   -9999.25   -9999.25   -9999.25   -9999.25   -9999.25   -9999.25   -9999.25   -9999.25   -9999.25
 5888.00000   65.23830    0.29150   -9999.25   -9999.25   -9999.25   -9999.25   -9999.25   -9999.25   -9999.25   -9999.25   -9999.25   -9999.25
 5888.50000   63.40210    0.28370   -9999.25   -9999.25   -9999.25   -9999.25   -9999.25   -9999.25   -9999.25   -9999.25   -9999.25   -9999.25
 5889.00000   66.13740    0.27890   -9999.25   -9999.25   -9999.25   -9999.25   -9999.25   -9999.25   -9999.25   -9999.25   -9999.25   -9999.25
 5889.50000   70.36930    0.29760   -9999.25   -9999.25   -9999.25   -9999.25   -9999.25   -9999.25   -9999.25   -9999.25   -9999.25   -9999.25
 5890.00000   71.75380    0.29900   -9999.25   -9999.25   -9999.25   -9999.25   -9999.25   -9999.25   -9999.25   -9999.25   -9999.25   -9999.25
 5890.50000   71.79090    0.27810   -9999.25   -9999.25   -9999.25   -9999.25   -9999.25   -9999.25   -9999.25   -9999.25   -9999.25   -9999.25
 5891.00000   69.19800    0.27930   -9999.25   -9999.25   -9999.25   -9999.25   -9999.25   -9999.25   -9999.25   -9999.25   -9999.25   -9999.25
 5891.50000   66.59100    0.29620   -9999.25   -9999.25   -9999.25   -9999.25   -9999.25   -9999.25   -9999.25   -9999.25   -9999.25   -9999.25
 5892.00000   65.10050    0.26870   -9999.25   -9999.25   -9999.25   -9999.25   -9999.25   -9999.25   -9999.25   -9999.25   -9999.25   -9999.25
 5892.50000   63.01570    0.24060   -9999.25   -9999.25   -9999.25   -9999.25   -9999.25   -9999.25   -9999.25   -9999.25   -9999.25   -9999.25
 5893.00000   60.56790    0.21790   -9999.25   -9999.25   -9999.25   -9999.25   -9999.25   -9999.25   -9999.25   -9999.25   -9999.25   -9999.25
 5893.50000   54.22550    0.22390   -9999.25   -9999.25   -9999.25   -9999.25   -9999.25   -9999.25   -9999.25   -9999.25   -9999.25   -9999.25
 5894.00000   50.35600    0.22860   -9999.25   -9999.25   -9999.25   -9999.25   -9999.25   -9999.25   -9999.25   -9999.25   -9999.25   -9999.25
 5894.50000   46.71770    0.22000   -9999.25   -9999.25   -9999.25   -9999.25   -9999.25   -9999.25   -9999.25   -9999.25   -9999.25   -9999.25
 5895.00000   48.26230    0.23230   -9999.25   -9999.25   -9999.25   -9999.25   -9999.25   -9999.25   -9999.25   -9999.25   -9999.25   -9999.25
 5895.50000   54.97300    0.25000   -9999.25   -9999.25   -9999.25   -9999.25   -9999.25   -9999.25   -9999.25   -9999.25   -9999.25   -9999.25
 5896.00000   58.68810    0.25740   -9999.25   -9999.25   -9999.25   -9999.25   -9999.25   -9999.25   -9999.25   -9999.25   -9999.25   -9999.25
 5896.50000   59.60770    0.24560   -9999.25   -9999.25   -9999.25   -9999.25   -9999.25   -9999.25   -9999.25   -9999.25   -9999.25   -9999.25
 5897.00000   56.30350    0.22860   -9999.25   -9999.25   -9999.25   -9999.25   -9999.25   -9999.25   -9999.25   -9999.25   -9999.25   -9999.25
 5897.50000   54.63550    0.23530   -9999.25   -9999.25   -9999.25   -9999.25   -9999.25   -9999.25   -9999.25   -9999.25   -9999.25   -9999.25
 5898.00000   54.12010    0.24850   -9999.25   -9999.25   -9999.25   -9999.25   -9999.25   -9999.25   -9999.25   -9999.25   -9999.25   -9999.25
 5898.50000   52.26140    0.26340   -9999.25   -9999.25   -9999.25   -9999.25   -9999.25   -9999.25   -9999.25   -9999.25   -9999.25   -9999.25
 5899.00000   46.26490    0.22050   -9999.25   -9999.25   -9999.25   -9999.25   -9999.25   -9999.25   -9999.25   -9999.25   -9999.25   -9999.25
 5899.50000   38.96970    0.19740   -9999.25   -9999.25   -9999.25   -9999.25   -9999.25   -9999.25   -9999.25   -9999.25   -9999.25   -9999.25
 5900.00000   35.92600    0.24230    8.76410    8.81450   -9999.25   -9999.25   73.30110  123.48860    0.39100    1.78030    4.56470    4.48840
 5900.50000   42.47750    0.27450    8.76590    7.54950   -9999.25   -9999.25   73.51680  124.79070    0.32640    1.23180    3.74000    4.43070
 5901.00000   54.16750    0.27040    8.78710    5.69780   -0.07440   -9999.25   73.59890  127.79680    0.19950    0.88720    2.86040    3.82020
 5901.50000   69.64940    0.20640    8.79340    4.46910    0.07490   -9999.25   74.14050  128.81490    0.05280    0.73490    2.60510    3.34260
 5902.00000   76.25610    0.17520    8.73890    3.49220    0.11080    2.51720   74.79130  130.86260    0.03540    0.92030    2.70520    3.29800
 5902.50000   78.28470    0.15010    8.70960    3.16100    0.09730    2.53510   76.05740  131.27690    0.00790    1.24490    2.60800    3.29150
 5903.00000   78.50740    0.15710    8.69110    3.06580    0.08990    2.55470   75.99510  132.61260   -0.00650    2.52420    2.51240    2.84440
 5903.50000   82.25070    0.16380    8.69070    3.10030    0.08720    2.55960   76.59070  133.04710   -0.00910    5.66850    2.75230    2.62440
 5904.00000   86.81300    0.17230    8.69360    3.12390    0.08860    2.56080   75.81960  132.70050   -0.00980    4.92070    3.06690    2.52930
 5904.50000   90.05490    0.17440    8.69230    3.13800    0.09110    2.55610   75.43130  132.11280   -0.01090    3.90990    3.04750    2.26140
 5905.00000   90.39590    0.18070    8.69070    3.15200    0.09470    2.55040   75.06170  131.86470   -0.01170    3.42890    3.02170    2.25660
 5905.50000   88.18240    0.17290    8.68920    3.14190    0.09740    2.54470   75.23420  131.10210   -0.01190    3.84420    2.99620    2.58120
 5906.00000   85.57780    0.16860    8.68950    3.09570    0.09690    2.54330   75.25670  131.06880   -0.01090    3.85800    3.05510    2.77780
 5906.50000   82.83930    0.16400    8.69170    3.06650    0.09560    2.54620   75.25120  131.04530   -0.01040    3.68940    3.10570    2.94250
 5907.00000   81.79100    0.16010    8.68970    3.03200    0.09620    2.54750   75.14730  130.67760   -0.00990    3.53770    3.18750    3.09630
 5907.50000   81.46160    0.16020    8.68620    3.01470    0.10030    2.54150   75.15740  130.61890   -0.00990    3.51230    3.31170    3.24480
 5908.00000   81.45040    0.16070    8.69210    3.00610    0.10430    2.53320   74.95300  130.56560   -0.00990    3.48370    3.35710    3.23780
 5908.50000   80.27780    0.16180    8.69800    3.00760    0.10810    2.52640   74.81900  130.38440   -0.01040    3.48640    3.36100    3.22870
 5909.00000   77.87090    0.16140    8.70390    3.09690    0.11050    2.52130   74.79120  131.03000   -0.01180    3.61310    3.38800    3.22140
 5909.50000   77.16360    0.16070    8.70930    3.20880    0.10610    2.52480   74.78870  133.40590   -0.01150    3.72590    3.56050    3.42230
 5910.00000   77.68980    0.15950    8.70650    3.27810    0.09740    2.53730   74.80380  133.51260   -0.01010    3.98300    3.79440    3.69950
 5910.50000   78.24960    0.15710    8.70430    3.30940    0.09130    2.54860   74.87170  133.49000   -0.00790    4.21600    4.02660    3.95470
 5911.00000   78.09400    0.15490    8.70440    3.19350    0.09440    2.55110   74.81760  133.45130   -0.00730    3.89490    3.68410    3.59450
 5911.50000   79.98190    0.15750    8.70450    3.06520    0.09850    2.54250   74.78110  133.33010   -0.00830    3.60680    3.47140    3.36790
