~Version ---------------------------------------------------
VERS.   2.0 : CWLS log ASCII Standard -VERSION 2.0
WRAP.    NO : One line per depth step
DLM . SPACE : Column Data Section Delimiter
~Well ------------------------------------------------------
STRT .F                 200.0 : START DEPTH
STOP .F                9773.0 : STOP DEPTH
STEP .F                   0.5 : STEP
NULL .               -9999.25 : NULL VALUE
COMP .                        : COMPANY
WELL .                        : WELL
FLD  .                        : FIELD
LOC  .                        : LOCATION
PROV .                        : PROVINCE
CNTY .                        : COUNTY
STAT .                        : STATE
CTRY .                        : COUNTRY
SRVC .                        : SERVICE COMPANY
DATE .                        : DATE
UWI  .                        : UNIQUE WELL ID
API  .                        : API NUMBER
SLAT .WGS84 1.380030958957505 : SURFACE LATITUDE
SLON .WGS84 6.107931134328993 : SURFACE LONGITUDE
DATUM.F                   nan : DEPTH DATUM ELEV
~Curve Information -----------------------------------------
DEPT   .F     : 
SGRDD  .GAPI  : SPECTROSCOPY GAMMA RAY FROM DENSITY LOG
TNPH_LS.DEC   : THERMAL NEUTRON POROSITY [LIMESTONE]
CALD   .IN    : CALIPER FROM DENSITY LOG
PEFZ   .B/E   : HRDD STANDARD RESOLUTION FORMATION PHOTOELECTRIC FACTOR
DPHZ_LS.DEC   : HGRD STANDARD RESOLUTION DENSITY POROSITY
RHOZ   .G/C3  : HRDD STANDARD RESOLUTION FORMATION DENSITY
DTCO   .US/F  : DELTA-T COMPRESSIONAL
DTSM   .US/F  : DELTA-T SHEAR
HDRA   .G/C3  : HRDD SPINE AND RIBS DENSITY CORRECTION
AT10   .OHMM  : ARRAY INDUCTION TWO FOOT RESISTIVITY A10
AT30   .OHMM  : ARRAY INDUCTION TWO FOOT RESISTIVITY A30
AT90   .OHMM  : ARRAY INDUCTION TWO FOOT RESISTIVITY A90
~Params ----------------------------------------------------
~Other -----------------------------------------------------
~ASCII -----------------------------------------------------
# ...
 7676.00000  103.54230    0.20950    8.64280    3.33450    0.11690    2.50990   77.16850  132.25380   -0.00680   19.00410   21.60180   24.03630
 7676.50000   96.49740    0.19990    8.64540    3.29470    0.10970    2.52670   77.25650  134.41430   -0.00680   18.93130   21.63040   23.28480
 7677.00000   88.77530    0.18190    8.64800    3.43640    0.09890    2.54130   79.23900  134.83120   -0.00680   23.13590   26.20380   28.32190
 7677.50000   79.83220    0.16440    8.65370    3.64590    0.09400    2.54610   79.55180  134.78180   -0.00680   32.34470   35.70970   40.19120
 7678.00000   77.29950    0.15070    8.65040    3.69990    0.10140    2.53740   78.66970  133.34450   -0.00670   38.23720   42.06060   50.43730
 7678.50000   79.95260    0.16160    8.62650    3.69100    0.11420    2.52150   77.78590  132.37880   -0.00760   31.83980   37.74820   43.90650
 7679.00000   82.47250    0.18470    8.64020    3.73570    0.12150    2.50640   77.16830  132.23680   -0.01030   30.96160   35.62240   40.47220
 7679.50000   78.14870    0.18670    8.64040    3.89290    0.10690    2.50540   76.54600  132.32750   -0.01040   34.61600   36.35160   39.30700
 7680.00000   74.20950    0.16730    8.63460    4.05910    0.09240    2.53360   76.46240  132.76470   -0.00970   35.64950   37.26070   38.83920
 7680.50000   73.24800    0.17100    8.64190    4.09570    0.08300    2.56590   76.77480  134.24360   -0.00970   35.39700   37.62460   35.68430
 7681.00000   73.61940    0.17550    8.65820    4.02320    0.07910    2.57340   77.17210  135.06690   -0.00980   32.51480   30.60540   29.34870
 7681.50000   77.31270    0.17770    8.66600    3.94140    0.07610    2.57840   78.10930  137.20680   -0.00970   25.90230   23.37510   22.08170
 7682.00000   82.67860    0.18100    8.66550    3.84560    0.08050    2.57380   78.94090  138.34310   -0.00960   20.12640   18.37900   17.82920
 7682.50000   88.45090    0.18720    8.65270    3.72860    0.08560    2.56510   79.24360  139.74690   -0.00730   20.45900   19.53790   18.99370
 7683.00000   90.09390    0.19060    8.63990    3.61740    0.09070    2.55540   80.30600  140.78840   -0.00580   23.14230   21.24620   20.81510
 7683.50000   93.65870    0.19340    8.63750    3.53540    0.09660    2.54390   82.25430  142.32350   -0.00430   22.64410   21.35440   20.66020
 7684.00000   94.48750    0.19340    8.64850    3.48130    0.10350    2.53400   82.40380  143.35270   -0.00610   22.69490   20.98870   20.18850
 7684.50000   95.34480    0.19130    8.64980    3.42020    0.10730    2.52710   83.18570  144.35940   -0.00680   27.36470   25.26140   24.34400
 7685.00000   94.65340    0.20200    8.64700    3.37850    0.10130    2.53990   83.42220  144.66480   -0.00690   30.13980   28.84440   25.55990
 7685.50000   93.23890    0.20640    8.65060    3.43820    0.09480    2.54800   82.79640  143.49160   -0.00710   20.44230   17.33800   15.79150
 7686.00000   90.64310    0.20430    8.65150    3.57980    0.09560    2.54710   81.40870  142.07490   -0.00940   13.34880   12.24130   11.70880
 7686.50000   88.13420    0.19860    8.65100    3.73640    0.09590    2.54640   80.64460  139.56100   -0.01100   12.17430   11.17030   10.88070
 7687.00000   77.02940    0.18440    8.65150    3.97370    0.08980    2.55210   80.04180  138.95750   -0.01160   19.02110   15.96340   14.04640
 7687.50000   62.06190    0.13880    8.65250    4.05620    0.07470    2.57680   78.84060  137.46010   -0.00980   38.10650   30.98410   27.27330
 7688.00000   60.63500    0.11810    8.65260    3.92260    0.07350    2.58390   79.61690  137.50620   -0.00730   48.72410   43.56220   38.37540
 7688.50000   73.47710    0.12860    8.65270    3.74420    0.08880    2.55910   79.31680  137.61650   -0.00700   39.29020   32.86160   30.13190
 7689.00000   90.02580    0.17520    8.65270    3.63100    0.11130    2.51660   78.86870  137.81760   -0.00910   25.84510   20.99390   19.21240
 7689.50000   93.90210    0.20570    8.65280    3.60270    0.11100    2.52530   79.72770  138.64360   -0.01160   16.33890   15.04060   14.43640
 7690.00000   85.76950    0.20910    8.65290    3.74970    0.09820    2.54410   79.80620  139.83730   -0.01190   17.33260   16.21530   15.17260
 7690.50000   78.89990    0.19460    8.65300    3.86840    0.08750    2.56280   80.26920  140.42340   -0.01030   22.19990   20.24410   19.28460
 7691.00000   80.26730    0.17980    8.65300    3.85110    0.08470    2.56510   81.15730  142.67310   -0.00700   25.42440   24.36340   22.94900
 7691.50000   86.69430    0.17680    8.65310    3.72760    0.09330    2.55390   82.75080  143.97810   -0.00690   19.63380   17.71290   16.51750
 7692.00000   92.87050    0.19890    8.65320    3.62530    0.09680    2.54270   82.75330  144.73540   -0.00810   14.67300   13.89780   13.48290
 7692.50000   96.43030    0.21520    8.65320    3.55990    0.09760    2.53910   81.99600  144.98980   -0.00870   15.26910   14.53930   14.14290
 7693.00000   97.03370    0.20210    8.65330    3.56600    0.08310    2.56820   81.83820  143.95350   -0.00700   17.33130   16.27220   15.79730
 7693.50000   93.38230    0.19000    8.65340    3.60880    0.07470    2.58220   81.83010  144.19650   -0.00680   18.31920   17.41250   16.95910
 7694.00000   86.39500    0.18880    8.65350    3.71570    0.07200    2.58900   81.82210  144.42750   -0.00770   18.20850   17.47020   17.00400
 7694.50000   77.38700    0.18720    8.65350    3.95380    0.07320    2.58630   82.03730  144.29940   -0.00940   18.29610   17.52800   17.00400
 7695.00000   76.07390    0.17620    8.65360    4.09320    0.07550    2.58260   82.67210  144.14440   -0.00970   16.93290   16.26480   15.56480
 7695.50000   79.03130    0.18260    8.64270    4.02110    0.08330    2.57130   83.00690  143.76940   -0.00980   13.61680   12.78080   12.15330
 7696.00000   84.21680    0.19640    8.63140    3.84950    0.09070    2.55810   83.52570  143.76700   -0.00980   11.04870   10.68080   10.09730
 7696.50000   89.01220    0.21650    8.62610    3.66780    0.09750    2.54480   83.91890  143.42790   -0.00960   11.87340   11.46210   11.05440
 7697.00000   93.93600    0.23390    8.62950    3.49040    0.10390    2.53660   82.62820  140.75410   -0.00690   14.63950   13.51820   13.03710
 7697.50000   98.24910    0.23810    8.61010    3.49300    0.11030    2.52480   81.08460  140.25100   -0.00440   16.68640   15.94320   15.37540
 7698.00000   92.56640    0.23350    8.60700    3.67340    0.09690    2.54210   84.91460  136.06180    0.00410   16.72890   16.18010   15.85760
 7698.50000   79.72220    0.19740    8.60970    4.08960    0.07220    2.57860   85.61930  132.62590    0.00670   17.35740   15.83180   15.44390
 7699.00000   58.09600    0.13250    8.61230    4.58510    0.02410    2.66160   84.76210  128.92470    0.01020   32.33720   27.42620   23.83010
 7699.50000   36.17290    0.08130    8.61490    5.18070   -0.02550    2.74690   71.50950  126.98750   -0.00240   67.03750   54.87680   49.48070
 7700.00000   26.45100    0.06820    8.61750    5.27350   -0.03550    2.77030   70.82200  125.11390   -0.00550  100.10490   58.08340   54.05390
 7700.50000   36.57680    0.08630    8.62010    4.91890   -0.01570    2.72980   70.74340  123.87530   -0.00890   78.24960   62.63860   58.00380
 7701.00000   59.35710    0.12770    8.62270    4.16070    0.04760    2.61780   71.15300  124.67090   -0.01030   34.67670   42.75250   48.31930
 7701.50000   83.90960    0.18100    8.62530    3.70750    0.09500    2.54660   71.90380  125.47250   -0.00970   22.38340   25.44400   28.49640
 7702.00000   93.83340    0.24680    8.62800    3.53720    0.11530    2.51050   74.84970  128.29410   -0.01040   21.62860   26.49630   28.40030
 7702.50000   87.02810    0.22630    8.63060    3.62070    0.11180    2.51610   76.96000  131.73270   -0.01120   27.94610   33.47240   35.98760
 7703.00000   79.50130    0.19310    8.63910    3.77760    0.09970    2.53250   78.83380  133.44120   -0.00860   35.74950   43.25260   45.76800
 7703.50000   78.03430    0.17410    8.63920    3.78410    0.10310    2.53860   81.49990  135.37500   -0.00870   34.56300   39.09400   43.85240
