~Version ---------------------------------------------------
VERS.   2.0 : CWLS log ASCII Standard -VERSION 2.0
WRAP.    NO : One line per depth step
DLM . SPACE : Column Data Section Delimiter
~Well ------------------------------------------------------
STRT .F                 200.0 : START DEPTH
STOP .F                9773.0 : STOP DEPTH
STEP .F                   0.5 : STEP
NULL .               -9999.25 : NULL VALUE
COMP .                        : COMPANY
WELL .                        : WELL
FLD  .                        : FIELD
LOC  .                        : LOCATION
PROV .                        : PROVINCE
CNTY .                        : COUNTY
STAT .                        : STATE
CTRY .                        : COUNTRY
SRVC .                        : SERVICE COMPANY
DATE .                        : DATE
UWI  .                        : UNIQUE WELL ID
API  .                        : API NUMBER
SLAT .WGS84 1.380030958957505 : SURFACE LATITUDE
SLON .WGS84 6.107931134328993 : SURFACE LONGITUDE
DATUM.F                   nan : DEPTH DATUM ELEV
~Curve Information -----------------------------------------
DEPT   .F     : 
SGRDD  .GAPI  : SPECTROSCOPY GAMMA RAY FROM DENSITY LOG
TNPH_LS.DEC   : THERMAL NEUTRON POROSITY [LIMESTONE]
CALD   .IN    : CALIPER FROM DENSITY LOG
PEFZ   .B/E   : HRDD STANDARD RESOLUTION FORMATION PHOTOELECTRIC FACTOR
DPHZ_LS.DEC   : HGRD STANDARD RESOLUTION DENSITY POROSITY
RHOZ   .G/C3  : HRDD STANDARD RESOLUTION FORMATION DENSITY
DTCO   .US/F  : DELTA-T COMPRESSIONAL
DTSM   .US/F  : DELTA-T SHEAR
HDRA   .G/C3  : HRDD SPINE AND RIBS DENSITY CORRECTION
AT10   .OHMM  : ARRAY INDUCTION TWO FOOT RESISTIVITY A10
AT30   .OHMM  : ARRAY INDUCTION TWO FOOT RESISTIVITY A30
AT90   .OHMM  : ARRAY INDUCTION TWO FOOT RESISTIVITY A90
~Params ----------------------------------------------------
~Other -----------------------------------------------------
~ASCII -----------------------------------------------------
# ...
 6388.00000  102.12060    0.20270    8.63340    3.43980    0.09250    2.54810   79.26300  135.91240   -0.01040    6.99550    6.28080    5.94480
 6388.50000   99.79280    0.20680    8.63140    3.60040    0.09050    2.55180   81.05080  129.17390   -0.01180    9.59170    8.33980    7.87360
 6389.00000   89.56730    0.19960    8.63110    4.16160    0.05400    2.60660   80.42900  126.70110   -0.01160   13.89320   11.44260   10.48290
 6389.50000   65.36080    0.15850    8.63140    4.64770   -0.00750    2.70420   68.38960  121.32850   -0.00720   25.95800   20.67000   17.93960
 6390.00000   45.17460    0.11960    8.63170    4.90650   -0.05110    2.78910   67.52330  121.26650   -0.00220   40.80580   34.38410   32.06850
 6390.50000   35.84610    0.09910    8.63200    5.02130   -0.06400    2.82100   67.43900  121.42200   -0.00090   53.67530   39.73090   34.95270
 6391.00000   47.42100    0.11210    8.63220    4.70690   -0.02850    2.76710   67.78720  121.24960   -0.00260   32.78420   24.59150   19.81840
 6391.50000   73.49710    0.13920    8.63250    4.19200    0.02840    2.67950   70.20590  125.04970   -0.00560   12.82740   11.69680   10.51970
 6392.00000   94.00240    0.17850    8.63280    3.73300    0.06740    2.59420   71.65910  127.39430   -0.00770    8.32870    7.48270    6.90360
 6392.50000  100.58760    0.20150    8.63310    3.46360    0.09530    2.54880   73.96350  131.30890   -0.00890    7.81100    7.53320    7.27430
 6393.00000  102.91240    0.20470    8.63340    3.37140    0.10250    2.53690   77.28820  134.99660   -0.01050    7.85520    7.69730    7.29970
 6393.50000  105.52450    0.21260    8.63370    3.42070    0.10100    2.53650   80.61780  140.39660   -0.01180    6.83690    6.28940    5.90270
 6394.00000  109.27900    0.22630    8.63390    3.44950    0.09680    2.54290   81.39850  141.86720   -0.01180    5.57340    5.07630    4.85820
 6394.50000  110.77200    0.23840    8.63420    3.47840    0.09220    2.55060   82.13760  143.92330   -0.01200    4.68580    4.54140    4.46220
 6395.00000  109.38970    0.21860    8.63450    3.50720    0.08960    2.55630   82.22880  144.66380   -0.01320    5.00610    4.83030    4.68650
 6395.50000  105.73780    0.20530    8.63480    3.49630    0.08880    2.55840   82.88400  146.05190   -0.01190    6.02330    5.84080    5.58950
 6396.00000  102.64040    0.19610    8.63510    3.46690    0.09190    2.55350   82.84390  143.24210   -0.01180    7.65650    7.28440    6.95450
 6396.50000  105.92210    0.20230    8.63350    3.45910    0.09570    2.54790   82.95730  143.73200   -0.01180    8.58400    8.39170    7.89680
 6397.00000  112.27190    0.21020    8.63420    3.48600    0.09720    2.54430   83.06810  144.01380   -0.01110    6.95020    6.18940    5.81570
 6397.50000  113.85490    0.22340    8.64680    3.54540    0.09480    2.54710   82.47510  144.09730   -0.00890    5.42520    5.09990    4.95130
 6398.00000  109.99020    0.22890    8.64610    3.58330    0.09170    2.55200   82.28440  143.67060   -0.00780    6.11960    5.71740    5.52760
 6398.50000  105.85600    0.22320    8.63960    3.57330    0.09400    2.55120   81.78860  143.22620   -0.00770    6.98180    6.64520    6.33640
 6399.00000  103.46430    0.21750    8.63510    3.55770    0.09720    2.54430   81.33250  142.37520   -0.00910    7.48280    7.19400    6.96810
 6399.50000   97.00760    0.20080    8.63800    3.58540    0.09170    2.54750   80.51180  141.48300   -0.01040    7.54640    7.27020    7.02480
 6400.00000   90.15130    0.19320    8.64440    3.64580    0.08100    2.57040   80.57000  139.20720   -0.01170    7.21460    6.90160    6.80220
 6400.50000   85.44410    0.18760    8.65060    3.70950    0.07060    2.59000   80.54470  140.71950   -0.01120    6.86230    6.55970    6.43830
 6401.00000   90.59320    0.19480    8.64530    3.70640    0.07510    2.58970   80.65980  141.30300   -0.01180    6.53130    6.17530    5.93600
 6401.50000  102.52250    0.21030    8.63750    3.62680    0.08300    2.57220   81.04280  142.16790   -0.01180    5.95890    5.63820    5.47290
 6402.00000  110.03910    0.22710    8.63640    3.59480    0.08920    2.55810   81.67550  143.13220   -0.01180    5.51880    5.25940    5.14770
 6402.50000  113.47510    0.24210    8.63520    3.55400    0.08930    2.55850   82.05360  144.15570   -0.01140    6.12110    5.83460    5.65960
 6403.00000  109.76920    0.23330    8.63410    3.54830    0.08840    2.55780   82.66430  145.60710   -0.00960    7.05430    6.65010    6.45080
 6403.50000  106.23490    0.22390    8.63240    3.56290    0.09010    2.55690   83.14970  146.21320   -0.00870    7.72640    7.37620    7.21220
 6404.00000  106.69650    0.22020    8.63160    3.62560    0.09000    2.55610   83.33890  147.03850   -0.00860    7.77770    7.49180    7.36080
 6404.50000  105.55820    0.22190    8.63830    3.71500    0.08970    2.55610   83.39690  147.31840   -0.00900    7.61980    7.22680    7.08090
 6405.00000  104.93480    0.21510    8.64720    3.80440    0.08350    2.56470   82.78860  146.84410   -0.00960    6.98550    6.44340    6.04370
 6405.50000  103.38890    0.22090    8.65490    3.84390    0.07650    2.57520   82.36670  144.58350   -0.00950    5.63860    5.26100    4.89190
 6406.00000  105.30690    0.22240    8.65590    3.77090    0.07080    2.58790   81.98570  144.22050   -0.00890    4.74880    4.61310    4.42920
 6406.50000  100.67080    0.21300    8.64870    3.66780    0.07030    2.58850   81.82900  144.21900   -0.00880    5.41200    5.08400    4.76120
 6407.00000   96.71920    0.20290    8.64340    3.63960    0.07680    2.58150   81.89350  144.16210   -0.00990    6.35920    6.09360    5.80940
 6407.50000   96.34680    0.19700    8.63670    3.67630    0.08750    2.56680   82.20140  144.84730   -0.01110    7.64700    7.25020    7.05320
 6408.00000  100.71790    0.20980    8.64070    3.70100    0.09500    2.55180   82.43730  145.55640   -0.01180    8.17560    7.87580    7.38960
 6408.50000  108.42620    0.22570    8.64470    3.72060    0.09730    2.54140   82.58180  146.18310   -0.01130    7.17340    6.53390    6.05460
 6409.00000  113.99270    0.23960    8.64280    3.69490    0.08350    2.55860   83.14880  146.84940   -0.00850    5.78930    5.28910    4.96080
 6409.50000  115.25880    0.22610    8.64750    3.63330    0.07210    2.58260   83.99170  147.99340   -0.00680    4.73360    4.51540    4.37500
 6410.00000  114.30390    0.21850    8.65120    3.57170    0.07390    2.58600   84.68960  149.01500   -0.00790    4.88340    4.72580    4.53920
 6410.50000  110.74040    0.20820    8.65300    3.54710    0.08250    2.57330   85.32760  150.09640   -0.00990    5.59770    5.28790    5.11760
 6411.00000  108.80880    0.21880    8.65340    3.61800    0.09780    2.54770   85.74690  150.89800   -0.01410    7.08620    6.46470    6.10750
 6411.50000  107.93560    0.22580    8.64720    3.71350    0.10480    2.53430   85.97860  151.20190   -0.01260    8.32620    8.11990    7.97820
 6412.00000  107.79410    0.23920    8.64240    3.80890    0.10480    2.53080   85.81020  151.25340   -0.01180    7.85070    7.24970    6.98350
 6412.50000  106.25990    0.23720    8.64230    3.85860    0.09820    2.53940   85.47830  151.06840   -0.01180    6.49720    6.09650    5.87240
 6413.00000  104.62390    0.23440    8.64900    3.79900    0.08910    2.55350   85.48040  148.38100   -0.01180    5.46670    5.21060    5.07930
 6413.50000  106.15810    0.23720    8.65060    3.70760    0.08350    2.56520   85.31740  155.59100   -0.01160    5.16400    4.91270    4.74900
 6414.00000  108.50280    0.23350    8.64910    3.62610    0.08310    2.56800   84.05820  148.65960   -0.00970    5.13150    4.88570    4.65600
 6414.50000  108.01380    0.22360    8.64710    3.59280    0.08680    2.56390   82.83990  144.36520   -0.00890    5.45600    5.24890    5.09180
 6415.00000  106.35270    0.22650    8.63390    3.72390    0.08410    2.56370   81.64690  142.30380   -0.01030    6.40680    5.97620    5.79720
 6415.50000   93.02390    0.21580    8.63090    3.86690    0.06900    2.58500   80.85990  143.19930   -0.01170    7.27880    6.84500    6.61520
