~Version ---------------------------------------------------
VERS.   2.0 : CWLS log ASCII Standard -VERSION 2.0
WRAP.    NO : One line per depth step
DLM . SPACE : Column Data Section Delimiter
~Well ------------------------------------------------------
STRT .F                 200.0 : START DEPTH
STOP .F                9773.0 : STOP DEPTH
STEP .F                   0.5 : STEP
NULL .               -9999.25 : NULL VALUE
COMP .                        : COMPANY
WELL .                        : WELL
FLD  .                        : FIELD
LOC  .                        : LOCATION
PROV .                        : PROVINCE
CNTY .                        : COUNTY
STAT .                        : STATE
CTRY .                        : COUNTRY
SRVC .                        : SERVICE COMPANY
DATE .                        : DATE
UWI  .                        : UNIQUE WELL ID
API  .                        : API NUMBER
SLAT .WGS84 1.380030958957505 : SURFACE LATITUDE
SLON .WGS84 6.107931134328993 : SURFACE LONGITUDE
DATUM.F                   nan : DEPTH DATUM ELEV
~Curve Information -----------------------------------------
DEPT   .F     : 
SGRDD  .GAPI  : SPECTROSCOPY GAMMA RAY FROM DENSITY LOG
TNPH_LS.DEC   : THERMAL NEUTRON POROSITY [LIMESTONE]
CALD   .IN    : CALIPER FROM DENSITY LOG
PEFZ   .B/E   : HRDD STANDARD RESOLUTION FORMATION PHOTOELECTRIC FACTOR
DPHZ_LS.DEC   : HGRD STANDARD RESOLUTION DENSITY POROSITY
RHOZ   .G/C3  : HRDD STANDARD RESOLUTION FORMATION DENSITY
DTCO   .US/F  : DELTA-T COMPRESSIONAL
DTSM   .US/F  : DELTA-T SHEAR
HDRA   .G/C3  : HRDD SPINE AND RIBS DENSITY CORRECTION
AT10   .OHMM  : ARRAY INDUCTION TWO FOOT RESISTIVITY A10
AT30   .OHMM  : ARRAY INDUCTION TWO FOOT RESISTIVITY A30
AT90   .OHMM  : ARRAY INDUCTION TWO FOOT RESISTIVITY A90
~Params ----------------------------------------------------
~Other -----------------------------------------------------
~ASCII -----------------------------------------------------
# ...
 9244.00000  125.66640    0.19740    8.61340    3.74380    0.11370    2.51070   76.91230  131.28360   -0.00880   70.49900   47.35570   41.11560
 9244.50000  116.22180    0.17750    8.61970    3.85020    0.09300    2.54670   76.11410  130.77020   -0.00720   38.11930   33.97770   29.84720
 9245.00000  105.53950    0.16640    8.62140    3.87340    0.07120    2.58350   75.30270  130.43150   -0.00770   29.43080   27.50620   24.84130
 9245.50000   93.76900    0.14810    8.62290    3.84470    0.05080    2.61660   75.25610  130.13000   -0.00890   25.86400   23.54320   22.51180
 9246.00000   92.53870    0.14060    8.63030    3.80600    0.04010    2.63890   75.55040  130.03120   -0.00670   22.51770   20.75930   19.98130
 9246.50000   99.84420    0.15490    8.63050    3.78920    0.04130    2.63710   75.45830  130.02110   -0.00690   19.29300   18.86590   17.65530
 9247.00000  110.81420    0.17070    8.61750    3.77990    0.04740    2.63120   75.18510  130.01110   -0.00800   18.95100   17.78070   16.64700
 9247.50000  112.48090    0.18860    8.63960    3.79520    0.04890    2.62960   75.33790  130.00100   -0.00840   19.84570   18.34250   17.42060
 9248.00000  109.24540    0.18910    8.65110    3.79640    0.03960    2.64950   75.83050  130.02520   -0.00570   20.87470   19.54090   18.84460
 9248.50000  104.71220    0.18470    8.66210    3.81400    0.03430    2.65130   76.76490  130.23440   -0.00540   21.98120   20.81770   20.03380
 9249.00000  101.31220    0.18100    8.65960    3.83170    0.03780    2.64810   77.46310  131.07800   -0.00740   23.37650   22.56490   21.38310
 9249.50000   98.02940    0.17250    8.66480    3.95580    0.04940    2.63010   78.25220  131.32920   -0.01200   26.92060   25.00940   24.27640
 9250.00000  100.22020    0.17370    8.63930    3.95090    0.06210    2.61040   78.59710  131.60820   -0.01380   31.12360   28.39480   27.56130
 9250.50000  104.66860    0.18260    8.61020    3.89510    0.07260    2.58980   78.97010  132.03830   -0.01470   31.19810   30.32510   29.78300
 9251.00000  108.52630    0.19670    8.63040    3.75390    0.08450    2.57160   79.27740  132.47710   -0.01470   29.96380   29.53850   29.03990
 9251.50000  109.78960    0.19970    8.63250    3.63340    0.08750    2.56110   80.32270  133.37220   -0.00880   29.55480   28.69080   28.17780
 9252.00000  107.79170    0.20010    8.63140    3.61820    0.08530    2.56330   80.52690  133.86450   -0.00670   29.62550   28.70560   28.19210
 9252.50000  105.98660    0.20100    8.63000    3.62870    0.08070    2.57090   81.48190  134.48300   -0.00520   29.74450   28.82200   28.30640
 9253.00000  107.16850    0.20040    8.62760    3.61450    0.07800    2.57610   82.12430  136.11260   -0.00750   29.86410   28.93890   28.42120
 9253.50000  114.88570    0.19930    8.62310    3.58240    0.08360    2.57050   82.41630  137.13010   -0.01060   29.95870   29.05630   28.53650
 9254.00000  120.74320    0.20970    8.62110    3.54810    0.09390    2.55210   82.59200  137.78230   -0.01300   30.31730   29.60270   29.04490
 9254.50000  126.38820    0.22590    8.61910    3.51890    0.10040    2.53780   82.85030  138.73100   -0.01290   31.74900   30.55780   29.98340
 9255.00000  127.51160    0.23170    8.62860    3.50590    0.09800    2.54010   82.91840  139.00640   -0.01280   32.86520   31.34760   30.81320
 9255.50000  126.88370    0.22870    8.63210    3.52570    0.09270    2.55100   83.07700  138.99180   -0.01280   32.43470   30.87240   30.31170
 9256.00000  122.68240    0.22370    8.63180    3.56390    0.09180    2.55250   83.38070  139.23770   -0.01110   32.96110   31.46200   30.68830
 9256.50000  122.33330    0.21960    8.63080    3.57490    0.09780    2.54350   83.75890  139.56510   -0.00990   36.95780   35.52950   34.50180
 9257.00000  125.56790    0.21280    8.63000    3.56440    0.10580    2.53110   84.13310  139.85830   -0.01000   41.43920   40.20080   39.02460
 9257.50000  133.91630    0.22420    8.63020    3.49620    0.11260    2.51980   84.20160  139.69590   -0.01020   48.55380   45.57350   44.24110
 9258.00000  138.07440    0.23180    8.63040    3.47700    0.11560    2.51360   84.10410  139.55830   -0.01180   57.41180   51.12240   50.15480
 9258.50000  140.16410    0.24190    8.63060    3.47320    0.11870    2.50820   84.07720  139.42120   -0.01270   61.84180   56.61310   54.31530
 9259.00000  141.82530    0.23430    8.63080    3.46930    0.12630    2.49690   84.09630  139.32460   -0.01110   61.84180   58.90680   55.83240
 9259.50000  145.91990    0.23860    8.63100    3.45340    0.13660    2.48170   84.31530  139.05300   -0.00990   71.34620   64.45330   61.75260
 9260.00000  154.29240    0.24330    8.63150    3.39740    0.14180    2.46830   84.76150  139.24820   -0.00980   84.49480   77.68540   73.36820
 9260.50000  166.43510    0.24070    8.63230    3.37090    0.14410    2.46390   84.77140  139.33920   -0.00990   98.31050   92.94060   87.16860
 9261.00000  180.71070    0.23550    8.63190    3.39980    0.14390    2.46320   84.66740  139.37540   -0.01000   98.81900   91.15010   85.71460
 9261.50000  186.73790    0.24010    8.63160    3.50650    0.15000    2.45660   84.56790  139.62920   -0.01150   82.94190   80.93990   76.96570
 9262.00000  183.72460    0.24480    8.63120    3.55880    0.15650    2.44510   84.82700  139.84140   -0.01000   80.03100   75.52260   70.94520
 9262.50000  180.82820    0.24780    8.62910    3.57690    0.15650    2.44020   85.07580  140.08470   -0.00990   76.23820   70.39830   66.55560
 9263.00000  184.77360    0.25250    8.63110    3.57710    0.15040    2.44780   85.73110  140.93910   -0.00980   68.84880   62.53460   58.29440
 9263.50000  193.30430    0.26700    8.63490    3.57720    0.14140    2.46630   85.97920  141.98760   -0.00980   57.26990   52.76640   50.11820
 9264.00000  200.41860    0.26840    8.60860    3.59950    0.14450    2.46500   85.88710  142.24640   -0.00980   56.72440   54.10540   52.45210
 9264.50000  202.52720    0.27060    8.60440    3.64880    0.15080    2.45400   85.99540  142.58540   -0.01040   69.35540   62.36380   59.85190
 9265.00000  202.44470    0.27200    8.60700    3.69800    0.15580    2.44520   88.91820  143.99270   -0.01230   77.36080   67.71400   65.57020
 9265.50000  202.87770    0.27700    8.61420    3.74730    0.15390    2.44770   90.26100  144.80020   -0.01280   70.11960   65.04480   63.79130
 9266.00000  206.48360    0.27930    8.61360    3.79640    0.14470    2.45870   90.35370  145.70730   -0.01280   63.91960   61.95540   60.73670
 9266.50000  209.00040    0.27110    8.61000    3.81620    0.13530    2.47760   87.46010  146.02520   -0.01280   65.55380   59.22790   58.08960
 9267.00000  208.04000    0.27350    8.59240    3.75530    0.12560    2.49140   87.38580  146.34310   -0.01280   63.06930   56.89310   55.75760
 9267.50000  201.49080    0.27030    8.59110    3.68880    0.12250    2.49760   86.52300  146.27150   -0.01280   58.04910   54.15670   53.07130
 9268.00000  189.33160    0.26300    8.59180    3.61970    0.12310    2.50010   86.35870  146.05210   -0.01140   58.14450   51.54780   50.51450
 9268.50000  171.98400    0.24940    8.58500    3.57210    0.11840    2.50520   85.37100  145.65960   -0.00850   54.35600   47.75050   46.57800
 9269.00000  158.52500    0.24220    8.57600    3.55510    0.10650    2.52500   84.99850  145.48800   -0.00570   46.46820   43.17370   41.51380
 9269.50000  145.06590    0.22970    8.57910    3.54690    0.09720    2.53890   84.55980  145.38330   -0.00480   82.86010   62.21960   54.00900
 9270.00000  148.13010    0.22170    8.57900    3.54110    0.09710    2.54310   84.21110  145.31100   -0.00570   61.44360   52.52980   46.96540
 9270.50000  153.38890    0.21610    8.57460    3.52940    0.09840    2.53920   83.51890  144.94160   -0.00760   32.25980   26.38380   23.91550
 9271.00000  142.01560    0.21400    8.57020    3.51160    0.08460    2.56190   81.37320  144.08330   -0.00970   18.36520   16.28470   14.76500
 9271.50000  130.64230    0.19790    8.57840    3.50980    0.06350    2.60500   80.19210  142.20770   -0.00980   12.79160   11.81420   11.18890
