~Version ---------------------------------------------------
VERS.   2.0 : CWLS log ASCII Standard -VERSION 2.0
WRAP.    NO : One line per depth step
DLM . SPACE : Column Data Section Delimiter
~Well ------------------------------------------------------
STRT .F                 200.0 : START DEPTH
STOP .F                9773.0 : STOP DEPTH
STEP .F                   0.5 : STEP
NULL .               -9999.25 : NULL VALUE
COMP .                        : COMPANY
WELL .                        : WELL
FLD  .                        : FIELD
LOC  .                        : LOCATION
PROV .                        : PROVINCE
CNTY .                        : COUNTY
STAT .                        : STATE
CTRY .                        : COUNTRY
SRVC .                        : SERVICE COMPANY
DATE .                        : DATE
UWI  .                        : UNIQUE WELL ID
API  .                        : API NUMBER
SLAT .WGS84 1.380030958957505 : SURFACE LATITUDE
SLON .WGS84 6.107931134328993 : SURFACE LONGITUDE
DATUM.F                   nan : DEPTH DATUM ELEV
~Curve Information -----------------------------------------
DEPT   .F     : 
SGRDD  .GAPI  : SPECTROSCOPY GAMMA RAY FROM DENSITY LOG
TNPH_LS.DEC   : THERMAL NEUTRON POROSITY [LIMESTONE]
CALD   .IN    : CALIPER FROM DENSITY LOG
PEFZ   .B/E   : HRDD STANDARD RESOLUTION FORMATION PHOTOELECTRIC FACTOR
DPHZ_LS.DEC   : HGRD STANDARD RESOLUTION DENSITY POROSITY
RHOZ   .G/C3  : HRDD STANDARD RESOLUTION FORMATION DENSITY
DTCO   .US/F  : DELTA-T COMPRESSIONAL
DTSM   .US/F  : DELTA-T SHEAR
HDRA   .G/C3  : HRDD SPINE AND RIBS DENSITY CORRECTION
AT10   .OHMM  : ARRAY INDUCTION TWO FOOT RESISTIVITY A10
AT30   .OHMM  : ARRAY INDUCTION TWO FOOT RESISTIVITY A30
AT90   .OHMM  : ARRAY INDUCTION TWO FOOT RESISTIVITY A90
~Params ----------------------------------------------------
~Other -----------------------------------------------------
~ASCII -----------------------------------------------------
# ...
 9748.00000   -9999.25    0.03660    8.58050    4.67800   -0.03910    2.77640   -9999.25   -9999.25   -0.00000   62.86790   68.51380   71.63050
 9748.50000   -9999.25    0.03890    8.58010    4.65790   -0.04130    2.77950   -9999.25   -9999.25   -0.00310   57.68000   61.59840   65.79890
 9749.00000   -9999.25    0.04080    8.57980    4.62510   -0.03120    2.76560   -9999.25   -9999.25   -0.00620   55.82530   59.62380   61.99330
 9749.50000   -9999.25    0.03720    8.57180    4.59240   -0.02420    2.75160   -9999.25   -9999.25   -0.00670   64.55880   67.84620   70.06330
 9750.00000   -9999.25    0.03250    8.56370    4.61280   -0.02200    2.74610   -9999.25   -9999.25   -0.00680   79.10750   81.19220   85.56490
 9750.50000   -9999.25   -9999.25    8.56950    4.67700   -0.02220    2.74760   -9999.25   -9999.25   -0.00620   85.64010   89.52580   94.80410
 9751.00000   -9999.25   -9999.25    8.59040    4.77450   -0.02080    2.74680   -9999.25   -9999.25   -0.00630   86.22210   92.05420   98.50740
 9751.50000   -9999.25   -9999.25    8.58280    4.83240   -0.02010    2.74340   -9999.25   -9999.25   -0.00450   86.51020   94.30880  100.52340
 9752.00000   -9999.25   -9999.25    8.57510    4.79960   -0.02130    2.74410   -9999.25   -9999.25   -0.00280   89.32170   96.59460  103.28790
 9752.50000   -9999.25   -9999.25    8.56580    4.74650   -0.02270    2.74850   -9999.25   -9999.25   -0.00180   92.32090   98.51890  107.82570
 9753.00000   -9999.25   -9999.25    8.54540    4.74180   -0.01830    2.74420   -9999.25   -9999.25   -0.00190   94.05810   99.78590  107.33420
 9753.50000   -9999.25   -9999.25    8.54960    4.77470   -0.01830    2.74190   -9999.25   -9999.25   -0.00150   89.77390   98.08430  104.73050
 9754.00000   -9999.25   -9999.25    8.54940    4.76410   -0.02350    2.74720   -9999.25   -9999.25    0.00170   84.44440   93.77330   99.85810
 9754.50000   -9999.25   -9999.25    8.54930    4.71290   -0.03250    2.76320   -9999.25   -9999.25    0.00390   81.46000   86.10580   93.25430
 9755.00000   -9999.25   -9999.25    8.54710    4.63360   -0.03810    2.77480   -9999.25   -9999.25    0.00330   69.50680   75.35450   83.20720
 9755.50000   -9999.25   -9999.25    8.54340    4.47520   -0.04100    2.77980   -9999.25   -9999.25    0.00180   53.04560   60.74700   65.69900
 9756.00000   -9999.25   -9999.25    8.53990    4.33370   -0.03790    2.77570   -9999.25   -9999.25   -0.00090   46.85630   49.07270   51.49800
 9756.50000   -9999.25   -9999.25    8.53640    4.19210   -0.03470    2.77120   -9999.25   -9999.25   -0.00250   43.78940   46.49830   49.16090
 9757.00000   -9999.25   -9999.25    8.53290    3.94840   -0.02650    2.76000   -9999.25   -9999.25   -0.00360   43.45480   48.05760   51.21300
 9757.50000   -9999.25   -9999.25    8.52940    3.56920   -0.01670    2.74380   -9999.25   -9999.25   -0.00200   52.03320   54.58550   59.90210
 9758.00000   -9999.25   -9999.25    8.52590    3.19000    0.00300    2.70890   -9999.25   -9999.25   -0.00240   56.91180   62.25110   66.91540
 9758.50000   -9999.25   -9999.25    8.52240    2.81080    0.01820    2.68570   -9999.25   -9999.25   -0.00440   51.07870   55.29130   60.50680
 9759.00000   -9999.25   -9999.25    8.52340    2.62470    0.02840    2.66210   -9999.25   -9999.25   -0.00620   42.51840   45.81070   50.13440
 9759.50000   -9999.25   -9999.25    8.52630    2.55300    0.03010    2.66100   -9999.25   -9999.25   -0.00690   35.49010   37.95550   41.35290
 9760.00000   -9999.25   -9999.25    8.52780    2.52170    0.02520    2.66710   -9999.25   -9999.25   -0.00530   32.00010   34.66700   37.60760
 9760.50000   -9999.25   -9999.25    8.51380    2.55260    0.02010    2.67340   -9999.25   -9999.25   -0.00450   37.78540   41.93410   43.31340
 9761.00000   -9999.25   -9999.25    8.49630    2.60750    0.02390    2.67280   -9999.25   -9999.25   -0.00650   46.58520   50.86200   52.59550
 9761.50000   -9999.25   -9999.25    8.47890    2.64310    0.02970    2.66130   -9999.25   -9999.25   -0.00950   57.43450   61.67360   63.86690
 9762.00000   -9999.25   -9999.25    8.46140    2.67870    0.03020    2.65770   -9999.25   -9999.25   -0.01010   63.86600   67.59510   70.17560
 9762.50000   -9999.25   -9999.25    8.44400    2.69750    0.02740    2.66180   -9999.25   -9999.25   -0.00910   58.94600   62.27870   65.55610
 9763.00000   -9999.25   -9999.25    8.42660    2.70050    0.02820    2.66290   -9999.25   -9999.25   -0.00810   50.13710   54.50360   58.18740
 9763.50000   -9999.25   -9999.25   -9999.25   -9999.25   -9999.25   -9999.25   -9999.25   -9999.25   -9999.25   48.30980   51.97900   53.92480
 9764.00000   -9999.25   -9999.25   -9999.25   -9999.25   -9999.25   -9999.25   -9999.25   -9999.25   -9999.25   51.70450   54.38210   56.72800
 9764.50000   -9999.25   -9999.25   -9999.25   -9999.25   -9999.25   -9999.25   -9999.25   -9999.25   -9999.25   55.51320   61.16510   68.07030
 9765.00000   -9999.25   -9999.25   -9999.25   -9999.25   -9999.25   -9999.25   -9999.25   -9999.25   -9999.25   63.84140   75.69580   82.77780
 9765.50000   -9999.25   -9999.25   -9999.25   -9999.25   -9999.25   -9999.25   -9999.25   -9999.25   -9999.25   76.43080   93.62570  119.47790
 9766.00000   -9999.25   -9999.25   -9999.25   -9999.25   -9999.25   -9999.25   -9999.25   -9999.25   -9999.25   90.88700  103.65030  135.24100
 9766.50000   -9999.25   -9999.25   -9999.25   -9999.25   -9999.25   -9999.25   -9999.25   -9999.25   -9999.25   90.56140  104.32480  129.76260
 9767.00000   -9999.25   -9999.25   -9999.25   -9999.25   -9999.25   -9999.25   -9999.25   -9999.25   -9999.25   84.77610  103.45350  120.20890
 9767.50000   -9999.25   -9999.25   -9999.25   -9999.25   -9999.25   -9999.25   -9999.25   -9999.25   -9999.25   80.78440   99.93230  108.83060
 9768.00000   -9999.25   -9999.25   -9999.25   -9999.25   -9999.25   -9999.25   -9999.25   -9999.25   -9999.25   78.88270   88.60980   97.85750
 9768.50000   -9999.25   -9999.25   -9999.25   -9999.25   -9999.25   -9999.25   -9999.25   -9999.25   -9999.25   59.00330   65.11890   74.28820
 9769.00000   -9999.25   -9999.25   -9999.25   -9999.25   -9999.25   -9999.25   -9999.25   -9999.25   -9999.25   36.25100   40.69190   46.34810
 9769.50000   -9999.25   -9999.25   -9999.25   -9999.25   -9999.25   -9999.25   -9999.25   -9999.25   -9999.25   27.18540   28.90600   31.68170
 9770.00000   -9999.25   -9999.25   -9999.25   -9999.25   -9999.25   -9999.25   -9999.25   -9999.25   -9999.25   22.64800   26.29080   27.91990
 9770.50000   -9999.25   -9999.25   -9999.25   -9999.25   -9999.25   -9999.25   -9999.25   -9999.25   -9999.25   20.48570   24.05940   25.77500
 9771.00000   -9999.25   -9999.25   -9999.25   -9999.25   -9999.25   -9999.25   -9999.25   -9999.25   -9999.25   20.11120   22.68320   24.77670
 9771.50000   -9999.25   -9999.25   -9999.25   -9999.25   -9999.25   -9999.25   -9999.25   -9999.25   -9999.25   21.31660   23.95480   27.74410
 9772.00000   -9999.25   -9999.25   -9999.25   -9999.25   -9999.25   -9999.25   -9999.25   -9999.25   -9999.25   23.90370   29.13120   35.14780
 9772.50000   -9999.25   -9999.25   -9999.25   -9999.25   -9999.25   -9999.25   -9999.25   -9999.25   -9999.25   29.09910   35.50340   44.52710
 9773.00000   -9999.25   -9999.25   -9999.25   -9999.25   -9999.25   -9999.25   -9999.25   -9999.25   -9999.25   34.64930   40.40280   56.40940
