~Version ---------------------------------------------------
VERS.   2.0 : CWLS log ASCII Standard -VERSION 2.0
WRAP.    NO : One line per depth step
DLM . SPACE : Column Data Section Delimiter
~Well ------------------------------------------------------
STRT .F                 200.0 : START DEPTH
STOP .F                9773.0 : STOP DEPTH
STEP .F                   0.5 : STEP
NULL .               -9999.25 : NULL VALUE
COMP .                        : COMPANY
WELL .                        : WELL
FLD  .                        : FIELD
LOC  .                        : LOCATION
PROV .                        : PROVINCE
CNTY .                        : COUNTY
STAT .                        : STATE
CTRY .                        : COUNTRY
SRVC .                        : SERVICE COMPANY
DATE .                        : DATE
UWI  .                        : UNIQUE WELL ID
API  .                        : API NUMBER
SLAT .WGS84 1.380030958957505 : SURFACE LATITUDE
SLON .WGS84 6.107931134328993 : SURFACE LONGITUDE
DATUM.F                   nan : DEPTH DATUM ELEV
~Curve Information -----------------------------------------
DEPT   .F     : 
SGRDD  .GAPI  : SPECTROSCOPY GAMMA RAY FROM DENSITY LOG
TNPH_LS.DEC   : THERMAL NEUTRON POROSITY [LIMESTONE]
CALD   .IN    : CALIPER FROM DENSITY LOG
PEFZ   .B/E   : HRDD STANDARD RESOLUTION FORMATION PHOTOELECTRIC FACTOR
DPHZ_LS.DEC   : HGRD STANDARD RESOLUTION DENSITY POROSITY
RHOZ   .G/C3  : HRDD STANDARD RESOLUTION FORMATION DENSITY
DTCO   .US/F  : DELTA-T COMPRESSIONAL
DTSM   .US/F  : DELTA-T SHEAR
HDRA   .G/C3  : HRDD SPINE AND RIBS DENSITY CORRECTION
AT10   .OHMM  : ARRAY INDUCTION TWO FOOT RESISTIVITY A10
AT30   .OHMM  : ARRAY INDUCTION TWO FOOT RESISTIVITY A30
AT90   .OHMM  : ARRAY INDUCTION TWO FOOT RESISTIVITY A90
~Params ----------------------------------------------------
~Other -----------------------------------------------------
~ASCII -----------------------------------------------------
# ...
 7172.00000  123.34340    0.23680    8.59220    3.73060    0.12320    2.49630   78.38640  135.16470   -0.00870   15.43110   14.58790   14.32080
 7172.50000  113.47020    0.21100    8.59370    4.02290    0.10630    2.53270   80.15940  136.67230   -0.00260   16.59670   15.95410   15.21610
 7173.00000  110.39960    0.18880    8.59640    4.34740    0.09540    2.54620   80.86250  138.50020   -0.00210   19.16380   18.52330   17.85910
 7173.50000  108.60920    0.18210    8.59910    4.67190    0.09550    2.54760   82.00740  139.41300   -0.00390   19.45460   18.25710   17.82550
 7174.00000  109.97060    0.18190    8.59910    4.72650    0.09640    2.54590   82.10590  139.42470   -0.00610   17.93810   16.74370   16.33420
 7174.50000  107.96410    0.19530    8.59620    4.41980    0.10050    2.53880   81.69880  138.98680   -0.00740   15.63800   14.32950   13.74330
 7175.00000  112.43220    0.21120    8.59330    4.08350    0.11040    2.52220   79.57390  136.17750   -0.00870   12.76090   11.74370   11.49870
 7175.50000  116.39210    0.21840    8.59040    3.89550    0.10710    2.52140   77.78320  131.93160    0.00210   14.39880   13.70190   13.14710
 7176.00000  106.79040    0.19630    8.58960    4.34920    0.09100    2.55390   74.93950  129.45280    0.00410   21.53370   16.38900   15.73640
 7176.50000   88.39370    0.16430    8.59120    4.78970    0.05850    2.59980   73.56140  126.51520    0.00460   40.05250   31.58050   27.83640
 7177.00000   65.99450    0.12990    8.59270    5.52230    0.02830    2.65340   70.52680  124.84300   -0.00190   79.07250   60.81770   53.61070
 7177.50000   48.90190    0.10320    8.59420    5.80500    0.01210    2.68890   69.55150  123.31670   -0.00270  126.70480   98.41260   89.24620
 7178.00000   45.16300    0.09290    8.59580    5.77440    0.01610    2.69110   68.18120  122.54070   -0.00190  147.26650   85.26530   72.69470
 7178.50000   48.98390    0.09400    8.59730    5.57380    0.02730    2.66600   67.83250  122.40930   -0.00190  121.07560   68.27580   59.60400
 7179.00000   57.63970    0.11180    8.59880    5.27100    0.04560    2.63720   69.10430  123.02440   -0.00210   63.48390   51.12860   46.83850
 7179.50000   67.94890    0.13030    8.59870    4.97440    0.05940    2.60670   70.26550  125.36090   -0.00330   42.86070   37.10230   36.05670
 7180.00000   77.51830    0.15060    8.59350    4.66780    0.07270    2.58210   73.25370  129.53740   -0.00520   36.29780   33.49020   32.63310
 7180.50000   87.33300    0.17430    8.59920    4.31580    0.09170    2.54550   74.42790  132.75580   -0.00700   32.66390   31.10940   30.46510
 7181.00000  102.48920    0.19710    8.61050    3.86580    0.10790    2.52550   79.51390  137.40130   -0.00900   34.96260   29.33230   28.52820
 7181.50000  115.32890    0.21920    8.60110    3.60710    0.11160    2.52120   82.29940  141.48980   -0.01110   29.16720   25.20680   22.63090
 7182.00000  116.48170    0.23610    8.59740    3.48130    0.10680    2.52780   84.24580  145.23610   -0.01310   19.77700   18.33230   17.37970
 7182.50000  114.41220    0.23370    8.59400    3.48760    0.10440    2.53060   84.92800  146.71270   -0.01370   18.91560   14.79140   13.34700
 7183.00000  113.91160    0.24130    8.59060    3.59640    0.11170    2.52240   86.27320  148.95070   -0.01160   18.91560   14.59860   13.07790
 7183.50000  115.24100    0.25110    8.58510    3.69780    0.11800    2.51340   87.23490  150.79410   -0.01060   17.28550   15.41530   13.75130
 7184.00000  118.00100    0.25700    8.59050    3.70650    0.12390    2.50210   87.32530  151.05960   -0.00980   15.55160   14.84710   13.99810
 7184.50000  119.55880    0.26600    8.59960    3.72400    0.13000    2.49070   87.32010  151.14560   -0.01010   14.97310   14.51850   13.68590
 7185.00000  121.88040    0.27820    8.57660    3.75630    0.14140    2.47730   87.27510  150.93620   -0.01150   15.57410   14.31780   13.65860
 7185.50000  117.11100    0.28430    8.57800    3.78860    0.13800    2.47290   87.16410  150.72680   -0.01200   14.84110   13.37980   12.84130
 7186.00000  111.39400    0.25580    8.58770    3.79540    0.12270    2.49470   87.03990  150.80550   -0.01120   13.04030   12.12140   11.42230
 7186.50000  107.56940    0.23440    8.59740    3.74510    0.10800    2.52280   86.53850  151.27140   -0.01010   11.95960   11.12420   10.49430
 7187.00000  105.99840    0.22700    8.60670    3.64540    0.09630    2.53920   86.40080  150.93910   -0.00990   11.44430   10.40550   10.09470
 7187.50000  104.85860    0.22900    8.59900    3.56600    0.09340    2.54960   85.40080  148.62050   -0.00980   10.57630    9.97180    9.63590
 7188.00000  101.03580    0.23310    8.58990    3.63320    0.09350    2.55060   84.02520  147.97420   -0.01090   10.15830    9.55630    9.01610
 7188.50000   96.92430    0.22410    8.59060    3.84110    0.09390    2.55330   83.15320  146.29910   -0.01180   10.06860    9.27470    8.56440
 7189.00000   89.81240    0.20620    8.59480    4.04900    0.08760    2.56260   81.99010  145.21740   -0.01170   10.74770   10.10710    9.49660
 7189.50000   81.82220    0.18990    8.60100    4.25690    0.07300    2.57600   81.62750  142.18230   -0.01040   11.81590   11.16460   10.65630
 7190.00000   82.92910    0.17590    8.59900    4.27110    0.06150    2.59550   81.56100  141.37530   -0.01090   11.26800   10.76490   10.50320
 7190.50000   88.61280    0.18380    8.59680    4.06130    0.06000    2.60960   80.95790  140.66560   -0.01160   10.35530    9.35920    8.99240
 7191.00000   96.06150    0.19940    8.59720    3.84970    0.07310    2.59120   79.45130  136.64570   -0.01240    8.27500    7.75070    7.57050
 7191.50000  100.43440    0.21410    8.59220    3.68480    0.08970    2.56560   77.30950  135.02960   -0.01310    8.45020    7.95520    7.73280
 7192.00000   96.35980    0.22190    8.59440    3.75340    0.08870    2.55320   73.82850  132.04460   -0.01420   10.09330    9.02680    8.69580
 7192.50000   81.76780    0.19530    8.60190    4.28860    0.06300    2.59120   72.39640  129.50460   -0.01370   19.79250   17.05550   14.67150
 7193.00000   62.22170    0.14660    8.60950    4.82370    0.00250    2.68590   72.18390  127.82080   -0.00900   42.41060   32.33540   28.94980
 7193.50000   39.54040    0.10090    8.61700    5.04610   -0.02630    2.75860   72.14540  127.53480   -0.00240   74.90450   49.68930   44.37460
 7194.00000   43.82950    0.10840    8.62460    4.86450   -0.01890    2.75580   72.48860  128.78480    0.00040   67.03870   41.70800   38.20960
 7194.50000   58.06690    0.13410    8.63210    4.38850    0.02790    2.68060   73.20420  128.84810   -0.00040   31.99250   29.37020   30.94660
 7195.00000   77.33930    0.19850    8.63970    3.94240    0.08030    2.59080   73.30230  130.38790   -0.00250   17.02310   18.83390   21.36400
 7195.50000   94.37240    0.24210    8.67310    3.71080    0.10510    2.53760   76.47810  132.71040   -0.00560   12.29380   13.25070   14.80480
 7196.00000   97.96270    0.24610    8.65760    3.51720    0.10710    2.52590   79.29200  135.36610   -0.00670   10.38160   11.60470   12.73330
 7196.50000  100.25530    0.23480    8.64210    3.48180    0.10360    2.52800   82.05680  139.46850   -0.00770    9.48100   10.27500   11.42950
 7197.00000  100.53630    0.21770    8.63480    3.50910    0.09690    2.53340   82.67740  141.13820   -0.00750    9.00380    9.84830   10.72490
 7197.50000  102.93710    0.21440    8.63840    3.54060    0.10340    2.53300   84.82590  145.18560   -0.00900    9.47350   10.27180   10.59350
 7198.00000  105.85740    0.22630    8.64070    3.57200    0.11160    2.52120   85.35380  146.54500   -0.01080   11.08700   12.14410   13.03290
 7198.50000  106.53110    0.22960    8.64120    3.55250    0.11820    2.50840   86.02300  147.29010   -0.01180   12.97530   15.33710   16.95830
 7199.00000  106.95400    0.22510    8.64060    3.50270    0.11390    2.50830   86.16180  147.65160   -0.01180   11.50030   12.53760   13.37390
 7199.50000  104.05940    0.22340    8.63420    3.45790    0.10700    2.51360   85.82370  147.52740   -0.01180    8.88320    9.42190    9.92880
