~Version ---------------------------------------------------
VERS.   2.0 : CWLS log ASCII Standard -VERSION 2.0
WRAP.    NO : One line per depth step
DLM . SPACE : Column Data Section Delimiter
~Well ------------------------------------------------------
STRT .F                 200.0 : START DEPTH
STOP .F                9773.0 : STOP DEPTH
STEP .F                   0.5 : STEP
NULL .               -9999.25 : NULL VALUE
COMP .                        : COMPANY
WELL .                        : WELL
FLD  .                        : FIELD
LOC  .                        : LOCATION
PROV .                        : PROVINCE
CNTY .                        : COUNTY
STAT .                        : STATE
CTRY .                        : COUNTRY
SRVC .                        : SERVICE COMPANY
DATE .                        : DATE
UWI  .                        : UNIQUE WELL ID
API  .                        : API NUMBER
SLAT .WGS84 1.380030958957505 : SURFACE LATITUDE
SLON .WGS84 6.107931134328993 : SURFACE LONGITUDE
DATUM.F                   nan : DEPTH DATUM ELEV
~Curve Information -----------------------------------------
DEPT   .F     : 
SGRDD  .GAPI  : SPECTROSCOPY GAMMA RAY FROM DENSITY LOG
TNPH_LS.DEC   : THERMAL NEUTRON POROSITY [LIMESTONE]
CALD   .IN    : CALIPER FROM DENSITY LOG
PEFZ   .B/E   : HRDD STANDARD RESOLUTION FORMATION PHOTOELECTRIC FACTOR
DPHZ_LS.DEC   : HGRD STANDARD RESOLUTION DENSITY POROSITY
RHOZ   .G/C3  : HRDD STANDARD RESOLUTION FORMATION DENSITY
DTCO   .US/F  : DELTA-T COMPRESSIONAL
DTSM   .US/F  : DELTA-T SHEAR
HDRA   .G/C3  : HRDD SPINE AND RIBS DENSITY CORRECTION
AT10   .OHMM  : ARRAY INDUCTION TWO FOOT RESISTIVITY A10
AT30   .OHMM  : ARRAY INDUCTION TWO FOOT RESISTIVITY A30
AT90   .OHMM  : ARRAY INDUCTION TWO FOOT RESISTIVITY A90
~Params ----------------------------------------------------
~Other -----------------------------------------------------
~ASCII -----------------------------------------------------
# ...
 6668.00000   45.58820    0.09350    8.63400    4.48190   -0.02200    2.76950   85.68890  126.84760   -0.00530   23.05660   19.20240   17.34640
 6668.50000   63.17090    0.10810    8.63520    3.98830    0.02980    2.68700   72.64800  127.13520   -0.00760   13.25150   11.39570   10.30510
 6669.00000   82.38960    0.14630    8.63650    3.46320    0.08790    2.58840   74.09550  128.81380   -0.00960    9.01530    8.52250    8.08980
 6669.50000   99.46810    0.19180    8.63780    3.20070    0.11560    2.51390   75.03180  129.42990   -0.01170   10.86840    9.96420    9.63120
 6670.00000  104.74610    0.20350    8.63900    3.17390    0.11140    2.51270   78.17750  131.23440   -0.01170   10.68180   10.05550    9.62710
 6670.50000  107.64980    0.20130    8.64060    3.18140    0.10140    2.52990   80.50590  132.67460   -0.01130    8.71700    8.21200    7.88290
 6671.00000  106.71190    0.19970    8.64310    3.18890    0.09270    2.54720   80.53990  136.06680   -0.01000    7.17230    6.91110    6.78160
 6671.50000  106.87130    0.20040    8.64550    3.27100    0.09950    2.55100   81.09290  136.26290   -0.00980    7.94470    7.41510    7.20650
 6672.00000  107.89410    0.21920    8.63460    3.43060    0.10480    2.53230   81.53050  134.85310   -0.01000    9.75390    8.93670    8.56520
 6672.50000  101.28310    0.23630    8.62960    3.66090    0.09700    2.53890   75.70820  132.92400   -0.01120   11.61600   10.95350   10.49660
 6673.00000   81.98150    0.21470    8.61440    3.98960    0.04630    2.61660   75.00900  131.80600   -0.00990   17.71850   14.73990   13.40090
 6673.50000   58.53560    0.14790    8.60950    4.26890   -0.00300    2.69390   74.37350  130.73850   -0.00720   23.93190   22.59770   21.30210
 6674.00000   53.50200    0.10920    8.60840    4.15380   -0.01450    2.73550   74.96240  130.96170   -0.00400   18.89490   16.29600   14.47550
 6674.50000   71.50060    0.12210    8.62330    3.88870    0.01630    2.69550   75.73750  131.85860   -0.00690   11.13610    9.13150    8.15260
 6675.00000   90.78560    0.18250    8.63480    3.53640    0.07180    2.59360   76.43700  132.74150   -0.01040    7.25590    6.23230    5.86160
 6675.50000  106.20090    0.22160    8.63320    3.40180    0.10160    2.54700   76.89600  135.06940   -0.01170    5.69630    5.54820    5.32350
 6676.00000  112.80710    0.23290    8.64920    3.43190    0.10980    2.52810   77.70520  136.02390   -0.01170    5.96540    5.72780    5.36940
 6676.50000  117.01140    0.24080    8.66750    3.48440    0.11040    2.52140   78.51820  137.18290   -0.01070    6.29190    6.01020    5.81850
 6677.00000  115.39720    0.25360    8.63080    3.71000    0.08940    2.55350   79.08020  138.20050   -0.00970    7.39030    6.46220    6.31220
 6677.50000   98.66800    0.21920    8.63160    3.88350    0.05400    2.59600   80.26130  139.53210   -0.00830    9.52410    8.84170    8.29760
 6678.00000   86.40970    0.18450    8.63250    3.96430    0.03390    2.65130   80.12530  139.74920   -0.00670   12.45650   11.47980   10.52470
 6678.50000   86.64360    0.17660    8.63330    3.82260    0.04030    2.65440   79.64610  139.70740   -0.00720    9.91210    9.20260    8.59780
 6679.00000   99.17740    0.19720    8.63410    3.54540    0.07130    2.59540   79.66080  138.92880   -0.00790    7.26440    6.57650    6.28070
 6679.50000  106.41700    0.21100    8.63500    3.33600    0.09210    2.55910   80.13080  139.69070   -0.00890    5.78120    5.54170    5.39890
 6680.00000  103.54860    0.20150    8.63580    3.25170    0.09510    2.55000   80.74030  140.57920   -0.00960    5.14420    5.01300    4.88430
 6680.50000  101.71140    0.20410    8.63660    3.21870    0.09780    2.54510   81.49170  141.48250   -0.00960    5.03650    4.77060    4.65090
 6681.00000  109.03100    0.21400    8.63750    3.26030    0.11070    2.52540   82.01400  143.19630   -0.01000    5.72130    5.50200    5.31610
 6681.50000  115.76470    0.22760    8.63830    3.30870    0.11900    2.51090   83.60060  144.38060   -0.01120    6.56450    6.41950    6.20400
 6682.00000  113.38210    0.23730    8.63910    3.36240    0.11640    2.50860   83.69160  145.39560   -0.01080    6.59650    6.22710    6.09460
 6682.50000  107.42300    0.23030    8.64000    3.31420    0.10610    2.52580   83.77080  145.64760   -0.00980    6.12980    5.83780    5.71350
 6683.00000  107.31260    0.22000    8.64070    3.20440    0.09120    2.54660   83.72320  145.67850   -0.00980    5.67650    5.48270    5.35630
 6683.50000  111.88050    0.21400    8.63280    3.17300    0.08600    2.55870   83.93640  145.06070   -0.00980    5.37360    5.23440    5.13380
 6684.00000  113.29940    0.21030    8.63110    3.16210    0.08810    2.56240   83.24400  144.04330   -0.01000    5.55190    5.33490    5.02820
 6684.50000  112.66780    0.20780    8.63120    3.16650    0.09420    2.55030   81.77960  142.82710   -0.01150    5.86260    5.55340    5.25290
 6685.00000  110.63100    0.21610    8.63230    3.40730    0.09740    2.54490   80.88640  140.38360   -0.01470    6.40080    5.95180    5.65060
 6685.50000  103.03840    0.22470    8.63470    3.91320    0.08230    2.56120   79.94260  139.46840   -0.01480    8.77970    7.62250    7.01810
 6686.00000   91.20340    0.20800    8.63840    4.29470    0.05780    2.60160   79.85920  138.58360   -0.01300   14.77940   12.82090   11.42990
 6686.50000   83.38360    0.18360    8.64150    4.27320    0.04110    2.63870   79.92960  139.57220   -0.01000   18.52490   17.53460   16.51300
 6687.00000   90.07020    0.18260    8.63020    3.93620    0.06020    2.61800   80.07770  140.10640   -0.01010   14.19260   11.17660    9.90430
 6687.50000  104.14880    0.19930    8.62840    3.50620    0.08690    2.57380   80.66440  140.73150   -0.01160    8.10210    7.07020    6.72240
 6688.00000  109.24240    0.20310    8.62910    3.30480    0.09990    2.53870   81.57710  141.84980   -0.01320    5.79350    5.53590    5.26310
 6688.50000  110.15780    0.20010    8.63170    3.17970    0.10180    2.53490   82.60920  143.52930   -0.01220    4.99980    4.76440    4.65280
 6689.00000  111.56810    0.20710    8.63170    3.16050    0.10460    2.53230   83.26960  144.60420   -0.01190    5.21720    4.99690    4.82230
 6689.50000  114.86360    0.23990    8.63170    3.17390    0.11370    2.52250   84.72970  146.67070   -0.01190    5.79310    5.51090    5.33850
 6690.00000  117.26880    0.25460    8.63160    3.18730    0.11290    2.51810   85.30790  146.69960   -0.01140    6.23880    5.93750    5.83430
 6690.50000  117.34190    0.25720    8.63670    3.19970    0.10530    2.52720   85.79910  146.88300   -0.00960    5.71790    5.53440    5.39920
 6691.00000  116.23420    0.24370    8.63140    3.21070    0.10090    2.53800   85.15110  147.06640   -0.00760    5.21150    5.05530    4.93180
 6691.50000  118.14950    0.23400    8.63100    3.24930    0.10650    2.53180   84.54990  144.57490   -0.00700    5.23420    4.99280    4.82320
 6692.00000  116.88770    0.23770    8.63080    3.35900    0.11080    2.51860   86.36470  140.04220   -0.00890    6.06550    5.83640    5.63770
 6692.50000  109.08370    0.23250    8.63080    3.61720    0.09770    2.53720   77.92860  136.83330   -0.01180    8.29250    7.43160    7.07480
 6693.00000   84.04840    0.19100    8.63080    4.08870    0.04510    2.62160   75.93480  132.38060   -0.00990   15.17340   12.78000   11.22910
 6693.50000   57.33640    0.14450    8.63070    4.54570   -0.00730    2.69920   75.70250  130.96470   -0.00600   27.46720   24.46510   21.99370
 6694.00000   53.53300    0.12100    8.63070    4.53060   -0.01610    2.73980   75.68920  130.58220   -0.00280   28.70410   26.57740   23.20480
 6694.50000   70.66710    0.13720    8.63070    4.23710    0.02080    2.68480   75.45550  132.05840   -0.00350   18.89290   15.36530   13.38340
 6695.00000   95.02530    0.18760    8.63070    3.76310    0.08550    2.58170   76.74250  132.72490   -0.00780   10.95190    9.31650    8.82040
 6695.50000  112.33880    0.22990    8.63070    3.46840    0.11940    2.51720   78.47100  133.97990   -0.01180    8.06250    7.26540    6.79460
