~Version ---------------------------------------------------
VERS.   2.0 : CWLS log ASCII Standard -VERSION 2.0
WRAP.    NO : One line per depth step
DLM . SPACE : Column Data Section Delimiter
~Well ------------------------------------------------------
STRT .F                 200.0 : START DEPTH
STOP .F                9773.0 : STOP DEPTH
STEP .F                   0.5 : STEP
NULL .               -9999.25 : NULL VALUE
COMP .                        : COMPANY
WELL .                        : WELL
FLD  .                        : FIELD
LOC  .                        : LOCATION
PROV .                        : PROVINCE
CNTY .                        : COUNTY
STAT .                        : STATE
CTRY .                        : COUNTRY
SRVC .                        : SERVICE COMPANY
DATE .                        : DATE
UWI  .                        : UNIQUE WELL ID
API  .                        : API NUMBER
SLAT .WGS84 1.380030958957505 : SURFACE LATITUDE
SLON .WGS84 6.107931134328993 : SURFACE LONGITUDE
DATUM.F                   nan : DEPTH DATUM ELEV
~Curve Information -----------------------------------------
DEPT   .F     : 
SGRDD  .GAPI  : SPECTROSCOPY GAMMA RAY FROM DENSITY LOG
TNPH_LS.DEC   : THERMAL NEUTRON POROSITY [LIMESTONE]
CALD   .IN    : CALIPER FROM DENSITY LOG
PEFZ   .B/E   : HRDD STANDARD RESOLUTION FORMATION PHOTOELECTRIC FACTOR
DPHZ_LS.DEC   : HGRD STANDARD RESOLUTION DENSITY POROSITY
RHOZ   .G/C3  : HRDD STANDARD RESOLUTION FORMATION DENSITY
DTCO   .US/F  : DELTA-T COMPRESSIONAL
DTSM   .US/F  : DELTA-T SHEAR
HDRA   .G/C3  : HRDD SPINE AND RIBS DENSITY CORRECTION
AT10   .OHMM  : ARRAY INDUCTION TWO FOOT RESISTIVITY A10
AT30   .OHMM  : ARRAY INDUCTION TWO FOOT RESISTIVITY A30
AT90   .OHMM  : ARRAY INDUCTION TWO FOOT RESISTIVITY A90
~Params ----------------------------------------------------
~Other -----------------------------------------------------
~ASCII -----------------------------------------------------
# ...
 8964.00000  106.04350    0.19790    8.62250    3.48680    0.05550    2.61500   79.59590  143.73640   -0.01180    5.02010    4.94530    4.71900
 8964.50000  106.83850    0.21090    8.62100    3.55610    0.05550    2.61590   79.60610  143.46830   -0.01150    5.08630    4.85980    4.70670
 8965.00000  106.56280    0.20830    8.62060    3.55060    0.04980    2.62400   79.54020  143.68630   -0.00890    5.27810    5.05450    4.85620
 8965.50000  106.04980    0.20420    8.63050    3.51210    0.04160    2.64150   79.57580  143.48910   -0.00580    5.31150    5.13060    4.91440
 8966.00000  105.39780    0.19690    8.63110    3.51430    0.03600    2.64900   79.55100  143.17560   -0.00270    5.22290    5.09120    4.90200
 8966.50000  103.14120    0.20550    8.63090    3.52200    0.04050    2.63840   79.56100  142.95580   -0.00250    5.36610    5.14170    4.95370
 8967.00000  101.80610    0.20450    8.63290    3.52380    0.04870    2.62580   79.74210  142.92100   -0.00440    5.58710    5.27060    5.05830
 8967.50000  102.04130    0.20200    8.63480    3.41840    0.05780    2.61350   79.88520  142.19690   -0.00730    5.32150    5.17250    4.90570
 8968.00000  104.55380    0.19390    8.63980    3.31000    0.06320    2.60130   79.97280  140.53160   -0.01060    4.87730    4.67290    4.59900
 8968.50000  107.50060    0.20410    8.64480    3.26470    0.06690    2.59530   77.72020  135.93620   -0.01110    4.33840    4.15330    4.02800
 8969.00000  108.52810    0.21740    8.62960    3.35480    0.06090    2.60010   80.80320  131.88280    0.00040    4.30570    4.13400    3.93720
 8969.50000  102.46980    0.22230    8.62570    3.59790    0.04640    2.62330   80.91030  130.17050    0.01240    6.20080    5.37400    5.02750
 8970.00000   83.19330    0.11330    8.62180    4.11670    0.02250    2.66030   78.69760  125.78880    0.01760    9.23020    8.06540    7.04440
 8970.50000   58.78470    0.06020    8.61790    4.68830    0.00200    2.69500   85.18180  115.83270    0.00750   14.75980   13.52100   10.85770
 8971.00000   38.97610    0.01630    8.61400    5.28000   -0.02140    2.72970   81.57220  110.78500    0.00200   36.05140   28.79530   20.80690
 8971.50000   31.06830    0.00710    8.61010    5.53420   -0.02620    2.75430   50.87150  108.24750   -0.00050  109.08990   46.94590   38.92100
 8972.00000   30.63870    0.00530    8.60620    5.49080   -0.02580    2.75530   52.14640  105.85460    0.00130  309.39010   53.87600   41.71710
 8972.50000   30.32170    0.00710    8.60230    5.34100   -0.02400    2.75100   52.65360  104.06560    0.00090   98.12090   68.42800   44.56950
 8973.00000   30.59710    0.00880    8.59840    5.21640   -0.01980    2.74300   53.47240  104.19080    0.00010   78.97010   54.48310   47.61700
 8973.50000   34.27510    0.01360    8.59450    5.06590   -0.01670    2.73820   53.46550  104.55760   -0.00090   75.46700   64.22460   55.90750
 8974.00000   43.93560    0.02410    8.59060    4.86790   -0.00930    2.73010   52.51470  110.72840   -0.00170   79.92850   55.11300   47.09280
 8974.50000   59.61870    0.04300    8.58670    4.57680   -0.00230    2.71610   64.75990  119.24040   -0.00200   33.20330   25.26150   21.57950
 8975.00000   84.84950    0.08580    8.58280    4.09730    0.01840    2.67840   66.64430  126.61470   -0.00490   13.18620   10.98890    9.34850
 8975.50000  112.87310    0.13560    8.58060    3.72580    0.03630    2.64500   67.30140  129.14570   -0.00890    6.13310    5.52620    5.27890
 8976.00000  120.12660    0.19550    8.58420    3.51920    0.04730    2.63120   70.02840  134.17260   -0.01120    5.08910    5.07150    4.96200
 8976.50000  122.56860    0.20510    8.59630    3.40410    0.05020    2.62520   74.54780  138.05030   -0.01300    5.00800    4.73750    4.62680
 8977.00000  119.33980    0.20880    8.60120    3.39740    0.05020    2.62440   75.69720  141.91180   -0.01290    4.96350    4.62430    4.33360
 8977.50000  116.90450    0.20720    8.60540    3.39530    0.05030    2.62440   76.49440  143.25960   -0.01020    4.99360    4.55580    4.25680
 8978.00000  114.80500    0.20670    8.60970    3.38790    0.04850    2.62560   78.49180  144.52800   -0.00620    5.24820    4.74600    4.42110
 8978.50000  117.85500    0.20570    8.60700    3.38060    0.04570    2.63090   78.61370  145.40620   -0.00240    5.70970    5.10880    4.71520
 8979.00000  121.64610    0.20540    8.59940    3.42570    0.04400    2.63440   79.79840  145.27830   -0.00580    6.20990    5.69730    4.99200
 8979.50000  127.18340    0.21160    8.59470    3.45530    0.04520    2.63330   79.34500  145.12410   -0.00950    6.41410    5.90800    5.15680
 8980.00000  127.50900    0.21870    8.60780    3.51470    0.05110    2.62550   79.66910  144.96050   -0.01350    6.10310    5.39160    5.04550
 8980.50000  126.36030    0.22030    8.60230    3.55680    0.05590    2.61760   79.95110  144.10710   -0.01360    4.89870    4.48120    4.30130
 8981.00000  123.65090    0.21510    8.59590    3.53420    0.05360    2.61630   79.62020  141.90480   -0.01060    3.93190    3.67270    3.49150
 8981.50000  118.61020    0.21290    8.60110    3.47110    0.05050    2.62220   77.68770  143.26000   -0.01010    4.08960    3.67750    3.47650
 8982.00000  113.45070    0.21050    8.60490    3.48460    0.04410    2.63340   76.72230  141.43520   -0.00970    4.67580    4.33240    3.99030
 8982.50000  106.11010    0.20360    8.60300    3.58690    0.03260    2.65670   76.01920  141.09300   -0.00960    5.32440    5.04060    4.64360
 8983.00000   93.94910    0.15540    8.60880    3.84480    0.00900    2.69160   75.70280  140.94800   -0.00710    6.85840    5.96600    5.58320
 8983.50000   84.93200    0.13140    8.61060    3.95850   -0.00630    2.72150   75.31750  140.86480   -0.00340    8.41990    7.29260    6.46580
 8984.00000   93.79830    0.14050    8.60170    3.81340    0.00270    2.72100   75.16500  141.24290   -0.00280    6.64660    5.95350    5.62370
 8984.50000  105.32480    0.17280    8.58680    3.58320    0.02280    2.68790   75.58310  141.54300   -0.00510    5.24720    4.99710    4.84590
 8985.00000  115.77050    0.19830    8.59640    3.45430    0.03820    2.65350   75.90720  142.38910   -0.00870    4.98920    4.82360    4.73950
 8985.50000  118.02570    0.21830    8.59990    3.45700    0.04480    2.63540   76.88640  143.28990   -0.01160    5.02090    4.79350    4.72030
 8986.00000  116.54950    0.20410    8.60030    3.47990    0.04350    2.63460   77.72610  144.28060   -0.01180    5.02780    4.75890    4.63930
 8986.50000  114.41240    0.20610    8.60620    3.49440    0.04400    2.63580   78.51710  145.12230   -0.01180    5.02660    4.72460    4.54000
 8987.00000  113.25200    0.21240    8.60990    3.50900    0.04460    2.63320   79.21670  144.85160   -0.01180    5.01680    4.71420    4.45570
 8987.50000  112.50850    0.21510    8.61020    3.51800    0.04560    2.63220   78.64380  144.45430   -0.01180    4.99360    4.78280    4.45010
 8988.00000  111.49400    0.21570    8.61080    3.58790    0.03810    2.64340   78.49890  144.43770   -0.01060    5.03210    4.85250    4.57830
 8988.50000  110.36490    0.21530    8.61660    3.70740    0.03210    2.66110   78.54480  145.75530   -0.00980    5.14650    4.92310    4.71010
 8989.00000  110.30670    0.21460    8.63170    3.84490    0.02660    2.66110   78.42500  145.89060   -0.01050    5.23460    4.98480    4.78140
 8989.50000  113.09480    0.21540    8.63090    3.89530    0.03090    2.65750   78.23650  146.33500   -0.01130    4.99660    4.81650    4.65380
 8990.00000  118.21480    0.21470    8.63100    3.79370    0.03440    2.65270   78.49010  145.75850   -0.01180    4.79310    4.60740    4.49920
 8990.50000  122.41650    0.21280    8.62120    3.63630    0.03600    2.64790   78.77920  146.79740   -0.01140    4.64220    4.43310    4.34980
 8991.00000  124.25090    0.20700    8.61410    3.53850    0.03930    2.64300   79.21300  146.52050   -0.01000    4.53150    4.33620    4.26020
 8991.50000  124.58640    0.21530    8.61010    3.46090    0.04240    2.63760   79.21740  147.08610   -0.00980    4.48960    4.30220    4.22730
