~Version ---------------------------------------------------
VERS.   2.0 : CWLS log ASCII Standard -VERSION 2.0
WRAP.    NO : One line per depth step
DLM . SPACE : Column Data Section Delimiter
~Well ------------------------------------------------------
STRT .F                 200.0 : START DEPTH
STOP .F                9773.0 : STOP DEPTH
STEP .F                   0.5 : STEP
NULL .               -9999.25 : NULL VALUE
COMP .                        : COMPANY
WELL .                        : WELL
FLD  .                        : FIELD
LOC  .                        : LOCATION
PROV .                        : PROVINCE
CNTY .                        : COUNTY
STAT .                        : STATE
CTRY .                        : COUNTRY
SRVC .                        : SERVICE COMPANY
DATE .                        : DATE
UWI  .                        : UNIQUE WELL ID
API  .                        : API NUMBER
SLAT .WGS84 1.380030958957505 : SURFACE LATITUDE
SLON .WGS84 6.107931134328993 : SURFACE LONGITUDE
DATUM.F                   nan : DEPTH DATUM ELEV
~Curve Information -----------------------------------------
DEPT   .F     : 
SGRDD  .GAPI  : SPECTROSCOPY GAMMA RAY FROM DENSITY LOG
TNPH_LS.DEC   : THERMAL NEUTRON POROSITY [LIMESTONE]
CALD   .IN    : CALIPER FROM DENSITY LOG
PEFZ   .B/E   : HRDD STANDARD RESOLUTION FORMATION PHOTOELECTRIC FACTOR
DPHZ_LS.DEC   : HGRD STANDARD RESOLUTION DENSITY POROSITY
RHOZ   .G/C3  : HRDD STANDARD RESOLUTION FORMATION DENSITY
DTCO   .US/F  : DELTA-T COMPRESSIONAL
DTSM   .US/F  : DELTA-T SHEAR
HDRA   .G/C3  : HRDD SPINE AND RIBS DENSITY CORRECTION
AT10   .OHMM  : ARRAY INDUCTION TWO FOOT RESISTIVITY A10
AT30   .OHMM  : ARRAY INDUCTION TWO FOOT RESISTIVITY A30
AT90   .OHMM  : ARRAY INDUCTION TWO FOOT RESISTIVITY A90
~Params ----------------------------------------------------
~Other -----------------------------------------------------
~ASCII -----------------------------------------------------
# ...
 7956.00000   87.63300    0.17090    8.63680    3.33770    0.07410    2.58620   81.95690  141.22220   -0.00730    5.54860    5.33660    5.15300
 7956.50000   92.06180    0.17430    8.63050    3.31700    0.08220    2.56540   80.87040  141.06500   -0.00850    5.11120    4.99710    4.88690
 7957.00000   94.72220    0.18960    8.62420    3.32420    0.09130    2.55460   81.80450  141.50880   -0.01260    5.94970    5.68630    5.51270
 7957.50000   95.98540    0.18100    8.61820    3.42610    0.09160    2.55260   82.01150  141.57000   -0.01280    6.93410    6.52000    6.31420
 7958.00000   94.62940    0.18820    8.61530    3.54070    0.09020    2.55620   82.65570  141.65250   -0.01280    8.12500    7.51430    7.26750
 7958.50000   90.78900    0.18360    8.61550    3.63940    0.08560    2.56220   83.29680  141.91950   -0.01280    9.11560    8.67320    8.36770
 7959.00000   87.36960    0.18270    8.61820    3.64840    0.08180    2.56920   83.51020  141.61610   -0.01280    9.41290    8.86190    8.67070
 7959.50000   89.44030    0.18210    8.62760    3.56580    0.08550    2.56400   83.50560  141.11800   -0.01280    7.88610    7.37000    7.03090
 7960.00000   93.19060    0.18730    8.63090    3.46510    0.09140    2.55600   82.53700  139.94990   -0.01270    6.31630    5.86020    5.58920
 7960.50000   95.54840    0.19320    8.62990    3.39830    0.09450    2.54940   81.92670  138.65940   -0.01260    5.33870    5.14510    5.05100
 7961.00000   92.32750    0.19400    8.61240    3.49500    0.08900    2.55240   78.74750  136.24560   -0.01270    7.44620    6.26900    5.82930
 7961.50000   85.45240    0.17050    8.62010    3.67120    0.07980    2.56780   77.23100  133.49460   -0.01280    9.96880    9.15550    8.47400
 7962.00000   76.72670    0.14810    8.62210    3.97520    0.06500    2.58990   75.92990  128.79330   -0.01180   11.70070   10.80830   10.46640
 7962.50000   65.71380    0.12570    8.62270    4.30560    0.04070    2.62920   74.64720  124.29730   -0.00960   14.09810   12.72820   12.28130
 7963.00000   47.24220    0.08660    8.62340    4.78700    0.00120    2.71460   66.30930  121.11890   -0.00750   21.07300   18.33710   15.91160
 7963.50000   28.93480    0.04990    8.62400    5.26490   -0.05670    2.79120   65.75980  119.37720   -0.00530   41.78750   35.42760   33.35970
 7964.00000   24.26650    0.03820    8.62470    5.35350   -0.07500    2.84240   65.38350  121.13120   -0.01110   54.50530   36.00410   31.28620
 7964.50000   31.93530    0.04570    8.62540    5.07660   -0.06050    2.81460   65.39290  121.24810   -0.01570   32.44650   24.91220   21.60780
 7965.00000   57.20150    0.08200    8.62600    4.37660    0.00140    2.71940   66.44400  121.29610   -0.01900   16.39780   10.90900    9.40700
 7965.50000   85.24740    0.13900    8.62670    3.76710    0.05560    2.61010   72.39050  126.86760   -0.01340    6.78770    6.18280    5.83970
 7966.00000   99.98660    0.18400    8.62730    3.49130    0.08610    2.55660   74.52310  132.45980   -0.01290    5.40940    5.14060    5.03910
 7966.50000  104.32020    0.21830    8.62800    3.30250    0.09710    2.54430   79.15510  138.05210   -0.01340    4.97410    4.79910    4.69220
 7967.00000  103.47960    0.21500    8.62860    3.24270    0.09310    2.54910   80.37850  142.59340   -0.00970    4.55740    4.45600    4.35670
 7967.50000   99.57360    0.20910    8.62930    3.25150    0.08820    2.55610   84.23190  146.91020   -0.00700    4.43360    4.32270    4.23250
 7968.00000   94.58260    0.19750    8.64070    3.26890    0.08330    2.56590   84.54190  147.25000   -0.00580    4.88580    4.76740    4.63650
 7968.50000   91.51170    0.19420    8.64630    3.26900    0.08190    2.56990   84.55210  147.58980   -0.00700    5.60890    5.33420    5.18760
 7969.00000   92.76580    0.19960    8.63370    3.27000    0.08370    2.56730   83.98310  146.74710   -0.01050    6.06540    5.80670    5.69020
 7969.50000   95.20650    0.19580    8.63050    3.29830    0.08470    2.56760   81.40950  140.29730   -0.00780    6.32190    6.03330    5.91460
 7970.00000   88.50300    0.18060    8.63110    3.45380    0.08030    2.57170   79.31330  137.94180   -0.01060    7.11090    6.46470    6.31580
 7970.50000   77.72250    0.15430    8.63190    3.69010    0.07100    2.58580   77.47610  135.88810   -0.01030    9.65220    8.32890    7.89900
 7971.00000   67.36260    0.13020    8.63270    3.88890    0.05930    2.60670   76.77470  134.39540   -0.00930   14.45460   12.97410   11.82350
 7971.50000   60.58500    0.10510    8.63350    3.96380    0.04920    2.62210   76.08990  135.29300   -0.00790   17.65560   17.01820   16.01830
 7972.00000   62.27710    0.11070    8.63430    3.78600    0.04950    2.62580   76.11160  135.94100   -0.00560   14.18230   12.43290   11.33610
 7972.50000   73.51390    0.13680    8.63510    3.54050    0.06320    2.59830   76.77560  136.09430   -0.00670    8.31060    7.40150    6.86900
 7973.00000   86.17000    0.18540    8.63590    3.36700    0.07830    2.57610   77.16790  138.38060   -0.00930    5.93180    5.74310    5.42910
 7973.50000   92.51940    0.20270    8.63670    3.29690    0.08820    2.56130   78.98560  139.59900   -0.01200    5.80160    5.58740    5.36300
 7974.00000   93.68940    0.20460    8.63240    3.25000    0.08540    2.56720   78.77910  140.17680   -0.01140    5.55000    5.23110    5.08260
 7974.50000   94.72240    0.20340    8.63180    3.22870    0.08510    2.56380   78.72810  140.80630   -0.01050    5.01940    4.84910    4.63740
 7975.00000   96.78280    0.20000    8.63120    3.22340    0.08880    2.55790   80.01200  141.97900   -0.01180    4.93330    4.64170    4.45140
 7975.50000   91.42030    0.19390    8.63060    3.35360    0.08700    2.55690   80.20520  141.94750   -0.01300    6.26820    5.56820    5.24500
 7976.00000   81.78170    0.17320    8.63110    3.56730    0.07560    2.57780   80.11250  140.66140   -0.01270    9.83380    8.70220    7.97250
 7976.50000   74.00690    0.15170    8.63200    3.78710    0.06510    2.59730   80.00610  141.07010   -0.01150   14.04490   13.21050   12.46670
 7977.00000   74.31590    0.13790    8.63210    3.76190    0.06580    2.59880   79.72750  140.64930   -0.01010   12.68610   11.85600   10.78420
 7977.50000   84.70500    0.14720    8.63230    3.66590    0.07210    2.59020   79.70370  140.56270   -0.01000    8.40970    7.44720    6.91970
 7978.00000   93.90370    0.17080    8.63130    3.56930    0.07240    2.58560   79.82890  140.52410   -0.00990    6.30260    5.91440    5.73800
 7978.50000   96.61930    0.18300    8.63060    3.54480    0.07110    2.58750   80.03140  140.24320   -0.01030    5.91380    5.69290    5.59380
 7979.00000   96.35480    0.18820    8.63060    3.57800    0.06910    2.59120   80.02770  140.74560   -0.01100    6.06540    5.84040    5.72940
 7979.50000   90.78790    0.18280    8.63060    3.60520    0.06890    2.59200   80.02990  140.37460   -0.01200    6.28960    6.08120    5.96560
 7980.00000   89.64200    0.17850    8.63280    3.60240    0.06930    2.59210   79.86280  139.17600   -0.01290    6.27610    5.99800    5.90190
 7980.50000   86.99170    0.17370    8.63880    3.61630    0.06960    2.59200   79.23280  136.31540   -0.01300    6.19080    5.87240    5.73880
 7981.00000   79.22230    0.15620    8.64470    3.73660    0.06690    2.59470   78.48050  134.26030   -0.01420    8.15160    7.25050    6.80480
 7981.50000   65.36870    0.12850    8.64200    3.97110    0.05620    2.61580   74.01590  128.16480   -0.01380   11.55750    9.96830    9.35760
 7982.00000   50.53380    0.10240    8.63920    4.25850    0.04350    2.63900   71.51180  125.09960   -0.01280   16.44030   13.92780   13.04780
 7982.50000   41.39790    0.07180    8.63650    4.56200    0.03180    2.65320   70.23500  124.03070   -0.01180   24.97160   21.16570   19.27660
 7983.00000   35.72480    0.05930    8.63370    4.66500    0.02350    2.66590   70.08760  124.10180   -0.00690   35.50440   32.77570   28.08700
 7983.50000   46.03380    0.07070    8.63100    4.43500    0.03100    2.66140   70.11130  124.45170   -0.00540   26.91240   24.47430   27.58920
