~Version ---------------------------------------------------
VERS.   2.0 : CWLS log ASCII Standard -VERSION 2.0
WRAP.    NO : One line per depth step
DLM . SPACE : Column Data Section Delimiter
~Well ------------------------------------------------------
STRT .F                 200.0 : START DEPTH
STOP .F                9773.0 : STOP DEPTH
STEP .F                   0.5 : STEP
NULL .               -9999.25 : NULL VALUE
COMP .                        : COMPANY
WELL .                        : WELL
FLD  .                        : FIELD
LOC  .                        : LOCATION
PROV .                        : PROVINCE
CNTY .                        : COUNTY
STAT .                        : STATE
CTRY .                        : COUNTRY
SRVC .                        : SERVICE COMPANY
DATE .                        : DATE
UWI  .                        : UNIQUE WELL ID
API  .                        : API NUMBER
SLAT .WGS84 1.380030958957505 : SURFACE LATITUDE
SLON .WGS84 6.107931134328993 : SURFACE LONGITUDE
DATUM.F                   nan : DEPTH DATUM ELEV
~Curve Information -----------------------------------------
DEPT   .F     : 
SGRDD  .GAPI  : SPECTROSCOPY GAMMA RAY FROM DENSITY LOG
TNPH_LS.DEC   : THERMAL NEUTRON POROSITY [LIMESTONE]
CALD   .IN    : CALIPER FROM DENSITY LOG
PEFZ   .B/E   : HRDD STANDARD RESOLUTION FORMATION PHOTOELECTRIC FACTOR
DPHZ_LS.DEC   : HGRD STANDARD RESOLUTION DENSITY POROSITY
RHOZ   .G/C3  : HRDD STANDARD RESOLUTION FORMATION DENSITY
DTCO   .US/F  : DELTA-T COMPRESSIONAL
DTSM   .US/F  : DELTA-T SHEAR
HDRA   .G/C3  : HRDD SPINE AND RIBS DENSITY CORRECTION
AT10   .OHMM  : ARRAY INDUCTION TWO FOOT RESISTIVITY A10
AT30   .OHMM  : ARRAY INDUCTION TWO FOOT RESISTIVITY A30
AT90   .OHMM  : ARRAY INDUCTION TWO FOOT RESISTIVITY A90
~Params ----------------------------------------------------
~Other -----------------------------------------------------
~ASCII -----------------------------------------------------
# ...
 6920.00000  119.73620    0.25680    8.61180    3.65780    0.12960    2.49150   86.44260  147.27050   -0.01130   32.91740   28.05150   25.17950
 6920.50000  115.70080    0.23820    8.61190    3.66740    0.13960    2.47440   86.53910  147.26090   -0.01260   58.04100   49.04670   44.00910
 6921.00000  115.42450    0.23530    8.61200    3.53360    0.14610    2.46170   86.45490  147.49740   -0.00860   69.41670   67.08970   62.13000
 6921.50000  117.29040    0.23760    8.61210    3.50300    0.14830    2.45710   86.43510  146.91530   -0.00680   57.26900   52.94590   49.39970
 6922.00000  121.58880    0.23620    8.61220    3.47250    0.14290    2.46480   85.74360  146.67880   -0.00670   40.55560   35.41630   32.78740
 6922.50000  122.96230    0.24190    8.61320    3.48100    0.13400    2.48310   85.75040  145.79940   -0.00840   28.14510   23.90310   22.12770
 6923.00000  125.86230    0.25560    8.61470    3.59970    0.12640    2.49110   85.56880  145.21120   -0.01170   18.49840   17.44570   16.43890
 6923.50000  129.13970    0.26400    8.62200    3.75700    0.12560    2.49570   84.76520  144.26330   -0.01280   21.86400   20.10360   19.16120
 6924.00000  129.59030    0.25270    8.62940    3.78860    0.12390    2.49980   84.04790  143.27330   -0.01280   26.04010   24.81880   22.88740
 6924.50000  126.09930    0.24240    8.62040    3.77230    0.12130    2.50410   83.06960  142.36540   -0.01280   25.42480   24.04860   23.62740
 6925.00000  118.25610    0.22950    8.61180    3.75680    0.11670    2.50900   82.19130  140.71000   -0.01280   33.80140   28.19590   25.53060
 6925.50000  111.94140    0.20300    8.61100    3.80220    0.11440    2.51390   81.64050  139.64580   -0.01280   63.39980   51.26310   45.28650
 6926.00000  110.70490    0.18670    8.60980    3.85350    0.11400    2.51550   81.26090  138.76380   -0.01110   95.12290   75.33690   70.96170
 6926.50000  119.92430    0.17650    8.60820    3.90480    0.11590    2.51230   80.97770  138.51350   -0.01010  101.20470   78.36220   66.81210
 6927.00000  142.04470    0.19850    8.60660    3.92750    0.12130    2.50420   80.91790  139.02910   -0.01080   68.07060   57.16030   48.00660
 6927.50000  155.64730    0.21760    8.60680    3.91360    0.11970    2.50600   81.60220  140.23480   -0.01190   40.98230   35.39250   31.19900
 6928.00000  149.00080    0.23160    8.61070    3.83450    0.11190    2.51480   82.46020  141.13260   -0.01280   28.05320   24.96510   21.26480
 6928.50000  130.12950    0.22630    8.61330    3.75910    0.10450    2.53020   84.35410  143.23600   -0.01270   19.44170   15.79390   14.49390
 6929.00000  117.49730    0.22500    8.62550    3.68480    0.10440    2.53260   84.80140  145.05750   -0.01140   12.69780   11.61250   10.88240
 6929.50000  128.83140    0.23670    8.61790    3.61050    0.11350    2.52200   86.99310  148.33830   -0.01120   12.95670   11.83710   11.19580
 6930.00000  148.32420    0.25150    8.61350    3.53620    0.12620    2.49880   88.36040  150.01920   -0.01280   13.75400   12.85530   12.12220
 6930.50000  165.98770    0.27350    8.61060    3.46720    0.13600    2.47430   90.44880  152.45100   -0.01190   14.98280   13.95680   12.96150
 6931.00000  173.64910    0.28130    8.61010    3.45690    0.14230    2.46890   90.45620  152.68260   -0.01010   14.85930   13.91590   13.31390
 6931.50000  189.47260    0.28800    8.61040    3.46060    0.15290    2.44740   90.34850  152.57810   -0.00970   14.42310   13.78570   12.71830
 6932.00000  204.52770    0.29730    8.61070    3.51850    0.16230    2.42880   89.41900  150.44680   -0.01140   21.13750   17.56170   16.42590
 6932.50000  209.16170    0.29820    8.61030    3.67680    0.16530    2.43260   88.21000  146.43050   -0.01510   41.79550   34.15550   30.99870
 6933.00000  176.31280    0.27080    8.60890    4.02760    0.13940    2.46640   92.83840  143.50430   -0.01400   63.06000   59.60110   51.04880
 6933.50000  112.59330    0.22510    8.60750    4.44190    0.10380    2.49370   92.41960  139.07060   -0.01060   82.23180   75.89860   67.41190
 6934.00000   71.02620    0.16340    8.60610    4.85630    0.07110    2.57140   86.31910  131.92170   -0.00940  116.64670  100.28730   92.52870
 6934.50000   47.54500    0.10850    8.60710    5.26820    0.05130    2.60740   65.85430  129.28790   -0.00810  170.05440  151.26890  139.83470
 6935.00000   42.68010    0.08110    8.60980    5.49850    0.03640    2.64340   70.52770  127.84410   -0.00680  248.92540  191.71770  156.46180
 6935.50000   58.31550    0.08150    8.61000    5.38560    0.03800    2.64730   70.96200  126.77570   -0.00560  182.23040  129.70940  109.86120
 6936.00000   85.86270    0.10930    8.61030    5.16470    0.05840    2.61910   71.16740  126.92550   -0.00580  136.68200   84.46070   74.79510
 6936.50000  114.58260    0.14280    8.61060    4.88880    0.08770    2.57100   72.00460  128.00520   -0.00770   74.91670   58.30790   54.98970
 6937.00000  133.91760    0.18170    8.61070    4.50360    0.10860    2.53230   74.62080  131.04700   -0.00980   43.77710   30.95780   26.96000
 6937.50000  132.44500    0.20060    8.61070    4.09620    0.10880    2.52540   76.80500  133.73420   -0.00990   21.57910   17.97570   15.48650
 6938.00000  120.30950    0.21060    8.61070    3.78420    0.10080    2.53760   79.39220  136.75700   -0.00990   14.88220   13.73540   12.28040
 6938.50000  115.91380    0.21320    8.61100    3.59370    0.10110    2.53830   81.16250  139.42220   -0.01160   12.20170   11.04540   10.09940
 6939.00000  125.26140    0.22560    8.61260    3.56280    0.10960    2.52630   82.64050  142.08730   -0.01280   11.93700   11.55210   10.31170
 6939.50000  140.83720    0.23410    8.61420    3.58230    0.11710    2.50970   83.51240  143.43930   -0.01290   16.59350   14.45110   13.64990
 6940.00000  143.63740    0.23810    8.61130    3.57480    0.11660    2.51320   83.97760  144.33040   -0.01130   21.75410   19.94390   17.82490
 6940.50000  131.04050    0.21460    8.61130    3.55740    0.10720    2.52710   84.25880  144.96760   -0.01080   22.51540   21.80600   21.09790
 6941.00000  118.56500    0.20490    8.61480    3.59800    0.10090    2.53620   84.55940  145.67850   -0.01260   23.05270   22.69550   21.43210
 6941.50000  115.28350    0.20570    8.61990    3.65400    0.10320    2.53290   85.19050  145.85730   -0.01280   22.78080   21.81700   20.34690
 6942.00000  126.39680    0.22400    8.61310    3.71000    0.11450    2.51910   85.62620  145.07150   -0.01280   24.27620   22.69740   21.56800
 6942.50000  140.93310    0.23760    8.61060    3.79420    0.12570    2.49760   85.53780  144.28560   -0.01160   27.40080   25.62510   24.06570
 6943.00000  149.73800    0.25250    8.61050    3.76160    0.13050    2.48830   85.24990  144.00780   -0.01010   26.06400   22.32960   20.37060
 6943.50000  147.72030    0.25410    8.61040    3.64640    0.12340    2.49290   84.78180  144.64520   -0.00990   15.77390   14.81700   13.44600
 6944.00000  137.15990    0.24150    8.61080    3.60670    0.11700    2.50760   85.13870  145.03110   -0.00980   15.87750   14.67080   13.36730
 6944.50000  130.81500    0.22810    8.61110    3.60070    0.11020    2.51800   85.50260  144.85400   -0.00980   21.81940   19.62790   18.41320
 6945.00000  130.36540    0.21460    8.61000    3.59850    0.11100    2.52210   85.76040  144.88390   -0.00980   32.46900   28.94000   26.78940
 6945.50000  153.47210    0.21900    8.60890    3.59850    0.12420    2.50740   86.34950  144.93510   -0.00980   36.07010   34.33230   33.69010
 6946.00000  172.69540    0.24210    8.60920    3.59610    0.14140    2.47530   86.35730  144.98630   -0.01140   37.50210   34.92440   33.13920
 6946.50000  189.28600    0.26340    8.60990    3.57170    0.15060    2.45670   86.36440  145.03750   -0.01330   33.76740   30.42150   29.22130
 6947.00000  193.75360    0.28530    8.61030    3.50410    0.14640    2.45800   86.39230  144.84810   -0.01380   27.27240   24.23930   23.04000
 6947.50000  185.55140    0.26700    8.61030    3.45760    0.13520    2.47950   85.73480  144.54870   -0.01280   20.50980   18.88870   17.95230
