~Version ---------------------------------------------------
VERS.   2.0 : CWLS log ASCII Standard -VERSION 2.0
WRAP.    NO : One line per depth step
DLM . SPACE : Column Data Section Delimiter
~Well ------------------------------------------------------
STRT .FT                 169.0 : START DEPTH
STOP .FT               13259.0 : STOP DEPTH
STEP .FT                   0.5 : STEP
NULL .                -9999.25 : NULL VALUE
COMP .                         : COMPANY
WELL .                         : WELL
FLD  .                         : FIELD
LOC  .                         : LOCATION
PROV .                         : PROVINCE
CNTY .                         : COUNTY
STAT .                         : STATE
CTRY .                         : COUNTRY
SRVC .                         : SERVICE COMPANY
DATE .                         : DATE
UWI  .                         : UNIQUE WELL ID
API  .                         : API NUMBER
SLAT .WGS84 2.2723299225234967 : SURFACE LATITUDE
SLON .WGS84  8.212745437215005 : SURFACE LONGITUDE
DATUM.F                    nan : DEPTH DATUM ELEV
~Curve Information -----------------------------------------
DEPT   .FT    : 
DPHZ_LS.DEC   : HGRD STANDARD RESOLUTION DENSITY POROSITY
DT     .US/F  : DELTA-T (INTERVAL TRANSIT TIME)
DTSM   .US/F  : DELTA-T SHEAR
HCALD  .IN    : HRCC CALIPER CALIBRATED FROM DENSITY LOG
HDRA   .G/C3  : HRDD SPINE AND RIBS DENSITY CORRECTION
HSGRD  .GAPI  : HNGS STANDARD GAMMA RAY FROM DENSITY LOG
PEFZ   .B/E   : HRDD STANDARD RESOLUTION FORMATION PHOTOELECTRIC FACTOR
RHOZ   .G/C3  : HRDD STANDARD RESOLUTION FORMATION DENSITY
RLA3   .OHMM  : APPARENT RESISTIVITY FROM COMPUTED FOCUSING MODE 3
RLA4   .OHMM  : APPARENT RESISTIVITY FROM COMPUTED FOCUSING MODE 4
RLA5   .OHMM  : APPARENT RESISTIVITY FROM COMPUTED FOCUSING MODE 5
TNPH_LS.DEC   : THERMAL NEUTRON POROSITY [LIMESTONE]
~Params ----------------------------------------------------
~Other -----------------------------------------------------
~ASCII -----------------------------------------------------
# ...
 11929.00000    0.06880   66.84250  124.45190    6.88600   -0.00090   74.81780    3.22740    2.59890    9.58690   10.02210   10.54390    0.09800
 11929.50000    0.06220   71.15270  123.91480    6.87570    0.00430   80.95030    3.41140    2.61530    9.54660    9.98000   10.54390    0.11390
 11930.00000    0.05220   69.09540  116.67820    6.85870    0.01120   76.65020    3.72320    2.63280   17.49270   30.79010   42.12070    0.12340
 11930.50000    0.04220   65.78080  110.62000    6.84000    0.01810   68.98180    4.03500    2.64550   49.61180   51.46860   53.07990    0.11670
 11931.00000    0.03600   61.27590  108.15690    6.82470    0.02160   61.96800    3.92660    2.65180   41.31710   50.15840   53.06850    0.10690
 11931.50000    0.03600   62.33630  107.93160    6.88170    0.02000   65.29040    3.49950    2.65350    8.75510    9.08270    9.49060    0.10220
 11932.00000    0.04410   67.02930  113.79320    6.93750    0.00860   74.15870    3.16390    2.63380    8.53270    8.92800    9.20100    0.11040
 11932.50000    0.06190   69.63600  115.31370    6.93190   -0.00180   83.02710    2.97590    2.60930    8.44510    8.92710    9.09670    0.12370
 11933.00000    0.07910   72.94830  117.19120    6.91670   -0.00840   87.81170    2.92110    2.57870    8.19210    8.99000    9.17110    0.13170
 11933.50000    0.08290   74.45790  121.88630    6.90150   -0.01220   86.21880    2.98560    2.57250    8.60350    9.00190    9.17000    0.13490
 11934.00000    0.05920   74.45860  121.88420    6.89880   -0.01000   80.48710    3.23450    2.61510   10.44010   18.62350   17.11480    0.12380
 11934.50000    0.03440   74.44900  121.88240    6.88430   -0.00790   72.74210    3.59580    2.66820   20.98730   34.33600   44.38400    0.10290
 11935.00000    0.02840   67.23930  119.89540    6.84710   -0.00660   64.99720    4.00610    2.66860   30.58090   31.69240   50.60830    0.08670
 11935.50000    0.04660   67.11980  116.77110    6.84710   -0.00860   64.60290    4.19110    2.64500    7.15740    7.48870    7.73400    0.07130
 11936.00000    0.06420   67.53170  117.07950    6.85620   -0.01070   70.15060    3.79390    2.61710    7.18740    8.27170    8.95320    0.07690
 11936.50000    0.07430   68.08340  117.38790    6.87410   -0.01240   75.87050    3.18400    2.59570   10.59530   11.70630   12.80630    0.08750
 11937.00000    0.07890   71.55950  120.41500    6.89190   -0.01240   83.04080    3.03070    2.58400   11.94530   12.55180   12.83550    0.09660
 11937.50000    0.08280   73.78780  122.84340    6.89450   -0.01230   87.95750    2.93850    2.57680   11.89310   12.33810   12.86470    0.10910
 11938.00000    0.08660   74.47020  123.40190    6.96180   -0.01230   89.50810    2.95740    2.57210    6.73900    9.26710   10.75560    0.12150
 11938.50000    0.08450   75.20710  125.24670    6.96270   -0.01230   89.97900    2.97540    2.57500    8.71240    9.18740    9.92740    0.13710
 11939.00000    0.08110   75.45510  125.42620    6.96140   -0.01230   89.43960    2.97720    2.58010    8.74260    9.14730    9.85000    0.13950
 11939.50000    0.07740   75.15600  125.68340    6.95150   -0.01220   89.82130    2.97900    2.58380    6.95820    8.04150    8.82580    0.14150
 11940.00000    0.07730   75.10540  125.99770    6.94160   -0.01220   89.13120    2.98950    2.58560    7.03060    7.29340    7.46950    0.14240
 11940.50000    0.07850   74.73930  125.86360    6.92320   -0.01220   88.93510    2.99990    2.58440    6.97070    7.16990    7.35540    0.14220
 11941.00000    0.07760   73.65570  125.04060    6.89580   -0.01220   89.26700    3.14490    2.59320    6.79110    6.98100    8.22010    0.13520
 11941.50000    0.06880   72.34650  123.36870    6.89570   -0.01210   86.49350    3.29720    2.60880    6.60370    6.76770    6.89320    0.13120
 11942.00000    0.04520   71.07300  121.46830    6.88060   -0.00710   80.58580    3.79780    2.63680    6.65090    7.79460    8.59180    0.12980
 11942.50000    0.02680   68.70760  119.59530    6.86560   -0.00200   70.37010    4.04640    2.66480   11.74180   13.43930   14.17970    0.12870
 11943.00000    0.00830   65.99360  116.20750    6.85060    0.00090   63.60020    4.17770    2.69280   14.87450   15.72980   16.24820    0.12660
 11943.50000    0.00880   63.77660  112.00950    6.85150    0.00200   69.22280    4.08840    2.69700   13.63340   15.66270   16.20520    0.12230
 11944.00000    0.01870   63.02580  111.71570    6.86900    0.00300   73.92620    4.07640    2.68650   12.22740   16.06920   16.89210    0.12340
 11944.50000    0.02620   68.94720  113.21530    6.89130    0.00160   76.46560    4.31730    2.67390   16.65600   16.91410   17.30420    0.12820
 11945.00000    0.03120   63.71060  113.94690    6.90010   -0.00340   71.12210    4.47680    2.65070   16.65600   17.05900   17.27090    0.12370
 11945.50000    0.04650   65.62000  114.48630    6.90880   -0.00740   70.00690    4.23220    2.62020    6.29170   11.60520   12.31960    0.10960
 11946.00000    0.07200   68.89540  115.02580    6.91760   -0.00840   73.48010    3.65870    2.59060    6.21170    6.49920    6.72490    0.09330
 11946.50000    0.08550   71.36410  116.73780    6.96050   -0.00920   77.85710    3.38390    2.57210    6.23830    6.52700    6.66290    0.09400
 11947.00000    0.08410   71.70210  118.68420    6.95980   -0.00960   79.42580    3.10910    2.57270    6.53070    6.68970    7.25730    0.09530
 11947.50000    0.08190   71.93270  119.87160    6.98220   -0.00860   80.37580    2.91880    2.57570    6.68890    6.83120    8.04430    0.09700
 11948.00000    0.08120   72.14820  121.33100    7.01650   -0.00730   80.42060    2.87870    2.57770    6.31860    6.75380    7.47160    0.10890
 11948.50000    0.08250   72.50340  122.79030    7.00270   -0.00580   81.20490    2.89290    2.57650    4.73940    5.38260    6.68350    0.12260
 11949.00000    0.08410   72.57230  123.32120    6.98900   -0.00450   82.69780    2.91960    2.57450    4.45720    4.51140    4.65650    0.13200
 11949.50000    0.08390   73.67100  124.55340    6.97520   -0.00480   85.61240    2.97060    2.57590    4.49030    4.50180    4.63740    0.13170
 11950.00000    0.07930   73.80520  122.05690    6.97450   -0.00500   87.54530    2.98830    2.57960    6.02590    6.68510    7.02520    0.13170
 11950.50000    0.07370   70.92760  119.67640    6.97390   -0.00370   84.40970    2.98090    2.59110    9.72010   10.19480   11.26520    0.13010
 11951.00000    0.06880   66.52960  116.35940    6.96880   -0.00080   79.51930    2.97350    2.59660   10.59480   11.03810   11.26560    0.12240
 11951.50000    0.07220   67.43300  113.19190    6.97570    0.00130   74.62890    2.96650    2.59090   10.48800   11.03920   11.30240    0.11690
 11952.00000    0.07900   69.35230  116.34080    6.99850   -0.00280   73.65080    2.95910    2.58220    4.61450    6.01140    4.98560    0.11980
 11952.50000    0.08710   71.78050  121.66580    6.99230   -0.00750   76.71080    2.95760    2.57370    4.55000    4.80130    4.96290    0.12710
 11953.00000    0.09200   73.06450  122.34080    6.98230   -0.01090   79.77070    2.95610    2.56300    4.66860    4.86370    5.09230    0.12330
 11953.50000    0.09220   74.07090  125.90190    6.98200   -0.01010   82.71870    2.93990    2.56140    4.81700    4.94790    5.26930    0.11640
 11954.00000    0.09070   75.03080  126.96830    7.03510   -0.00890   84.41470    2.94230    2.56320    4.97810    5.01210    5.35440    0.11980
 11954.50000    0.08990   74.62700  128.16740    7.04760   -0.00700   86.17620    2.94830    2.56510    4.84460    5.16480    5.35480    0.12780
 11955.00000    0.08910   77.43210  130.55050    7.04660   -0.00830   89.20780    2.97070    2.56680    5.06960    5.48610    5.73630    0.14050
 11955.50000    0.08900   77.76710  132.39050    7.04560   -0.00960   91.61490    2.98380    2.56740    5.49910    5.65030    5.91240    0.14830
 11956.00000    0.08680   77.14640  131.64370    7.04450   -0.01090   94.20110    2.99360    2.56990    5.30920    5.79740    6.81670    0.14470
 11956.50000    0.08520   75.19090  130.37090    7.04330   -0.00990   92.93350    3.00340    2.57230    5.80790    6.05090    6.58860    0.13570
