~Version ---------------------------------------------------
VERS.   2.0 : CWLS log ASCII Standard -VERSION 2.0
WRAP.    NO : One line per depth step
DLM . SPACE : Column Data Section Delimiter
~Well ------------------------------------------------------
STRT .FT                 169.0 : START DEPTH
STOP .FT               13259.0 : STOP DEPTH
STEP .FT                   0.5 : STEP
NULL .                -9999.25 : NULL VALUE
COMP .                         : COMPANY
WELL .                         : WELL
FLD  .                         : FIELD
LOC  .                         : LOCATION
PROV .                         : PROVINCE
CNTY .                         : COUNTY
STAT .                         : STATE
CTRY .                         : COUNTRY
SRVC .                         : SERVICE COMPANY
DATE .                         : DATE
UWI  .                         : UNIQUE WELL ID
API  .                         : API NUMBER
SLAT .WGS84 2.2723299225234967 : SURFACE LATITUDE
SLON .WGS84  8.212745437215005 : SURFACE LONGITUDE
DATUM.F                    nan : DEPTH DATUM ELEV
~Curve Information -----------------------------------------
DEPT   .FT    : 
DPHZ_LS.DEC   : HGRD STANDARD RESOLUTION DENSITY POROSITY
DT     .US/F  : DELTA-T (INTERVAL TRANSIT TIME)
DTSM   .US/F  : DELTA-T SHEAR
HCALD  .IN    : HRCC CALIPER CALIBRATED FROM DENSITY LOG
HDRA   .G/C3  : HRDD SPINE AND RIBS DENSITY CORRECTION
HSGRD  .GAPI  : HNGS STANDARD GAMMA RAY FROM DENSITY LOG
PEFZ   .B/E   : HRDD STANDARD RESOLUTION FORMATION PHOTOELECTRIC FACTOR
RHOZ   .G/C3  : HRDD STANDARD RESOLUTION FORMATION DENSITY
RLA3   .OHMM  : APPARENT RESISTIVITY FROM COMPUTED FOCUSING MODE 3
RLA4   .OHMM  : APPARENT RESISTIVITY FROM COMPUTED FOCUSING MODE 4
RLA5   .OHMM  : APPARENT RESISTIVITY FROM COMPUTED FOCUSING MODE 5
TNPH_LS.DEC   : THERMAL NEUTRON POROSITY [LIMESTONE]
~Params ----------------------------------------------------
~Other -----------------------------------------------------
~ASCII -----------------------------------------------------
# ...
 12209.00000    0.08330   74.72930  125.94400    7.01530   -0.01100   75.17920    2.89840    2.57970    5.05120    5.23270    5.16610    0.12320
 12209.50000    0.07500   71.27980  122.09620    7.01180   -0.01100   70.94590    2.98740    2.59480    5.82090    6.16260    6.47760    0.11560
 12210.00000    0.06860   69.28120  117.62560    7.00840   -0.01100   67.55930    3.07640    2.60680    6.59060    7.09240    7.89600    0.11470
 12210.50000    0.06430   67.64530  114.20410    7.00500   -0.01050   69.01920    3.12980    2.60690    6.80250    7.52840    7.99410    0.11380
 12211.00000    0.06230   67.65630  113.51530    7.00150   -0.00960   69.27090    3.05470    2.59370    6.03550    6.81010    7.03770    0.11340
 12211.50000    0.07410   70.36070  115.10650    6.99810   -0.00870   69.37160    2.97960    2.58050    5.93320    5.71960    6.53940    0.11410
 12212.00000    0.08830   73.01900  119.43160    6.99670   -0.00770   71.29900    2.90460    2.56730    4.05670    4.62920    4.43030    0.11230
 12212.50000    0.09810   73.18690  119.77010    7.00180   -0.00720   74.60720    2.83940    2.55490    4.05670    4.19300    4.38950    0.11340
 12213.00000    0.09730   73.81590  121.91620    7.00810   -0.00700   77.91540    2.78490    2.55170    4.53160    4.65110    4.51330    0.11470
 12213.50000    0.09730   74.22040  124.43680    7.01430   -0.00680   79.23870    2.75210    2.54830    5.10350    5.23320    5.84190    0.11610
 12214.00000    0.09970   74.38510  125.04090    7.01570   -0.00940   78.43320    2.81140    2.54850    5.44740    5.65460    6.00680    0.11630
 12214.50000    0.10160   74.28210  122.99270    7.01370   -0.01270   74.80850    2.91030    2.56230    5.68510    5.80140    6.17570    0.11020
 12215.00000    0.08830   73.94370  121.14360    6.99740   -0.01610   69.84450    3.00920    2.58490    5.90800    6.88720    6.33080    0.10670
 12215.50000    0.07180   70.36110  120.31520    6.98930   -0.01570   64.60290    3.20400    2.62060   12.10980   11.17960   13.60220    0.10250
 12216.00000    0.04730   64.95200  115.41840    6.97060   -0.01030   58.25140    3.39930    2.65630   12.78930   13.40210   13.81390    0.08920
 12216.50000    0.03130   61.54550  106.24390    6.95190   -0.00610   54.87190    3.54720    2.65680   14.20120   16.27700   21.09500    0.08330
 12217.00000    0.04130   63.90600  103.54550    6.94590   -0.00950   57.48270    3.58500    2.62120   17.33730   17.91990   18.29980    0.08570
 12217.50000    0.06850   69.14150  104.65330    6.94830   -0.01380   62.77570    3.40120    2.58570   16.89850   17.84340   17.96360    0.09470
 12218.00000    0.09100   73.95220  119.30590    6.98990   -0.01300   68.36470    3.21730    2.55010    6.51790    9.99320    7.30890    0.10400
 12218.50000    0.09940   73.65570  122.10210    6.99400   -0.01000   68.96880    3.01740    2.55150    6.27210    6.79480    7.13040    0.10290
 12219.00000    0.09490   73.09510  120.75940    6.98880   -0.00690   69.57300    2.90710    2.55840    6.63260    7.44390    7.61890    0.09970
 12219.50000    0.09210   72.59660  119.41670    6.98670   -0.00710   71.65380    2.91890    2.56420    7.96730    8.44890    9.07400    0.09840
 12220.00000    0.09050   72.87220  119.04430    7.00190   -0.00670   74.40590    2.95220    2.56210    7.21760    7.38780    7.60850    0.10460
 12220.50000    0.09160   72.79030  119.79180    7.01650   -0.00620   75.01280    2.95160    2.56040    6.86080    7.27550    7.76860    0.11080
 12221.00000    0.09330   72.66610  120.53930    7.01520   -0.00680   75.35150    2.95090    2.55860    7.36050    7.79160    8.68970    0.11610
 12221.50000    0.09460   72.95610  121.86590    7.01380   -0.00660   76.22700    2.95030    2.55970    7.61800    8.30570    8.64980    0.11900
 12222.00000    0.09450   73.60280  123.19240    7.01240   -0.00620   83.21480    2.96640    2.56220    8.15490    8.40090    8.70240    0.12780
 12222.50000    0.09440   74.55430  124.51900    7.00990   -0.00590   90.18670    2.97050    2.56190    8.45840    8.66820    9.07400    0.13650
 12223.00000    0.09440   74.84820  120.89370    7.00560   -0.00690   95.30700    2.94460    2.55960    8.25040    8.70530    9.10200    0.12950
 12223.50000    0.09460   74.32030  122.99620    7.00130   -0.00830   93.02100    2.94590    2.55740    7.99980    8.30570    8.67910    0.12070
 12224.00000    0.09490   73.79330  124.25250    6.99700   -0.00970   90.73500    3.03550    2.55920    7.86580    8.13010    8.36050    0.11750
 12224.50000    0.09230   72.70230  123.23000    6.99270   -0.01110   90.93880    3.17360    2.56480    8.07010    9.92100   11.02180    0.11320
 12225.00000    0.08870   71.29100  125.05610    6.99120   -0.01140   92.55170    3.24820    2.56700   11.30590   13.75010   14.07240    0.11290
 12225.50000    0.08990   71.17750  124.04160    6.99140   -0.00900   98.17760    3.24640    2.55980   13.88420   14.04700   14.43180    0.11160
 12226.00000    0.09610   74.47260  122.77350    6.99140   -0.00610  105.24490    3.19890    2.54990   14.06280   14.28900   14.71730    0.12680
 12226.50000    0.10070   78.31830  124.51900    6.99140   -0.00310  111.50570    3.23110    2.55210    8.27960   11.33250   11.91590    0.14600
 12227.00000    0.09720   79.71010  132.57540    6.99300    0.00000  110.67060    3.30220    2.56230    8.10460    8.52130    8.82510    0.16870
 12227.50000    0.08980   80.19590  133.24670    6.97990    0.00060  101.33770    3.45850    2.57410    8.60410    9.74070   11.14960    0.16900
 12228.00000    0.07990   77.13450  132.13900    6.98050    0.00000   90.62900    3.61480    2.59250   11.39690   13.31990   13.02620    0.15370
 12228.50000    0.07120   75.92110  132.05510    6.97550    0.00060   80.87780    3.74780    2.60180   14.84950   17.33600   19.23290    0.13880
 12229.00000    0.06420   71.06250  125.41860    6.94710    0.00350   75.76050    3.74240    2.60890   18.88390   21.35200   24.16750    0.12020
 12229.50000    0.06010   68.82190  115.52280    6.94980    0.00530   72.81200    3.63980    2.61590   17.56610   22.76320   23.43190    0.10450
 12230.00000    0.05860   68.60810  115.03040    6.93700    0.00350   68.69920    3.49790    2.62260   15.63760   17.44580   18.67960    0.09150
 12230.50000    0.05160   67.58770  113.43560    6.92420    0.00130   60.93350    3.40150    2.63600   16.42700   16.80760   17.47090    0.08040
 12231.00000    0.03800   63.02890  106.84870    6.91210    0.00000   53.17330    3.40770    2.65950   29.47450   36.09390   41.77320    0.04880
 12231.50000    0.02430   59.22010  102.22980    6.90620    0.00000   45.41660    3.45950    2.67400   54.93170   65.91170   78.23940    0.03510
 12232.00000    0.03100   57.14980   98.39340    6.91440   -0.00070   45.82450    3.51140    2.65750   80.38900  111.52700  133.88410    0.03080
 12232.50000    0.04830   55.44050   97.47270    6.92270   -0.00150   56.21050    3.41930    2.61980  127.47310  132.57480  135.13100    0.05210
 12233.00000    0.07440   61.45570  101.88450    6.93090   -0.00180   78.40810    3.20880    2.58200   14.30310   21.02900   86.14510    0.07340
 12233.50000    0.08970   69.03340  111.76310    6.93920   -0.00270   97.83350    3.08960    2.56280   11.50460   12.99840   12.47460    0.09470
 12234.00000    0.09950   73.54820  112.36740    6.94740   -0.00270  110.31040    3.08440    2.54820   15.93040   18.42050   18.75770    0.11870
 12234.50000    0.10540   77.07170  127.95970    6.94790   -0.00270  120.59440    3.11190    2.53640   18.32750   18.97990   19.46640    0.14670
 12235.00000    0.11040   78.64010  129.88980    6.94630   -0.00340  124.34080    3.11930    2.53180   19.04580   19.47250   20.39160    0.16140
 12235.50000    0.11040   78.00410  128.78670    6.94470   -0.00270  117.46550    3.11860    2.53400   20.74460   23.05720   26.24660    0.15700
 12236.00000    0.10640   75.46840  125.90420    6.94210   -0.00190  106.40680    3.14910    2.53820   34.39860   37.59610   39.74660    0.14880
 12236.50000    0.10600   76.51730  126.18120    6.93570   -0.00110   97.78970    3.17970    2.53870   37.56620   38.73710   40.74160    0.14060
