~Version ---------------------------------------------------
VERS.   2.0 : CWLS log ASCII Standard -VERSION 2.0
WRAP.    NO : One line per depth step
DLM . SPACE : Column Data Section Delimiter
~Well ------------------------------------------------------
STRT .FT                 169.0 : START DEPTH
STOP .FT               13259.0 : STOP DEPTH
STEP .FT                   0.5 : STEP
NULL .                -9999.25 : NULL VALUE
COMP .                         : COMPANY
WELL .                         : WELL
FLD  .                         : FIELD
LOC  .                         : LOCATION
PROV .                         : PROVINCE
CNTY .                         : COUNTY
STAT .                         : STATE
CTRY .                         : COUNTRY
SRVC .                         : SERVICE COMPANY
DATE .                         : DATE
UWI  .                         : UNIQUE WELL ID
API  .                         : API NUMBER
SLAT .WGS84 2.2723299225234967 : SURFACE LATITUDE
SLON .WGS84  8.212745437215005 : SURFACE LONGITUDE
DATUM.F                    nan : DEPTH DATUM ELEV
~Curve Information -----------------------------------------
DEPT   .FT    : 
DPHZ_LS.DEC   : HGRD STANDARD RESOLUTION DENSITY POROSITY
DT     .US/F  : DELTA-T (INTERVAL TRANSIT TIME)
DTSM   .US/F  : DELTA-T SHEAR
HCALD  .IN    : HRCC CALIPER CALIBRATED FROM DENSITY LOG
HDRA   .G/C3  : HRDD SPINE AND RIBS DENSITY CORRECTION
HSGRD  .GAPI  : HNGS STANDARD GAMMA RAY FROM DENSITY LOG
PEFZ   .B/E   : HRDD STANDARD RESOLUTION FORMATION PHOTOELECTRIC FACTOR
RHOZ   .G/C3  : HRDD STANDARD RESOLUTION FORMATION DENSITY
RLA3   .OHMM  : APPARENT RESISTIVITY FROM COMPUTED FOCUSING MODE 3
RLA4   .OHMM  : APPARENT RESISTIVITY FROM COMPUTED FOCUSING MODE 4
RLA5   .OHMM  : APPARENT RESISTIVITY FROM COMPUTED FOCUSING MODE 5
TNPH_LS.DEC   : THERMAL NEUTRON POROSITY [LIMESTONE]
~Params ----------------------------------------------------
~Other -----------------------------------------------------
~ASCII -----------------------------------------------------
# ...
 11845.00000    0.10720   76.52000  133.17950    9.19230   -0.01150   86.86160    2.98180    2.53660    2.70230    4.21670    4.40670    0.18980
 11845.50000    0.10840   76.86680  133.47790    9.18500   -0.00120   89.78580    2.93220    2.47730    2.64450    4.27070    4.44690    0.19650
 11846.00000    0.15120   77.41720  133.71660    9.17100    0.02160   87.58050    2.97240    2.44100    2.95490    4.33370    4.38480    0.19490
 11846.50000    0.16690   76.86370  153.32040    9.13010    0.08150   75.92260    3.02600    2.52410    3.23530    4.33300    4.62710    0.19060
 11847.00000    0.10940   75.71000  132.91100    8.65840    0.19570   60.88720    3.02600    2.62800    3.67320    4.71880    4.87650    0.17480
 11847.50000    0.01410   74.32030  100.95410    8.65840    0.58380   47.98680    3.06480    2.73200    7.90660   11.54090   12.92800    0.14600
 11848.00000   -0.08100   69.59280  103.80060    8.61660    0.58850   44.33350    3.13150    2.83590   19.28300   22.74190   26.51240    0.12750
 11848.50000   -0.10050   62.08920  108.07050    6.94100    0.50950   47.50560    3.20000    2.89780   15.15430   18.35460   33.45480    0.12590
 11849.00000   -0.03640   62.00870  100.87350    6.92310    0.12370   53.39070    3.11730    2.80320   10.32680   12.02410   12.70750    0.11390
 11849.50000    0.03600   62.57260   98.94000    6.92510    0.01420   63.28770    3.03470    2.71100    9.51960   15.40130   17.04330    0.09710
 11850.00000    0.06630   69.33400  115.45550    6.95300   -0.00400   72.98770    2.97700    2.62220    6.49980   10.93400   14.15520    0.07990
 11850.50000    0.07440   72.90410  122.60250    6.95950   -0.00420   79.26300    2.98260    2.58570    5.87270    5.87150    5.42910    0.08840
 11851.00000    0.07820   73.76950  126.86270    6.95910   -0.00030   82.76410    3.02330    2.58720    5.87270    6.14670    6.55900    0.10210
 11851.50000    0.07750   73.20770  125.65130    6.95510   -0.00120   82.62980    3.10730    2.58850    6.94180    7.14050    7.26350    0.11590
 11852.00000    0.07460   72.77890  123.50470    6.94780    0.00020   81.87920    3.19130    2.59060    7.00330    7.32780    7.19830    0.11770
 11852.50000    0.07290   73.03810  123.48190    6.94860    0.00240   80.82960    3.26240    2.59560    8.09990    9.60130    8.91830    0.11590
 11853.00000    0.07050   72.64890  123.24740    6.94950    0.00450   77.34610    3.31950    2.60250   10.03200   10.22040   10.68900    0.11320
 11853.50000    0.06520   70.99790  120.98690    6.95030    0.00610   72.54590    3.38840    2.61200   10.16370   10.54440   10.75330    0.10740
 11854.00000    0.06060   68.92240  117.13680    6.96380    0.00400   67.24550    3.43590    2.61380   16.08260   20.36470   21.12330    0.10180
 11854.50000    0.06590   68.44560  116.67730    6.96380    0.00190   68.62480    3.44330    2.60570   20.22960   20.71960   21.06170    0.09630
 11855.00000    0.07520   70.69900  117.06540    6.94090    0.00020   74.85730    3.38390    2.59240   19.55330   19.35410   20.87120    0.09490
 11855.50000    0.08280   74.00990  119.45310    6.94770   -0.00080   80.99800    3.28480    2.57900    9.65990   10.06900   10.41500    0.09940
 11856.00000    0.08130   74.95510  123.45930    6.95200   -0.00040   84.43610    3.17930    2.57870   10.35050   10.63050   11.05880    0.10330
 11856.50000    0.07790   75.65030  124.15370    6.93520    0.00040   82.35920    3.11850    2.58430   10.41190   10.83210   11.22140    0.10710
 11857.00000    0.07580   74.04520  122.52590    6.91830    0.00100   77.94630    3.05760    2.59020   10.48850   10.69650   11.15490    0.11100
 11857.50000    0.07010   71.91480  120.07100    6.90150    0.00270   71.56960    3.04110    2.60120   11.81040   13.06930   15.35960    0.11210
 11858.00000    0.05920   69.00280  117.68860    6.88470    0.00440   65.33140    3.12070    2.61160   15.41090   16.05600   17.52010    0.10750
 11858.50000    0.05300   65.44380  114.80360    6.87900    0.00390   62.04600    3.09590    2.62200   15.41420   16.09360   17.04690    0.10140
 11859.00000    0.04850   67.01440  112.71390    6.88070    0.00020   58.76060    3.01550    2.63250   15.95370   16.76320   17.74480    0.09620
 11859.50000    0.04340   68.09390  110.62410    6.88250   -0.00190   55.96410    2.90610    2.64290   17.64520   19.92870   19.89900    0.09090
 11860.00000    0.03540   65.29130  108.53430    6.86950   -0.00190   53.19120    2.87910    2.65500   22.58250   24.59990   25.80340    0.07790
 11860.50000    0.03200   62.48860  107.37100    6.85850   -0.00190   55.81940    2.89790    2.66060   21.37360   23.93890   33.85300    0.07240
 11861.00000    0.04160   60.45440  107.66250    6.87070   -0.00400   67.32990    2.98320    2.64590   12.11810   13.01370   17.30580    0.08570
 11861.50000    0.05560   66.09300  107.95410    6.88280   -0.00630   76.06430    3.10140    2.62400   10.28220   11.21300   10.66400    0.10120
 11862.00000    0.06810   70.50820  108.33920    6.89490   -0.00960   76.57250    3.14560    2.60210    9.27950   10.04640   10.40370    0.11250
 11862.50000    0.06280   69.35560  118.75260    6.89640   -0.00800   70.54870    3.14540    2.60080    9.85070   10.25880   11.23890    0.11780
 11863.00000    0.05540   67.44690  117.45630    6.89310   -0.00140   62.39700    3.10360    2.61590   10.19340   10.61990   10.94830    0.11850
 11863.50000    0.05300   66.12850  112.77020    6.89050    0.00270   60.70700    3.02330    2.62630    8.08550    9.48060   11.16970    0.11770
 11864.00000    0.05920   67.20490  113.94310    6.89330   -0.00290   64.42820    3.00890    2.61820    5.97750    6.17460    6.22080    0.11850
 11864.50000    0.06640   69.67700  117.21120    6.89610   -0.00980   70.41260    3.07260    2.60800    5.97750    6.14830    6.22080    0.11910
 11865.00000    0.07020   68.68360  118.65350    6.89880   -0.00860   73.38030    3.13500    2.59820    5.76810    5.96330    6.89900    0.11840
 11865.50000    0.07260   70.30370  119.75230    6.90160   -0.00730   75.19000    3.15640    2.59360    5.24850    5.38610    5.47430    0.11920
 11866.00000    0.07600   71.72140  121.02050    6.93180   -0.00610   78.11710    3.06060    2.58720    5.16970    5.66900    5.79290    0.12210
 11866.50000    0.08070   72.88680  123.41460    6.93540   -0.00480   84.05680    2.96480    2.58070    5.95200    6.07000    6.23080    0.12540
 11867.00000    0.08570   74.79730  126.80210    6.92890   -0.00360   90.97280    2.90120    2.57420    5.40490    5.57070    6.04090    0.13160
 11867.50000    0.08280   75.75360  129.42000    6.92240   -0.00410   94.35510    2.92820    2.57500    5.23640    5.31740    5.52340    0.13770
 11868.00000    0.07530   76.30570  128.31700    6.91590   -0.00450   91.94460    2.98850    2.58750    6.82940    7.34230   12.20420    0.13770
 11868.50000    0.06740   74.85990  126.25500    6.90940   -0.00710   87.04160    3.10580    2.60000    7.75600    7.87600   21.49870    0.13130
 11869.00000    0.06450   70.90650  124.19300    6.90680   -0.00970   83.28720    3.19270    2.60660    7.85600    7.65510   12.91680    0.13100
 11869.50000    0.06850   74.81370  124.04910    6.90990   -0.01070   80.79600    3.26630    2.60210    6.85270    7.01840    7.09350    0.13220
 11870.00000    0.06450   75.09780  123.51200    6.89670   -0.01050   73.50650    3.32470    2.59770    6.82350    6.87020   11.24130    0.09680
 11870.50000    0.05050   67.23050  117.99460    6.88340   -0.01040   62.79710    3.44120    2.62630    6.94100    7.23140   35.67810    0.05820
 11871.00000    0.03550   60.04450  109.20590    6.87010   -0.01070   52.08770    3.62380    2.65580   39.12490  191.71800  165.68010    0.04020
 11871.50000    0.02700   56.40500  100.41710    6.86790   -0.01080   49.07490    3.80650    2.65480   69.93420  235.72540  233.32630    0.03160
 11872.00000    0.04160   60.47130  102.17610    6.88420   -0.01090   57.12440    3.86260    2.62770   15.19170   23.62270   22.79830    0.05160
 11872.50000    0.05460   69.29970  110.29960    6.89720   -0.01100   65.48890    3.72890    2.60650    8.92960    8.11500   21.83340    0.08480
