~Version ---------------------------------------------------
VERS.   2.0 : CWLS log ASCII Standard -VERSION 2.0
WRAP.    NO : One line per depth step
DLM . SPACE : Column Data Section Delimiter
~Well ------------------------------------------------------
STRT .FT                 169.0 : START DEPTH
STOP .FT               13259.0 : STOP DEPTH
STEP .FT                   0.5 : STEP
NULL .                -9999.25 : NULL VALUE
COMP .                         : COMPANY
WELL .                         : WELL
FLD  .                         : FIELD
LOC  .                         : LOCATION
PROV .                         : PROVINCE
CNTY .                         : COUNTY
STAT .                         : STATE
CTRY .                         : COUNTRY
SRVC .                         : SERVICE COMPANY
DATE .                         : DATE
UWI  .                         : UNIQUE WELL ID
API  .                         : API NUMBER
SLAT .WGS84 2.2723299225234967 : SURFACE LATITUDE
SLON .WGS84  8.212745437215005 : SURFACE LONGITUDE
DATUM.F                    nan : DEPTH DATUM ELEV
~Curve Information -----------------------------------------
DEPT   .FT    : 
DPHZ_LS.DEC   : HGRD STANDARD RESOLUTION DENSITY POROSITY
DT     .US/F  : DELTA-T (INTERVAL TRANSIT TIME)
DTSM   .US/F  : DELTA-T SHEAR
HCALD  .IN    : HRCC CALIPER CALIBRATED FROM DENSITY LOG
HDRA   .G/C3  : HRDD SPINE AND RIBS DENSITY CORRECTION
HSGRD  .GAPI  : HNGS STANDARD GAMMA RAY FROM DENSITY LOG
PEFZ   .B/E   : HRDD STANDARD RESOLUTION FORMATION PHOTOELECTRIC FACTOR
RHOZ   .G/C3  : HRDD STANDARD RESOLUTION FORMATION DENSITY
RLA3   .OHMM  : APPARENT RESISTIVITY FROM COMPUTED FOCUSING MODE 3
RLA4   .OHMM  : APPARENT RESISTIVITY FROM COMPUTED FOCUSING MODE 4
RLA5   .OHMM  : APPARENT RESISTIVITY FROM COMPUTED FOCUSING MODE 5
TNPH_LS.DEC   : THERMAL NEUTRON POROSITY [LIMESTONE]
~Params ----------------------------------------------------
~Other -----------------------------------------------------
~ASCII -----------------------------------------------------
# ...
 12013.00000    0.08550   71.94270  126.55120    7.02970   -0.01260   70.79350    2.97880    2.57280    4.04510    4.15730    4.20530    0.11610
 12013.50000    0.08650   72.46710  126.68930    7.06200   -0.01300   74.22570    2.95920    2.56830    4.09750    4.15730    4.26140    0.11560
 12014.00000    0.09010   74.74380  129.59430    7.08790   -0.01330   80.70070    2.99630    2.56370    4.15630    4.22890    4.56410    0.13260
 12014.50000    0.09260   82.05300  136.40210    7.08790   -0.01370   90.00500    3.08720    2.56040    4.17980    4.33870    4.38440    0.15240
 12015.00000    0.09350   81.89370  139.11360    7.10940   -0.01170  101.19560    3.17280    2.56270    4.33100    4.43240    4.74510    0.17620
 12015.50000    0.08930   81.97490  139.14140    7.11390   -0.00920  109.40940    3.22170    2.56850    4.66440    4.59060    5.05410    0.17780
 12016.00000    0.08440   80.82210  139.05650    7.11220   -0.00660  113.00540    3.19990    2.57420    4.83320    4.79080    4.99240    0.17620
 12016.50000    0.08250   79.58490  137.42360    7.10090   -0.00760  111.06830    3.13630    2.57420    4.83320    4.91100    4.93070    0.16890
 12017.00000    0.08630   79.00870  136.29250    7.08960   -0.01000  108.25330    3.07260    2.56860    4.63990    4.82780    4.90030    0.15800
 12017.50000    0.09120   77.81850  135.52710    7.07830   -0.01240  101.96520    3.01030    2.56300    4.42410    4.71630    4.90030    0.15210
 12018.00000    0.09520   73.98660  130.86640    7.05770   -0.01410   92.75010    2.93990    2.55750    4.33750    4.56810    4.62530    0.13770
 12018.50000    0.09620   72.46010  126.15470    7.00320   -0.01290   80.53130    2.89320    2.55350    4.29440    4.43240    4.50800    0.12070
 12019.00000    0.09710   71.82970  124.52630    6.98870   -0.01160   70.32600    2.87660    2.55390    4.32510    4.68410    4.70540    0.10690
 12019.50000    0.09900   71.33140  123.04310    6.98050   -0.01020   64.68090    2.86590    2.55320    4.76260    5.12530    5.34320    0.10220
 12020.00000    0.10020   71.57620  120.85480    6.97230   -0.00890   62.14290    2.85930    2.55510    5.02270    5.21370    5.40140    0.10040
 12020.50000    0.09580   70.47410  117.80150    6.96410   -0.00770   59.06440    2.85280    2.56760    5.08750    5.37190    5.54500    0.09680
 12021.00000    0.08510   69.17210  116.34590    6.94310   -0.00650   55.44480    2.88520    2.58120    6.75330    7.13970    7.88580    0.08980
 12021.50000    0.07080   65.78570  115.91510    6.92820   -0.00610   50.36920    2.93120    2.59560    8.75350    9.29170    9.43490    0.07760
 12022.00000    0.05920   62.58180  107.96030    6.92990   -0.00650   46.83270    2.97730    2.61500   10.75380   11.44370   12.42180    0.07050
 12022.50000    0.06090   63.15140  107.81300    6.93160   -0.00680   47.00470    3.01420    2.60940   11.09470   11.84320   12.42180    0.06760
 12023.00000    0.06740   63.66130  107.66560    6.93340   -0.00730   51.64010    3.00340    2.60250    9.92800   10.23970   10.74260    0.06860
 12023.50000    0.06570   67.13880  107.57620    6.93510   -0.00710   58.34050    2.97100    2.61130    9.73900   10.19610   10.57790    0.07980
 12024.00000    0.05750   68.26770  117.01500    6.93690   -0.00700   65.36650    2.96190    2.62220   10.93390   11.79910   11.84340    0.09010
 12024.50000    0.05600   69.08840  117.89920    6.94900   -0.00690   69.87320    2.97700    2.61860   12.85610   13.40210   13.84070    0.09170
 12025.00000    0.06570   70.00030  117.98490    6.94930   -0.00660   71.61210    2.97930    2.60240   11.12630   12.77750   12.49880    0.09490
 12025.50000    0.07860   70.44500  118.16960    6.96950   -0.00640   75.09460    2.94410    2.58610    7.34610   11.44300   11.85910    0.09630
 12026.00000    0.08750   76.32160  132.49350    6.99970   -0.00610   80.76800    2.90890    2.57230    4.67080    6.14270    5.03850    0.11100
 12026.50000    0.08910   76.31250  134.89530    7.02990   -0.00580   86.89340    2.90510    2.56830    4.81930    4.91100    5.11320    0.12580
 12027.00000    0.08880   76.82950  134.98340    7.04470   -0.00450   93.62460    2.92040    2.56670    5.00130    5.10350    5.21270    0.14290
 12027.50000    0.08820   77.63830  136.07110    7.03660   -0.00320   98.92160    2.98040    2.56670    5.40120    5.50070    5.74530    0.15310
 12028.00000    0.08910   78.91690  136.28670    7.02840   -0.00180  105.40280    3.02110    2.56800    5.73400    5.92660    6.15930    0.16090
 12028.50000    0.08710   80.72650  134.79700    7.02020   -0.00110  110.26140    3.11790    2.57230    5.75850    6.41400    6.82450    0.16410
 12029.00000    0.08300   79.49380  133.67670    7.01200    0.00000  109.00140    3.21460    2.57970    7.09660    7.68970    8.08570    0.16550
 12029.50000    0.07780   78.18260  132.52010    7.01650    0.00100  104.57090    3.29360    2.58630    8.07010    8.30580    8.67090    0.15610
 12030.00000    0.07730   76.71960  131.21820    7.01690    0.00080  101.02710    3.24110    2.58410    8.10460    8.34120    8.89690    0.14630
 12030.50000    0.08320   77.60070  130.87590    7.00890   -0.00060  103.19900    3.20100    2.57480    8.09310    8.34120    8.63940    0.14220
 12031.00000    0.08950   77.81570  131.17330    7.00730   -0.00200  106.12930    3.15640    2.56550    8.07870    8.30570    8.41560    0.14640
 12031.50000    0.09140   77.77020  131.25470    7.01110   -0.00320  107.68680    3.11190    2.56260    8.03570    8.23510    8.56520    0.15070
 12032.00000    0.08930   77.46580  131.28200    7.02730   -0.00360  106.68140    3.06730    2.56600    6.06140    7.07120    7.12370    0.15070
 12032.50000    0.08650   77.62670  131.30940    7.04340   -0.00500  105.67600    3.07040    2.56990    6.06140    6.18540    6.46480    0.14810
 12033.00000    0.08570   78.02200  131.33670    7.05960   -0.00640  107.95020    3.08540    2.57140    6.06140    6.09790    6.29170    0.14730
 12033.50000    0.08710   79.41570  133.07210    7.06060   -0.00510  113.12970    3.11290    2.56910    6.06140    6.15890    6.25530    0.15640
 12034.00000    0.08820   80.87590  137.38510    7.07050   -0.00300  117.30240    3.17610    2.56820    6.30280    6.54820    6.72550    0.16550
 12034.50000    0.08730   80.83040  137.32250    7.06250   -0.00100  119.17370    3.24350    2.57170    6.66200    6.93760    7.13320    0.17460
 12035.00000    0.08400   80.40460  137.16800    7.06100    0.00030  114.79550    3.28440    2.57580    7.03500    7.32700    7.43510    0.17190
 12035.50000    0.08030   79.33390  136.70460    7.06120   -0.00140  109.62770    3.25750    2.57990    7.37760    7.62550    7.88680    0.15890
 12036.00000    0.07960   77.79340  132.21670    7.06150   -0.00350  103.78250    3.15920    2.58140    7.40920    7.72380    7.93570    0.14710
 12036.50000    0.08120   75.76070  126.77570    7.06170   -0.00590   97.68910    3.05250    2.57860    8.10350    8.67990    8.17900    0.13570
 12037.00000    0.08370   74.62370  125.93240    7.02220   -0.00780   94.57220    2.98880    2.57540    9.95790   10.65330   11.07590    0.13070
 12037.50000    0.08510   74.39380  126.23850    7.03430   -0.00960   99.71190    2.97960    2.57300   11.10230   11.64000   11.89580    0.12850
 12038.00000    0.08590   76.47200  126.54460    7.03400   -0.00680  105.39000    2.97030    2.57230    9.98750   11.34530   11.78600    0.15790
 12038.50000    0.08590   77.39740  127.91010    7.01690   -0.00180  108.81170    2.96100    2.57240    6.19230    6.37300    6.69530    0.16680
 12039.00000    0.08500   77.03970  129.55200    7.01600    0.00320  103.03650    2.90070    2.57280    5.87730    6.10650    6.40360    0.15600
 12039.50000    0.08430   76.00240  129.47430    7.01500    0.00420   94.33910    2.83980    2.57550    5.47070    6.15890    6.49310    0.14190
 12040.00000    0.08230   73.25850  124.30030    7.00760   -0.00060   84.54720    2.77850    2.57990    5.51770    6.45520    7.39120    0.11910
 12040.50000    0.07860   68.33850  113.56230    6.99580   -0.00530   73.11360    2.97190    2.57940    7.04020    7.62670    8.95560    0.09060
