~Version ---------------------------------------------------
VERS.   2.0 : CWLS log ASCII Standard -VERSION 2.0
WRAP.    NO : One line per depth step
DLM . SPACE : Column Data Section Delimiter
~Well ------------------------------------------------------
STRT .FT                 169.0 : START DEPTH
STOP .FT               13259.0 : STOP DEPTH
STEP .FT                   0.5 : STEP
NULL .                -9999.25 : NULL VALUE
COMP .                         : COMPANY
WELL .                         : WELL
FLD  .                         : FIELD
LOC  .                         : LOCATION
PROV .                         : PROVINCE
CNTY .                         : COUNTY
STAT .                         : STATE
CTRY .                         : COUNTRY
SRVC .                         : SERVICE COMPANY
DATE .                         : DATE
UWI  .                         : UNIQUE WELL ID
API  .                         : API NUMBER
SLAT .WGS84 2.2723299225234967 : SURFACE LATITUDE
SLON .WGS84  8.212745437215005 : SURFACE LONGITUDE
DATUM.F                    nan : DEPTH DATUM ELEV
~Curve Information -----------------------------------------
DEPT   .FT    : 
DPHZ_LS.DEC   : HGRD STANDARD RESOLUTION DENSITY POROSITY
DT     .US/F  : DELTA-T (INTERVAL TRANSIT TIME)
DTSM   .US/F  : DELTA-T SHEAR
HCALD  .IN    : HRCC CALIPER CALIBRATED FROM DENSITY LOG
HDRA   .G/C3  : HRDD SPINE AND RIBS DENSITY CORRECTION
HSGRD  .GAPI  : HNGS STANDARD GAMMA RAY FROM DENSITY LOG
PEFZ   .B/E   : HRDD STANDARD RESOLUTION FORMATION PHOTOELECTRIC FACTOR
RHOZ   .G/C3  : HRDD STANDARD RESOLUTION FORMATION DENSITY
RLA3   .OHMM  : APPARENT RESISTIVITY FROM COMPUTED FOCUSING MODE 3
RLA4   .OHMM  : APPARENT RESISTIVITY FROM COMPUTED FOCUSING MODE 4
RLA5   .OHMM  : APPARENT RESISTIVITY FROM COMPUTED FOCUSING MODE 5
TNPH_LS.DEC   : THERMAL NEUTRON POROSITY [LIMESTONE]
~Params ----------------------------------------------------
~Other -----------------------------------------------------
~ASCII -----------------------------------------------------
# ...
 12825.00000    0.09380   83.14200  153.52190    6.86750   -0.00240   94.99510    3.28300    2.55650    8.26650    8.73900   10.35190    0.19690
 12825.50000    0.06050   75.86240  151.45410    6.87590    0.00270   85.63210    3.57710    2.60180    7.02970    7.63040    8.00430    0.20170
 12826.00000    0.02920   70.57710  148.70150    6.85930    0.00530   71.40080    3.76630    2.63860    8.83830    9.67050   10.21590    0.19070
 12826.50000    0.01930   72.74130  148.28530    6.83770    0.00680   57.16940    3.92930    2.67550    8.89880   10.17240   13.73670    0.15020
 12827.00000    0.01980   72.55700  160.07890    6.86920    0.00240   50.62880    3.93000    2.68020    7.02970    7.18400    7.49210    0.13900
 12827.50000    0.02090   72.86590  162.92100    6.85670   -0.00240   58.34710    3.94440    2.67310    6.99970    7.18400    7.43720    0.15420
 12828.00000    0.03070   73.22840  153.71370    6.84550   -0.00220   66.82930    4.00720    2.64800   11.40480   13.31200   15.62170    0.16840
 12828.50000    0.05720   81.75470  149.89650    6.83440    0.00240   77.02360    3.90320    2.62290   11.36740   11.74030   13.08960    0.17460
 12829.00000    0.08440   81.59560  152.96560    6.84300    0.00770   82.37100    3.45340    2.58520    7.33670    7.56000    7.74400    0.17930
 12829.50000    0.10170   81.51050  155.46880    6.83050    0.01100   84.72600    3.05020    2.55960    7.46320    7.52500    7.80100    0.18560
 12830.00000    0.10950   81.97010  156.07300    6.83160    0.01200   87.21930    2.83360    2.53410   18.98140   30.53290   33.66830    0.17380
 12830.50000    0.11730   83.02820  156.87860    6.84320    0.00380   90.24210    2.82140    2.52490   30.45330   31.54030   32.79220    0.17060
 12831.00000    0.12110   83.92860  150.53420    6.85580   -0.00240   93.13190    2.89260    2.51570   11.65940   16.81990   11.68620    0.18150
 12831.50000    0.12140   82.83480  136.35170    6.86580   -0.00740   92.27090    2.92800    2.50990    9.21290   11.60080   13.56460    0.18620
 12832.00000    0.12600   81.82060  134.05230    6.84070   -0.00900   90.12570    2.93900    2.50370   13.51900   14.33750   16.75120    0.17260
 12832.50000    0.13030   82.29040  133.24660    6.83530   -0.01060   90.49170    2.95010    2.49750   17.00490   19.50030   23.83080    0.16390
 12833.00000    0.13110   82.46630  132.10530    6.83480   -0.01130   92.48090    2.95230    2.49870   24.84170   27.77040   30.58510    0.16010
 12833.50000    0.12770   81.88300  132.03820    6.83440   -0.00860   94.12210    2.91050    2.50180   31.11110   32.88470   39.28600    0.16260
 12834.00000    0.12610   81.43090  132.35150    6.83400   -0.00580   94.83920    2.91220    2.50480   32.05630   32.88470   38.82200    0.16610
 12834.50000    0.12650   81.27290  133.39770    6.83350   -0.00420   95.30860    2.97910    2.50790   31.51260   36.58620   44.03140    0.16930
 12835.00000    0.12650   81.29910  135.49570    6.83310   -0.00520   96.70740    3.03270    2.51100   25.19010   30.53290   36.23560    0.16980
 12835.50000    0.12490   79.82020  134.45510    6.83270   -0.00760   99.21450    2.99620    2.51050   21.70150   28.15570   31.39790    0.16220
 12836.00000    0.12490   79.37300  139.69170    6.82710   -0.01000  101.95260    2.93530    2.50800   19.52460   24.89700   28.85380    0.15480
 12836.50000    0.12550   80.42540  153.38750    6.82420   -0.01090  104.76250    2.89880    2.50560   20.20380   26.81470   35.05680    0.15430
 12837.00000    0.12710   80.18370  146.18160    6.83620   -0.00610  107.33060    2.90070    2.50430   16.74100   19.92830   24.36700    0.15720
 12837.50000    0.12570   82.17150  134.58940    6.83760   -0.00170  105.51360    2.91220    2.50760   17.61680   22.12600   29.74520    0.16010
 12838.00000    0.12430   81.28980  131.99970    6.83900   -0.00330  101.70440    2.89610    2.50960   24.07380   27.57160   34.04130    0.16100
 12838.50000    0.12590   80.70990  131.86400    6.82130   -0.00740   96.38020    2.87600    2.50190   19.25940   22.03480   35.97010    0.15470
 12839.00000    0.13060   81.72380  133.30350    6.80540   -0.01000   94.17540    2.87200    2.49420   17.11860   19.02520   22.58320    0.15180
 12839.50000    0.13650   82.90890  134.58940    6.83350   -0.01310   97.70450    2.92550    2.48950   18.07880   19.65300   23.40190    0.15570
 12840.00000    0.13690   83.46060  137.94630    6.83160   -0.01430  101.09500    3.07120    2.49020   16.17690   18.66300   22.21280    0.16290
 12840.50000    0.12770   83.40620  137.71650    6.82580   -0.01450  100.71110    3.21690    2.50260   16.31270   17.33740   20.99730    0.16740
 12841.00000    0.11730   79.15410  133.44950    6.82010   -0.01190   95.75580    3.28440    2.51820   18.22930   20.10930   21.87880    0.16100
 12841.50000    0.10700   77.88600  129.42660    6.81680   -0.00890   90.09570    3.32770    2.53370   17.56540   19.42110   20.39980    0.14830
 12842.00000    0.10030   77.53510  128.87360    6.82180   -0.00560   87.55140    3.36780    2.54920   16.93010   18.29500   18.92090    0.13490
 12842.50000    0.09530   77.10370  128.19040    6.82320   -0.00220   86.88550    3.41360    2.55700   16.58730   17.90100   18.41930    0.13160
 12843.00000    0.08910   76.19840  125.78130    6.81610   -0.00020   86.03500    3.44510    2.56690   16.65660   17.98240   18.79010    0.13090
 12843.50000    0.08400   75.20260  123.48500    6.81730   -0.00170   83.20080    3.48430    2.57460   17.98660   18.31740   19.10450    0.12930
 12844.00000    0.08210   74.39650  123.03430    6.81850   -0.00350   80.44640    3.49740    2.57830   18.06210   18.52860   19.18670    0.12610
 12844.50000    0.08290   74.03710  122.39530    6.82260   -0.00420   77.76610    3.49630    2.57610   17.94440   18.56950   19.29040    0.12260
 12845.00000    0.08540   73.78660  121.41830    6.81800   -0.00200   75.11720    3.46450    2.57320   17.90360   18.65370   19.48810    0.11600
 12845.50000    0.08590   73.47680  120.74250    6.81360   -0.00240   71.72750    3.41860    2.57280   17.97820   18.73870   19.84720    0.11050
 12846.00000    0.08170   72.17530  117.30980    6.83010   -0.00450   66.85240    3.37270    2.58560   18.52250   22.56460   28.14330    0.10380
 12846.50000    0.07260   67.98320  113.61600    6.82340   -0.00350   60.98720    3.34480    2.59730   25.67640   30.36300   33.01100    0.09750
 12847.00000    0.06810   63.11190  109.26840    6.82310   -0.00220   56.29500    3.32730    2.59430   30.93340   60.64680   93.69300    0.09440
 12847.50000    0.08030   67.98620  109.93090    6.82280   -0.00350   61.12950    3.26130    2.57640   25.63090   99.51230  106.21240    0.11980
 12848.00000    0.09550   73.67040  117.82190    6.82460   -0.00690   71.69660    3.14690    2.55850   18.79280   20.64370   21.46650    0.14440
 12848.50000    0.10510   79.27790  125.49230    6.82960   -0.01020   82.26370    3.09100    2.54060   18.99290   20.45080   21.50460    0.15920
 12849.00000    0.10370   76.82540  123.95310    6.83500   -0.01310   85.87880    3.18450    2.53990   20.07630   29.14290   22.84570    0.13960
 12849.50000    0.10070   73.23460  119.94900    6.84170   -0.01190   80.19660    3.53470    2.54900   32.50460   41.68030   49.24990    0.11790
 12850.00000    0.09380   69.19310  114.46770    6.83000   -0.00950   73.31520    3.78570    2.55820   42.61740   53.84180   62.39090    0.09650
 12850.50000    0.08740   67.65610  110.95740    6.84030   -0.00700   66.89360    3.92660    2.56730   61.81030   70.67320   74.76790    0.08950
 12851.00000    0.08270   67.55540  111.18120    6.83320   -0.00560   63.25750    3.98580    2.57510   72.34630   77.67610   83.70140    0.08380
 12851.50000    0.08420   68.24740  111.36030    6.83400   -0.00800   67.15790    4.00190    2.57460   72.72730   76.64230   86.12390    0.08420
 12852.00000    0.08670   69.65730  113.86220    6.83470   -0.01040   71.23920    3.99910    2.57110   41.53990   50.45560   47.13770    0.08800
 12852.50000    0.08910   69.65560  112.65880    6.83550   -0.01080   69.47940    4.03670    2.56760   42.49120   53.76200   74.86800    0.09390
