~Version ---------------------------------------------------
VERS.   2.0 : CWLS log ASCII Standard -VERSION 2.0
WRAP.    NO : One line per depth step
DLM . SPACE : Column Data Section Delimiter
~Well ------------------------------------------------------
STRT .FT                 169.0 : START DEPTH
STOP .FT               13259.0 : STOP DEPTH
STEP .FT                   0.5 : STEP
NULL .                -9999.25 : NULL VALUE
COMP .                         : COMPANY
WELL .                         : WELL
FLD  .                         : FIELD
LOC  .                         : LOCATION
PROV .                         : PROVINCE
CNTY .                         : COUNTY
STAT .                         : STATE
CTRY .                         : COUNTRY
SRVC .                         : SERVICE COMPANY
DATE .                         : DATE
UWI  .                         : UNIQUE WELL ID
API  .                         : API NUMBER
SLAT .WGS84 2.2723299225234967 : SURFACE LATITUDE
SLON .WGS84  8.212745437215005 : SURFACE LONGITUDE
DATUM.F                    nan : DEPTH DATUM ELEV
~Curve Information -----------------------------------------
DEPT   .FT    : 
DPHZ_LS.DEC   : HGRD STANDARD RESOLUTION DENSITY POROSITY
DT     .US/F  : DELTA-T (INTERVAL TRANSIT TIME)
DTSM   .US/F  : DELTA-T SHEAR
HCALD  .IN    : HRCC CALIPER CALIBRATED FROM DENSITY LOG
HDRA   .G/C3  : HRDD SPINE AND RIBS DENSITY CORRECTION
HSGRD  .GAPI  : HNGS STANDARD GAMMA RAY FROM DENSITY LOG
PEFZ   .B/E   : HRDD STANDARD RESOLUTION FORMATION PHOTOELECTRIC FACTOR
RHOZ   .G/C3  : HRDD STANDARD RESOLUTION FORMATION DENSITY
RLA3   .OHMM  : APPARENT RESISTIVITY FROM COMPUTED FOCUSING MODE 3
RLA4   .OHMM  : APPARENT RESISTIVITY FROM COMPUTED FOCUSING MODE 4
RLA5   .OHMM  : APPARENT RESISTIVITY FROM COMPUTED FOCUSING MODE 5
TNPH_LS.DEC   : THERMAL NEUTRON POROSITY [LIMESTONE]
~Params ----------------------------------------------------
~Other -----------------------------------------------------
~ASCII -----------------------------------------------------
# ...
 12125.00000    0.10480   73.47070  122.12470    7.04570   -0.00200   72.60130    2.70190    2.54310    5.85770    6.02870    6.14310    0.11200
 12125.50000    0.10180   72.01600  118.99010    7.04370   -0.00400   63.90070    2.73530    2.54900    5.90800    6.10650    6.32740    0.10450
 12126.00000    0.09690   71.45970  118.68840    7.03450   -0.00660   59.96760    2.76880    2.55580    6.13440    6.31320    6.67400    0.09760
 12126.50000    0.09190   70.51650  116.88700    7.03810   -0.00810   60.25360    2.80230    2.56470    6.60200    6.68740    6.95130    0.09150
 12127.00000    0.08700   69.90430  115.20490    7.04010   -0.00770   60.88790    2.82900    2.56900    6.56670    6.88240    7.05960    0.08750
 12127.50000    0.08700   71.26040  116.46540    7.04210   -0.00730   62.67610    2.79730    2.57090    6.40750    6.75150    6.99440    0.08670
 12128.00000    0.09000   72.66510  119.28560    7.04290   -0.00710   65.96070    2.81630    2.57210    6.01630    6.17550    6.63030    0.08640
 12128.50000    0.09310   73.13230  120.97650    7.04180   -0.00780   68.52510    2.84850    2.57490    5.24230    5.43000    5.88150    0.08560
 12129.00000    0.09430   73.47680  120.42040    7.04040   -0.00860   67.20490    2.87800    2.57790    5.06580    5.25840    5.51330    0.08300
 12129.50000    0.08210   71.22740  119.58540    7.03900   -0.00930   65.88460    2.88200    2.57500    5.47160    5.44130    5.61650    0.08080
 12130.00000    0.06990   69.97590  118.23730    7.03750   -0.00900   64.89110    2.81510    2.56680    5.87740    5.99550    6.25800    0.08000
 12130.50000    0.07580   70.44830  116.46740    7.04010   -0.00860   66.93910    2.74090    2.56180    6.00930    6.13210    6.23560    0.08930
 12131.00000    0.09060   72.25540  117.48590    7.04290   -0.00830   70.54890    2.76160    2.55680    5.94180    6.13170    6.20760    0.09850
 12131.50000    0.09810   74.41310  119.40120    7.04290   -0.00750   74.15860    2.78220    2.55180    5.85750    6.07890    6.17960    0.11000
 12132.00000    0.09970   75.14310  123.97560    7.03150   -0.00450   78.09990    2.79860    2.54830    5.77330    5.97540    6.09390    0.12020
 12132.50000    0.10050   75.31440  124.77690    7.02610   -0.00340   80.05600    2.79820    2.54610    5.68280    5.94960    6.06500    0.11700
 12133.00000    0.10150   75.17480  125.09030    7.02080   -0.00570   81.40340    2.79770    2.54390    5.96920    6.42850    6.56710    0.11570
 12133.50000    0.10260   75.64650  126.12130    7.01540   -0.00800   84.96070    2.79720    2.54190    6.62620    6.96690    7.52800    0.12060
 12134.00000    0.10730   76.82770  128.10570    7.01000   -0.00940   93.12960    2.86600    2.52160    6.82670    7.05610    7.29850    0.13090
 12134.50000    0.12230   78.91020  132.87430    7.00460   -0.00940  107.04050    2.94750    2.49680    7.00330    7.45880    9.55240    0.14110
 12135.00000    0.13740   84.23410  139.92210    6.99930   -0.01050  123.59090    3.09470    2.47210   11.10610   12.35120   14.73170    0.16860
 12135.50000    0.14880   89.42180  146.96990    7.02420   -0.01140  135.87420    3.22240    2.47160   15.00990   16.57310   17.16940    0.20290
 12136.00000    0.13880   87.54310  145.36110    7.02670   -0.00780  143.42500    3.28730    2.49130   17.41720   18.36650   20.03500    0.21760
 12136.50000    0.12510   84.77930  143.34980    7.00910   -0.00190  133.70180    3.34720    2.51750   18.93640   19.93830   20.53400    0.18110
 12137.00000    0.11420   81.20690  139.28170    6.97830    0.00000  118.16760    3.42440    2.52860   19.26060   19.99330   21.63850    0.15790
 12137.50000    0.11060   77.93300  131.41180    6.96940   -0.00270  102.63340    3.57110    2.53260   18.85130   21.63670   21.17320    0.14770
 12138.00000    0.10120   78.27250  131.89450    6.96600   -0.00540   93.84800    3.78350    2.56470   21.72150   26.72280   30.62420    0.15210
 12138.50000    0.08130   77.76800  131.78730    6.96260   -0.00440   86.56000    4.03980    2.59860   23.73530   26.37900   30.95180    0.13350
 12139.00000    0.05870   72.91400  137.52570    6.95920   -0.00210   75.84100    4.27640    2.63950   41.48190   53.41550   31.62480    0.11260
 12139.50000    0.03610   65.47120  143.23020    6.95650   -0.00070   64.27600    4.41540    2.64960   92.08860  115.13140  186.18480    0.09880
 12140.00000    0.03930   62.54850  108.74500    6.97940   -0.00190   54.82320    4.15870    2.61660   88.11480   79.99610  164.85370    0.11260
 12140.50000    0.06560   68.79620  114.34420    6.99660   -0.00330   63.21780    3.80160    2.58360   51.80140   36.01850   61.21300    0.12950
 12141.00000    0.09620   76.94920  121.43080    6.99100   -0.00480   83.45390    3.53180    2.55070   29.31800   37.43350   39.74570    0.14640
 12141.50000    0.10850   78.58460  128.51740    6.98540   -0.00630  103.32790    3.40400    2.53730   37.16310   40.25850   42.44830    0.14270
 12142.00000    0.10120   80.48460  134.18660    6.97980   -0.00780  105.12520    3.27620    2.54670   37.32770   41.30950   43.88710    0.12580
 12142.50000    0.09260   75.08010  129.19750    6.94330   -0.00920   94.05530    3.38860    2.56180   38.79490   50.75830   45.41030    0.11780
 12143.00000    0.08540   73.56730  125.04430    6.95080   -0.00980   81.16990    3.48680    2.57590   77.79460   77.63670  101.39550    0.11740
 12143.50000    0.07950   70.12100  122.14490    6.95770   -0.00710   72.82380    3.48360    2.58550   94.73940  104.51510  115.64900    0.11780
 12144.00000    0.07520   69.22140  112.30020    6.95860   -0.00370   67.50400    3.41980    2.58770   70.15840   96.99760  122.46290    0.10230
 12144.50000    0.07830   68.30500  113.13570    6.95960   -0.00160   67.90620    3.33950    2.57920   31.08490   36.99240   37.74710    0.08650
 12145.00000    0.08570   69.50540  114.18000    6.96050   -0.00160   71.32890    3.32770    2.56890   30.82510   35.29970   37.40410    0.08620
 12145.50000    0.09660   72.20090  114.98570    6.94700   -0.00370   81.59760    3.32960    2.55800   26.15820   30.02670   31.72920    0.09470
 12146.00000    0.10110   76.31600  121.07270    6.96830   -0.00630   92.47460    3.38790    2.54530   23.86750   25.96110   28.07010    0.11060
 12146.50000    0.10730   80.05270  132.48830    6.96510   -0.00890  106.17050    3.47880    2.53250   27.79920   36.60810   41.21650    0.13470
 12147.00000    0.11520   80.61320  132.75840    6.95170   -0.01160  118.24280    3.56960    2.52070   49.99370   53.79290   58.57510    0.15350
 12147.50000    0.11980   79.89350  132.92030    6.94420   -0.01140  115.64380    3.65790    2.51450   55.61270   58.05790   59.22190    0.15300
 12148.00000    0.12280   77.41410  129.64750    6.93670   -0.00730  100.69500    3.75620    2.52530   56.57910   59.48750   71.95230    0.12400
 12148.50000    0.11560   72.50770  123.46710    6.93890   -0.00330   85.74620    3.73340    2.54320   69.92720   73.61100   80.06520    0.10480
 12149.00000    0.09890   69.29320  117.50660    6.95130   -0.00270   72.28220    3.63960    2.56120   75.35010   81.97820   85.18170    0.08550
 12149.50000    0.08230   66.76750  114.46750    6.93700   -0.00040   70.41830    3.55440    2.57560   39.92430   60.51870  121.54710    0.07370
 12150.00000    0.07840   66.57320  113.19240    6.95020    0.00340   76.86710    3.70180    2.57560   22.49820   24.58280   43.52250    0.08890
 12150.50000    0.08610   69.69560  115.25730    6.94610    0.00710   82.85940    4.03640    2.55240   22.68940   49.94480   58.40360    0.11050
 12151.00000    0.09880   72.88690  119.45990    6.94210    0.00310   89.64180    4.19320    2.52910   92.10400  102.37420  130.51430    0.13110
 12151.50000    0.11140   75.49180  119.88990    6.94350   -0.00160   99.46500    4.03620    2.51450   92.08970   94.77830   97.64180    0.14700
 12152.00000    0.12050   78.52950  121.65390    6.98340   -0.00640  111.91960    3.77130    2.51940   40.54670   50.12790   55.63480    0.15770
 12152.50000    0.11490   78.17350  128.75400    6.97500   -0.00690  112.18500    3.56200    2.53180   39.17960   41.19330   43.04230    0.15550
