~Version ---------------------------------------------------
VERS.   2.0 : CWLS log ASCII Standard -VERSION 2.0
WRAP.    NO : One line per depth step
DLM . SPACE : Column Data Section Delimiter
~Well ------------------------------------------------------
STRT .FT                 169.0 : START DEPTH
STOP .FT               13259.0 : STOP DEPTH
STEP .FT                   0.5 : STEP
NULL .                -9999.25 : NULL VALUE
COMP .                         : COMPANY
WELL .                         : WELL
FLD  .                         : FIELD
LOC  .                         : LOCATION
PROV .                         : PROVINCE
CNTY .                         : COUNTY
STAT .                         : STATE
CTRY .                         : COUNTRY
SRVC .                         : SERVICE COMPANY
DATE .                         : DATE
UWI  .                         : UNIQUE WELL ID
API  .                         : API NUMBER
SLAT .WGS84 2.2723299225234967 : SURFACE LATITUDE
SLON .WGS84  8.212745437215005 : SURFACE LONGITUDE
DATUM.F                    nan : DEPTH DATUM ELEV
~Curve Information -----------------------------------------
DEPT   .FT    : 
DPHZ_LS.DEC   : HGRD STANDARD RESOLUTION DENSITY POROSITY
DT     .US/F  : DELTA-T (INTERVAL TRANSIT TIME)
DTSM   .US/F  : DELTA-T SHEAR
HCALD  .IN    : HRCC CALIPER CALIBRATED FROM DENSITY LOG
HDRA   .G/C3  : HRDD SPINE AND RIBS DENSITY CORRECTION
HSGRD  .GAPI  : HNGS STANDARD GAMMA RAY FROM DENSITY LOG
PEFZ   .B/E   : HRDD STANDARD RESOLUTION FORMATION PHOTOELECTRIC FACTOR
RHOZ   .G/C3  : HRDD STANDARD RESOLUTION FORMATION DENSITY
RLA3   .OHMM  : APPARENT RESISTIVITY FROM COMPUTED FOCUSING MODE 3
RLA4   .OHMM  : APPARENT RESISTIVITY FROM COMPUTED FOCUSING MODE 4
RLA5   .OHMM  : APPARENT RESISTIVITY FROM COMPUTED FOCUSING MODE 5
TNPH_LS.DEC   : THERMAL NEUTRON POROSITY [LIMESTONE]
~Params ----------------------------------------------------
~Other -----------------------------------------------------
~ASCII -----------------------------------------------------
# ...
 12741.00000    0.11840   79.69900  156.16330    6.85740   -0.00220   84.94450    3.09960    2.52060   15.02690   24.00010   25.16670    0.15960
 12741.50000    0.11910   79.41070  155.62190    6.86570   -0.00290   83.70640    3.15320    2.51970   14.65910   23.73390   25.31860    0.16020
 12742.00000    0.11170   79.05820  154.27390    6.85220   -0.00480   82.25340    3.27930    2.53540   14.29130   22.39120   25.50800    0.14650
 12742.50000    0.10010   78.58960  142.45460    6.85010   -0.00670   79.88560    3.40530    2.55950   14.84040   29.49530   52.69100    0.13300
 12743.00000    0.08800   74.59770  144.75230    6.85080   -0.00820   77.51790    3.53130    2.58450   49.69270   73.64050  113.65780    0.12020
 12743.50000    0.07330   68.81930  149.50280    6.85160   -0.00770   77.86040    3.58180    2.58930   57.43360   82.15580  113.45220    0.13140
 12744.00000    0.08770   73.23940  154.25330    6.85240   -0.00800   83.30120    3.26590    2.56500   32.17830   36.52520   54.25120    0.15940
 12744.50000    0.10610   79.63300  153.84590    6.85310   -0.00830   88.74210    2.97030    2.53580   16.88100   19.49140   19.68660    0.18730
 12745.00000    0.12320   83.10180  150.87150    6.85390   -0.00930   93.44740    2.79820    2.50940   18.98940   21.19780   24.45040    0.18740
 12745.50000    0.13260   82.90670  148.33010    6.85470   -0.01040   95.09820    2.72590    2.49650   22.01280   22.93440   26.13500    0.16980
 12746.00000    0.13230   82.82840  147.74380    6.85550   -0.01150   91.82470    2.88220    2.49900   24.85120   26.34080   34.18460    0.17150
 12746.50000    0.12400   81.12830  147.42520    6.85340   -0.01330   85.71370    3.10360    2.52870   28.45870   29.06500   34.44000    0.15880
 12747.00000    0.09620   77.44100  124.88470    6.84930   -0.01210   70.78800    3.48530    2.57950   49.48920   74.41890  127.53720    0.11530
 12747.50000    0.06790   66.42110  101.98630    6.84530   -0.01010   56.61550    3.87190    2.63040  124.48580  130.14650  148.80590    0.07010
 12748.00000    0.03260   57.04960  105.08850    6.84130   -0.00800   47.32190    4.26190    2.68130  137.36210  165.08290  686.80960    0.04060
 12748.50000    0.01180   59.92820  112.18100    6.83720   -0.00780   50.55550    4.35780    2.69140   90.67230  146.52690  369.17910    0.04380
 12749.00000    0.04010   74.32740  119.27350    6.83560   -0.00950   62.10540    4.33830    2.65000   26.43350   39.13600   61.82050    0.05820
 12749.50000    0.08220   79.68840  125.16310    6.83560   -0.01260   75.21160    4.10930    2.59810   23.53010   28.94920   30.86250    0.07570
 12750.00000    0.11030   81.94240  130.25080    6.83700   -0.01580   91.91400    3.72890    2.54630   31.67930   34.88990   38.62400    0.09520
 12750.50000    0.13110   82.76250  134.32090    6.84030   -0.01680   97.73910    3.37600    2.50480   37.29890   38.25950   39.94670    0.12350
 12751.00000    0.12900   82.80970  141.66110    6.84370   -0.01050   99.48710    3.13370    2.50630   37.94550   39.81450   41.29200    0.15180
 12751.50000    0.12580   82.62940  155.53590    6.84700   -0.00560   98.80040    3.04930    2.50790   38.33920   40.85130   43.44810    0.16930
 12752.00000    0.12490   82.34590  151.50780    6.85040   -0.00610   97.62590    3.01880    2.50880   38.73290   41.05290   45.79510    0.16980
 12752.50000    0.12520   82.47170  153.17270    6.84960   -0.00680   96.68570    3.03580    2.50880   38.80890   39.95490   45.80890    0.17100
 12753.00000    0.12540   83.05040  157.81860    6.84610   -0.00740   96.68030    3.05270    2.50880   31.21660   34.28050   35.69080    0.17440
 12753.50000    0.12500   83.51700  179.57070    6.84260   -0.00480   95.46730    3.08630    2.50950   29.00370   30.73900   32.95030    0.17570
 12754.00000    0.10410   83.20450  180.01830    6.83910   -0.00120   88.78150    3.13980    2.54370   21.30800   24.11280   27.51210    0.15460
 12754.50000    0.07370   83.22660  180.10780    6.83570    0.00240   76.99560    3.47830    2.58310   21.08750   23.89860   50.10710    0.12530
 12755.00000    0.04570   70.35260  179.70500    6.83220    0.00550   58.98390    3.90970    2.64020   59.83900  211.29860 2002.65280    0.08390
 12755.50000    0.02120   51.75850  179.03360    6.82870    0.00470   40.17020    4.52890    2.68570 1914.42330 1956.22090 4937.85490    0.05420
 12756.00000    0.01720   51.69370  178.36230    6.82520    0.00150   35.80810    4.67610    2.67500 1798.76550 3243.05660 3851.15180    0.02440
 12756.50000    0.04190   51.12290  177.42240    6.83950   -0.00040   51.00440    4.31940    2.61810 1232.93010 1984.98750 2364.40080    0.01610
 12757.00000    0.06670   56.24760  172.60350    6.85820   -0.00090   71.30470    3.84330    2.56000  587.20200  777.74250 2002.65200    0.08350
 12757.50000    0.09150   78.83160  167.08340    6.87690   -0.00110   91.60510    3.33520    2.51360   17.40180   22.43030   25.44240    0.17050
 12758.00000    0.11630   77.79580  166.00920    6.86780   -0.00580  100.30290    3.16660    2.51760   13.72780   14.45370   15.44780    0.27180
 12758.50000    0.12110   74.54770  162.77440    6.86890   -0.01420   97.07200    3.26040    2.52160   13.73650   14.32490   21.19890    0.15560
 12759.00000    0.11750   65.37390  159.53970    6.86670   -0.01610   84.92960    3.35540    2.51980   30.45460   38.51830   50.78320    0.12470
 12759.50000    0.12190   68.19800  159.16130    6.86630   -0.01790   73.64730    3.31370    2.51090   47.42550   48.94160   50.79600    0.10490
 12760.00000    0.12960   72.53320  170.30590    6.86990   -0.01980   69.62380    3.23540    2.50550   25.83340   32.30580   36.48940    0.12080
 12760.50000    0.13570   73.41910  172.18380    6.87340   -0.01800   68.82880    3.20680    2.52540   19.87490   21.26380   22.66140    0.12740
 12761.00000    0.10810   66.97720  179.16390    6.87060   -0.00900   65.51740    3.33800    2.55040   31.55400   45.39330   62.17980    0.11490
 12761.50000    0.08150   65.05860  179.90040    6.85720   -0.00190   62.07280    3.60620    2.57530   56.51700   57.84280   62.17980    0.09750
 12762.00000    0.06920   63.73290  178.89120    6.85390   -0.00150   60.60700    3.84320    2.59650   38.98050   48.61990   56.13660    0.08230
 12762.50000    0.06720   63.85360  151.49510    6.85320   -0.00440   60.01340    3.93760    2.60290   39.84680   43.60260   50.62700    0.07720
 12763.00000    0.06570   63.52390  145.65160    6.85420   -0.00670   57.86830    4.00610    2.60550   44.17830   49.25830   57.44190    0.07180
 12763.50000    0.06460   63.79020  145.08980    6.85780   -0.00890   55.42000    4.07450    2.60400   47.84780   51.51660   61.04890    0.06650
 12764.00000    0.06760   63.84270  130.44880    6.86620   -0.01160   56.30830    4.09230    2.59920   39.05310   44.54710   52.18950    0.06900
 12764.50000    0.07130   65.01120  113.93410    6.86620   -0.01200   58.20670    4.12350    2.59500   32.16620   33.32820   42.60490    0.07460
 12765.00000    0.07510   65.36410  111.37550    6.86940   -0.01290   60.38290    4.14820    2.59080   33.71180   35.69550   44.91130    0.08020
 12765.50000    0.07610   65.70890  111.62360    6.86490   -0.01090   62.36420    4.17630    2.59150   36.40640   39.10480   50.07270    0.08620
 12766.00000    0.07190   65.93080  111.87180    6.86030   -0.00700   64.05310    4.19640    2.59570   26.77080   32.95440   41.48740    0.09270
 12766.50000    0.06700   65.47320  112.11990    6.85570   -0.00210   64.73610    4.19840    2.60020   26.43000   29.27350   38.72710    0.09620
 12767.00000    0.06500   64.75820  143.95330    6.85670    0.00050   63.10980    4.17680    2.60460   27.23190   30.80400   46.32350    0.08800
 12767.50000    0.06450   64.04330  146.90490    6.88320   -0.00290   59.53260    4.17970    2.60900   43.74370   43.89890   60.38050    0.07970
 12768.00000    0.06340   63.32840  143.54530    6.86920   -0.00710   56.49790    4.18270    2.61200   47.34030   52.96870   67.21720    0.07080
 12768.50000    0.06130   62.15060  145.20770    6.85520   -0.00760   55.48190    4.18440    2.61230   45.14160   51.40860   66.69270    0.06560
