~Version ---------------------------------------------------
VERS.   2.0 : CWLS log ASCII Standard -VERSION 2.0
WRAP.    NO : One line per depth step
DLM . SPACE : Column Data Section Delimiter
~Well ------------------------------------------------------
STRT .FT                 169.0 : START DEPTH
STOP .FT               13259.0 : STOP DEPTH
STEP .FT                   0.5 : STEP
NULL .                -9999.25 : NULL VALUE
COMP .                         : COMPANY
WELL .                         : WELL
FLD  .                         : FIELD
LOC  .                         : LOCATION
PROV .                         : PROVINCE
CNTY .                         : COUNTY
STAT .                         : STATE
CTRY .                         : COUNTRY
SRVC .                         : SERVICE COMPANY
DATE .                         : DATE
UWI  .                         : UNIQUE WELL ID
API  .                         : API NUMBER
SLAT .WGS84 2.2723299225234967 : SURFACE LATITUDE
SLON .WGS84  8.212745437215005 : SURFACE LONGITUDE
DATUM.F                    nan : DEPTH DATUM ELEV
~Curve Information -----------------------------------------
DEPT   .FT    : 
DPHZ_LS.DEC   : HGRD STANDARD RESOLUTION DENSITY POROSITY
DT     .US/F  : DELTA-T (INTERVAL TRANSIT TIME)
DTSM   .US/F  : DELTA-T SHEAR
HCALD  .IN    : HRCC CALIPER CALIBRATED FROM DENSITY LOG
HDRA   .G/C3  : HRDD SPINE AND RIBS DENSITY CORRECTION
HSGRD  .GAPI  : HNGS STANDARD GAMMA RAY FROM DENSITY LOG
PEFZ   .B/E   : HRDD STANDARD RESOLUTION FORMATION PHOTOELECTRIC FACTOR
RHOZ   .G/C3  : HRDD STANDARD RESOLUTION FORMATION DENSITY
RLA3   .OHMM  : APPARENT RESISTIVITY FROM COMPUTED FOCUSING MODE 3
RLA4   .OHMM  : APPARENT RESISTIVITY FROM COMPUTED FOCUSING MODE 4
RLA5   .OHMM  : APPARENT RESISTIVITY FROM COMPUTED FOCUSING MODE 5
TNPH_LS.DEC   : THERMAL NEUTRON POROSITY [LIMESTONE]
~Params ----------------------------------------------------
~Other -----------------------------------------------------
~ASCII -----------------------------------------------------
# ...
 12573.00000    0.12320   82.39840  163.22310    6.85380   -0.00150   89.45740    2.70100    2.51250   10.78010   11.83110   13.97590    0.17550
 12573.50000    0.12430   82.52750  174.03200    6.86380   -0.00420   88.55140    2.70100    2.51090   10.73480   11.70170   13.74990    0.18090
 12574.00000    0.12820   82.62190  175.10620    6.86460   -0.00460   87.59560    2.72130    2.50710   10.45880   11.01840   12.54480    0.17660
 12574.50000    0.13120   82.43400  174.56910    6.86300   -0.00640   89.48350    2.75330    2.50340   11.54660   12.31690   14.55250    0.17150
 12575.00000    0.13030   82.88490  175.02950    6.86170   -0.00620   93.18360    2.79480    2.50110   10.71910   12.20480   14.85810    0.17150
 12575.50000    0.12860   83.08580  175.37470    6.87320   -0.00590   96.42660    2.79300    2.50420    8.56380    9.11460   10.62780    0.17530
 12576.00000    0.12670   82.86430  158.59070    6.88460   -0.00560   95.60050    2.78780    2.50950    9.43690   10.05780   11.65770    0.17910
 12576.50000    0.12540   83.48270  157.85220    6.89600   -0.00570   94.17830    2.77580    2.51470   10.11900   10.97460   12.77360    0.18280
 12577.00000    0.12510   83.94860  155.63670    6.87450   -0.00700   92.75610    2.76810    2.51780    9.69740   10.94030   12.31450    0.18310
 12577.50000    0.12380   83.41580  155.43630    6.87090   -0.00810   91.97540    2.76050    2.51780   10.56360   11.60540   13.45090    0.17250
 12578.00000    0.12220   82.61460  155.23590    6.88350   -0.00920   92.23440    2.77400    2.51440   11.59680   13.15580   14.88400    0.16890
 12578.50000    0.12130   80.97190  154.21400    6.88640   -0.00990   93.65770    2.77960    2.51090   13.48000   14.56990   16.92580    0.16520
 12579.00000    0.12280   81.50310  162.72630    6.88690   -0.00870   95.08110    2.76090    2.50740   13.19680   14.36930   16.71150    0.16540
 12579.50000    0.12580   82.83990  174.28780    6.88750   -0.00750   95.85180    2.76090    2.50390   11.74960   13.91210   15.04950    0.16800
 12580.00000    0.13030   83.22610  170.86690    6.88800   -0.00720   92.97620    2.77400    2.50040    9.83010   11.03540   12.55210    0.17160
 12580.50000    0.13320   83.18930  171.33330    6.88860   -0.00760   89.86210    2.80020    2.49690   11.54560   12.56520   14.97210    0.17530
 12581.00000    0.13560   83.17700  172.42070    6.89100   -0.00800   87.61710    2.80080    2.49380   11.71220   12.44920   14.91720    0.17530
 12581.50000    0.13590   83.53480  172.50130    6.89170   -0.00840   87.23690    2.80140    2.49350    7.64020    9.04450    9.83120    0.17600
 12582.00000    0.13580   84.06110  155.90520    6.89410   -0.00970   87.84030    2.80200    2.49260    6.57920    6.97440    8.07880    0.17690
 12582.50000    0.13660   83.72820  138.60640    6.88110   -0.01130   87.84490    2.81120    2.49210    6.83830    7.49860    7.99320    0.17690
 12583.00000    0.13660   82.58050  138.32670    6.86810   -0.01290   86.84430    2.82610    2.49210    8.13400    8.88980   10.56270    0.17020
 12583.50000    0.13570   82.91010  138.04690    6.85860   -0.01460   86.24270    2.84090    2.49240    7.83370    8.88630    9.68010    0.16500
 12584.00000    0.13450   83.79270  136.11680    6.86260   -0.01430   85.89840    2.80920    2.49410    7.05460    7.75900    8.63090    0.16300
 12584.50000    0.13310   83.33100  139.69180    6.86030   -0.01390   84.56480    2.79820    2.49570    8.50630    9.58980   11.57830    0.16350
 12585.00000    0.13240   81.58080  153.89110    6.84970   -0.01270   81.36970    2.74670    2.49730   10.17220   10.84710   12.33660    0.16380
 12585.50000    0.13130   80.46750  154.38000    6.83750   -0.00890   78.11100    2.68580    2.49890    9.79930   10.91900   12.81100    0.16210
 12586.00000    0.13050   79.71490  153.77050    6.83790   -0.00560   79.40470    2.64830    2.50020    9.29930   10.19950   11.16080    0.16010
 12586.50000    0.12920   80.35110  152.91280    6.84150   -0.00220   82.96770    2.63150    2.50080   10.04040   10.78290   11.92340    0.15790
 12587.00000    0.12820   81.20850  154.13190    6.84500   -0.00220   86.95440    2.64220    2.50180    9.38780    9.96120   11.79280    0.16050
 12587.50000    0.12770   82.48580  155.33450    6.84970   -0.00420   89.65390    2.68120    2.50290    7.77190    8.27920    8.95370    0.16720
 12588.00000    0.12820   84.04700  158.29250    6.85450   -0.00760   91.29060    2.70690    2.50410    7.25670    8.01490    8.88820    0.17400
 12588.50000    0.12710   83.91420  158.55410    6.85920   -0.01040   88.47780    2.73270    2.50630    6.72120    7.17110    7.45180    0.18070
 12589.00000    0.12570   83.68810  158.40310    6.86400   -0.01130   85.43930    2.75840    2.50860    6.92500    7.30530    7.77900    0.17980
 12589.50000    0.12390   83.08670  157.13630    6.86410   -0.01220   83.35540    2.76260    2.51090    7.19670    7.51130    8.27400    0.17410
 12590.00000    0.12350   82.50260  165.79460    6.86300   -0.01140   83.11200    2.73800    2.51160    7.15530    7.51060    8.18820    0.17020
 12590.50000    0.12510   82.98760  174.70340    6.86200   -0.01040   84.50260    2.72620    2.50970    7.10160    7.40440    8.01970    0.17260
 12591.00000    0.12820   83.39840  156.03950    6.85850   -0.00940   86.68700    2.74110    2.50500    7.18370    7.40080    8.01280    0.17560
 12591.50000    0.13230   83.33750  137.37560    6.84560   -0.00840   89.48410    2.76070    2.50020    7.39440    7.93170    8.09830    0.17450
 12592.00000    0.13540   82.98600  136.03290    6.83260   -0.00910   92.60490    2.77050    2.49550    8.75820    9.73250   10.74540    0.17310
 12592.50000    0.13820   83.03710  135.31680    6.83220   -0.01020   96.90810    2.79160    2.49080   10.63990   11.01380   12.00970    0.17310
 12593.00000    0.13960   83.39080  145.20820    6.83500   -0.01140   98.83060    2.79080    2.48590   10.37640   11.00960   12.43180    0.17580
 12593.50000    0.14220   83.88210  157.51650    6.83170   -0.01220   94.09390    2.76460    2.48000    9.51370   10.31310   11.29510    0.17640
 12594.00000    0.14750   83.34010  156.75240    6.82730   -0.00970   88.19010    2.72880    2.46980   11.02250   12.07010   13.15290    0.17230
 12594.50000    0.15000   81.63120  153.99080    6.82290   -0.00820   83.56980    2.69290    2.47010   11.47310   12.14980   13.51260    0.16700
 12595.00000    0.13380   79.45630  150.44710    6.81870   -0.00780   80.60710    2.75380    2.49120   12.25680   13.29510   16.05420    0.16190
 12595.50000    0.10790   76.34490  146.35850    6.81340   -0.00890   75.31240    2.96400    2.51230   12.24330   13.22870   15.13270    0.13970
 12596.00000    0.08200   71.67910  142.26990    6.79890   -0.00990   69.48490    3.29230    2.57330   14.21760   17.78140   27.90620    0.11360
 12596.50000    0.06370   66.93960  138.18130    6.81080   -0.01000   63.92470    3.55500    2.59690   24.72490   28.23740   39.46910    0.09600
 12597.00000    0.06500   66.26220  139.34620    6.81730   -0.00790   70.14300    3.55500    2.60840   27.28300   30.18180   31.47350    0.08680
 12597.50000    0.07590   71.12470  146.22820    6.83400   -0.00580   77.02660    3.32500    2.59130   20.06540   24.07420   39.15690    0.10830
 12598.00000    0.09460   77.55300  150.32880    6.84340   -0.00630   83.91020    3.11650    2.56790   11.62490   12.57580   15.16000    0.13920
 12598.50000    0.11550   80.49360  153.30480    6.84200   -0.00860   88.94680    2.93020    2.54450    6.19730    6.38810    8.44660    0.17130
 12599.00000    0.12710   82.83990  155.81110    6.84060   -0.01100   91.11870    2.87650    2.52110    5.66900    5.92480    6.15370    0.20830
 12599.50000    0.12760   81.52730  154.45460    6.83920   -0.01260   84.77480    2.84520    2.50610    5.71540    6.16050    7.14510    0.17990
 12600.00000    0.13240   80.48790  153.18380    6.81490   -0.01110   78.65630    2.82710    2.49550    8.13030    8.53380   10.75310    0.16380
 12600.50000    0.13850   80.41510  152.55440    6.81270   -0.00960   74.36070    2.81230    2.48380    9.26670    9.61750   10.65750    0.16000
