~Version ---------------------------------------------------
VERS.   2.0 : CWLS log ASCII Standard -VERSION 2.0
WRAP.    NO : One line per depth step
DLM . SPACE : Column Data Section Delimiter
~Well ------------------------------------------------------
STRT .FT                 169.0 : START DEPTH
STOP .FT               13259.0 : STOP DEPTH
STEP .FT                   0.5 : STEP
NULL .                -9999.25 : NULL VALUE
COMP .                         : COMPANY
WELL .                         : WELL
FLD  .                         : FIELD
LOC  .                         : LOCATION
PROV .                         : PROVINCE
CNTY .                         : COUNTY
STAT .                         : STATE
CTRY .                         : COUNTRY
SRVC .                         : SERVICE COMPANY
DATE .                         : DATE
UWI  .                         : UNIQUE WELL ID
API  .                         : API NUMBER
SLAT .WGS84 2.2723299225234967 : SURFACE LATITUDE
SLON .WGS84  8.212745437215005 : SURFACE LONGITUDE
DATUM.F                    nan : DEPTH DATUM ELEV
~Curve Information -----------------------------------------
DEPT   .FT    : 
DPHZ_LS.DEC   : HGRD STANDARD RESOLUTION DENSITY POROSITY
DT     .US/F  : DELTA-T (INTERVAL TRANSIT TIME)
DTSM   .US/F  : DELTA-T SHEAR
HCALD  .IN    : HRCC CALIPER CALIBRATED FROM DENSITY LOG
HDRA   .G/C3  : HRDD SPINE AND RIBS DENSITY CORRECTION
HSGRD  .GAPI  : HNGS STANDARD GAMMA RAY FROM DENSITY LOG
PEFZ   .B/E   : HRDD STANDARD RESOLUTION FORMATION PHOTOELECTRIC FACTOR
RHOZ   .G/C3  : HRDD STANDARD RESOLUTION FORMATION DENSITY
RLA3   .OHMM  : APPARENT RESISTIVITY FROM COMPUTED FOCUSING MODE 3
RLA4   .OHMM  : APPARENT RESISTIVITY FROM COMPUTED FOCUSING MODE 4
RLA5   .OHMM  : APPARENT RESISTIVITY FROM COMPUTED FOCUSING MODE 5
TNPH_LS.DEC   : THERMAL NEUTRON POROSITY [LIMESTONE]
~Params ----------------------------------------------------
~Other -----------------------------------------------------
~ASCII -----------------------------------------------------
# ...
 13105.00000    0.11830   81.87320  137.44280    6.77630   -0.01450  113.65480    3.17700    2.51670   13.24630   13.45140   15.92480    0.17210
 13105.50000    0.12410   83.18070  159.26200    6.77410   -0.01960  119.48060    3.42500    2.50750   15.19280   15.29350   17.23830    0.16720
 13106.00000    0.12840   83.82230  158.26540    6.77200   -0.01890  124.53080    3.57820    2.50100   17.13920   17.84500   21.99140    0.16400
 13106.50000    0.12570   83.53050  157.01950    6.77610   -0.01740  123.54990    3.54740    2.50670   18.38540   19.29240   21.89800    0.16510
 13107.00000    0.12150   83.40630  154.44600    6.78010   -0.01600  117.47360    3.34110    2.51750   16.14760   17.72870   18.71420    0.16790
 13107.50000    0.12180   82.07590  152.26430    6.77150   -0.01580  109.98420    3.20400    2.51650   14.72470   15.80770   17.18700    0.17060
 13108.00000    0.12650   82.63210  152.48040    6.75620   -0.01640  103.99290    3.12750    2.50060   14.47530   15.23250   15.73950    0.17280
 13108.50000    0.13020   84.96030  167.39210    6.77290   -0.01700  112.23320    3.11360    2.50170   14.51660   15.09200   15.64710    0.17340
 13109.00000    0.11630   85.01130  178.88680    6.77610   -0.01640  117.03830    3.18320    2.53720   14.72470   15.23250   15.74280    0.17370
 13109.50000    0.09940   82.11470  180.07430    6.76600   -0.01250  101.28730    3.42990    2.57270   15.50230   16.13020   16.87630    0.17420
 13110.00000    0.06880   71.11830  163.99820    6.75820   -0.00850   77.37640    4.16560    2.60810  136.49550  396.70260  741.93670    0.14550
 13110.50000    0.03930   56.11510  148.19070    6.76030   -0.00460   51.08260    4.71490    2.64360  646.53130  814.97220  987.68790    0.10970
 13111.00000    0.01400   53.61250  143.06390    6.76230   -0.00220   34.10800    5.07280    2.67910  868.93860 1306.79300 1981.00240    0.07300
 13111.50000    0.00470   52.63860  140.01220    6.76370   -0.00410   24.93120    5.10180    2.70790 1395.80950 1947.20840 2971.72540    0.03260
 13112.00000    0.00150   52.45240  138.04700    6.76470   -0.00900   21.01010    5.02810    2.70820 1594.17590 2524.53120 3346.22530    0.01630
 13112.50000    0.00380   52.35050  137.42930    6.76580   -0.01090   17.88690    4.89420    2.70350 1724.32590 3038.77720 3598.58980    0.00610
 13113.00000    0.00960   52.77100  136.43570    6.76680   -0.00810   19.81910    4.76030    2.69780 1205.11440 2015.48780 3750.00860    0.00380
 13113.50000    0.01530   54.44560  140.46390    6.76780   -0.00760   27.21590    4.61910    2.68450  382.39790  386.38600 2015.48780    0.01040
 13114.00000    0.02230   57.25090  136.05210    6.76890   -0.00880   45.90930    4.53080    2.66920  106.32340  192.92490  214.16490    0.02270
 13114.50000    0.04430   61.28420  132.00470    6.76990   -0.01500   75.55180    4.32810    2.61840   19.93920   24.20910   70.98240    0.05920
 13115.00000    0.07910   66.63790  151.64210    6.77100   -0.02120  101.67980    4.02650    2.56760   18.86030   19.55140   20.15500    0.09560
 13115.50000    0.11540   83.56500  153.15260    6.77200   -0.02360  129.27080    3.62970    2.51690   17.99710   18.62520   19.02440    0.13200
 13116.00000    0.12680   84.47590  154.66320    6.77310   -0.01770  132.93870    3.14630    2.50670   17.99710   18.33390   19.02440    0.16660
 13116.50000    0.12270   84.35650  154.96530    6.77410   -0.01020  128.74500    2.87650    2.51350   15.23630   19.41200   20.51730    0.18370
 13117.00000    0.12110   84.46250  154.29390    6.78360   -0.00820  121.62450    2.87830    2.52370   18.46410   20.08520   21.53200    0.16550
 13117.50000    0.11100   84.35060  153.62260    6.76930   -0.00910  114.56630    2.96850    2.53540   15.90100   17.58510   19.18740    0.15380
 13118.00000    0.09880   80.81620  148.15100    6.76800   -0.01050  108.38650    3.16710    2.55280   15.21360   21.39290   19.10560    0.15630
 13118.50000    0.08750   75.38830  129.84140    6.76810   -0.01160  100.25080    3.39900    2.57020   21.43840   31.51900   32.76340    0.15970
 13119.00000    0.08170   72.59140  122.08350    6.76810   -0.01100   91.62230    3.68580    2.57990   36.09680   38.12080   41.20530    0.13540
 13119.50000    0.07700   72.00610  118.57750    6.76810   -0.01020   82.25440    3.85720    2.59780   34.73590   36.05930   39.65200    0.11530
 13120.00000    0.05720   71.91550  118.44320    6.77300   -0.00960   74.75920    4.02530    2.62420   34.44060   36.05930   38.89820    0.10440
 13120.50000    0.03510   71.84300  118.81920    6.76780   -0.00840   74.20880    4.35070    2.65060   32.86030   35.39720   37.67140    0.10780
 13121.00000    0.01390   68.09030  119.38310    6.76600   -0.00770   68.27250    4.71310    2.67700   27.58300   31.96710   34.95920    0.11170
 13121.50000    0.00550   61.14010  114.01220    6.76650   -0.00830   56.75380    5.07550    2.70350   32.14600   51.11740   65.34720    0.08400
 13122.00000    0.00590   60.00410  140.85180    6.76690   -0.00560   43.17660    5.14780    2.70060   70.51950  104.74880  133.08850    0.06220
 13122.50000    0.01060   54.01020  173.36070    6.76740    0.00100   33.96960    4.65870    2.69440   92.07300  128.92660 1432.02800    0.04360
 13123.00000    0.01130   58.40090  173.76350    6.76780    0.00770   46.55990    4.19630    2.68080   71.99620   89.19790   99.31990    0.05590
 13123.50000    0.04380   74.78540  156.81530    6.76830    0.00900   70.11580    3.77630    2.62800   32.86030   43.95680   59.74270    0.10630
 13124.00000    0.09040   85.98810  143.68640    6.77460    0.00580   96.56250    3.39250    2.57520   33.28940   34.26770   35.38810    0.15660
 13124.50000    0.12790   86.88880  144.62640    6.77400   -0.00220  113.89210    3.00700    2.52240   34.14770   34.26770   36.09670    0.17190
 13125.00000    0.13580   86.78120  144.08920    6.77340   -0.00220  117.16660    2.85320    2.49080   32.44210   36.53620   37.35120    0.16130
 13125.50000    0.13040   86.89530  142.14230    6.77280    0.00590  111.61430    2.73680    2.50000   39.48300   40.30020   41.38170    0.17620
 13126.00000    0.12700   85.57880  140.46390    6.77220    0.01300  106.06200    2.71040    2.50830   36.25120   41.24470   42.62200    0.16220
 13126.50000    0.12300   84.24180  140.46390    6.77170    0.01430  101.41920    2.71750    2.51670   40.68100   41.43620   44.09750    0.14940
 13127.00000    0.11670   83.54350  139.06950    6.77160    0.01290  103.23360    2.76990    2.52510   40.85500   42.01610   44.78420    0.14620
 13127.50000    0.10570   79.54690  137.41690    6.77250    0.00740   91.66620    2.83690    2.53350   61.49050  114.82760  250.96240    0.13090
 13128.00000    0.09690   66.97290  135.76440    6.77330    0.00180   80.09880    2.90490    2.53690  118.22260  132.48590  194.58110    0.10890
 13128.50000    0.10790   68.31800  142.97850    6.77870   -0.00370   74.71630    2.97290    2.51740   68.49000   80.37230   83.71130    0.08480
 13129.00000    0.12160   82.78880  151.82820    6.77440   -0.00920   87.11250    3.02030    2.49290   67.04320   78.53190   82.46930    0.06520
 13129.50000    0.13540   85.21790  155.23390    6.77530   -0.01470   99.18410    3.02700    2.48380   37.67140   56.42350   45.84750    0.06710
 13130.00000    0.14120   85.37640  141.13550    6.77620   -0.01610  105.97040    3.02210    2.49180   40.85500   42.01610   44.87910    0.10590
 13130.50000    0.13530   86.47830  140.06360    6.78530   -0.01310  105.76900    3.01720    2.50100   40.89170   42.35410   45.06690    0.14460
 13131.00000    0.12950   83.50680  136.17110    6.77690   -0.01010  110.51380    3.01470    2.50470   40.55460   42.79320   44.87250    0.17010
 13131.50000    0.12660   85.09450  137.11310    6.78190   -0.01090  118.42170    3.12880    2.50480   40.21750   42.69030   44.39440    0.17830
 13132.00000    0.12940   84.22700  137.11520    6.79460   -0.01490  125.59120    3.28510    2.50620   39.29850   41.99920   43.91630    0.18270
 13132.50000    0.12530   83.51140  137.11710    6.80020   -0.01810  128.89280    3.45160    2.51690   35.49930   39.29000   42.30510    0.18120
