~Version ---------------------------------------------------
VERS.   2.0 : CWLS log ASCII Standard -VERSION 2.0
WRAP.    NO : One line per depth step
DLM . SPACE : Column Data Section Delimiter
~Well ------------------------------------------------------
STRT .FT                 169.0 : START DEPTH
STOP .FT               13259.0 : STOP DEPTH
STEP .FT                   0.5 : STEP
NULL .                -9999.25 : NULL VALUE
COMP .                         : COMPANY
WELL .                         : WELL
FLD  .                         : FIELD
LOC  .                         : LOCATION
PROV .                         : PROVINCE
CNTY .                         : COUNTY
STAT .                         : STATE
CTRY .                         : COUNTRY
SRVC .                         : SERVICE COMPANY
DATE .                         : DATE
UWI  .                         : UNIQUE WELL ID
API  .                         : API NUMBER
SLAT .WGS84 2.2723299225234967 : SURFACE LATITUDE
SLON .WGS84  8.212745437215005 : SURFACE LONGITUDE
DATUM.F                    nan : DEPTH DATUM ELEV
~Curve Information -----------------------------------------
DEPT   .FT    : 
DPHZ_LS.DEC   : HGRD STANDARD RESOLUTION DENSITY POROSITY
DT     .US/F  : DELTA-T (INTERVAL TRANSIT TIME)
DTSM   .US/F  : DELTA-T SHEAR
HCALD  .IN    : HRCC CALIPER CALIBRATED FROM DENSITY LOG
HDRA   .G/C3  : HRDD SPINE AND RIBS DENSITY CORRECTION
HSGRD  .GAPI  : HNGS STANDARD GAMMA RAY FROM DENSITY LOG
PEFZ   .B/E   : HRDD STANDARD RESOLUTION FORMATION PHOTOELECTRIC FACTOR
RHOZ   .G/C3  : HRDD STANDARD RESOLUTION FORMATION DENSITY
RLA3   .OHMM  : APPARENT RESISTIVITY FROM COMPUTED FOCUSING MODE 3
RLA4   .OHMM  : APPARENT RESISTIVITY FROM COMPUTED FOCUSING MODE 4
RLA5   .OHMM  : APPARENT RESISTIVITY FROM COMPUTED FOCUSING MODE 5
TNPH_LS.DEC   : THERMAL NEUTRON POROSITY [LIMESTONE]
~Params ----------------------------------------------------
~Other -----------------------------------------------------
~ASCII -----------------------------------------------------
# ...
 12293.00000    0.06730   70.60430  117.15380    6.93920   -0.01300   68.99740    3.26040    2.59600    4.81050    5.14680    5.87720    0.09890
 12293.50000    0.04210   69.30550  115.49070    6.92000   -0.00750   58.56050    3.45460    2.63980   11.20970   10.16760   20.22440    0.08190
 12294.00000    0.01210   62.63740  105.93030    6.90080   -0.00350   49.43660    3.63140    2.68360   27.00050   31.43120   36.08680    0.07650
 12294.50000    0.01300   56.56120   99.24220    6.87590   -0.00820   44.55370    3.67920    2.70120   23.84450   28.61280   38.08090    0.07260
 12295.00000    0.04450   63.25250  103.21670    6.86250   -0.01290   51.04700    3.64980    2.64170    8.06450    9.75460   16.20030    0.07720
 12295.50000    0.08020   71.54090  116.02630    6.89230   -0.01760   59.21920    3.48870    2.58230    6.07100    7.25160    8.50650    0.09090
 12296.00000    0.10600   74.02890  117.63760    6.92210   -0.02100   67.39150    3.28700    2.52290    6.68550    7.16810    7.80870    0.10470
 12296.50000    0.12320   75.87100  125.53280    6.95200   -0.02440   75.56370    3.05730    2.49840    6.79830    6.91170    7.33510    0.11190
 12297.00000    0.12810   75.89880  126.09670    6.98330   -0.02250   76.16780    2.90360    2.50300    5.68220    6.42870    6.82690    0.11910
 12297.50000    0.11880   73.66870  148.52020    6.99670   -0.01770   69.48230    2.86130    2.51290    6.37050    6.86050    7.25630    0.12100
 12298.00000    0.10950   71.24330  147.80410    6.97020   -0.01290   64.54430    2.86470    2.52280    7.18690    7.96000    9.92630    0.11600
 12298.50000    0.10320   71.72670  146.38680    6.97020   -0.01120   60.46100    2.86250    2.53260    6.84010    7.43380    9.35530    0.11030
 12299.00000    0.10740   74.09720  147.58030    6.98860   -0.01040   69.41070    2.83840    2.53330    5.21710    5.56860    6.67060    0.10970
 12299.50000    0.11010   76.01360  151.60850    7.00700   -0.00950   77.94490    2.77470    2.53060    5.10690    5.26750    5.36530    0.12140
 12300.00000    0.11200   76.39170  152.17720    7.01320   -0.00940   82.89570    2.72590    2.52730    5.10690    5.21890    5.38740    0.13290
 12300.50000    0.11520   76.41960  152.74590    7.02260   -0.00950   83.06520    2.67700    2.52390    5.17320    5.34430    5.67560    0.13770
 12301.00000    0.11780   76.34450  153.21360    7.01230   -0.00960   80.89960    2.62820    2.52060    5.40250    5.72650    5.78980    0.13110
 12301.50000    0.11570   75.97760  153.68130    7.01100   -0.00960   77.80280    2.64520    2.52270    5.58730    5.78030    6.24030    0.12380
 12302.00000    0.10370   74.66700  152.96410    7.01070   -0.01000   75.89540    2.82540    2.53680    5.43540    5.83460    5.98110    0.12330
 12302.50000    0.09610   73.79910  151.95060    6.99240   -0.01040   72.50080    3.04840    2.55080    5.35460    5.86220    6.00370    0.12380
 12303.00000    0.10100   73.22540  150.93710    6.97400   -0.00910   66.71900    3.20860    2.54690    5.70450    5.94100    6.10750    0.12280
 12303.50000    0.11510   73.76410  150.80290    6.97540   -0.00920   61.73840    3.11320    2.53110    5.95910    6.00060    6.20640    0.11980
 12304.00000    0.12310   76.98450  152.12090    6.98990   -0.00940   63.87550    2.91440    2.51520    5.50830    5.84420    6.10700    0.12120
 12304.50000    0.13120   77.70400  153.76850    7.00440   -0.01160   68.73420    2.76830    2.50180    5.37910    5.52140    5.83490    0.12690
 12305.00000    0.12730   77.88070  155.41610    7.00100   -0.01900   72.51170    2.84430    2.50700    5.37980    5.80440    5.72630    0.13500
 12305.50000    0.10650   77.73410  156.99620    6.99060   -0.02360   77.19960    3.11330    2.53040    6.00630    6.96080    7.43220    0.14370
 12306.00000    0.08550   75.84330  156.77320    6.98020   -0.02190   82.91120    3.41530    2.56460    6.78950    7.29320    7.48780    0.14880
 12306.50000    0.07570   72.93510  154.61550    6.96890   -0.02020   87.22090    3.60990    2.58730    7.10310    7.03570    7.44730    0.14550
 12307.00000    0.09500   74.96940  152.45780    6.96260   -0.01850   87.40020    3.45880    2.57050    6.67960    6.75580    7.03590    0.14000
 12307.50000    0.11310   77.00360  152.11460    6.97270   -0.01650   77.63640    3.08090    2.53450    6.33060    6.58790    7.06240    0.13440
 12308.00000    0.12840   77.39870  151.66220    6.97030   -0.01320   68.45080    2.70300    2.49850    6.68640    6.93720    7.84280    0.12890
 12308.50000    0.14370   76.75360  151.27940    6.96790   -0.01000   58.32200    2.52510    2.46480    7.15130    7.36450    8.00310    0.11800
 12309.00000    0.14630   75.27200  150.30440    6.97240   -0.00810   52.69230    2.52510    2.46310    7.38490    7.81000    8.70280    0.10790
 12309.50000    0.14140   72.69340  139.84470    6.95900   -0.00810   48.95580    2.61190    2.47940    8.11600    8.64400    9.03570    0.10000
 12310.00000    0.13640   72.12180  127.43950    6.95480   -0.00820   46.66440    2.70190    2.48760    8.84700    9.47790   11.18150    0.09940
 12310.50000    0.13150   71.60130  118.25210    6.95310   -0.00820   45.69100    2.72900    2.49580    9.57810   10.31190   11.14170    0.09650
 12311.00000    0.12850   71.88860  117.05910    6.95140   -0.00810   46.06760    2.73350    2.50240   10.30910   10.72520   11.77380    0.09300
 12311.50000    0.13190   72.24270  123.85790    6.94970   -0.00800   47.23960    2.72770    2.49590   10.39870   10.72620   11.81850    0.09330
 12312.00000    0.13750   72.58130  130.65680    6.94080   -0.00790   48.96270    2.71740    2.48950   10.26720   10.53020   11.04970    0.09540
 12312.50000    0.14310   72.81430  140.71620    6.95800   -0.00880   50.88250    2.69770    2.48300    9.79830    9.93400   10.66560    0.09750
 12313.00000    0.14870   74.50610  141.99450    6.97190   -0.01040   53.12450    2.66410    2.47380    9.17420    9.26190   10.64720    0.09940
 12313.50000    0.15440   74.70750  142.25240    6.97300   -0.01200   55.44710    2.63620    2.46390    8.55010    8.55010    8.94350    0.09970
 12314.00000    0.15910   75.81050  145.79000    6.97370   -0.01360   57.88130    2.60090    2.45590    7.94860    8.26450    9.01040    0.09980
 12314.50000    0.15670   75.94520  152.81700    6.97450   -0.01300   60.48270    2.58650    2.45860    7.74810    8.03910    8.07100    0.10000
 12315.00000    0.15030   76.08160  151.73730    6.97720   -0.01190   61.52460    2.57210    2.46440    7.60130    7.83120    7.99390    0.10020
 12315.50000    0.14850   76.17520  151.77040    6.98800   -0.01110   60.82160    2.56760    2.47030    7.45700    7.75970    7.96320    0.10080
 12316.00000    0.14680   76.30510  152.12650    6.99880   -0.01180   60.11880    2.63030    2.47700    7.33140    7.65320    7.93260    0.10160
 12316.50000    0.14260   76.01460  152.66090    7.00970   -0.01270   64.07560    2.70660    2.48140    7.26950    7.46730    7.81140    0.10550
 12317.00000    0.13360   77.34770  155.71040    7.01130   -0.01350   72.82150    2.83230    2.48570    6.87870    7.17310    7.33920    0.11590
 12317.50000    0.12470   78.69540  156.54130    7.00830   -0.01300   88.04460    2.93910    2.50830    6.51120    6.83790    7.07510    0.13060
 12318.00000    0.11570   78.88880  157.37210    7.00540   -0.01120  102.02470    2.96550    2.51990    6.14370    6.50270    7.07580    0.14530
 12318.50000    0.11660   78.84650  156.73000    7.00240   -0.00940   95.80320    2.88370    2.52340    5.87310    6.16760    6.72600    0.15710
 12319.00000    0.11790   76.30730  154.77350    6.99950   -0.00860   80.28150    2.82130    2.52480    5.87360    6.07270    6.29200    0.13650
 12319.50000    0.11710   74.86870  152.81700    6.99770   -0.00850   64.53950    2.80800    2.53320    7.56850    8.14680    8.77300    0.11570
 12320.00000    0.10380   72.06500  149.87980    6.94340   -0.00820   55.36780    2.83160    2.54640    9.26350   10.22090   11.18420    0.10280
 12320.50000    0.09200   68.82420  146.94250    6.93680   -0.00800   49.70310    2.90220    2.56100   10.95840   11.78940   12.44140    0.08990
