~Version ---------------------------------------------------
VERS.   2.0 : CWLS log ASCII Standard -VERSION 2.0
WRAP.    NO : One line per depth step
DLM . SPACE : Column Data Section Delimiter
~Well ------------------------------------------------------
STRT .FT                 169.0 : START DEPTH
STOP .FT               13259.0 : STOP DEPTH
STEP .FT                   0.5 : STEP
NULL .                -9999.25 : NULL VALUE
COMP .                         : COMPANY
WELL .                         : WELL
FLD  .                         : FIELD
LOC  .                         : LOCATION
PROV .                         : PROVINCE
CNTY .                         : COUNTY
STAT .                         : STATE
CTRY .                         : COUNTRY
SRVC .                         : SERVICE COMPANY
DATE .                         : DATE
UWI  .                         : UNIQUE WELL ID
API  .                         : API NUMBER
SLAT .WGS84 2.2723299225234967 : SURFACE LATITUDE
SLON .WGS84  8.212745437215005 : SURFACE LONGITUDE
DATUM.F                    nan : DEPTH DATUM ELEV
~Curve Information -----------------------------------------
DEPT   .FT    : 
DPHZ_LS.DEC   : HGRD STANDARD RESOLUTION DENSITY POROSITY
DT     .US/F  : DELTA-T (INTERVAL TRANSIT TIME)
DTSM   .US/F  : DELTA-T SHEAR
HCALD  .IN    : HRCC CALIPER CALIBRATED FROM DENSITY LOG
HDRA   .G/C3  : HRDD SPINE AND RIBS DENSITY CORRECTION
HSGRD  .GAPI  : HNGS STANDARD GAMMA RAY FROM DENSITY LOG
PEFZ   .B/E   : HRDD STANDARD RESOLUTION FORMATION PHOTOELECTRIC FACTOR
RHOZ   .G/C3  : HRDD STANDARD RESOLUTION FORMATION DENSITY
RLA3   .OHMM  : APPARENT RESISTIVITY FROM COMPUTED FOCUSING MODE 3
RLA4   .OHMM  : APPARENT RESISTIVITY FROM COMPUTED FOCUSING MODE 4
RLA5   .OHMM  : APPARENT RESISTIVITY FROM COMPUTED FOCUSING MODE 5
TNPH_LS.DEC   : THERMAL NEUTRON POROSITY [LIMESTONE]
~Params ----------------------------------------------------
~Other -----------------------------------------------------
~ASCII -----------------------------------------------------
# ...
 12909.00000    0.12120   75.26040  171.48080    6.81350   -0.00260   79.08860    3.02010    2.51580   80.57390   86.02010   89.19270    0.12270
 12909.50000    0.11600   74.34540  176.40410    6.81420   -0.00160   84.96190    2.98580    2.53170   38.17590   56.57200   55.02450    0.12980
 12910.00000    0.10250   78.00090  172.58140    6.81490   -0.00060   89.86100    2.99890    2.55580   27.26190   28.80760   30.41110    0.14960
 12910.50000    0.08100   80.09310  145.54130    6.81280    0.00130   85.12880    3.18330    2.57990   20.88490   22.54080   28.99040    0.16220
 12911.00000    0.05580   74.92520  130.25500    6.79930    0.00940   72.90820    3.73100    2.61060   17.52860   18.45670   20.00460    0.13510
 12911.50000    0.02860   64.74150  117.24660    6.78590    0.01640   59.12700    4.36470    2.65920   25.90640   34.70060  124.52280    0.07760
 12912.00000    0.00820   61.84660  109.44080    6.79020    0.02430   46.62950    4.61510    2.69460  250.83930  294.95870  306.10950    0.04090
 12912.50000    0.00050   57.73220  143.40530    6.79390    0.01660   41.74650    4.67020    2.70660  257.30490  296.26970  317.50090    0.02040
 12913.00000    0.00350   53.92010  138.95710    6.81550    0.00760   36.26400    4.72170    2.70130  657.10740  704.75600  701.59740    0.01720
 12913.50000    0.00560   52.29420  135.92920    6.81550    0.00000   30.62480    4.92030    2.70540 1803.42280 1269.19020 1987.37210    0.01970
 12914.00000    0.00010   51.46030  135.74820    6.81550   -0.00670   27.15530    5.15280    2.71210 1961.21070 1789.44510 3196.02450    0.02980
 12914.50000    0.00050   51.86820  137.99400    6.81550   -0.00740   32.16740    5.27250    2.70690 1983.50570 1952.32460 3983.00110    0.04750
 12915.00000    0.00970   55.44920  143.52720    6.81550   -0.00310   39.91330    5.15870    2.69410  859.68830 1955.82380 1955.82470    0.08790
 12915.50000    0.02030   59.57840  142.58470    6.81550   -0.00070   46.97590    4.94110    2.68130   14.21290   14.96150   15.26430    0.11210
 12916.00000    0.02610   62.51300  143.46820    6.81550   -0.00260   45.93290    4.72350    2.66840   13.53390   14.22900   16.04640    0.07440
 12916.50000    0.01990   59.63210  144.19160    6.81550   -0.00740   41.76370    4.64590    2.68030  657.24820  483.91170 1246.21810    0.04400
 12917.00000    0.01090   55.63010  141.11500    6.81410   -0.00980   38.54200    4.71010    2.70000 1730.10650 1264.21890 1984.32110    0.03190
 12917.50000    0.01110   53.70950  137.27080    6.80690   -0.00440   40.03380    4.58310    2.68220 1971.43860 1530.48590 2615.01760    0.03220
 12918.00000    0.03580   54.82890  136.88580    6.79970    0.00090   47.95330    4.27100    2.63940  152.29590  414.47080 2056.26860    0.04970
 12918.50000    0.06790   63.09440  143.32440    6.80130    0.00090   61.51460    3.76650    2.59670   59.00850  158.37560  221.89250    0.06960
 12919.00000    0.09860   75.30900  148.60920    6.82880   -0.00180   77.69450    3.30700    2.55390   31.36090   37.08550   41.91170    0.10190
 12919.50000    0.11650   82.14080  149.27790    6.83200   -0.00450   93.87430    2.98960    2.51650   35.64230   39.20120   46.95640    0.13430
 12920.00000    0.13120   83.53470  152.42710    6.82850   -0.00670  102.67730    2.85860    2.49870   31.03990   34.58820   39.07830    0.16190
 12920.50000    0.12910   83.67980  153.38760    6.82490   -0.00740  107.54090    2.83480    2.50220   21.23130   24.05470   35.91420    0.18130
 12921.00000    0.12640   83.86720  155.23390    6.82130   -0.00540  105.27330    2.83780    2.50900   17.88260   19.29260   20.25810    0.17580
 12921.50000    0.11690   83.63420  160.36980    6.81950   -0.00200  102.45040    2.87050    2.52050   22.54660   24.82280   32.40670    0.17440
 12922.00000    0.10490   82.82610  158.00660    6.81740   -0.00200  100.13150    2.92780    2.53380   26.54310   28.20830   29.13440    0.18230
 12922.50000    0.10030   82.91530  157.05770    6.81530   -0.00250   99.75030    3.01470    2.54970    8.69290   18.51560   27.98160    0.20070
 12923.00000    0.09520   85.34540  157.28150    6.86080   -0.00500   97.57500    3.09410    2.55670    5.35250    5.47140    5.78500    0.22350
 12923.50000    0.09930   87.74550  159.83270    6.84880   -0.00760   93.23110    3.14320    2.55600    5.08510    7.74320    8.20940    0.23740
 12924.00000    0.09930   85.34960  157.70350    6.83670   -0.00810   88.65290    3.14320    2.55180   17.92040   18.67680   27.87910    0.20090
 12924.50000    0.09870   83.47760  154.73030    6.84040   -0.00400   86.35990    3.15660    2.55030    9.85670   16.86700   17.94530    0.17790
 12925.00000    0.10080   82.92170  150.20980    6.85120   -0.00070   87.68470    3.12790    2.54780   10.57340   11.50740   11.68130    0.17390
 12925.50000    0.10390   84.95470  133.51530    6.83060   -0.00240   91.73950    3.08000    2.54450   12.09880   13.07290   15.15880    0.19210
 12926.00000    0.10560   86.71740  146.40540    6.85820   -0.00670   95.32210    3.03220    2.54220   10.84880   11.88990   12.80390    0.21100
 12926.50000    0.10340   89.87800  147.41250    6.88570   -0.01010   98.49720    3.05300    2.54670    6.42760    7.91520   11.51100    0.22980
 12927.00000    0.09890   92.23560  158.89280    6.89440   -0.00970   97.98780    3.20480    2.55270    4.30500    4.87300    5.24790    0.24510
 12927.50000    0.09470   90.13000  158.49000    6.88370   -0.00790   93.44910    3.35660    2.55860    5.97360    7.75540    8.43920    0.21060
 12928.00000    0.08920   86.10280  145.17010    6.87290   -0.00600   88.91040    3.49140    2.56410    8.89670    9.99240   10.44430    0.18140
 12928.50000    0.08670   81.89840  139.28900    6.86220   -0.00420   84.72510    3.49680    2.56920   10.00610   11.37760   11.88130    0.16530
 12929.00000    0.08520   80.12090  135.93220    6.86190   -0.00270   81.95320    3.44920    2.57240   12.51940   12.59730   12.82740    0.15990
 12929.50000    0.08600   78.63760  132.57540    6.87200   -0.00200   80.97500    3.36850    2.56990   12.57280   12.59730   12.94560    0.15810
 12930.00000    0.08930   78.52280  131.04140    6.88210   -0.00380   81.09680    3.28470    2.56500    8.82100   10.84230   11.94540    0.16090
 12930.50000    0.09340   78.55790  130.29460    6.87640   -0.00670   82.31240    3.22960    2.56010   10.39120   11.19890   12.54050    0.16230
 12931.00000    0.09740   80.00180  134.39270    6.82650   -0.00970   84.12770    3.17520    2.55520   12.21150   13.34090   13.51390    0.16680
 12931.50000    0.09950   81.98170  138.67540    6.82740   -0.01140   88.62860    3.15990    2.55030   12.84800   13.38330   13.73300    0.17370
 12932.00000    0.09430   85.11350  142.95810    6.84190   -0.00780   91.32980    3.24690    2.55730    6.88240    7.67610    8.61690    0.19110
 12932.50000    0.07790   84.22270  145.54540    6.84790   -0.00290   88.95830    3.59580    2.59220    6.55890    7.67680   10.16970    0.20090
 12933.00000    0.04780   75.94970  152.66500    6.83160    0.00060   78.09860    3.95700    2.62710   14.39640   18.57210   24.41550    0.19280
 12933.50000    0.01760   66.87270  165.92860    6.81530    0.00060   65.19240    4.40420    2.66210   27.25520   72.60090  134.77800    0.06590
 12934.00000   -0.00620   58.67190  179.19210    6.81070    0.00060   52.28620    4.84270    2.69700  568.05140 1213.65340 1962.63510    0.03430
 12934.50000   -0.00560   51.98930  180.36410    6.81080    0.00430   39.38000    5.04490    2.71710 1511.30820 1837.19560 3746.76530    0.01740
 12935.00000    0.02920   51.98950  181.66010    6.79740    0.00790   37.20500    4.62130    2.67430 1246.53540 1316.25500 2365.84410    0.04040
 12935.50000    0.06900   57.21780  182.83210    6.81060    0.01000   56.49320    3.83650    2.62130   30.60230  135.02570 2035.78370    0.08360
 12936.00000    0.09290   63.32060  178.59100    6.86170    0.00330   74.97530    3.40560    2.56840   30.21650   30.74400   31.34920    0.11270
 12936.50000    0.10520   73.07370  173.62400    6.88990   -0.00500   88.94040    3.14520    2.54660    8.00560   22.86200   30.00180    0.13360
