~Version ---------------------------------------------------
VERS.   2.0 : CWLS log ASCII Standard -VERSION 2.0
WRAP.    NO : One line per depth step
DLM . SPACE : Column Data Section Delimiter
~Well ------------------------------------------------------
STRT .FT                 169.0 : START DEPTH
STOP .FT               13259.0 : STOP DEPTH
STEP .FT                   0.5 : STEP
NULL .                -9999.25 : NULL VALUE
COMP .                         : COMPANY
WELL .                         : WELL
FLD  .                         : FIELD
LOC  .                         : LOCATION
PROV .                         : PROVINCE
CNTY .                         : COUNTY
STAT .                         : STATE
CTRY .                         : COUNTRY
SRVC .                         : SERVICE COMPANY
DATE .                         : DATE
UWI  .                         : UNIQUE WELL ID
API  .                         : API NUMBER
SLAT .WGS84 2.2723299225234967 : SURFACE LATITUDE
SLON .WGS84  8.212745437215005 : SURFACE LONGITUDE
DATUM.F                    nan : DEPTH DATUM ELEV
~Curve Information -----------------------------------------
DEPT   .FT    : 
DPHZ_LS.DEC   : HGRD STANDARD RESOLUTION DENSITY POROSITY
DT     .US/F  : DELTA-T (INTERVAL TRANSIT TIME)
DTSM   .US/F  : DELTA-T SHEAR
HCALD  .IN    : HRCC CALIPER CALIBRATED FROM DENSITY LOG
HDRA   .G/C3  : HRDD SPINE AND RIBS DENSITY CORRECTION
HSGRD  .GAPI  : HNGS STANDARD GAMMA RAY FROM DENSITY LOG
PEFZ   .B/E   : HRDD STANDARD RESOLUTION FORMATION PHOTOELECTRIC FACTOR
RHOZ   .G/C3  : HRDD STANDARD RESOLUTION FORMATION DENSITY
RLA3   .OHMM  : APPARENT RESISTIVITY FROM COMPUTED FOCUSING MODE 3
RLA4   .OHMM  : APPARENT RESISTIVITY FROM COMPUTED FOCUSING MODE 4
RLA5   .OHMM  : APPARENT RESISTIVITY FROM COMPUTED FOCUSING MODE 5
TNPH_LS.DEC   : THERMAL NEUTRON POROSITY [LIMESTONE]
~Params ----------------------------------------------------
~Other -----------------------------------------------------
~ASCII -----------------------------------------------------
# ...
 12657.00000    0.05830   71.99250  147.20530    6.86080    0.00500   66.19770    3.74980    2.61790   37.56220   43.17020   48.06620    0.07980
 12657.50000    0.03720   59.77280  176.95600    6.85450    0.01050   53.91630    4.21970    2.65110   61.57130   85.38290   64.77920    0.07740
 12658.00000    0.02300   56.15990  176.87920    6.84840    0.01340   42.67900    4.48390    2.67170 1183.38170 1554.12610 1978.88550    0.07260
 12658.50000    0.02080   53.86240  176.81750    6.84220    0.00700   36.46670    4.65960    2.67440 1169.10890 1555.19100 2014.84300    0.05290
 12659.00000    0.01530   52.93160  178.80050    6.84800    0.00060   30.56380    4.79210    2.68780  637.42930 1908.21900 2999.73890    0.03410
 12659.50000    0.01040   54.66770  178.84030    6.85210    0.00110   34.55520    4.92460    2.69580 1939.01990 2735.62630 3527.42470    0.02180
 12660.00000    0.01800   53.51420  177.34320    6.84290    0.00320   44.68900    4.99130    2.69580  133.44630 2025.87300 3589.27100    0.03480
 12660.50000    0.03430   56.23690  178.63090    6.83550    0.00560   54.12960    4.99970    2.66260   29.61250   76.78980   39.56620    0.05640
 12661.00000    0.04390   63.83050  180.78700    6.83510    0.00790   56.57290    4.97460    2.64270   28.85410   29.75450   39.69980    0.06980
 12661.50000    0.02740   62.65610  181.01420    6.83470    0.00930   47.82710    4.96450    2.65510  104.04710  108.54010  361.09630    0.05580
 12662.00000    0.01370   55.54050  181.24130    6.83420    0.00350   36.92600    5.10230    2.68590  519.30560  730.30740  893.89520    0.03860
 12662.50000    0.00340   52.58610  181.46850    6.83380   -0.00500   30.51110    5.21900    2.71060  920.52250 1234.41290 1645.22770    0.02910
 12663.00000    0.00070   52.77780  181.86380    6.83340   -0.00670   30.90000    5.10630    2.70240 1036.60110 1466.76930 1652.80190    0.02800
 12663.50000    0.03210   55.13350  180.65100    6.83290   -0.00250   39.52930    4.74350    2.66170  780.00920 1452.51570 1732.94110    0.03010
 12664.00000    0.07130   58.43160  178.43950    6.83250    0.00000   54.24880    4.38080    2.62100   12.38700   18.65990  498.58150    0.06400
 12664.50000    0.09050   60.57190  174.40950    6.85020    0.00000   71.16380    3.97860    2.58030   12.89690   13.24280   14.21640    0.09780
 12665.00000    0.11910   84.64890  170.38850    6.88100    0.00130   90.01190    3.56660    2.53960   12.89460   13.21440   13.85230    0.14560
 12665.50000    0.12670   86.56480  166.36740    6.87570    0.00300   99.52660    3.18330    2.50570   11.62300   13.18610   14.42050    0.22760
 12666.00000    0.12690   85.63160  164.04230    6.87900    0.00200  105.63900    3.12980    2.50560   10.43810   10.60170   10.98570    0.20540
 12666.50000    0.12550   84.66530  163.04630    6.90060   -0.00140  115.83750    3.15560    2.50760   11.09470   11.35960   11.58570    0.18520
 12667.00000    0.12480   85.29180  158.21410    6.91190   -0.00470  135.47100    3.18800    2.51100   12.34340   12.46470   12.67250    0.18060
 12667.50000    0.12270   84.31000  153.58250    6.92320   -0.00610  149.66750    3.19660    2.51430   12.15800   12.30950   12.55870    0.17500
 12668.00000    0.12250   83.19780  156.35640    6.91720   -0.00400  153.67490    3.23200    2.51430   10.40020   16.44080   17.87790    0.17470
 12668.50000    0.12540   83.06990  157.56870    6.91470   -0.00340  149.44620    3.19640    2.51070   19.73730   20.74330   22.19780    0.17610
 12669.00000    0.12760   84.41640  158.45640    6.89670   -0.00340  110.45550    3.13930    2.50710   14.46290   19.79940   20.63640    0.18180
 12669.50000    0.12860   88.20790  163.94240    6.89670   -0.00490  103.90530    3.07360    2.50360   10.89400   11.19230   11.46410    0.19200
 12670.00000    0.12850   87.91870  162.21030    6.93090   -0.00650  100.19100    3.00790    2.50290   11.08060   11.24330   11.54750    0.19490
 12670.50000    0.12850   86.39030  159.26430    6.92500   -0.00740   97.18570    2.95530    2.50290   11.58440   11.78620   12.56410    0.18190
 12671.00000    0.12800   86.83300  159.89650    6.91900   -0.00670   92.80270    2.95490    2.50580   11.86330   12.30580   12.87550    0.16880
 12671.50000    0.12570   87.87990  160.36380    6.91060   -0.00340   84.35280    3.04560    2.51210    7.51080    9.85550   13.22700    0.16190
 12672.00000    0.11620   79.84530  143.57530    6.89850   -0.00010   73.85130    3.13630    2.52850    7.35210    8.08950    8.56000    0.14700
 12672.50000    0.10340   71.88530  126.78680    6.89570   -0.00010   65.23740    3.20050    2.54490   10.06890   12.05730   18.78320    0.11090
 12673.00000    0.09060   68.98370  126.95610    6.88800   -0.00010   63.76530    3.25790    2.56120   19.47260   23.38420   24.84840    0.08810
 12673.50000    0.09270   80.48560  135.77690    6.86470   -0.00450   71.49040    3.30780    2.56190   16.43620   19.97240   23.37010    0.08350
 12674.00000    0.10290   82.74170  154.46360    6.86660   -0.00740   81.61830    3.27810    2.54780   11.51380   13.40760   13.92490    0.11680
 12674.50000    0.10990   84.33230  159.00450    6.88650   -0.00740   89.07550    3.22880    2.53370    8.61100   12.50710   13.77220    0.15140
 12675.00000    0.10860   87.91700  157.18920    6.89580   -0.00880   87.48190    3.36420    2.54090   10.22250   10.78290   14.82190    0.17550
 12675.50000    0.09950   85.41910  154.70250    6.88490   -0.01550   78.83590    3.49960    2.55300   11.08040   11.43310   14.76760    0.12510
 12676.00000    0.09110   78.97210  156.88190    6.85880   -0.02220   68.63530    3.82330    2.55910   33.65810   41.68180   68.91560    0.09210
 12676.50000    0.09760   66.64090  158.59170    6.85790   -0.02550   68.83030    4.09110    2.54140   41.73490   53.86150   72.68900    0.07150
 12677.00000    0.11510   71.95950  167.38120    6.87390   -0.02640   76.18190    4.07800    2.51200   22.61310   25.77490   33.86410    0.09730
 12677.50000    0.13270   83.59650  176.17070    6.89090   -0.02510   85.11720    3.72420    2.48250    9.41930   11.03570   13.08210    0.13850
 12678.00000    0.14150   87.87400  177.18870    6.89510   -0.02220   91.14500    3.25650    2.48180    9.29930   10.78290   12.61030    0.16750
 12678.50000    0.13330   86.98740  176.44820    6.89520   -0.01940   90.18950    2.96250    2.49110   11.35380   13.22990   15.23920    0.18520
 12679.00000    0.12540   87.59110  172.33740    6.89530   -0.01830   85.21690    3.13660    2.50660   14.50130   16.44100   19.30760    0.16320
 12679.50000    0.11820   76.79230  164.74910    6.87730   -0.01880   79.07090    3.42730    2.52210   18.46080   22.53290   26.28430    0.11900
 12680.00000    0.10680   73.49160  157.90000    6.85470   -0.01220   73.95270    3.62540    2.53760   21.48310   27.74170   32.51370    0.09940
 12680.50000    0.10000   72.17140  152.15950    6.84970   -0.00070   75.99740    3.49490    2.54760   31.96260   33.10580   44.55570    0.08840
 12681.00000    0.11360   77.56910  146.41900    6.89400   -0.00040   84.20710    3.16810    2.52510   30.88870   33.02930   38.86720    0.11420
 12681.50000    0.13060   86.63250  144.54480    6.89000   -0.00590   92.41670    2.97700    2.49700   15.13580   18.63090   23.54230    0.14580
 12682.00000    0.14760   86.35050  147.99750    6.87490   -0.01320   98.66420    2.95730    2.46900    8.75950    9.76770   11.08940    0.18460
 12682.50000    0.14330   88.41500  149.09090    6.85980   -0.02190   93.32560    3.18610    2.49150    8.62960    9.04150   11.08940    0.23400
 12683.00000    0.10360   89.65360  158.89280    6.84470   -0.02880   83.12050    3.58830    2.54780    6.50600   15.90780   18.61150    0.24940
 12683.50000    0.06390   87.11590  159.29560    6.83290   -0.02270   70.38110    4.09820    2.60410   34.66510   41.16420   45.59570    0.25860
 12684.00000    0.02330   71.56710  161.17540    6.82620   -0.00260   57.44050    4.76960    2.66050   71.97980  150.02710  360.42640    0.17960
 12684.50000    0.03480   72.26540  168.56040    6.81950    0.00610   61.88500    5.05180    2.67060  228.23020  265.32610  304.40480    0.13870
