~Version ---------------------------------------------------
VERS.   2.0 : CWLS log ASCII Standard -VERSION 2.0
WRAP.    NO : One line per depth step
DLM . SPACE : Column Data Section Delimiter
~Well ------------------------------------------------------
STRT .FT                 169.0 : START DEPTH
STOP .FT               13259.0 : STOP DEPTH
STEP .FT                   0.5 : STEP
NULL .                -9999.25 : NULL VALUE
COMP .                         : COMPANY
WELL .                         : WELL
FLD  .                         : FIELD
LOC  .                         : LOCATION
PROV .                         : PROVINCE
CNTY .                         : COUNTY
STAT .                         : STATE
CTRY .                         : COUNTRY
SRVC .                         : SERVICE COMPANY
DATE .                         : DATE
UWI  .                         : UNIQUE WELL ID
API  .                         : API NUMBER
SLAT .WGS84 2.2723299225234967 : SURFACE LATITUDE
SLON .WGS84  8.212745437215005 : SURFACE LONGITUDE
DATUM.F                    nan : DEPTH DATUM ELEV
~Curve Information -----------------------------------------
DEPT   .FT    : 
DPHZ_LS.DEC   : HGRD STANDARD RESOLUTION DENSITY POROSITY
DT     .US/F  : DELTA-T (INTERVAL TRANSIT TIME)
DTSM   .US/F  : DELTA-T SHEAR
HCALD  .IN    : HRCC CALIPER CALIBRATED FROM DENSITY LOG
HDRA   .G/C3  : HRDD SPINE AND RIBS DENSITY CORRECTION
HSGRD  .GAPI  : HNGS STANDARD GAMMA RAY FROM DENSITY LOG
PEFZ   .B/E   : HRDD STANDARD RESOLUTION FORMATION PHOTOELECTRIC FACTOR
RHOZ   .G/C3  : HRDD STANDARD RESOLUTION FORMATION DENSITY
RLA3   .OHMM  : APPARENT RESISTIVITY FROM COMPUTED FOCUSING MODE 3
RLA4   .OHMM  : APPARENT RESISTIVITY FROM COMPUTED FOCUSING MODE 4
RLA5   .OHMM  : APPARENT RESISTIVITY FROM COMPUTED FOCUSING MODE 5
TNPH_LS.DEC   : THERMAL NEUTRON POROSITY [LIMESTONE]
~Params ----------------------------------------------------
~Other -----------------------------------------------------
~ASCII -----------------------------------------------------
# ...
 12377.00000    0.10360   78.79720  148.83620    6.94160   -0.00490  105.80250    3.10440    2.54410   22.30010   28.79260   34.80840    0.14440
 12377.50000    0.10280   78.73930  149.72870    6.94240   -0.00930  106.63490    3.16200    2.54330   13.15610   13.76790   16.29580    0.14860
 12378.00000    0.10340   77.89030  149.66160    6.95240   -0.01290  106.96330    3.21210    2.54220   12.87400   14.21880   16.30260    0.15090
 12378.50000    0.10000   76.53700  149.46020    6.95490   -0.01290  106.18400    3.25520    2.54790   16.52050   20.88230   24.73970    0.14800
 12379.00000    0.09510   75.48020  148.78880    6.95740   -0.01180  103.76570    3.26670    2.55950   23.31410   25.03050   30.58230    0.14070
 12379.50000    0.09270   75.49860  148.11740    6.95980   -0.00930  102.69810    3.26930    2.55750   23.60970   25.37750   30.24080    0.13340
 12380.00000    0.09530   76.00730  147.84890    6.96840   -0.00770  102.90660    3.25830    2.55480   24.11560   25.30150   30.68080    0.13550
 12380.50000    0.09810   76.53660  147.97860    6.94500   -0.00610  102.02470    3.21800    2.55180   24.63540   25.57290   30.68080    0.13900
 12381.00000    0.09980   75.98500  148.29900    6.94550   -0.00450   99.26200    3.17780    2.54880   24.84690   25.84430   30.34440    0.14200
 12381.50000    0.10130   75.77200  148.61950    6.95890   -0.00350   96.49930    3.14310    2.54580   25.23780   26.53020   30.45620    0.14090
 12382.00000    0.10430   75.49410  148.94000    6.94590   -0.00350   95.22740    3.09280    2.54210   25.71170   27.36660   32.53950    0.13960
 12382.50000    0.10700   75.62010  148.93570    6.94340   -0.00350   94.62050    3.07170    2.53840   25.93240   29.01700   32.18240    0.13910
 12383.00000    0.10880   75.54450  146.65540    6.94090   -0.00370   93.57290    3.05020    2.53480   29.83250   32.29160   38.25520    0.13710
 12383.50000    0.10910   75.31390  144.77810    6.93640   -0.00470   91.73990    3.04950    2.53710   30.63900   32.59270   39.17710    0.13480
 12384.00000    0.10610   74.09310  150.28590    6.93190   -0.00580   88.25310    3.08150    2.54540   31.16750   34.63630   41.20940    0.13170
 12384.50000    0.09810   72.22740  152.57090    6.92740   -0.00680   83.27710    3.12370    2.55910   34.76200   37.98560   46.65090    0.12060
 12385.00000    0.08750   70.20220  150.42530    6.92290   -0.00760   78.41370    3.20120    2.57650   36.66700   41.94520   47.51650    0.10830
 12385.50000    0.07590   68.43650  147.40500    6.91840   -0.00700   73.57860    3.34140    2.59380   39.94130   43.62560   52.78450    0.09860
 12386.00000    0.07120   68.06830  141.19370    6.90870   -0.00600   71.84340    3.57460    2.59520   39.94130   42.65760   50.76680    0.09830
 12386.50000    0.07870   69.43980  143.27160    6.89390   -0.00560   81.78980    3.79200    2.57680   31.43530   39.26300   69.13240    0.10450
 12387.00000    0.08340   69.35010  149.71930    6.88910   -0.00560   87.40240    4.05670    2.57560   30.63900   32.14210   37.69380    0.11390
 12387.50000    0.07390   66.97900  149.76640    6.88700   -0.00560   79.86510    4.22520    2.59360   32.52950   41.61440   38.53410    0.11900
 12388.00000    0.06190   65.13640  146.88210    6.88790   -0.00590   70.88880    4.25230    2.61160  191.05250  211.45170  242.14120    0.10460
 12388.50000    0.06030   63.56460  144.26580    6.90110   -0.00680   72.01700    4.03820    2.60540  187.01110  149.95920  242.14120    0.09640
 12389.00000    0.07970   67.85980  145.11930    6.91420   -0.00760   86.63530    3.76630    2.57630   22.13750   22.90720   32.53950    0.10210
 12389.50000    0.09910   76.15020  146.53900    6.92730   -0.00850  108.17520    3.44010    2.54730   22.49030   23.61970   24.33840    0.11820
 12390.00000    0.11250   78.05940  148.04990    6.94040   -0.00930  119.35590    3.18900    2.52500   24.21750   25.48810   29.24900    0.13440
 12390.50000    0.12250   79.96860  150.14810    6.94300   -0.01020  122.38190    3.12620    2.50730   21.39630   26.08840   28.32520    0.15060
 12391.00000    0.13140   81.36010  152.38060    6.94010   -0.01110  119.86480    3.17070    2.48950   27.76980   31.28360   33.02890    0.16570
 12391.50000    0.13990   83.47720  152.64910    6.93280   -0.01250  118.40490    3.21520    2.48080   34.10490   35.11320   35.81170    0.17700
 12392.00000    0.14200   85.29000  155.33460    6.92560   -0.01360  117.44840    3.20510    2.48080   28.25020   32.08030   40.13580    0.18170
 12392.50000    0.13290   85.42260  155.87170    6.91830   -0.01310  115.30880    3.22410    2.49440   19.90520   21.77970   23.82080    0.17700
 12393.00000    0.12270   82.95840  156.40880    6.91100   -0.01200  111.94430    3.29080    2.51400   20.25050   23.92140   26.98770    0.16890
 12393.50000    0.11160   80.56200  156.54300    6.88600   -0.01090  107.37990    3.45590    2.53420   31.93650   35.28640   36.75450    0.14550
 12394.00000    0.09790   76.62020  154.19330    6.88600   -0.01090   89.72870    3.68960    2.55330   35.75920   66.11670   52.98780    0.11720
 12394.50000    0.07690   70.77620  148.65450    6.88600   -0.01090   74.35540    3.92340    2.58510   62.59560  140.70050  150.05380    0.09090
 12395.00000    0.06140   64.71310  142.98150    6.88600   -0.01020   62.90580    4.01030    2.61800   55.92140  158.52700  185.05660    0.07250
 12395.50000    0.05180   63.71610  143.51860    6.88600   -0.00990   58.97570    4.01030    2.62070   45.24170   52.48810   54.46330    0.06340
 12396.00000    0.06030   63.55070  144.05570    6.88830   -0.00960   58.43440    3.81900    2.61490   45.24400   60.15520   75.43590    0.06840
 12396.50000    0.06250   63.67770  142.79560    6.88770   -0.00810   56.12980    3.82360    2.60910  103.23150  115.65110  118.64550    0.06790
 12397.00000    0.05490   61.38990  139.64540    6.88500   -0.00570   52.09390    3.94170    2.60450  119.32830  129.51410  148.31890    0.05970
 12397.50000    0.04320   60.63250  136.49510    6.88370   -0.00340   48.05800    4.13670    2.61070  127.76660  134.13590  133.92310    0.05140
 12398.00000    0.03700   60.70870  136.04410    6.88240   -0.00290   47.00410    4.33170    2.61840  123.99950  134.64000  174.23650    0.05150
 12398.50000    0.04750   62.82490  137.20780    6.88540   -0.00290   53.71920    4.17350    2.62460  130.11770  141.79830  213.46130    0.06320
 12399.00000    0.06520   66.96390  136.95600    6.89170   -0.00290   66.85170    3.78830    2.61990  119.60830  139.18880  144.64350    0.09370
 12399.50000    0.08330   71.87320  137.07350    6.89650   -0.00120   83.33210    3.44510    2.59600   16.80590   50.01710   83.39810    0.12430
 12400.00000    0.09850   76.20080  139.93690    6.89750    0.00100   99.81240    3.12970    2.57220   16.88060   19.70000   24.17700    0.13640
 12400.50000    0.10400   77.31480  144.48550    6.89850    0.00250  109.90170    2.98280    2.54840   21.14800   24.72190   26.22380    0.14850
 12401.00000    0.10940   79.16680  151.07740    6.89960    0.00240  115.51240    2.98030    2.52900   23.95790   27.45510   30.12910    0.15890
 12401.50000    0.11310   79.87100  153.85140    6.90060    0.00180  116.63690    2.94130    2.52790   31.89250   34.35100   39.60990    0.16320
 12402.00000    0.11220   81.54180  154.25030    6.90170   -0.00660  114.16220    3.10800    2.52770   30.42520   32.49330   36.04470    0.15880
 12402.50000    0.10830   78.07660  169.28410    6.90360   -0.01370  109.42920    3.28240    2.53750   30.09850   34.39560   39.15620    0.15360
 12403.00000    0.10330   77.33710  172.50300    6.91370   -0.01100  104.53500    3.47750    2.54540   34.00230   36.99410   40.02780    0.14850
 12403.50000    0.10160   76.34260  173.03730    6.90360   -0.00820  101.49010    3.47870    2.54740   41.52490   46.85410   51.00930    0.14660
 12404.00000    0.10060   78.27530  178.27080    6.89360   -0.00550  100.47200    3.37350    2.54840   44.06750   48.39860   49.34270    0.15740
 12404.50000    0.09910   77.91180  178.67170    6.89350   -0.00440   95.56150    3.45240    2.55080   40.50760   44.32030   53.29660    0.15380
