~Version ---------------------------------------------------
VERS.   2.0 : CWLS log ASCII Standard -VERSION 2.0
WRAP.    NO : One line per depth step
DLM . SPACE : Column Data Section Delimiter
~Well ------------------------------------------------------
STRT .FT                 169.0 : START DEPTH
STOP .FT               13259.0 : STOP DEPTH
STEP .FT                   0.5 : STEP
NULL .                -9999.25 : NULL VALUE
COMP .                         : COMPANY
WELL .                         : WELL
FLD  .                         : FIELD
LOC  .                         : LOCATION
PROV .                         : PROVINCE
CNTY .                         : COUNTY
STAT .                         : STATE
CTRY .                         : COUNTRY
SRVC .                         : SERVICE COMPANY
DATE .                         : DATE
UWI  .                         : UNIQUE WELL ID
API  .                         : API NUMBER
SLAT .WGS84 2.2723299225234967 : SURFACE LATITUDE
SLON .WGS84  8.212745437215005 : SURFACE LONGITUDE
DATUM.F                    nan : DEPTH DATUM ELEV
~Curve Information -----------------------------------------
DEPT   .FT    : 
DPHZ_LS.DEC   : HGRD STANDARD RESOLUTION DENSITY POROSITY
DT     .US/F  : DELTA-T (INTERVAL TRANSIT TIME)
DTSM   .US/F  : DELTA-T SHEAR
HCALD  .IN    : HRCC CALIPER CALIBRATED FROM DENSITY LOG
HDRA   .G/C3  : HRDD SPINE AND RIBS DENSITY CORRECTION
HSGRD  .GAPI  : HNGS STANDARD GAMMA RAY FROM DENSITY LOG
PEFZ   .B/E   : HRDD STANDARD RESOLUTION FORMATION PHOTOELECTRIC FACTOR
RHOZ   .G/C3  : HRDD STANDARD RESOLUTION FORMATION DENSITY
RLA3   .OHMM  : APPARENT RESISTIVITY FROM COMPUTED FOCUSING MODE 3
RLA4   .OHMM  : APPARENT RESISTIVITY FROM COMPUTED FOCUSING MODE 4
RLA5   .OHMM  : APPARENT RESISTIVITY FROM COMPUTED FOCUSING MODE 5
TNPH_LS.DEC   : THERMAL NEUTRON POROSITY [LIMESTONE]
~Params ----------------------------------------------------
~Other -----------------------------------------------------
~ASCII -----------------------------------------------------
# ...
 13021.00000    0.10760   79.29960  148.56380    6.78630   -0.01080   92.19720    2.84580    2.55180   10.00110   11.77220   12.51620    0.15130
 13021.50000    0.07710   80.78620  149.08360    6.78430   -0.00820   92.00280    3.00910    2.59610    7.49980    7.81680    9.77050    0.15290
 13022.00000    0.03150   81.90270  154.05410    6.79010   -0.00390   92.00720    3.62620    2.65600    7.86760    8.07100    8.38040    0.16190
 13022.50000   -0.01320   82.26550  156.08460    6.78260    0.00320   93.25600    4.10320    2.71600    8.20340    8.34330    8.65220    0.16960
 13023.00000   -0.04260   82.41660  157.06920    6.77510    0.01520   94.42840    4.62450    2.77590    8.34470    8.61560    8.89450    0.16430
 13023.50000   -0.06410   70.43860  157.26380    6.76760    0.01650   79.70740    5.05490    2.82230   12.67040   15.57120   17.95310    0.15620
 13024.00000   -0.08320   58.46050  151.66190    6.76120    0.00850   61.30700    4.98800    2.85270   19.02430   19.83630   20.62710    0.14330
 13024.50000   -0.08760   52.30250  143.24510    6.75940   -0.00220   42.90660    4.88080    2.84880   19.10570   26.07040   20.80390    0.11130
 13025.00000   -0.06960   48.76010  133.95520    6.75810   -0.00350   24.50620    4.67780    2.81230   39.48340   56.78070  110.36610    0.07860
 13025.50000   -0.04460   48.74610  128.24530    6.75240   -0.00050   24.35950    4.29890    2.75980   36.85890   43.90250   68.18130    0.06530
 13026.00000    0.00380   50.62450  129.51830    6.73430    0.00720   33.18400    3.81550    2.68370   30.71920   33.09970   41.11770    0.08600
 13026.50000    0.05820   62.36270  128.19350    6.74290    0.00450   47.71320    3.31960    2.60900   24.57950   27.04280   29.40010    0.13200
 13027.00000    0.10830   73.72520  115.20460    6.75150   -0.00220   61.39620    2.95790    2.55060   22.07010   24.66190   27.10930    0.17480
 13027.50000    0.13330   74.05770  116.79350    6.76000   -0.00620   71.56360    2.70420    2.50980   18.62250   20.30110   22.37020    0.16070
 13028.00000    0.14550   74.26830  119.22570    6.76810   -0.00760   72.42000    2.52290    2.47510   21.06050   21.55530   25.31910    0.13680
 13028.50000    0.15700   73.68090  119.08810    6.77760   -0.00760   69.66910    2.46620    2.45550   21.75420   22.37550   25.75510    0.13220
 13029.00000    0.16550   74.54020  119.08480    6.76870   -0.00720   66.80800    2.43830    2.43200   21.53210   22.37550   25.57260    0.13420
 13029.50000    0.17410   75.84670  119.30500    6.75990   -0.00690   64.37750    2.42590    2.42190   24.05370   24.52730   31.05380    0.13700
 13030.00000    0.18260   75.29300  119.34630    6.75510   -0.00820   62.41580    2.41350    2.41430   28.54150   29.82100   33.96620    0.13540
 13030.50000    0.18740   74.88410  116.94330    6.77400   -0.01100   60.25180    2.40780    2.40810   28.78630   29.93180   30.98790    0.13010
 13031.00000    0.18770   75.61060  116.59690    6.77320   -0.01380   60.24580    2.42980    2.40810   29.40750   30.51990   32.07720    0.12560
 13031.50000    0.18600   76.13950  117.67110    6.77230   -0.01660   60.88660    2.44460    2.41150   30.99810   31.92040   33.16660    0.12710
 13032.00000    0.18420   75.84460  117.67110    6.77150   -0.01430   61.99760    2.47270    2.41350   32.82900   33.32080   34.25590    0.12970
 13032.50000    0.18590   75.34220  117.67110    6.77060   -0.01180   62.55740    2.44980    2.41280   34.44060   34.72130   35.34530    0.13070
 13033.00000    0.18970   75.87110  118.83480    6.76980   -0.01030   63.43590    2.44220    2.40810   34.58790   35.56160   38.31100    0.12910
 13033.50000    0.19300   76.70490  121.14540    6.76600   -0.01030   65.44260    2.46610    2.40340   27.35740   30.73680   32.52490    0.12720
 13034.00000    0.16720   76.80630  121.06150    6.75080   -0.01030   70.23700    2.56070    2.39870   18.68690   21.11210   25.22100    0.12640
 13034.50000    0.12370   77.04990  121.56500    6.74950   -0.00890   75.03140    2.89130    2.50280   15.49880   16.34570   17.16410    0.12720
 13035.00000    0.07460   76.58130  122.42820    6.75210   -0.00490   79.82570    3.44860    2.61430   15.36700   15.51740   15.96520    0.13420
 13035.50000    0.00350   76.19340  122.63920    6.75640    0.00800   81.73950    4.32880    2.66840   15.10680   15.37430   15.99940    0.14110
 13036.00000   -0.02630   75.26080  118.50360    6.76070    0.02580   73.36170    5.49520    2.74950   15.17140   28.62650   45.20490    0.13300
 13036.50000   -0.05180   59.11350  108.50030    6.76500    0.04010   58.28300    5.71810    2.79920   50.36290   60.30560  111.88610    0.10200
 13037.00000   -0.07990   54.53970  101.77810    6.77310    0.02820   42.05250    5.53130    2.84300   45.97310   57.55810   78.42790    0.07610
 13037.50000   -0.09860   51.83820  100.19130    6.74860    0.01330   32.16200    5.15550    2.86960   35.57800   45.21440   43.21060    0.05150
 13038.00000   -0.06130   56.88840   98.60440    6.73450    0.00020   32.76990    4.73060    2.82170   25.18280   32.87070   32.03100    0.04960
 13038.50000    0.00140   59.01080   98.47010    6.73970   -0.01020   43.36810    4.44920    2.70510   14.72470   20.52700   20.85130    0.05950
 13039.00000    0.06730   65.17640  101.45770    6.75870   -0.01960   56.27320    4.08920    2.57290   14.41360   15.37430   15.89710    0.07820
 13039.50000    0.09740   72.37900  118.61100    6.77770   -0.02440   69.17830    3.63270    2.54970   11.83840   13.46760   14.47180    0.10740
 13040.00000    0.09660   74.05220  120.24150    6.78210   -0.01650   75.58960    3.24700    2.55380    9.09160   10.08490   10.96160    0.13690
 13040.50000    0.09630   74.87800  121.09500    6.77670   -0.01020   79.92010    3.11350    2.55520    8.73360    9.19290    9.98130    0.13580
 13041.00000    0.10260   75.18090  119.18160    6.76110   -0.00750   81.68540    3.00750    2.54530    9.08860   16.39470   19.26470    0.13010
 13041.50000    0.11010   71.35910  114.56600    6.75920   -0.00820   78.68520    2.90160    2.53530   22.95100   27.81900   84.16540    0.12940
 13042.00000    0.11750   71.43970  112.67610    6.75730   -0.01030   75.68510    2.79560    2.52400   85.95900  109.62640  163.26310    0.12460
 13042.50000    0.12010   70.31180  113.24010    6.75530   -0.01240   74.69560    2.71320    2.51710   92.36810  100.42220  111.57360    0.11980
 13043.00000    0.12110   77.18350  119.25550    6.75550   -0.01450   75.96280    2.74180    2.51460   72.74830   92.35670  109.99060    0.11800
 13043.50000    0.12220   74.72710  120.86010    6.75870   -0.01660   77.11620    2.80480    2.51310   31.78720   45.24900   50.56880    0.12110
 13044.00000    0.12190   74.51060  120.77610    6.76130   -0.01400   77.32400    2.84560    2.51650   39.26210   44.00850   49.28780    0.12170
 13044.50000    0.11790   75.48320  120.75940    6.78250   -0.01070   78.60040    2.84760    2.52100   38.15710   43.11890   48.24590    0.12210
 13045.00000    0.11280   77.10440  122.99720    6.78890   -0.00750   80.80940    2.84970    2.52690   37.35380   42.40720   48.04020    0.12320
 13045.50000    0.10910   78.77760  129.35280    6.79530   -0.00810   82.95510    2.89500    2.53270   20.72040   30.34200   36.59560    0.13110
 13046.00000    0.10790   80.34510  130.57620    6.78840   -0.00880   86.19520    2.93560    2.53750   20.19630   21.96470   25.53600    0.13940
 13046.50000    0.10920   81.55110  131.76970    6.79890   -0.00550   90.16490    2.94390    2.53640   12.89880   17.76780   20.94800    0.14760
 13047.00000    0.11050   84.12480  131.90400    6.80300   -0.00480   94.56910    2.94430    2.53310    4.91430    8.03350    6.71010    0.16270
 13047.50000    0.10960   84.97870  139.96030    6.80620   -0.00730   94.88280    2.93500    2.53400    5.54480    6.65690    8.04230    0.17770
 13048.00000    0.10670   84.75340  140.09460    6.80250   -0.01030   92.28940    2.92320    2.53660    7.50000    8.34070    8.47990    0.18710
 13048.50000    0.10580   83.95570  139.65230    6.80360   -0.01280   90.43460    2.91880    2.53880    7.55030    8.37940    8.52950    0.18640
