~Version ---------------------------------------------------
VERS.   2.0 : CWLS log ASCII Standard -VERSION 2.0
WRAP.    NO : One line per depth step
DLM . SPACE : Column Data Section Delimiter
~Well ------------------------------------------------------
STRT .FT                 169.0 : START DEPTH
STOP .FT               13259.0 : STOP DEPTH
STEP .FT                   0.5 : STEP
NULL .                -9999.25 : NULL VALUE
COMP .                         : COMPANY
WELL .                         : WELL
FLD  .                         : FIELD
LOC  .                         : LOCATION
PROV .                         : PROVINCE
CNTY .                         : COUNTY
STAT .                         : STATE
CTRY .                         : COUNTRY
SRVC .                         : SERVICE COMPANY
DATE .                         : DATE
UWI  .                         : UNIQUE WELL ID
API  .                         : API NUMBER
SLAT .WGS84 2.2723299225234967 : SURFACE LATITUDE
SLON .WGS84  8.212745437215005 : SURFACE LONGITUDE
DATUM.F                    nan : DEPTH DATUM ELEV
~Curve Information -----------------------------------------
DEPT   .FT    : 
DPHZ_LS.DEC   : HGRD STANDARD RESOLUTION DENSITY POROSITY
DT     .US/F  : DELTA-T (INTERVAL TRANSIT TIME)
DTSM   .US/F  : DELTA-T SHEAR
HCALD  .IN    : HRCC CALIPER CALIBRATED FROM DENSITY LOG
HDRA   .G/C3  : HRDD SPINE AND RIBS DENSITY CORRECTION
HSGRD  .GAPI  : HNGS STANDARD GAMMA RAY FROM DENSITY LOG
PEFZ   .B/E   : HRDD STANDARD RESOLUTION FORMATION PHOTOELECTRIC FACTOR
RHOZ   .G/C3  : HRDD STANDARD RESOLUTION FORMATION DENSITY
RLA3   .OHMM  : APPARENT RESISTIVITY FROM COMPUTED FOCUSING MODE 3
RLA4   .OHMM  : APPARENT RESISTIVITY FROM COMPUTED FOCUSING MODE 4
RLA5   .OHMM  : APPARENT RESISTIVITY FROM COMPUTED FOCUSING MODE 5
TNPH_LS.DEC   : THERMAL NEUTRON POROSITY [LIMESTONE]
~Params ----------------------------------------------------
~Other -----------------------------------------------------
~ASCII -----------------------------------------------------
# ...
 12461.00000    0.10670   76.25000  124.38870    6.86580   -0.00660  101.94300    3.62130    2.53760   53.14570   69.14520   98.74040    0.13000
 12461.50000    0.10000   75.48520  123.89860    6.86580   -0.00100  100.73600    3.61190    2.55140   42.09440   46.63760   47.39030    0.13320
 12462.00000    0.09570   75.52630  122.60260    6.86580    0.00290  100.40390    3.59100    2.55240   48.46410   50.77460   55.28910    0.14250
 12462.50000    0.09870   75.92210  121.17230    6.86050    0.00060   97.29270    3.59180    2.54160   47.64350   52.37360   56.51980    0.14120
 12463.00000    0.10360   76.59210  123.32270    6.84710   -0.00270   94.42940    3.61840    2.53090   48.46410   52.54180   63.38670    0.13500
 12463.50000    0.10890   76.21440  123.32460    6.84090   -0.00610   92.07590    3.73040    2.52590   50.36300   52.87250   69.67250    0.12500
 12464.00000    0.09470   76.53750  122.11830    6.85440   -0.00740   87.14240    3.85490    2.55240   45.61220   60.54970   69.34810    0.11200
 12464.50000    0.07110   73.31410  116.98290    6.83560   -0.00740   75.65290    4.16070    2.59640  184.46890  160.54210  175.67800    0.09030
 12465.00000    0.04740   58.88240  109.54170    6.84360   -0.00340   58.70330    4.47300    2.64050  360.84030  425.54800  950.69050    0.06990
 12465.50000    0.03190   57.60110  102.86420    6.85150    0.00290   46.07030    4.56530    2.65840  429.55030  518.81660  964.69470    0.04950
 12466.00000    0.03960   62.63820  101.03940    6.85950    0.01110   49.27420    4.23580    2.64150   51.89080   82.45570  231.96670    0.04490
 12466.50000    0.05430   66.65560  107.25290    6.86580    0.01600   60.51640    3.90640    2.61390   51.23050   52.00780   54.88480    0.06550
 12467.00000    0.06890   70.41800  115.14610    6.86580    0.01160   74.78840    3.57690    2.58790   39.41630   44.35650   51.18730    0.08910
 12467.50000    0.08360   75.69570  121.52810    6.86450    0.00600   88.44760    3.29410    2.56300   29.15730   30.45260   32.35270    0.11530
 12468.00000    0.09820   78.63950  122.53720    6.86280    0.00040   98.10910    3.27570    2.54280   29.91400   33.21570   37.15570    0.13750
 12468.50000    0.10460   76.41420  123.34470    6.85850    0.00110   96.01130    3.31450    2.54920   40.75050   42.01230   48.26780    0.12420
 12469.00000    0.09330   66.45050  116.52890    6.86180    0.01000   79.62410    3.48940    2.58550   46.04370   49.07590  107.43820    0.10050
 12469.50000    0.07360   59.49970  105.61520    6.86520    0.01540   61.26650    3.83280    2.61460  217.85560  332.54840  347.73710    0.07500
 12470.00000    0.05400   59.98800  104.17900    6.85600    0.01030   50.16080    4.38040    2.61430  261.54560  295.36080  342.11430    0.06020
 12470.50000    0.05890   61.20790  103.59500    6.86150    0.00400   46.28330    4.83340    2.61280  226.38980  229.24310  238.27360    0.05560
 12471.00000    0.05590   61.59490  104.55260    6.85580   -0.00240   46.25820    5.21930    2.62470  180.54070  218.15050  233.93440    0.05290
 12471.50000    0.04690   60.36590  104.34000    6.85460   -0.00870   43.64320    5.42630    2.63990  226.15780  248.36720  250.83020    0.04480
 12472.00000    0.03800   56.86150  102.44390    6.85350   -0.00750   37.84500    5.58860    2.65500  251.89240  382.05230  598.64110    0.03410
 12472.50000    0.02910   56.01530  100.54770    6.85240   -0.00110   32.24220    5.75090    2.68120  589.17080  701.71360  870.47910    0.02560
 12473.00000    0.02010   54.23950   98.65160    6.85130    0.00530   27.54660    5.91090    2.69400  618.01590  796.60770  872.07900    0.01850
 12473.50000    0.01170   53.41810   97.55680    6.85020    0.00530   25.59690    6.05430    2.70680  658.34620  828.38680 1057.40490    0.01340
 12474.00000   -0.00020   52.59660   96.71660    6.84910    0.00040   25.77660    5.98600    2.71470  574.26770  633.18840  757.16030    0.01260
 12474.50000   -0.00120   52.42900   96.81630    6.86180   -0.00570   28.45770    5.85340    2.70080  522.44950  571.39410  694.19490    0.01740
 12475.00000    0.00770   54.14740  101.91250    6.87460   -0.00630   34.13200    5.84350    2.67430  471.85720  511.65550  627.90220    0.02810
 12475.50000    0.01910   56.09400  102.31410    6.88740    0.00060   40.13800    6.11100    2.66830  111.26190  153.87580  299.15410    0.03890
 12476.00000    0.02620   59.55070   95.20200    6.90020   -0.00200   44.20040    6.38950    2.67830   62.88380   69.14520   79.80760    0.04620
 12476.50000    0.02110   55.29330  101.14920    6.89880   -0.00630   46.13380    6.49570    2.67830  146.63340  220.15410  346.46350    0.04420
 12477.00000    0.02030   52.48630  102.39430    6.90920   -0.01000   45.28700    6.33080    2.66610  206.88680  243.23350  275.94640    0.04210
 12477.50000    0.03320   51.08000   94.76080    6.91790   -0.00860   44.35150    5.64480    2.63540  154.81560  191.61000  207.24820    0.04650
 12478.00000    0.05740   52.41500   92.64680    6.91560   -0.00660   44.15010    4.82250    2.60470  189.66530  218.77300  254.41510    0.05550
 12478.50000    0.07310   55.82500   98.41960    6.91330   -0.00450   44.75420    4.00030    2.56520  201.73830  218.44820  262.06600    0.06460
 12479.00000    0.08750   60.93370  115.47120    6.91090   -0.00250   55.34620    3.47570    2.53200  182.97210  222.23100  241.43150    0.07910
 12479.50000    0.10440   67.27410  132.52280    6.90860   -0.00040   74.53780    3.18330    2.49870   76.60130  108.90030  102.43160    0.09360
 12480.00000    0.13380   74.03280  149.57450    6.90630    0.00000   92.90030    3.12310    2.46550   52.27030   56.35820   81.97670    0.13360
 12480.50000    0.15200   84.58660  158.77970    6.90400   -0.00300  109.59210    3.10300    2.46550   34.27810   38.02000   40.30380    0.16560
 12481.00000    0.13180   74.19390  166.02340    6.90170   -0.00670  109.58930    3.26370    2.51110   38.28840   39.44210   40.14260    0.15070
 12481.50000    0.10400   65.16410  173.26700    6.89940   -0.00410   90.83730    3.51690    2.55670   39.10010   40.16220   43.02630    0.11950
 12482.00000    0.07200   55.86570  180.51070    6.89710    0.00020   72.28670    4.09750    2.60230   40.04270   42.24660   53.17270    0.08970
 12482.50000    0.04610   54.57670  180.64490    6.89480    0.00200   53.73600    4.87260    2.64500  106.62100  335.13320  752.59660    0.05990
 12483.00000    0.02400   52.03900   99.27580    6.89250   -0.00240   37.67100    5.64760    2.67570  902.54550  947.08000 1133.39820    0.04320
 12483.50000    0.01690   52.42160   99.49400    6.89020   -0.00670   34.33950    6.06420    2.68210  887.17940  910.43210 1102.53730    0.02920
 12484.00000    0.02420   54.45590  100.08140    6.88730   -0.00610   39.28380    6.07250    2.66920  333.42330  534.16470 1068.58210    0.02800
 12484.50000    0.03620   57.82610  101.61600    6.88410   -0.00530   46.80120    5.64910    2.65220  168.24350  174.26370  184.55770    0.03800
 12485.00000    0.04750   61.74690  104.78100    6.88090   -0.00470   55.63800    5.34930    2.62790  129.76060  128.88010  153.98650    0.04980
 12485.50000    0.06010   62.81030  107.94600    6.87770   -0.00470   61.12260    5.23360    2.60780  119.96670  123.00810  132.04490    0.06160
 12486.00000    0.06340   62.72170  110.15190    6.87450   -0.00470   63.75360    5.70200    2.60780   60.51780   76.27330   87.56780    0.06950
 12486.50000    0.06000   63.39840  109.18510    6.87130   -0.00470   62.76300    6.01340    2.61870   66.35230   75.24550   76.88890    0.07340
 12487.00000    0.05380   62.84340  107.57380    6.86810   -0.00470   59.19350    6.45120    2.63670   90.77920   93.04470   99.41830    0.06510
 12487.50000    0.04450   61.67970  104.78100    6.86490   -0.00550   53.61920    6.54670    2.65480   66.98890   97.28490  100.48890    0.05630
 12488.00000    0.03150   59.16080  110.19660    6.86170   -0.00610   45.91380    6.42670    2.67280  103.14220  109.64050  119.84580    0.04550
 12488.50000    0.01620   55.11380  139.28900    6.85850   -0.00680   36.55250    6.32930    2.69080  106.70530  191.73120  227.16450    0.03440
