~Version ---------------------------------------------------
VERS.   2.0 : CWLS log ASCII Standard -VERSION 2.0
WRAP.    NO : One line per depth step
DLM . SPACE : Column Data Section Delimiter
~Well ------------------------------------------------------
STRT .FT                 169.0 : START DEPTH
STOP .FT               13259.0 : STOP DEPTH
STEP .FT                   0.5 : STEP
NULL .                -9999.25 : NULL VALUE
COMP .                         : COMPANY
WELL .                         : WELL
FLD  .                         : FIELD
LOC  .                         : LOCATION
PROV .                         : PROVINCE
CNTY .                         : COUNTY
STAT .                         : STATE
CTRY .                         : COUNTRY
SRVC .                         : SERVICE COMPANY
DATE .                         : DATE
UWI  .                         : UNIQUE WELL ID
API  .                         : API NUMBER
SLAT .WGS84 2.2723299225234967 : SURFACE LATITUDE
SLON .WGS84  8.212745437215005 : SURFACE LONGITUDE
DATUM.F                    nan : DEPTH DATUM ELEV
~Curve Information -----------------------------------------
DEPT   .FT    : 
DPHZ_LS.DEC   : HGRD STANDARD RESOLUTION DENSITY POROSITY
DT     .US/F  : DELTA-T (INTERVAL TRANSIT TIME)
DTSM   .US/F  : DELTA-T SHEAR
HCALD  .IN    : HRCC CALIPER CALIBRATED FROM DENSITY LOG
HDRA   .G/C3  : HRDD SPINE AND RIBS DENSITY CORRECTION
HSGRD  .GAPI  : HNGS STANDARD GAMMA RAY FROM DENSITY LOG
PEFZ   .B/E   : HRDD STANDARD RESOLUTION FORMATION PHOTOELECTRIC FACTOR
RHOZ   .G/C3  : HRDD STANDARD RESOLUTION FORMATION DENSITY
RLA3   .OHMM  : APPARENT RESISTIVITY FROM COMPUTED FOCUSING MODE 3
RLA4   .OHMM  : APPARENT RESISTIVITY FROM COMPUTED FOCUSING MODE 4
RLA5   .OHMM  : APPARENT RESISTIVITY FROM COMPUTED FOCUSING MODE 5
TNPH_LS.DEC   : THERMAL NEUTRON POROSITY [LIMESTONE]
~Params ----------------------------------------------------
~Other -----------------------------------------------------
~ASCII -----------------------------------------------------
# ...
 13189.00000    0.09100   69.84830  128.54050    6.80940   -0.01190   -9999.25    3.95360    2.54350   27.76410   32.94460   32.79560    0.13030
 13189.50000    0.07280   69.04270  120.88700    6.80940   -0.00760   -9999.25    4.17100    2.56990   51.46300   92.16680  126.51580    0.10120
 13190.00000    0.04920   65.79800  112.22830    6.80450    0.00050   -9999.25    4.40460    2.60140  107.05700  124.05570  128.16130    0.08660
 13190.50000    0.02870   59.61820  102.06200    6.78940    0.00860   -9999.25    4.59180    2.63630  121.24400  126.38230  133.19210    0.08310
 13191.00000    0.01690   59.89870  102.21860    6.76940    0.00840   -9999.25    4.68660    2.67120  113.58570  126.96950  202.84480    0.07780
 13191.50000    0.01220   63.45140  103.00190    6.74810    0.00380   -9999.25    4.61250    2.68830  102.63670  120.65720  169.91430    0.07510
 13192.00000    0.02290   63.44820  103.74780    6.75620    0.00010   -9999.25    4.42700    2.68460   95.04010  109.36410  158.68820    0.07960
 13192.50000    0.04610   65.38790  104.34460    6.75330   -0.00220   -9999.25    4.24160    2.65380   75.86870   92.21390  138.87820    0.08230
 13193.00000    0.07150   69.50470  112.77690    6.75040   -0.00450   -9999.25    4.15090    2.61770   31.03220   52.83390   92.93620    0.08660
 13193.50000    0.08890   72.94090  118.88440    6.75260   -0.00780   -9999.25    4.08400    2.58170   30.16110   33.67360   50.28800    0.10120
 13194.00000    0.10630   73.23900  119.78590    6.75480   -0.01250   -9999.25    4.02820    2.54560   24.23520   28.92070   43.23450    0.11230
 13194.50000    0.11380   78.27420  125.61930    6.75710   -0.01730   -9999.25    4.00360    2.53230   13.31860   16.90920   20.59200    0.12070
 13195.00000    0.11380   76.05330  125.91770    6.75590   -0.02210   -9999.25    4.04380    2.52770   17.90100   17.12520   21.80200    0.12130
 13195.50000    0.10780   71.74480  125.82820    6.74630   -0.02460   -9999.25    4.10800    2.53070   27.00940   20.92220   26.52310    0.11180
 13196.00000    0.09920   68.72750  121.70410    6.74090   -0.01680   -9999.25    4.16210    2.54660   22.05890   21.11710   29.48140    0.10100
 13196.50000    0.08730   68.16350  116.91250    6.74400   -0.00600   -9999.25    4.19480    2.56260   19.73090   26.79320   38.11440    0.09230
 13197.00000    0.07220   67.89310  127.17090    6.74090   -0.00190   -9999.25    4.18640    2.58510   18.58540   24.66520   45.97300    0.09310
 13197.50000    0.07310   72.58300  158.72490    6.74440   -0.00050   -9999.25    4.12060    2.59660   14.25900   17.34940   22.59220    0.10140
 13198.00000    0.09390   83.04790  165.13170    6.75820    0.00620   -9999.25    3.84500    2.57800    9.93260   12.50790   13.54810    0.10920
 13198.50000    0.11640   94.57910  164.26850    6.76150    0.01290   -9999.25    3.56940    2.54740    8.83780    9.42660   11.52690    0.11840
 13199.00000    0.12980   98.54980  162.80680    6.76850    0.01220   -9999.25    3.29380    2.51690    9.64830    9.85440   10.61560    0.13470
 13199.50000    0.13750   97.40180  163.16250    6.76200    0.00600   -9999.25    3.04510    2.49150   11.19740   11.33320   12.35850    0.16150
 13200.00000    0.13830   95.52740  162.50760    6.76200   -0.00010   -9999.25    2.87200    2.48910   12.12380   12.39160   12.87110    0.19100
 13200.50000    0.13760   94.16130  160.32910    6.76200   -0.00620   -9999.25    2.85230    2.48850   11.84930   12.44800   12.72440    0.18770
 13201.00000    0.13830   94.61790  158.45640    6.77010   -0.01050   -9999.25    2.89720    2.48760   10.66340   11.03350   11.27220    0.19350
 13201.50000    0.13990   95.69640  159.57540    6.77320   -0.00720   -9999.25    2.91990    2.48530   10.48170   10.65830   11.22300    0.19930
 13202.00000    0.14030   96.93590  162.70840    6.77590   -0.00380   -9999.25    2.92030    2.48310    9.73410   10.05070   10.08540    0.20510
 13202.50000    0.13040   90.95820  165.84140    6.77750   -0.00410   -9999.25    2.96080    2.48260    9.03130    9.44310    9.70410    0.20650
 13203.00000    0.11700   85.54690  170.67520    6.77800   -0.01220   -9999.25    3.25660    2.50830    8.60930    9.03650    9.33710    0.17640
 13203.50000    0.10260   81.84300  169.33250    6.76930   -0.01930   -9999.25    3.66000    2.54040    9.28690    9.63420   10.31460    0.14890
 13204.00000    0.11050   80.96400  158.32210    6.76060   -0.02380   -9999.25    3.85870    2.53840   10.81910   11.69540   15.41390    0.14770
 13204.50000    0.12030   82.31340  167.87210    6.77540   -0.02310   -9999.25    3.81440    2.52870   13.53520   14.69560   15.38550    0.16170
 13205.00000    0.12670   90.57400  177.32390    6.77590   -0.01910   -9999.25    3.63610    2.51890   14.67780   14.99000   15.48440    0.19140
 13205.50000    0.12950   93.08040  169.37010    6.77640   -0.01230   -9999.25    3.47130    2.50920   14.67620   15.03260   15.78140    0.23140
 13206.00000    0.13470   93.45500  164.94330    6.77700   -0.01400   -9999.25    3.41800    2.49940   14.29130   14.65960   14.67460    0.24050
 13206.50000    0.14010   93.02270  164.61680    6.77750   -0.01560   -9999.25    3.35130    2.48970   14.05950   14.28660   14.67290    0.22550
 13207.00000    0.13910   90.48640  164.25870    6.77800   -0.01490   -9999.25    3.30310    2.48320   14.05810   14.41820   16.53460    0.21260
 13207.50000    0.12610   88.95360  164.00000    6.77860   -0.00940   -9999.25    3.23290    2.50370   17.03500   17.41330   17.93590    0.19150
 13208.00000    0.10870   91.61310  164.68880    6.78360   -0.00250   -9999.25    3.15560    2.52770   17.47520   17.71720   20.26070    0.16260
 13208.50000    0.09390   94.79980  160.07260    6.80830    0.00450   -9999.25    3.10480    2.55170   17.10400   17.61180   25.44310    0.14300
 13209.00000    0.10240   98.85190  153.86570    6.79200    0.00140   -9999.25    3.10220    2.55580   13.63820   16.48250   17.59010    0.13180
 13209.50000    0.12100   96.77530  155.74390    6.78700   -0.00390   -9999.25    3.14010    2.53130   16.24870   16.95070   17.51740    0.13490
 13210.00000    0.13940   96.61590  155.83020    6.78510   -0.00870   -9999.25    3.19270    2.50160   17.98270   18.68800   19.60150    0.14180
 13210.50000    0.14380   96.45070  156.57920    6.78780   -0.00880   -9999.25    3.18280    2.48050   18.86480   19.47410   20.15560   -9999.25
 13211.00000    0.14150   97.87920  161.05810    6.79050   -0.00580   -9999.25    3.10320    2.47900   18.33830   18.70510   19.32190   -9999.25
 13211.50000    0.13770   99.30770  163.26080    6.79040   -0.00220   -9999.25    3.02360    2.48560   15.39390   17.67280   18.28750   -9999.25
 13212.00000    0.13500   99.68870  165.61150    6.78610   -0.00150   -9999.25    2.99400    2.48890   12.86840   14.09970   13.81700   -9999.25
 13212.50000    0.13700   95.50510  170.15330    6.78180   -0.00360   -9999.25    3.03350    2.48920   11.57380   11.97570   13.75970   -9999.25
 13213.00000    0.12210   83.33830  154.84640    6.77750   -0.00870   -9999.25    3.10000    2.48930    9.83450   10.13820   10.41660   -9999.25
 13213.50000    0.08420   69.98190  141.41920    6.77320   -0.01390   -9999.25    3.35390    2.56320   10.07640   10.28120   10.83510   -9999.25
 13214.00000    0.03320   62.96270  133.22940    6.76890   -0.01560   -9999.25    3.89480    2.65570   29.25740  111.27900  610.97510   -9999.25
 13214.50000   -0.01340   56.13010  143.97550    6.76460   -0.01410   -9999.25    4.46790    2.72970  100.04270  374.84470  856.53870   -9999.25
 13215.00000    0.00310   55.01890  154.72160    6.76030   -0.00890   -9999.25    5.10690    2.72040   64.33490  141.67720  296.06770   -9999.25
 13215.50000    0.03220   65.96870  154.80830    6.75590    0.00170   -9999.25    5.01260    2.67270   60.09250  120.32200  144.23560   -9999.25
 13216.00000    0.06220   73.36270  151.37030    6.77190    0.01240   -9999.25    4.95850    2.62500   57.09840   70.16410   93.71260   -9999.25
 13216.50000    0.06000   87.86800  153.31580    6.78530    0.02300   -9999.25    4.80340    2.61200   25.95480   23.80190   56.61740   -9999.25
