~Version ---------------------------------------------------
VERS.   2.0 : CWLS log ASCII Standard -VERSION 2.0
WRAP.    NO : One line per depth step
DLM . SPACE : Column Data Section Delimiter
~Well ------------------------------------------------------
STRT .F                5346.0 : START DEPTH
STOP .F               15814.0 : STOP DEPTH
STEP .F                   0.5 : STEP
NULL .               -9999.25 : NULL VALUE
COMP .                        : COMPANY
WELL .                        : WELL
FLD  .                        : FIELD
LOC  .                        : LOCATION
PROV .                        : PROVINCE
CNTY .                        : COUNTY
STAT .                        : STATE
CTRY .                        : COUNTRY
SRVC .                        : SERVICE COMPANY
DATE .                        : DATE
UWI  .                        : UNIQUE WELL ID
API  .                        : API NUMBER
SLAT .WGS84 5.848151817335399 : SURFACE LATITUDE
SLON .WGS84 4.674330530443001 : SURFACE LONGITUDE
DATUM.F                   nan : DEPTH DATUM ELEV
~Curve Information -----------------------------------------
DEPT  .F     : 
DTCO  .US/F  : COMPRESSIONAL-WAVE INTERVAL TRANSIT TIME ACOUSTIC SLOWNESS
DTSM  .US/F  : SHEAR-WAVE INTERVAL TRANSIT TIME DELTA-T
AT20  .OHMM  : 20-IN. RESISTIVITY, 2-FT RESOLUTION
AT30  .OHMM  : 30-IN. RESISTIVITY, 2-FT RESOLUTION
AT60  .OHMM  : 60-IN. RESISTIVITY, 2-FT RESOLUTION
GRR   .GAPI  : GAMMA RAY FROM RESISTIVITY
SPR   .MV    : SPONTANEOUS POTENTIAL FROM RES.
HCAL  .IN    : HILT CALIPER FROM DENSITY LOG
HDRA  .G/C3  : DELTA RHO HIP TOOL
PEFZ  .B/E   : HILT PHOTOELECTRIC FACTOR
RHOZ  .G/C3  : HILT BULK DENSITY
DPHZ  .DEC   : DENSITY POROSITY LIMESTONE
NPHI  .DEC   : NEUTRON POROSITY LIMESTONE
AF20  .OHMM  : 20-IN. RESISTIVITY, 4-FT RESOLUTION
AF60  .OHMM  : 60-IN. RESISTIVITY, 4-FT RESOLUTION
AFCO60.MMHO  : 60-IN CONDUCTIVITY, 4-FT RESOLUTION
~Params ----------------------------------------------------
~Other -----------------------------------------------------
~ASCII -----------------------------------------------------
# ...
 11903.50000   80.11950  132.01270    4.16690    5.12680    5.65540  102.69540    6.96260   14.36570    0.24940    3.56820    2.29690    0.25330    0.48200   -9999.25   -9999.25   -9999.25
 11904.00000   76.61500  125.07840    4.11460    4.91930    6.06040  102.23640    6.36010   15.13880    0.24870    3.43340    2.25180    0.28790    0.47720   -9999.25   -9999.25   -9999.25
 11904.50000   74.80590  122.35780    4.31880    4.95410    6.72300  101.73790    5.45710   15.21480    0.22000    3.41880    2.18120    0.30000    0.49370   -9999.25   -9999.25   -9999.25
 11905.00000   78.40630  127.76360    4.44000    5.10980    6.05990   98.92380    5.76660   15.45760    0.19160    3.38950    2.09260    0.29990    0.51330   -9999.25   -9999.25   -9999.25
 11905.50000   79.00290  132.56740    3.92000    4.95550    6.67620   95.01260    6.07610   15.26080    0.18180    3.36000    2.04000    0.29990    0.54010   -9999.25   -9999.25   -9999.25
 11906.00000   73.58610  131.35170    4.03010    4.53010    5.13230   92.67190    5.77840   15.79140    0.18100    3.30040    2.00000    0.29990    0.57080   -9999.25   -9999.25   -9999.25
 11906.50000   68.47130  124.11640    4.34880    4.45760    5.38690   93.12190    5.17760   17.00400    0.15090    3.36690    2.00020    0.29980    0.53100   -9999.25   -9999.25   -9999.25
 11907.00000   63.95750  119.28890    4.05810    4.17050    5.20350   94.02650    5.18360   18.09520    0.08110    3.70780    2.00000    0.30000    0.41100   -9999.25   -9999.25   -9999.25
 11907.50000   60.34530  113.85950    5.81560    7.61240    7.88120   95.15840    5.79670   14.88340    0.08490    4.14450    2.00170    0.29980    0.28590   -9999.25   -9999.25   -9999.25
 11908.00000   56.73310  109.63400   12.17380   12.96590   19.40780   97.42660    6.10620   15.09570    0.09400    4.41570    2.22930    0.14560    0.22760   -9999.25   -9999.25   -9999.25
 11908.50000   56.12610  106.91340   22.30410   32.83240   36.22520   99.69600    6.45400    9.58090    0.09550    4.49150    2.60350    0.00830    0.17520   -9999.25   -9999.25   -9999.25
 11909.00000   56.72120  105.99860   24.23770   34.23030   38.29110   99.00850    7.08140    9.53580    0.03610    4.43190    2.71780   -0.00920    0.15170   -9999.25   -9999.25   -9999.25
 11909.50000   58.53520  108.43250   19.02620   17.38860   26.17380   95.82220    7.94650    9.49070   -0.00750    4.38730    2.70580    0.00320    0.14020   -9999.25   -9999.25   -9999.25
 11910.00000   59.75500  110.18570   18.12790   15.25090   22.63760   92.18140    8.55950    9.46060   -0.00290    4.35780    2.72310   -0.00320    0.13640   -9999.25   -9999.25   -9999.25
 11910.50000   59.10630  110.47790   16.23010   17.27820   18.01840   88.76780    8.86900    9.43070    0.00460    4.35590    2.72530   -0.00980    0.13250   -9999.25   -9999.25   -9999.25
 11911.00000   57.59770  110.76700   15.89780   18.26590   15.91040   88.53600    9.48200    9.41580    0.01370    4.49440    2.72760   -0.01070    0.12490   -9999.25   -9999.25   -9999.25
 11911.50000   55.48820  110.75230   22.31780   21.41900   14.64460   87.62240    9.48800    9.43130    0.02280    4.67550    2.71710   -0.00500    0.10780   -9999.25   -9999.25   -9999.25
 11912.00000   54.88120  110.74050   22.32000   20.98510   13.85780   83.07250    9.49400    9.44670    0.02350    4.84390    2.72460   -0.00950    0.08190   -9999.25   -9999.25   -9999.25
 11912.50000   54.27420  110.42770   22.94880   21.88150   14.24920   77.15890    9.50000    9.41670    0.01750    4.88720    2.73820   -0.01650    0.06500   -9999.25   -9999.25   -9999.25
 11913.00000   54.26830  108.91100   20.54570   22.34620   15.48500   67.60900    9.50600    9.43220    0.01070    4.87270    2.75320   -0.02370    0.05480   -9999.25   -9999.25   -9999.25
 11913.50000   54.26240  106.79230   18.51680   24.28620   17.66330   62.37720    9.51200    9.58400    0.00250    4.79830    2.75250   -0.02250    0.05080   -9999.25   -9999.25   -9999.25
 11914.00000   54.25650  104.07170   20.99260   25.32190   26.20780   62.12920    9.51800    9.67520   -0.00270    4.69360    2.74460   -0.01770    0.04960   -9999.25   -9999.25   -9999.25
 11914.50000   58.45800  107.37060   25.11920   35.29870   36.28450   66.02260   10.13100    9.73610   -0.00420    4.52880    2.66590    0.00020    0.05000   -9999.25   -9999.25   -9999.25
 11915.00000   66.56630  120.90280   17.77460   21.76040   21.00780   71.79730   11.04740    9.81210   -0.00120    4.34890    2.41140    0.04810    0.05610   -9999.25   -9999.25   -9999.25
 11915.50000   70.46720  123.61170   10.36170   12.77330   13.87140   80.11160   11.96390   11.02460    0.00710    4.15400    2.20240    0.30000    0.07610   -9999.25   -9999.25   -9999.25
 11916.00000   71.96870  126.43980    7.96670    9.58860    9.56520   90.77440   12.88040   12.59830    0.03790    3.91400    2.00270    0.30000    0.11160   -9999.25   -9999.25   -9999.25
 11916.50000   73.18630  131.69970    6.19880    6.42270    6.84950  104.84910   13.18990   15.23720    0.11010    3.70410    2.00200    0.30000    0.13930   -9999.25   -9999.25   -9999.25
 11917.00000   75.45000  136.80450    4.55480    4.08410    3.99350  102.79920   13.49940   13.48000    0.17100    3.44900    2.00130    0.30000    0.20610   -9999.25   -9999.25   -9999.25
 11917.50000   85.16790  146.72500    3.06680    3.32490    3.11330   98.70380   13.80890   13.41960    0.21390    3.17700    2.00130    0.30000    0.27920   -9999.25   -9999.25   -9999.25
 11918.00000   89.06880  162.06300    2.94230    4.06140    4.52460   95.51740   14.42190   13.72310    0.24930    2.97870    2.00130    0.30000    0.38550   -9999.25   -9999.25   -9999.25
 11918.50000   92.06820  167.46880    3.54720    4.66510    5.76530   93.01290   15.03490   13.72340    0.23200    2.93950    2.00960    0.30000    0.42500   -9999.25   -9999.25   -9999.25
 11919.00000   89.65810  168.06190    3.67250    3.95280    5.09080   94.37210   15.37580   13.79950    0.18020    3.21090    2.02460    0.30000    0.44080   -9999.25   -9999.25   -9999.25
 11919.50000   90.25320  169.55200    3.42730    3.58590    4.10850   96.64030   15.69980   14.31490    0.16970    3.40700    2.04790    0.30000    0.43690   -9999.25   -9999.25   -9999.25
 11920.00000   90.84990  172.85100    2.96400    3.27990    6.71600   98.90860   16.26830   12.14850    0.18170    3.55800    2.10950    0.30000    0.43090   -9999.25   -9999.25   -9999.25
 11920.50000   89.33990  174.94600    3.85590    4.21730    7.29850  100.72230   16.57630   11.51240    0.21410    3.63370    2.21100    0.29020    0.42150   -9999.25   -9999.25   -9999.25
 11921.00000   91.73820  176.74010    4.36770    6.20220    6.01370  102.53590   15.97530   12.37640    0.22240    3.66440    2.23880    0.27700    0.40980   -9999.25   -9999.25   -9999.25
 11921.50000   88.72700  176.72830    2.98550    3.82370    3.94350  101.16780   16.58980   13.55850    0.19530    3.57480    2.12300    0.30000    0.40130   -9999.25   -9999.25   -9999.25
 11922.00000   80.30640  161.46280    2.96520    3.28500    3.73150   99.34510   16.89930   14.21030    0.13290    3.56020    2.02090    0.30000    0.40430   -9999.25   -9999.25   -9999.25
 11922.50000   74.29000  150.74850    3.13440    3.47280    4.25660   98.88720   16.29680   13.89240    0.11270    3.56090    2.00000    0.30000    0.40250   -9999.25   -9999.25   -9999.25
 11923.00000   77.03640  157.42720    3.31310    3.77430    4.34640  102.06340   15.99930   15.10030    0.12810    3.56150    2.04280    0.30000    0.39650   -9999.25   -9999.25   -9999.25
 11923.50000   82.79370  173.06630    3.43010    3.88120    4.72360  105.24000   16.00680   15.83240    0.13600    3.57710    2.03890    0.30000    0.40260   -9999.25   -9999.25   -9999.25
 11924.00000   84.18960  175.46530    3.70480    4.48900    5.38800  107.73550   16.31630   14.49950    0.14060    3.59520    2.02100    0.30000    0.41280   -9999.25   -9999.25   -9999.25
 11924.50000   82.37910  170.63490    4.11600    4.64790    5.46370  105.23100   16.62580   13.51490    0.16310    3.62360    2.03290    0.30000    0.41930   -9999.25   -9999.25   -9999.25
