~Version ---------------------------------------------------
VERS.   2.0 : CWLS log ASCII Standard -VERSION 2.0
WRAP.    NO : One line per depth step
DLM . SPACE : Column Data Section Delimiter
~Well ------------------------------------------------------
STRT .F                5346.0 : START DEPTH
STOP .F               15814.0 : STOP DEPTH
STEP .F                   0.5 : STEP
NULL .               -9999.25 : NULL VALUE
COMP .                        : COMPANY
WELL .                        : WELL
FLD  .                        : FIELD
LOC  .                        : LOCATION
PROV .                        : PROVINCE
CNTY .                        : COUNTY
STAT .                        : STATE
CTRY .                        : COUNTRY
SRVC .                        : SERVICE COMPANY
DATE .                        : DATE
UWI  .                        : UNIQUE WELL ID
API  .                        : API NUMBER
SLAT .WGS84 5.848151817335399 : SURFACE LATITUDE
SLON .WGS84 4.674330530443001 : SURFACE LONGITUDE
DATUM.F                   nan : DEPTH DATUM ELEV
~Curve Information -----------------------------------------
DEPT  .F     : 
DTCO  .US/F  : COMPRESSIONAL-WAVE INTERVAL TRANSIT TIME ACOUSTIC SLOWNESS
DTSM  .US/F  : SHEAR-WAVE INTERVAL TRANSIT TIME DELTA-T
AT20  .OHMM  : 20-IN. RESISTIVITY, 2-FT RESOLUTION
AT30  .OHMM  : 30-IN. RESISTIVITY, 2-FT RESOLUTION
AT60  .OHMM  : 60-IN. RESISTIVITY, 2-FT RESOLUTION
GRR   .GAPI  : GAMMA RAY FROM RESISTIVITY
SPR   .MV    : SPONTANEOUS POTENTIAL FROM RES.
HCAL  .IN    : HILT CALIPER FROM DENSITY LOG
HDRA  .G/C3  : DELTA RHO HIP TOOL
PEFZ  .B/E   : HILT PHOTOELECTRIC FACTOR
RHOZ  .G/C3  : HILT BULK DENSITY
DPHZ  .DEC   : DENSITY POROSITY LIMESTONE
NPHI  .DEC   : NEUTRON POROSITY LIMESTONE
AF20  .OHMM  : 20-IN. RESISTIVITY, 4-FT RESOLUTION
AF60  .OHMM  : 60-IN. RESISTIVITY, 4-FT RESOLUTION
AFCO60.MMHO  : 60-IN CONDUCTIVITY, 4-FT RESOLUTION
~Params ----------------------------------------------------
~Other -----------------------------------------------------
~ASCII -----------------------------------------------------
# ...
 15300.50000   -9999.25   -9999.25    3.23730    3.28860    3.17710  109.37190  -13.03300    5.80340    0.10010    7.63120    2.39350    0.17970    0.27290   -9999.25   -9999.25   -9999.25
 15301.00000   -9999.25   -9999.25    3.17150    3.19890    3.11240  108.23060  -13.33980    5.81870    0.10100    7.41410    2.40710    0.17400    0.26990   -9999.25   -9999.25   -9999.25
 15301.50000   -9999.25   -9999.25    3.10720    3.13330    3.07020  107.99700  -13.34270    5.75850    0.10080    7.24910    2.41540    0.17310    0.26480   -9999.25   -9999.25   -9999.25
 15302.00000   -9999.25   -9999.25    3.08660    3.11190    3.09220  107.99040  -13.34570    5.80430    0.10770    6.96370    2.42970    0.16310    0.26660   -9999.25   -9999.25   -9999.25
 15302.50000   -9999.25   -9999.25    3.08750    3.11210    3.11430  108.21060  -13.34870    5.91070    0.11210    6.84360    2.48770    0.13750    0.27470   -9999.25   -9999.25   -9999.25
 15303.00000   -9999.25   -9999.25    3.11250    3.15580    3.15860  112.06170  -13.39520    6.13820    0.09940    6.90410    2.50870    0.11830    0.27910   -9999.25   -9999.25   -9999.25
 15303.50000   -9999.25   -9999.25    3.17610    3.20000    3.18120  114.09740  -13.35450    5.98700    0.09190    6.99460    2.50950    0.11800    0.27140   -9999.25   -9999.25   -9999.25
 15304.00000   -9999.25   -9999.25    3.22130    3.24490    3.24870  113.40990  -13.96360    5.74480    0.09720    7.00990    2.51960    0.10810    0.26090   -9999.25   -9999.25   -9999.25
 15304.50000   -9999.25   -9999.25    3.26710    3.29040    3.31760  106.29270  -14.26970    5.88160    0.10470    6.93510    2.59150    0.06990    0.26100   -9999.25   -9999.25   -9999.25
 15305.00000   -9999.25   -9999.25    3.38310    3.38320    3.41160   99.37000  -13.97030    5.50310    0.10770    6.89020    2.61640    0.05700    0.26850   -9999.25   -9999.25   -9999.25
 15305.50000   -9999.25   -9999.25    3.33750    3.29090    3.34200   94.09930  -13.36650    5.73060    0.10250    6.78530    2.59990    0.05820    0.27710   -9999.25   -9999.25   -9999.25
 15306.00000   -9999.25   -9999.25    3.13670    3.13530    3.09740   93.86740  -13.06640    5.79150    0.09650    6.64780    2.57050    0.07860    0.27290   -9999.25   -9999.25   -9999.25
 15306.50000   -9999.25   -9999.25    3.03080    3.04980    2.97180   96.12830  -12.16100    5.71610    0.08750    6.50750    2.55400    0.09010    0.26440   -9999.25   -9999.25   -9999.25
 15307.00000   -9999.25   -9999.25    2.98970    2.98720    2.85140  101.56790  -12.77000    5.77710    0.08370    6.16970    2.56450    0.08360    0.25990   -9999.25   -9999.25   -9999.25
 15307.50000   -9999.25   -9999.25    3.09610    2.96680    2.77380  105.19210  -13.07600    5.80750    0.08830    5.89930    2.59690    0.06240    0.26500   -9999.25   -9999.25   -9999.25
 15308.00000   -9999.25   -9999.25    3.14010    2.96700    2.89230  107.22780  -13.07900    5.68670    0.09060    5.74920    2.61950    0.05580    0.26470   -9999.25   -9999.25   -9999.25
 15308.50000   -9999.25   -9999.25    3.11930    2.92640    2.99490  107.67660  -13.38500    5.64150    0.08430    5.76450    2.60820    0.05790    0.25720   -9999.25   -9999.25   -9999.25
 15309.00000   -9999.25   -9999.25    3.07720    2.96740    3.12270  106.98750  -13.38800    5.68730    0.07790    5.88510    2.59540    0.06660    0.24150   -9999.25   -9999.25   -9999.25
 15309.50000   -9999.25   -9999.25    3.09950    3.03000    3.39440  106.52700  -13.08790    5.74820    0.08460    5.96060    2.60860    0.06210    0.24120   -9999.25   -9999.25   -9999.25
 15310.00000   -9999.25   -9999.25    3.14370    3.11540    3.53920  106.74740  -13.07150    5.73340    0.08760    6.02110    2.64210    0.03830    0.23520   -9999.25   -9999.25   -9999.25
 15310.50000   -9999.25   -9999.25    3.21060    3.20310    3.39580  105.82740  -12.48780    5.68820    0.08170    6.02300    2.66550    0.02720    0.21830   -9999.25   -9999.25   -9999.25
 15311.00000   -9999.25   -9999.25    3.18910    3.20340    3.30360  101.90290  -12.49150    5.71880    0.07040    5.87130    2.63770    0.05280    0.19390   -9999.25   -9999.25   -9999.25
 15311.50000   -9999.25   -9999.25    3.16790    3.20360    3.28110  100.14600  -12.79750    5.77970    0.06140    5.71800    2.60760    0.06540    0.15310   -9999.25   -9999.25   -9999.25
 15312.00000   -9999.25   -9999.25    3.19100    3.31860    3.39790  101.04570  -13.10350    5.82550    0.05550    5.53390    2.59100    0.06870    0.10470   -9999.25   -9999.25   -9999.25
 15312.50000   -9999.25   -9999.25    3.39720    3.36720    3.44590  102.85440  -12.80270    5.71970    0.05170    5.37600    2.62340    0.05370    0.09140   -9999.25   -9999.25   -9999.25
 15313.00000   -9999.25   -9999.25    3.61660    3.45810    3.44660  104.66320  -12.80640    5.82610    0.05320    5.28610    2.63020    0.04660    0.09110   -9999.25   -9999.25   -9999.25
 15313.50000   -9999.25   -9999.25    3.74510    3.48240    3.49560  106.24500  -12.80930    5.88710    0.05780    5.22620    2.63850    0.04020    0.09200   -9999.25   -9999.25   -9999.25
 15314.00000   -9999.25   -9999.25    3.82470    3.48260    3.54510  107.82680  -12.81230    5.75100    0.06390    5.19640    2.64900    0.03740    0.09110   -9999.25   -9999.25   -9999.25
 15314.50000   -9999.25   -9999.25    3.87910    3.50710    3.54590  108.50260  -12.76910    5.88760    0.06530    5.13660    2.64380    0.03680    0.09050   -9999.25   -9999.25   -9999.25
 15315.00000   -9999.25   -9999.25    3.88020    3.53170    3.57120  107.58650  -13.12130    5.93320    0.06080    5.07670    2.63470    0.04320    0.09050   -9999.25   -9999.25   -9999.25
 15315.50000   -9999.25   -9999.25    3.85440    3.68190    3.69770  106.67210  -13.43450    5.70630    0.05330    4.97170    2.63250    0.04560    0.09200   -9999.25   -9999.25   -9999.25
 15316.00000   -9999.25   -9999.25    3.82890    3.53210    3.54780  106.21160  -14.33940    5.73700    0.04810    4.82170    2.64720    0.03650    0.09440   -9999.25   -9999.25   -9999.25
 15316.50000   -9999.25   -9999.25    3.83020    3.60660    3.62330  107.11270  -14.94910    5.70700    0.04430    4.65650    2.64910    0.03410    0.09410   -9999.25   -9999.25   -9999.25
 15317.00000   -9999.25   -9999.25    3.77850    3.76000    3.75180  108.46760  -14.64830    5.67690    0.04140    4.50460    2.65060    0.03750    0.09350   -9999.25   -9999.25   -9999.25
 15317.50000   -9999.25   -9999.25    3.35980    3.33880    3.38210  108.00700  -14.34820    5.67730    0.03990    4.41430    2.64460    0.03640    0.09500   -9999.25   -9999.25   -9999.25
 15318.00000   -9999.25   -9999.25    3.02910    3.03350    3.11280  114.35270  -14.04810    5.67760    0.03990    4.32670    2.64160    0.03890    0.09620   -9999.25   -9999.25   -9999.25
 15318.50000   -9999.25   -9999.25    3.48010    3.31980    3.65150  128.64250  -13.74810    5.67790    0.03990    4.29690    2.64540    0.04050    0.09560   -9999.25   -9999.25   -9999.25
 15319.00000   -9999.25   -9999.25    5.69160    5.74000    5.30990  139.52840  -13.44880    5.69340    0.04290    4.23700    2.62740    0.04830    0.09350   -9999.25   -9999.25   -9999.25
 15319.50000   -9999.25   -9999.25    7.66800    6.10970    6.27170  142.92570  -13.45170    5.70890    0.04900    4.13210    2.62730    0.04830    0.08950   -9999.25   -9999.25   -9999.25
 15320.00000   -9999.25   -9999.25    5.24060    5.03250    4.85440  125.89940  -13.45470    5.70920    0.05590    3.98200    2.62810    0.04740    0.08620   -9999.25   -9999.25   -9999.25
 15320.50000   -9999.25   -9999.25    4.92500    4.76140    5.65540  115.68090  -14.06370    5.67910    0.06020    3.71160    2.63040    0.04620    0.08830   -9999.25   -9999.25   -9999.25
 15321.00000   -9999.25   -9999.25    6.10640    5.82170    6.63400  105.56850  -14.06670    5.64920    0.06320    3.50140    2.63120    0.04590    0.09160   -9999.25   -9999.25   -9999.25
 15321.50000   -9999.25   -9999.25    7.26260    6.97160    7.67480   95.47030  -14.05260    5.66460    0.06470    3.26110    2.63350    0.04500    0.09340   -9999.25   -9999.25   -9999.25
