~Version ---------------------------------------------------
VERS.   2.0 : CWLS log ASCII Standard -VERSION 2.0
WRAP.    NO : One line per depth step
DLM . SPACE : Column Data Section Delimiter
~Well ------------------------------------------------------
STRT .F                5346.0 : START DEPTH
STOP .F               15814.0 : STOP DEPTH
STEP .F                   0.5 : STEP
NULL .               -9999.25 : NULL VALUE
COMP .                        : COMPANY
WELL .                        : WELL
FLD  .                        : FIELD
LOC  .                        : LOCATION
PROV .                        : PROVINCE
CNTY .                        : COUNTY
STAT .                        : STATE
CTRY .                        : COUNTRY
SRVC .                        : SERVICE COMPANY
DATE .                        : DATE
UWI  .                        : UNIQUE WELL ID
API  .                        : API NUMBER
SLAT .WGS84 5.848151817335399 : SURFACE LATITUDE
SLON .WGS84 4.674330530443001 : SURFACE LONGITUDE
DATUM.F                   nan : DEPTH DATUM ELEV
~Curve Information -----------------------------------------
DEPT  .F     : 
DTCO  .US/F  : COMPRESSIONAL-WAVE INTERVAL TRANSIT TIME ACOUSTIC SLOWNESS
DTSM  .US/F  : SHEAR-WAVE INTERVAL TRANSIT TIME DELTA-T
AT20  .OHMM  : 20-IN. RESISTIVITY, 2-FT RESOLUTION
AT30  .OHMM  : 30-IN. RESISTIVITY, 2-FT RESOLUTION
AT60  .OHMM  : 60-IN. RESISTIVITY, 2-FT RESOLUTION
GRR   .GAPI  : GAMMA RAY FROM RESISTIVITY
SPR   .MV    : SPONTANEOUS POTENTIAL FROM RES.
HCAL  .IN    : HILT CALIPER FROM DENSITY LOG
HDRA  .G/C3  : DELTA RHO HIP TOOL
PEFZ  .B/E   : HILT PHOTOELECTRIC FACTOR
RHOZ  .G/C3  : HILT BULK DENSITY
DPHZ  .DEC   : DENSITY POROSITY LIMESTONE
NPHI  .DEC   : NEUTRON POROSITY LIMESTONE
AF20  .OHMM  : 20-IN. RESISTIVITY, 4-FT RESOLUTION
AF60  .OHMM  : 60-IN. RESISTIVITY, 4-FT RESOLUTION
AFCO60.MMHO  : 60-IN CONDUCTIVITY, 4-FT RESOLUTION
~Params ----------------------------------------------------
~Other -----------------------------------------------------
~ASCII -----------------------------------------------------
# ...
 12871.00000   59.12120  103.20540   30.50590   30.44420   27.15630  119.53230  -16.49550   10.56940   -0.00850    3.47720    2.61400    0.05820    0.09360   -9999.25   -9999.25   -9999.25
 12871.50000   57.91520  102.00150   41.02260   39.36060   35.11570  113.39840  -16.79760   10.56920   -0.00380    3.43290    2.61480    0.05520    0.05500   -9999.25   -9999.25   -9999.25
 12872.00000   60.31830  104.10840   49.13890   49.84050   50.38220  101.36440  -17.40180   10.56910   -0.00090    3.40330    2.60680    0.06180    0.03120   -9999.25   -9999.25   -9999.25
 12872.50000   62.42060  105.61320   60.09760   67.64310   54.39030   95.83100  -17.70390   10.56890   -0.00240    3.38870    2.59890    0.06570    0.02520   -9999.25   -9999.25   -9999.25
 12873.00000   63.62060  108.02110   63.10110   64.90270   51.12090   91.36490  -18.30820   10.58400   -0.00390    3.46440    2.59080    0.06840    0.03030   -9999.25   -9999.25   -9999.25
 12873.50000   64.82070  109.22500   46.53630   49.19170   39.83950   89.76960  -18.91240   10.61400   -0.00160    3.51000    2.59010    0.07400    0.04060   -9999.25   -9999.25   -9999.25
 12874.00000   66.02150  109.82690   38.34120   35.76420   33.27450   93.62060  -19.51660   10.61390   -0.00150    3.52540    2.56830    0.08400    0.06070   -9999.25   -9999.25   -9999.25
 12874.50000   66.62000  109.22500   34.56740   32.91660   31.49210  101.78330  -19.81870   10.62900   -0.00230    3.49570    2.54210    0.09700    0.08000   -9999.25   -9999.25   -9999.25
 12875.00000   66.61630  108.92400   33.39870   33.38500   31.94290  107.22280  -19.81870   10.62880   -0.00750    3.45120    2.53310    0.10270    0.08540   -9999.25   -9999.25   -9999.25
 12875.50000   66.01180  109.22500   37.33110   38.36220   39.34450  108.80450  -19.81870   10.62860   -0.01280    3.43650    2.53530    0.09880    0.08240   -9999.25   -9999.25   -9999.25
 12876.00000   64.80590  110.12790   43.49080   44.08140   41.59990  109.25160  -19.81870   10.61330   -0.01350    3.42200    2.54140    0.09370    0.07970   -9999.25   -9999.25   -9999.25
 12876.50000   64.20140  111.63280   36.08430   40.01270   37.50570  109.70040  -19.81870   10.59800   -0.00750    3.43750    2.55120    0.08950    0.08470   -9999.25   -9999.25   -9999.25
 12877.00000   65.10070  112.83670   34.33650   34.83920   34.04400  109.92050  -19.81870   10.59790    0.00160    3.44530    2.55790    0.08700    0.08990   -9999.25   -9999.25   -9999.25
 12877.50000   65.69920  113.47210   38.96920   40.03350   37.53140  106.96200  -19.51660   10.58260    0.00310    3.45450    2.55950    0.08760    0.08540   -9999.25   -9999.25   -9999.25
 12878.00000   66.30490  114.04060   40.07830   39.31220   36.01400  104.00510  -18.91240   10.58240   -0.00080    3.48620    2.56100    0.08730    0.08510   -9999.25   -9999.25   -9999.25
 12878.50000   67.22300  114.94360   32.14530   27.92830   31.14350  104.90610  -18.61030   10.58220   -0.00810    3.52960    2.56250    0.08880    0.09140   -9999.25   -9999.25   -9999.25
 12879.00000   67.79560  115.24450   22.87960   21.91460   22.33250  107.39550  -18.30820   10.56690   -0.01180    3.56010    2.53980    0.09740    0.09710   -9999.25   -9999.25   -9999.25
 12879.50000   68.39340  115.24450   21.20570   21.76730   21.87830  109.43110  -18.00600   10.56680   -0.01260    3.54540    2.50320    0.11790    0.09950   -9999.25   -9999.25   -9999.25
 12880.00000   67.78890  115.24450   27.99170   31.22990   29.49290  109.19740  -18.00600   10.56660   -0.01180    3.53080    2.49350    0.12590    0.09920   -9999.25   -9999.25   -9999.25
 12880.50000   66.58300  115.24450   32.16150   31.67220   30.75400  108.51150  -18.61030   10.55130   -0.00730    3.53130    2.50330    0.11560    0.09650   -9999.25   -9999.25   -9999.25
 12881.00000   65.97850  114.64260   24.38540   20.89610   19.87590  117.98270  -18.00600   10.53600    0.00180    3.56180    2.53030    0.09790    0.10260   -9999.25   -9999.25   -9999.25
 12881.50000   65.37400  111.63280   23.88970   24.34840   23.16210  133.45850  -16.79760   10.52070    0.00860    3.62240    2.57690    0.07620    0.11850   -9999.25   -9999.25   -9999.25
 12882.00000   62.96500  108.32200   26.15310   24.86670   24.83410  138.21720  -16.49550   10.50540    0.01080    3.65300    2.60700    0.06020    0.13040   -9999.25   -9999.25   -9999.25
 12882.50000   61.45830  105.01130   28.82760   30.83910   30.37710  135.26030  -16.49550   10.49010    0.00640    3.65340    2.61680    0.05390    0.12780   -9999.25   -9999.25   -9999.25
 12883.00000   60.25230  102.90440   38.31400   36.43370   41.23110  123.45330  -16.79760   10.44450    0.00190    3.62380    2.60780    0.06500    0.09950   -9999.25   -9999.25   -9999.25
 12883.50000   59.34710  102.00150   57.68760   57.59820   61.24360  115.27710  -16.79760   10.42920    0.00040    3.57910    2.58600    0.07230    0.06880   -9999.25   -9999.25   -9999.25
 12884.00000   60.54720  103.20540   80.48220   91.05750   75.95960  106.72010  -17.40180   10.38360   -0.00030    3.53290    2.57850    0.07560    0.04390   -9999.25   -9999.25   -9999.25
 12884.50000   63.25100  105.91420   92.47910   90.45130   70.40430   96.58140  -18.00600   10.36830    0.00190    3.51980    2.58980    0.06890    0.03210   -9999.25   -9999.25   -9999.25
 12885.00000   63.84960  108.92400   77.79420   64.66520   48.76510   93.47200  -18.00600   10.33780    0.00040    3.58050    2.60800    0.06190    0.03330   -9999.25   -9999.25   -9999.25
 12885.50000   64.14740  111.34600   46.44880   46.44110   35.70390   95.15120  -18.00600   10.32250   -0.00330    3.64110    2.61630    0.05480    0.04780   -9999.25   -9999.25   -9999.25
 12886.00000   65.94890  113.76350   28.48840   28.30580   25.60270  102.79110  -18.00600   10.32240   -0.00550    3.65660    2.61920    0.05240    0.07310   -9999.25   -9999.25   -9999.25
 12886.50000   67.44970  115.28520   24.47910   23.74440   23.56620  111.60550  -18.00600   10.32220   -0.00020    3.65700    2.60190    0.06230    0.09650   -9999.25   -9999.25   -9999.25
 12887.00000   68.04820  115.84650   23.32780   23.26000   23.24760  114.77580  -17.66350   10.32210    0.00280    3.61240    2.61170    0.05600    0.10950   -9999.25   -9999.25   -9999.25
 12887.50000   67.04260  114.64260   24.15860   24.76600   24.24580  113.40740  -17.09970   10.35230    0.00210    3.58260    2.61250    0.06050    0.11400   -9999.25   -9999.25   -9999.25
 12888.00000   65.03400  114.04060   25.54450   26.73620   26.35900  104.55040  -16.49550   10.35210   -0.00020    3.59820    2.60130    0.07580    0.10810   -9999.25   -9999.25   -9999.25
 12888.50000   65.33250  113.43870   26.63820   26.55660   26.55160   99.77820  -16.19340   10.36710   -0.00470    3.62870    2.56600    0.09000    0.09980   -9999.25   -9999.25   -9999.25
 12889.00000   65.32880  112.83670   27.01920   27.69380   26.56070   99.09060  -15.89120   10.38210   -0.00690    3.62920    2.53820    0.09840    0.09680   -9999.25   -9999.25   -9999.25
 12889.50000   65.02510  113.13770   28.17590   28.47830   28.47550  106.11860  -15.89120   10.36680   -0.00540    3.61460    2.56000    0.08430    0.10410   -9999.25   -9999.25   -9999.25
 12890.00000   64.11990  113.43870   27.60330   27.70630   27.70590  114.73510  -15.58910   10.33630   -0.00300    3.61610    2.58180    0.07130    0.10980   -9999.25   -9999.25   -9999.25
 12890.50000   62.91390  113.73970   30.42860   29.70550   28.89550  117.67840  -15.89120   10.32100   -0.00160    3.64780    2.60510    0.06010    0.11160   -9999.25   -9999.25   -9999.25
 12891.00000   62.61020  114.04060   34.96440   38.14010   37.10330  118.57940  -15.58910   10.29060   -0.00150    3.61600    2.62470    0.05010    0.10350   -9999.25   -9999.25   -9999.25
 12891.50000   62.90870  114.04060   35.90480   36.59490   34.39260  121.29570  -15.28700   10.27530   -0.00150    3.55620    2.63370    0.04480    0.09350   -9999.25   -9999.25   -9999.25
 12892.00000   64.10800  113.73970   29.83300   26.60590   27.55680  129.69070  -14.68280   10.26000   -0.00150    3.63190    2.63220    0.04390    0.09890   -9999.25   -9999.25   -9999.25
