~Version ---------------------------------------------------
VERS.   2.0 : CWLS log ASCII Standard -VERSION 2.0
WRAP.    NO : One line per depth step
DLM . SPACE : Column Data Section Delimiter
~Well ------------------------------------------------------
STRT .F                5346.0 : START DEPTH
STOP .F               15814.0 : STOP DEPTH
STEP .F                   0.5 : STEP
NULL .               -9999.25 : NULL VALUE
COMP .                        : COMPANY
WELL .                        : WELL
FLD  .                        : FIELD
LOC  .                        : LOCATION
PROV .                        : PROVINCE
CNTY .                        : COUNTY
STAT .                        : STATE
CTRY .                        : COUNTRY
SRVC .                        : SERVICE COMPANY
DATE .                        : DATE
UWI  .                        : UNIQUE WELL ID
API  .                        : API NUMBER
SLAT .WGS84 5.848151817335399 : SURFACE LATITUDE
SLON .WGS84 4.674330530443001 : SURFACE LONGITUDE
DATUM.F                   nan : DEPTH DATUM ELEV
~Curve Information -----------------------------------------
DEPT  .F     : 
DTCO  .US/F  : COMPRESSIONAL-WAVE INTERVAL TRANSIT TIME ACOUSTIC SLOWNESS
DTSM  .US/F  : SHEAR-WAVE INTERVAL TRANSIT TIME DELTA-T
AT20  .OHMM  : 20-IN. RESISTIVITY, 2-FT RESOLUTION
AT30  .OHMM  : 30-IN. RESISTIVITY, 2-FT RESOLUTION
AT60  .OHMM  : 60-IN. RESISTIVITY, 2-FT RESOLUTION
GRR   .GAPI  : GAMMA RAY FROM RESISTIVITY
SPR   .MV    : SPONTANEOUS POTENTIAL FROM RES.
HCAL  .IN    : HILT CALIPER FROM DENSITY LOG
HDRA  .G/C3  : DELTA RHO HIP TOOL
PEFZ  .B/E   : HILT PHOTOELECTRIC FACTOR
RHOZ  .G/C3  : HILT BULK DENSITY
DPHZ  .DEC   : DENSITY POROSITY LIMESTONE
NPHI  .DEC   : NEUTRON POROSITY LIMESTONE
AF20  .OHMM  : 20-IN. RESISTIVITY, 4-FT RESOLUTION
AF60  .OHMM  : 60-IN. RESISTIVITY, 4-FT RESOLUTION
AFCO60.MMHO  : 60-IN CONDUCTIVITY, 4-FT RESOLUTION
~Params ----------------------------------------------------
~Other -----------------------------------------------------
~ASCII -----------------------------------------------------
# ...
 9990.00000   67.42800  120.90230   14.51090   11.89800   14.36200  122.39070    6.43300    9.19450    0.11680    3.79220    2.61580    0.06230    0.21930   -9999.25   -9999.25   -9999.25
 9990.50000   66.22200  126.61650   19.01930   18.41170   20.83960  116.01530    7.03550    8.90560    0.08830    3.68690    2.66780    0.03040    0.18830   -9999.25   -9999.25   -9999.25
 9991.00000   67.72290  132.63160   22.78070   23.46960   27.12370  104.18430    7.33160    8.81430    0.05540    3.59670    2.67840    0.01930    0.15430   -9999.25   -9999.25   -9999.25
 9991.50000   70.72740  137.44360   23.10330   23.47760   23.78220   98.72720    7.63060    8.76850    0.05090    3.55160    2.65440    0.03220    0.14320   -9999.25   -9999.25   -9999.25
 9992.00000   72.22900  139.24810   17.27470   19.79640   16.70480  101.58010    7.62320    8.72280    0.07120    3.61210    2.61680    0.06830    0.16090   -9999.25   -9999.25   -9999.25
 9992.50000   70.42080  136.24060   12.05090   11.19870   11.49280  109.92610    7.01020    8.75310    0.09310    3.73270    2.58440    0.07380    0.18650   -9999.25   -9999.25   -9999.25
 9993.00000   66.80880  124.51130    9.52370    9.95840   10.79890  116.96980    7.00430    8.67690    0.11410    3.83830    2.56560    0.09240    0.20990   -9999.25   -9999.25   -9999.25
 9993.50000   64.09910  113.98500    9.26580    9.82470   10.29070  120.83650    6.39140    8.78320    0.12620    3.91370    2.54010    0.12250    0.23820   -9999.25   -9999.25   -9999.25
 9994.00000   64.39690  112.78200    8.35100    8.55690    8.71560  121.98000    6.38540    8.70700    0.12920    3.95900    2.49870    0.15050    0.28120   -9999.25   -9999.25   -9999.25
 9994.50000   68.61880  117.13680    9.11130    9.11030    8.36150  122.21370    6.37940    8.91960    0.13310    3.92730    2.46530    0.13540    0.27850   -9999.25   -9999.25   -9999.25
 9995.00000   71.67110  124.81200   13.20590   12.97370   12.94300  117.23240    6.98050    8.63070    0.12480    3.83890    2.48070    0.11920    0.25500   -9999.25   -9999.25   -9999.25
 9995.50000   73.10920  130.82710   12.23990   14.10270   16.38450  107.93720    6.97310    8.82810    0.12940    3.77880    2.52580    0.08880    0.22640   -9999.25   -9999.25   -9999.25
 9996.00000   74.30920  137.44360   11.26550   12.18410   13.40410  101.59210    7.57560    8.55440    0.12340    3.74880    2.56740    0.08510    0.20050   -9999.25   -9999.25   -9999.25
 9996.50000   76.41160  145.26320   11.19150   12.68010   12.86140  103.64340    7.87170    8.93420    0.12950    3.77910    2.56440    0.07790    0.21820   -9999.25   -9999.25   -9999.25
 9997.00000   78.21310  151.27820    7.97120    9.25380    9.25200  112.95640    8.77770    8.61490    0.13710    3.80940    2.57580    0.08720    0.28380   -9999.25   -9999.25   -9999.25
 9997.50000   79.71400  155.48870    5.95980    6.87300    6.61500  123.17710    9.07520    8.64510    0.13860    3.83960    2.56150    0.08180    0.30580   -9999.25   -9999.25   -9999.25
 9998.00000   81.21480  156.99250    5.60060    6.02770    6.17330  125.01050    8.76430    9.05530    0.12970    3.83980    2.58570    0.06740    0.32050   -9999.25   -9999.25   -9999.25
 9998.50000   82.11480  156.09020    5.72020    5.86450    6.08930  125.23730    9.36530    9.40470    0.12520    3.85500    2.60680    0.06070    0.29490   -9999.25   -9999.25   -9999.25
 9999.00000   81.50960  153.68420    5.68220    5.94880    6.13320  121.84450    9.35940    9.08540    0.12230    3.91540    2.58430    0.07370    0.29640   -9999.25   -9999.25   -9999.25
 9999.50000   82.10820  151.27820    5.49020    5.99170    5.96700  120.03800    9.96050    9.89070    0.12160    4.02090    2.58730    0.06800    0.31080   -9999.25   -9999.25   -9999.25
 10000.00000   81.80450  147.36840    5.56830    5.59320    5.92640  120.27380   10.25800    9.20670    0.11080    4.17170    2.60470    0.06310    0.32380   -9999.25   -9999.25   -9999.25
 10000.50000   81.20000  141.50980    6.10520    5.83250    6.22290  121.19040   10.05690    9.34360    0.08040    4.26250    2.65030    0.02070    0.32560   -9999.25   -9999.25   -9999.25
 10001.00000   78.79040  133.10420    6.48910    6.47310    6.57900  121.88010    9.63850    9.14620    0.06690    4.08230    2.69210    0.01390    0.31110   -9999.25   -9999.25   -9999.25
 10001.50000   74.57690  119.39850    6.49120    6.64660    6.71860  121.88900    9.32910    9.23750    0.06920    3.78160    2.65820    0.02880    0.29190   -9999.25   -9999.25   -9999.25
 10002.00000   70.96500  115.18800    6.72190    6.81710    7.30270  118.94790    9.32310    9.90640    0.07750    3.57120    2.65520    0.04050    0.26090   -9999.25   -9999.25   -9999.25
 10002.50000   69.15750  112.78200    9.21020    8.48940    8.99220  111.56120    8.71020   10.27130    0.06480    3.45110    2.63570    0.04230    0.23590   -9999.25   -9999.25   -9999.25
 10003.00000   69.79290  114.26750   19.82640   17.33010   27.48570  102.84090    8.37890    8.61490    0.02650    3.36120    2.64320    0.04200    0.19320   -9999.25   -9999.25   -9999.25
 10003.50000   70.69810  119.67810   22.31140   24.85080   31.58510   99.89760    8.09100    8.56950    0.01940    3.34650    2.61910    0.05320    0.17150   -9999.25   -9999.25   -9999.25
 10004.00000   72.20480  124.18650   19.56410   18.58550   18.02470  103.30820    7.47680    8.63040    0.04910    3.39220    2.63570    0.04620    0.17800   -9999.25   -9999.25   -9999.25
 10004.50000   72.20780  127.24350   12.65480   12.88020   13.20100  108.53430    7.47080    8.72170    0.06800    3.42280    2.65760    0.02970    0.19850   -9999.25   -9999.25   -9999.25
 10005.00000   72.21070  128.39110   10.94460   11.37460   11.41770  112.39880    7.46490    8.61550    0.07020    3.40810    2.66590    0.02480    0.21390   -9999.25   -9999.25   -9999.25
 10005.50000   72.81520  127.78590    9.86740   10.39890   10.88150  115.58260    7.45890    8.52450    0.05710    3.37850    2.65690    0.03120    0.22470   -9999.25   -9999.25   -9999.25
 10006.00000   72.21670  126.88070    9.60000    9.97910   10.65980  116.95090    7.45290    8.53980    0.05080    3.37890    2.65840    0.03090    0.22650   -9999.25   -9999.25   -9999.25
 10006.50000   72.19330  125.67480   10.29340   10.40600   10.74060  114.91530    7.75190    8.63120    0.04850    3.38200    2.66450    0.02690    0.21830   -9999.25   -9999.25   -9999.25
 10007.00000   73.12480  125.37110   10.65990   11.46940   10.66970  110.38340    8.04950    8.55530    0.05080    3.42510    2.66000    0.02750    0.21500   -9999.25   -9999.25   -9999.25
 10007.50000   74.66470  127.77410   10.30040   11.79450   10.38330  109.02690    8.04200    8.69230    0.06440    3.48580    2.66750    0.02900    0.22280   -9999.25   -9999.25   -9999.25
 10008.00000   77.07640  131.98170    7.64860    9.32420    8.26410  114.02770    8.64450    8.66200    0.08990    3.54640    2.65700    0.03290    0.24720   -9999.25   -9999.25   -9999.25
 10008.50000   79.45020  138.59530    6.12940    7.07060    6.90430  120.84240    9.24550    8.57100    0.11550    3.62220    2.63890    0.04290    0.27500   -9999.25   -9999.25   -9999.25
 10009.00000   81.85920  144.90810    5.60330    6.24410    6.44460  125.38770    9.23800    9.40700    0.13360    3.69790    2.59980    0.06000    0.28080   -9999.25   -9999.25   -9999.25
 10009.50000   83.66670  150.01800    5.41430    5.86880    6.31400  127.66370    9.83910    9.99990    0.14260    3.72850    2.57870    0.07540    0.27750   -9999.25   -9999.25   -9999.25
 10010.00000   84.87260  153.62410    5.15960    5.67110    5.85360  127.67040   10.44010   10.21280    0.15170    3.75910    2.56070    0.09010    0.27810   -9999.25   -9999.25   -9999.25
 10010.50000   86.07860  155.42560    4.84930    5.40460    5.50190  128.35790   11.04110    9.95460    0.16820    3.80470    2.53740    0.09700    0.28170   -9999.25   -9999.25   -9999.25
 10011.00000   86.08150  154.07400    4.95370    5.15060    5.46610  130.40700   11.98630   10.06110    0.18780    3.85030    2.52840    0.10660    0.29130   -9999.25   -9999.25   -9999.25
