~Version ---------------------------------------------------
VERS.   2.0 : CWLS log ASCII Standard -VERSION 2.0
WRAP.    NO : One line per depth step
DLM . SPACE : Column Data Section Delimiter
~Well ------------------------------------------------------
STRT .F                5346.0 : START DEPTH
STOP .F               15814.0 : STOP DEPTH
STEP .F                   0.5 : STEP
NULL .               -9999.25 : NULL VALUE
COMP .                        : COMPANY
WELL .                        : WELL
FLD  .                        : FIELD
LOC  .                        : LOCATION
PROV .                        : PROVINCE
CNTY .                        : COUNTY
STAT .                        : STATE
CTRY .                        : COUNTRY
SRVC .                        : SERVICE COMPANY
DATE .                        : DATE
UWI  .                        : UNIQUE WELL ID
API  .                        : API NUMBER
SLAT .WGS84 5.848151817335399 : SURFACE LATITUDE
SLON .WGS84 4.674330530443001 : SURFACE LONGITUDE
DATUM.F                   nan : DEPTH DATUM ELEV
~Curve Information -----------------------------------------
DEPT  .F     : 
DTCO  .US/F  : COMPRESSIONAL-WAVE INTERVAL TRANSIT TIME ACOUSTIC SLOWNESS
DTSM  .US/F  : SHEAR-WAVE INTERVAL TRANSIT TIME DELTA-T
AT20  .OHMM  : 20-IN. RESISTIVITY, 2-FT RESOLUTION
AT30  .OHMM  : 30-IN. RESISTIVITY, 2-FT RESOLUTION
AT60  .OHMM  : 60-IN. RESISTIVITY, 2-FT RESOLUTION
GRR   .GAPI  : GAMMA RAY FROM RESISTIVITY
SPR   .MV    : SPONTANEOUS POTENTIAL FROM RES.
HCAL  .IN    : HILT CALIPER FROM DENSITY LOG
HDRA  .G/C3  : DELTA RHO HIP TOOL
PEFZ  .B/E   : HILT PHOTOELECTRIC FACTOR
RHOZ  .G/C3  : HILT BULK DENSITY
DPHZ  .DEC   : DENSITY POROSITY LIMESTONE
NPHI  .DEC   : NEUTRON POROSITY LIMESTONE
AF20  .OHMM  : 20-IN. RESISTIVITY, 4-FT RESOLUTION
AF60  .OHMM  : 60-IN. RESISTIVITY, 4-FT RESOLUTION
AFCO60.MMHO  : 60-IN CONDUCTIVITY, 4-FT RESOLUTION
~Params ----------------------------------------------------
~Other -----------------------------------------------------
~ASCII -----------------------------------------------------
# ...
 13344.00000   56.87770  102.37400   28.18470   30.69460   25.45310  174.34530  -13.29700   10.04730   -0.00740    4.09450    2.68280    0.00870    0.13880   -9999.25   -9999.25   -9999.25
 13344.50000   56.57480  101.16420   34.69830   40.42540   37.17440  147.44320  -13.60300   10.04710   -0.00580    3.84480    2.70370    0.00180    0.10560   -9999.25   -9999.25   -9999.25
 13345.00000   57.77410   99.95440   87.21850   62.83440   55.96500  126.92420  -12.99990   10.03180   -0.00350    3.69480    2.70580    0.00240    0.06440   -9999.25   -9999.25   -9999.25
 13345.50000   60.47790  102.95820  111.16060   83.94440   73.57790  102.52040  -12.39680   10.03160   -0.00130    3.57500    2.68930    0.01500    0.04540   -9999.25   -9999.25   -9999.25
 13346.00000   62.58020  105.36010   86.61610   80.53390   63.17660   92.74550  -12.09670   10.04670    0.00020    3.56030    2.67950    0.01680    0.03520   -9999.25   -9999.25   -9999.25
 13346.50000   63.78030  108.96590   63.85110   56.54880   49.22460   96.12500  -12.10040   10.04650    0.00020    3.65100    2.67800    0.01970    0.04630   -9999.25   -9999.25   -9999.25
 13347.00000   64.07820  113.17370   45.46630   47.40590   37.56390  111.84150  -12.10340   10.06160   -0.00430    3.78680    2.67280    0.02520    0.07610   -9999.25   -9999.25   -9999.25
 13347.50000   63.77440  113.76980   33.28500   36.93350   29.67710  127.81360  -12.10640   10.06130   -0.00950    3.93760    2.65400    0.03460    0.10890   -9999.25   -9999.25   -9999.25
 13348.00000   63.46590  111.31290   27.22480   26.56330   22.96330  139.78180  -12.41240   10.04600   -0.00570    3.99820    2.65930    0.02940    0.14290   -9999.25   -9999.25   -9999.25
 13348.50000   61.30950  108.55990   26.66470   27.80450   24.10970  142.73410  -12.41530   10.03070   -0.00190    3.99870    2.67810    0.01980    0.15890   -9999.25   -9999.25   -9999.25
 13349.00000   59.80270  105.62410   33.05520   34.10740   27.89360  140.30640  -12.72130   10.01540    0.00110    3.96900    2.69090    0.01080    0.15760   -9999.25   -9999.25   -9999.25
 13349.50000   59.25060  103.81230   34.00120   35.80780   29.08280  132.04730  -12.72430   10.00010    0.00190    3.87930    2.68570    0.01470    0.14710   -9999.25   -9999.25   -9999.25
 13350.00000   59.36310  103.80640   36.67630   34.83280   30.32170  112.95420  -12.72730    9.98480    0.00190    3.77440    2.68120    0.01710    0.11850   -9999.25   -9999.25   -9999.25
 13350.50000   59.71040  106.20830   48.74450   45.26240   44.35870   97.95200  -12.72120    9.98470    0.00030    3.63630    2.67520    0.01950    0.08290   -9999.25   -9999.25   -9999.25
 13351.00000   63.75300  110.11510   94.83820   76.31260   61.97980   94.99570  -12.71520    9.98450   -0.00430    3.48530    2.65950    0.03090    0.04960   -9999.25   -9999.25   -9999.25
 13351.50000   65.55460  116.13840   79.77330   60.72160   54.34250  102.49300  -12.70790    9.98440   -0.01010    3.44490    2.64820    0.03690    0.02580   -9999.25   -9999.25   -9999.25
 13352.00000   66.75460  117.94130   48.11300   44.11360   40.33990  123.59660  -12.09590    9.99940   -0.01080    3.67110    2.63920    0.03720    0.04350   -9999.25   -9999.25   -9999.25
 13352.50000   67.35320  119.46450   25.26220   19.89030   25.93610  146.57920  -11.48380   10.02950   -0.00700    3.82190    2.64980    0.03350    0.09470   -9999.25   -9999.25   -9999.25
 13353.00000   67.35020  120.94520   19.82520   17.92870   17.92820  151.07410  -10.26570   10.04460   -0.00700    3.95770    2.65880    0.02830    0.13350   -9999.25   -9999.25   -9999.25
 13353.50000   67.94880  121.84440   21.85260   21.93040   21.77970  155.21130   -9.65370   10.05960   -0.00690    3.92790    2.66340    0.02700    0.15250   -9999.25   -9999.25   -9999.25
 13354.00000   67.34430  122.14320   24.76270   22.86690   22.70820  154.30000   -9.34470   10.07460   -0.00460    3.89830    2.66580    0.02280    0.15860   -9999.25   -9999.25   -9999.25
 13354.50000   66.12160  120.33360   22.01640   20.05060   19.10120  152.68700   -9.03570   10.08960    0.00150    3.92890    2.66870    0.02580    0.16610   -9999.25   -9999.25   -9999.25
 13355.00000   64.93230  117.32090   22.17580   20.33620   18.71170  151.26820   -8.42370   10.08940    0.01070    3.97450    2.65890    0.02970    0.17500   -9999.25   -9999.25   -9999.25
 13355.50000   64.02650  114.30820   22.64780   21.35370   19.78590  147.02040   -8.11470   10.08920    0.01880    4.00500    2.66350    0.02730    0.17200   -9999.25   -9999.25   -9999.25
 13356.00000   63.12130  111.59640   23.14030   22.42210   21.65870  137.01820   -7.80570   10.10430    0.02330    4.00540    2.65980    0.02970    0.15850   -9999.25   -9999.25   -9999.25
 13356.50000   62.51680  109.78760   26.67050   26.30700   27.61670  124.31590   -7.79970   10.11920    0.01960    3.96080    2.66050    0.03270    0.14130   -9999.25   -9999.25   -9999.25
 13357.00000   63.41610  110.68760   36.45270   36.96410   38.00530  115.04390   -7.82760   10.11900    0.00610    3.94580    2.64780    0.03760    0.12660   -9999.25   -9999.25   -9999.25
 13357.50000   64.31540  113.09250   51.36250   49.82150   42.18070  114.73880   -7.48480   10.13410   -0.00370    3.90150    2.64410    0.02910    0.10970   -9999.25   -9999.25   -9999.25
 13358.00000   64.31250  114.29350   46.62910   45.20900   38.55710  117.91780   -7.17580   10.14910   -0.00670    3.90200    2.66290    0.01830    0.10940   -9999.25   -9999.25   -9999.25
 13358.50000   64.61030  115.19340   44.12630   40.31170   36.74000  127.00650   -7.77590   10.14890   -0.00060    3.91750    2.69000    0.01050    0.11750   -9999.25   -9999.25   -9999.25
 13359.00000   64.30660  114.85810   33.68490   30.68990   29.23210  133.59520   -8.07290   10.14800    0.00170    3.93300    2.69000    0.01300    0.12320   -9999.25   -9999.25   -9999.25
 13359.50000   63.70210  112.47800   29.53710   27.85350   25.10050  135.41110   -8.67150   10.14690   -0.00210    4.00260    2.67850    0.02160    0.12510   -9999.25   -9999.25   -9999.25
 13360.00000   62.49620  110.97010   29.54520   28.84610   26.91420  136.77250   -8.97010   10.14580   -0.00880    4.04810    2.65900    0.03090    0.12890   -9999.25   -9999.25   -9999.25
 13360.50000   61.59100  108.86030   30.38400   30.08010   27.29570  137.90720   -8.65960   10.14470   -0.00570    4.01820    2.65100    0.03570    0.13610   -9999.25   -9999.25   -9999.25
 13361.00000   61.28720  107.35250   32.34830   32.24910   29.67470  138.86360   -8.35060   10.14360    0.00190    3.91140    2.64650    0.03000    0.13220   -9999.25   -9999.25   -9999.25
 13361.50000   61.88580  107.04850   42.69340   42.86770   37.83780  133.40910   -8.95070   10.12820    0.00480    3.79070    2.67440    0.01770    0.11930   -9999.25   -9999.25   -9999.25
 13362.00000   63.38590  109.45340   51.18260   48.91900   41.41920  127.50000   -9.55230   10.12850    0.00410    3.68780    2.68340    0.01350    0.10720   -9999.25   -9999.25   -9999.25
 13362.50000   65.48820  113.36320   52.95440   50.30890   42.88950  123.63640  -10.75700   10.12880    0.00040    3.64290    2.68650    0.01230    0.09760   -9999.25   -9999.25   -9999.25
 13363.00000   66.68900  114.86510   51.42550   47.93790   39.75260  122.50000  -11.35850   10.11390   -0.00640    3.62800    2.67970    0.01770    0.10300   -9999.25   -9999.25   -9999.25
 13363.50000   67.58760  117.87200   45.49400   42.61800   36.08410  126.59090  -10.74500   10.09910   -0.00860    3.67330    2.67820    0.01920    0.11500   -9999.25   -9999.25   -9999.25
 13364.00000   67.88610  119.67490   38.80140   35.84350   29.51780  133.86360  -10.43600   10.08430   -0.00480    3.73350    2.67080    0.02190    0.13310   -9999.25   -9999.25   -9999.25
 13364.50000   67.88240  120.87580   27.63680   24.65350   23.32350  145.02650  -10.43010   10.08460   -0.00330    3.83900    2.66630    0.02520    0.16120   -9999.25   -9999.25   -9999.25
 13365.00000   67.87950  120.85150   20.23790   19.61550   19.07930  154.09090  -10.42410   10.08490   -0.00020    3.97440    2.66410    0.02610    0.17540   -9999.25   -9999.25   -9999.25
