~Version ---------------------------------------------------
VERS.   2.0 : CWLS log ASCII Standard -VERSION 2.0
WRAP.    NO : One line per depth step
DLM . SPACE : Column Data Section Delimiter
~Well ------------------------------------------------------
STRT .F                5346.0 : START DEPTH
STOP .F               15814.0 : STOP DEPTH
STEP .F                   0.5 : STEP
NULL .               -9999.25 : NULL VALUE
COMP .                        : COMPANY
WELL .                        : WELL
FLD  .                        : FIELD
LOC  .                        : LOCATION
PROV .                        : PROVINCE
CNTY .                        : COUNTY
STAT .                        : STATE
CTRY .                        : COUNTRY
SRVC .                        : SERVICE COMPANY
DATE .                        : DATE
UWI  .                        : UNIQUE WELL ID
API  .                        : API NUMBER
SLAT .WGS84 5.848151817335399 : SURFACE LATITUDE
SLON .WGS84 4.674330530443001 : SURFACE LONGITUDE
DATUM.F                   nan : DEPTH DATUM ELEV
~Curve Information -----------------------------------------
DEPT  .F     : 
DTCO  .US/F  : COMPRESSIONAL-WAVE INTERVAL TRANSIT TIME ACOUSTIC SLOWNESS
DTSM  .US/F  : SHEAR-WAVE INTERVAL TRANSIT TIME DELTA-T
AT20  .OHMM  : 20-IN. RESISTIVITY, 2-FT RESOLUTION
AT30  .OHMM  : 30-IN. RESISTIVITY, 2-FT RESOLUTION
AT60  .OHMM  : 60-IN. RESISTIVITY, 2-FT RESOLUTION
GRR   .GAPI  : GAMMA RAY FROM RESISTIVITY
SPR   .MV    : SPONTANEOUS POTENTIAL FROM RES.
HCAL  .IN    : HILT CALIPER FROM DENSITY LOG
HDRA  .G/C3  : DELTA RHO HIP TOOL
PEFZ  .B/E   : HILT PHOTOELECTRIC FACTOR
RHOZ  .G/C3  : HILT BULK DENSITY
DPHZ  .DEC   : DENSITY POROSITY LIMESTONE
NPHI  .DEC   : NEUTRON POROSITY LIMESTONE
AF20  .OHMM  : 20-IN. RESISTIVITY, 4-FT RESOLUTION
AF60  .OHMM  : 60-IN. RESISTIVITY, 4-FT RESOLUTION
AFCO60.MMHO  : 60-IN CONDUCTIVITY, 4-FT RESOLUTION
~Params ----------------------------------------------------
~Other -----------------------------------------------------
~ASCII -----------------------------------------------------
# ...
 14784.50000   71.27820  126.79700    9.93200    9.13840    8.70520  110.47830   -8.18180    9.01520    0.04480    3.69000    2.61090    0.05310    0.17800   -9999.25   -9999.25   -9999.25
 14785.00000   68.87220  125.59900   12.40250   12.57580   12.93000  107.93180   -8.48480    9.01520    0.03660    3.72040    2.64700    0.03590    0.16740   -9999.25   -9999.25   -9999.25
 14785.50000   66.45660  122.89610   17.30520   18.04060   17.18620   89.51460   -8.18180    9.01520    0.02090    3.75070    2.68090    0.02030    0.14190   -9999.25   -9999.25   -9999.25
 14786.00000   65.23670  120.49420   19.88410   19.88430   19.61090   77.23530   -7.87880    9.00000    0.00590    3.82620    2.70120    0.00880    0.11600   -9999.25   -9999.25   -9999.25
 14786.50000   65.26320  118.69420   18.29990   19.21040   18.30060   73.59220   -7.87880    9.00000    0.00290    3.85660    2.70120    0.00400    0.08830   -9999.25   -9999.25   -9999.25
 14787.00000   66.46620  118.09820   15.71350   15.93310   14.66110   80.40370   -7.57580    9.00000    0.00370    3.84180    2.70350    0.00280    0.09970   -9999.25   -9999.25   -9999.25
 14787.50000   67.66920  118.40510   12.67620   12.85330   11.82720   88.35160   -7.27270    9.00000    0.00000    3.82700    2.69530    0.01900    0.11410   -9999.25   -9999.25   -9999.25
 14788.00000   68.27070  119.31390   10.63710   10.80940   10.66080   98.34490   -7.27270    8.99620   -0.00670    3.84240    2.66090    0.04260    0.13580   -9999.25   -9999.25   -9999.25
 14788.50000   67.96990  119.31980   10.91030   10.96260   11.34980  101.52000   -7.24630    8.98480   -0.01040    3.85780    2.63420    0.04610    0.14330   -9999.25   -9999.25   -9999.25
 14789.00000   67.06770  119.30910   13.88140   12.89310   12.95100  101.81730   -6.96970    8.98480   -0.00490    3.87310    2.63700    0.03230    0.13610   -9999.25   -9999.25   -9999.25
 14789.50000   65.56390  118.05570   15.08920   14.01470   13.50340   94.38700   -7.27270    8.96970    0.00420    3.87340    2.66990    0.01990    0.12500   -9999.25   -9999.25   -9999.25
 14790.00000   64.36090  114.82440   14.78150   14.47650   13.13720   85.88000   -9.09090    8.96970    0.01000    3.87370    2.68570    0.01150    0.11500   -9999.25   -9999.25   -9999.25
 14790.50000   63.45860  112.72340   14.68160   14.18130   12.95960   81.03820   -9.69700    8.96970    0.00550    3.87400    2.69400    0.00850    0.10860   -9999.25   -9999.25   -9999.25
 14791.00000   62.85710  111.52540   14.28350   14.28290   12.60760   82.16790  -10.60610    8.95450   -0.00340    3.87430    2.69480    0.00970    0.10270   -9999.25   -9999.25   -9999.25
 14791.50000   62.85710  111.53130   12.78590   12.35020   11.76460   90.11580  -11.81820    8.95450   -0.00720    3.85950    2.69330    0.01120    0.10120   -9999.25   -9999.25   -9999.25
 14792.00000   62.85710  111.83820    9.69030    9.42520    9.69440   96.24550  -12.72730    8.93940   -0.00640    3.85990    2.69110    0.01270    0.10210   -9999.25   -9999.25   -9999.25
 14792.50000   63.15790  112.14510    8.32030    8.32030    8.03670  100.38410  -13.03030    8.93940   -0.00480    3.83010    2.69040    0.00930    0.09570   -9999.25   -9999.25   -9999.25
 14793.00000   62.25560  111.24810   12.44370   13.15370   13.80850  101.45940  -13.33330    8.92420   -0.00250    3.80030    2.69870    0.00150    0.08790   -9999.25   -9999.25   -9999.25
 14793.50000   61.05260  109.14710   16.42550   17.85110   17.85180   92.58740  -13.03030    8.90910   -0.00100    3.74050    2.71910   -0.01030    0.07800   -9999.25   -9999.25   -9999.25
 14794.00000   60.15040  107.34720   21.63860   21.68160   22.29230   81.89890  -12.72730    8.90910   -0.00020    3.71070    2.74090   -0.02170    0.07070   -9999.25   -9999.25   -9999.25
 14794.50000   59.54890  105.84820   26.33390   22.60750   22.29690   77.57400  -12.72730    8.89390    0.00140    3.69590    2.75520   -0.02710    0.06440   -9999.25   -9999.25   -9999.25
 14795.00000   60.45110  106.45610   21.54150   19.88480   20.16510   78.70370  -12.77780    8.89390    0.00070    3.71130    2.75680   -0.02380    0.06830   -9999.25   -9999.25   -9999.25
 14795.50000   62.25560  107.97170   17.86650   17.37770   17.37810   91.65160  -13.33330    8.89390    0.00000    3.72660    2.74400   -0.01660    0.08030   -9999.25   -9999.25   -9999.25
 14796.00000   63.15790  110.10360   17.26020   16.90480   16.78830  106.87220  -13.93940    8.89390   -0.00150    3.78710    2.72300   -0.00270    0.09360   -9999.25   -9999.25   -9999.25
 14796.50000   63.45860  111.28970   19.15740   19.97150   19.69680  109.13990  -13.93940    8.89390   -0.00140    3.83250    2.70800    0.00840    0.11670   -9999.25   -9999.25   -9999.25
 14797.00000   63.45860  111.59780   23.92280   24.25700   25.28820   98.44970  -13.93940    8.87880   -0.00060    3.87790    2.69670    0.01200    0.10260   -9999.25   -9999.25   -9999.25
 14797.50000   62.55640  111.60380   27.87180   27.10930   27.67970   88.67030  -13.93940    8.87880    0.00020    3.86320    2.69710    0.00330    0.09180   -9999.25   -9999.25   -9999.25
 14798.00000   61.95490  110.40570   29.87810   27.87610   26.37340   80.02730  -14.54550    8.87880    0.00090    3.81680    2.71690   -0.00940    0.08390   -9999.25   -9999.25   -9999.25
 14798.50000   61.65410  108.90680   25.83510   23.77200   23.60810   77.97500  -15.45450    8.86360    0.00020    3.74110    2.73590   -0.02010    0.08540   -9999.25   -9999.25   -9999.25
 14799.00000   61.30040  107.70880   24.41850   24.10900   21.72620   79.59730  -15.75760    8.86360   -0.00050    3.72870    2.75260   -0.02440    0.08630   -9999.25   -9999.25   -9999.25
 14799.50000   60.45110  106.81170   24.80580   24.32650   22.49850   80.00720  -16.36360    8.86360   -0.00190    3.77420    2.73310   -0.01600    0.08480   -9999.25   -9999.25   -9999.25
 14800.00000   58.94740  105.61180   23.95210   23.62210   21.88850   79.08980  -16.36360    8.86360   -0.00260    3.83460    2.72590   -0.00760    0.07970   -9999.25   -9999.25   -9999.25
 14800.50000   58.33170  104.70000   26.71930   29.06450   28.49660   74.05980  -16.66340    8.87880   -0.00410    3.88000    2.72520   -0.00910    0.07030   -9999.25   -9999.25   -9999.25
 14801.00000   57.73830  104.39020   40.91760   36.55870   38.67610   65.03870  -16.66040    8.87880   -0.00560    3.88030    2.73340   -0.01150    0.06100   -9999.25   -9999.25   -9999.25
 14801.50000   57.73480  103.77940   34.35280   37.09960   37.62820   61.81090  -16.05140    8.89390   -0.00630    3.86550    2.74480   -0.01730    0.05160   -9999.25   -9999.25   -9999.25
 14802.00000   58.33330  104.07160   25.70030   26.41740   25.52450   64.08140  -15.74540    8.90600   -0.00700    3.82080    2.74100   -0.01880    0.04890   -9999.25   -9999.25   -9999.25
 14802.50000   59.23260  105.26670   27.55540   25.34460   23.32870   67.71550  -15.74240    8.92120   -0.00690    3.80600    2.73800   -0.01700    0.05450   -9999.25   -9999.25   -9999.25
 14803.00000   59.83120  106.76270   27.75290   25.88270   23.99150   71.57690  -16.04240    8.93640   -0.00610    3.82140    2.72750   -0.01190    0.06510   -9999.25   -9999.25   -9999.25
 14803.50000   60.73050  107.65690   25.36880   25.00570   21.93050   74.07470  -16.64550    8.95150   -0.00460    3.82170    2.72900   -0.00930    0.07180   -9999.25   -9999.25   -9999.25
 14804.00000   60.42680  107.32280   25.73020   25.89470   22.55360   75.43610  -16.94550    8.96970   -0.00230    3.74680    2.74630   -0.01520    0.07630   -9999.25   -9999.25   -9999.25
 14804.50000   58.92010  106.32980   28.75770   29.34380   26.27850   72.25210  -16.94240    8.95450   -0.00070    3.65690    2.76140   -0.02270    0.07870   -9999.25   -9999.25   -9999.25
 14805.00000   57.71410  104.61840   33.50720   33.95150   30.61850   65.20440  -16.93880    8.95450    0.00010    3.61200    2.76210   -0.02970    0.07060   -9999.25   -9999.25   -9999.25
 14805.50000   57.10970  104.30860   38.77130   37.68150   34.94080   57.02030  -16.93580    8.95450    0.00010    3.67250    2.76750   -0.03100    0.06390   -9999.25   -9999.25   -9999.25
