~Version ---------------------------------------------------
VERS.   2.0 : CWLS log ASCII Standard -VERSION 2.0
WRAP.    NO : One line per depth step
DLM . SPACE : Column Data Section Delimiter
~Well ------------------------------------------------------
STRT .F                5346.0 : START DEPTH
STOP .F               15814.0 : STOP DEPTH
STEP .F                   0.5 : STEP
NULL .               -9999.25 : NULL VALUE
COMP .                        : COMPANY
WELL .                        : WELL
FLD  .                        : FIELD
LOC  .                        : LOCATION
PROV .                        : PROVINCE
CNTY .                        : COUNTY
STAT .                        : STATE
CTRY .                        : COUNTRY
SRVC .                        : SERVICE COMPANY
DATE .                        : DATE
UWI  .                        : UNIQUE WELL ID
API  .                        : API NUMBER
SLAT .WGS84 5.848151817335399 : SURFACE LATITUDE
SLON .WGS84 4.674330530443001 : SURFACE LONGITUDE
DATUM.F                   nan : DEPTH DATUM ELEV
~Curve Information -----------------------------------------
DEPT  .F     : 
DTCO  .US/F  : COMPRESSIONAL-WAVE INTERVAL TRANSIT TIME ACOUSTIC SLOWNESS
DTSM  .US/F  : SHEAR-WAVE INTERVAL TRANSIT TIME DELTA-T
AT20  .OHMM  : 20-IN. RESISTIVITY, 2-FT RESOLUTION
AT30  .OHMM  : 30-IN. RESISTIVITY, 2-FT RESOLUTION
AT60  .OHMM  : 60-IN. RESISTIVITY, 2-FT RESOLUTION
GRR   .GAPI  : GAMMA RAY FROM RESISTIVITY
SPR   .MV    : SPONTANEOUS POTENTIAL FROM RES.
HCAL  .IN    : HILT CALIPER FROM DENSITY LOG
HDRA  .G/C3  : DELTA RHO HIP TOOL
PEFZ  .B/E   : HILT PHOTOELECTRIC FACTOR
RHOZ  .G/C3  : HILT BULK DENSITY
DPHZ  .DEC   : DENSITY POROSITY LIMESTONE
NPHI  .DEC   : NEUTRON POROSITY LIMESTONE
AF20  .OHMM  : 20-IN. RESISTIVITY, 4-FT RESOLUTION
AF60  .OHMM  : 60-IN. RESISTIVITY, 4-FT RESOLUTION
AFCO60.MMHO  : 60-IN CONDUCTIVITY, 4-FT RESOLUTION
~Params ----------------------------------------------------
~Other -----------------------------------------------------
~ASCII -----------------------------------------------------
# ...
 14311.50000   68.94070  116.74940   71.95470   50.98370   43.32780  116.69510  -13.26310    9.19700   -0.00030    3.66640    2.60370    0.06170    0.07470   -9999.25   -9999.25   -9999.25
 14312.00000   69.83560  123.07000   24.52280   30.10540   24.19990  131.24620  -13.86690    9.21210    0.01320    3.86820    2.61890    0.05210    0.12110   -9999.25   -9999.25   -9999.25
 14312.50000   70.12650  127.88560   17.35720   21.43740   17.71460  143.29610  -13.25710    9.22730    0.04530    4.09780    2.61870    0.05450    0.16860   -9999.25   -9999.25   -9999.25
 14313.00000   70.11420  130.59440   14.90980   16.82170   15.20990  150.57330  -12.64810    9.22730    0.06960    4.15820    2.61960    0.05390    0.20500   -9999.25   -9999.25   -9999.25
 14313.50000   69.80360  131.49740   13.91560   14.05000   13.42670  152.02300  -12.64510    9.22730    0.07540    4.08340    2.59410    0.06450    0.20770   -9999.25   -9999.25   -9999.25
 14314.00000   68.89150  131.19640   13.63130   12.93060   13.15150  153.30960  -12.64210    9.22730    0.04910    3.97840    2.58730    0.07160    0.19360   -9999.25   -9999.25   -9999.25
 14314.50000   68.58090  130.29350   13.91940   13.76820   14.00050  154.22310  -13.24590    9.22730    0.02960    3.94850    2.59260    0.06770    0.18240   -9999.25   -9999.25   -9999.25
 14315.00000   68.87220  129.99250   13.54150   12.93860   13.06470  155.81850  -13.84900    9.22730    0.01680    3.97900    2.60620    0.05950    0.17760   -9999.25   -9999.25   -9999.25
 14315.50000   70.06330  129.99250   13.26490   14.56160   15.64840  158.77750  -13.84530    9.21210    0.00930    4.02440    2.62880    0.04780    0.17400   -9999.25   -9999.25   -9999.25
 14316.00000   69.45190  129.08240   19.13980   18.82670   19.27040  165.37290  -13.84230    9.19700    0.02290    4.03970    2.62050    0.05320    0.17310   -9999.25   -9999.25   -9999.25
 14316.50000   68.84060  125.63660   15.34260   15.72460   14.20430  171.28650  -13.53630    9.19700    0.03570    4.07010    2.60630    0.06640    0.18240   -9999.25   -9999.25   -9999.25
 14317.00000   67.32700  119.27670   11.63700   11.19700   11.22200  171.32340  -13.23030    9.19700    0.03800    4.08540    2.58670    0.06940    0.20270   -9999.25   -9999.25   -9999.25
 14317.50000   65.21190  113.13770   13.64480   14.08070   14.40670  166.52270  -13.83330    9.18180    0.03420    4.08570    2.61910    0.04290    0.19900   -9999.25   -9999.25   -9999.25
 14318.00000   61.59300  107.72010   19.41690   20.48300   22.77370  145.16400  -15.04250    9.18180    0.03430    4.05590    2.66950    0.02160    0.16980   -9999.25   -9999.25   -9999.25
 14318.50000   58.87640  102.60350   63.79050   31.57670   45.43040  124.03210  -15.64550    9.16670    0.03200    3.75490    2.69960    0.00500    0.10110   -9999.25   -9999.25   -9999.25
 14319.00000   58.56580   99.29270  106.42350   72.75020   97.06550  116.76380  -15.64240    9.12120    0.02530    3.46690    2.68990    0.01640    0.04690   -9999.25   -9999.25   -9999.25
 14319.50000   58.85670   98.69070  134.64770  114.48450  118.70620  118.58650  -15.03270    9.10610    0.01400    3.36510    2.65080    0.03720    0.03940   -9999.25   -9999.25   -9999.25
 14320.00000   59.14790  101.70050   87.11020   87.37670   70.57150  129.50010  -15.33350    9.12120    0.00650    3.48580    2.61170    0.05610    0.05600   -9999.25   -9999.25   -9999.25
 14320.50000   60.04010  105.01130   44.40720   54.53740   39.69070  134.95910  -15.93590    9.12120    0.00130    3.59130    2.61700    0.04950    0.06530   -9999.25   -9999.25   -9999.25
 14321.00000   60.94190  107.72010   40.44400   40.64310   44.35480  138.42640  -16.23660    9.12120    0.00140    3.59160    2.64830    0.03140    0.06930   -9999.25   -9999.25   -9999.25
 14321.50000   61.52410  109.82690   54.89110   52.06280   53.12490  151.44350  -16.23290    9.12120    0.00440    3.60700    2.67460    0.01820    0.07710   -9999.25   -9999.25   -9999.25
 14322.00000   62.11570  110.12790   39.90080   46.09230   38.08850  164.51880  -16.22990    9.12120    0.00440    3.69750    2.68430    0.01250    0.09900   -9999.25   -9999.25   -9999.25
 14322.50000   62.40660  109.82690   30.05510   35.41110   30.09150  173.15960  -16.22690    9.12120    0.00520    3.78800    2.69080    0.01010    0.11790   -9999.25   -9999.25   -9999.25
 14323.00000   61.49210  108.92400   26.54140   26.55000   26.56360  171.80040  -16.22390    9.12120    0.00590    3.84850    2.69460    0.00850    0.12300   -9999.25   -9999.25   -9999.25
 14323.50000   60.88070  108.02110   25.99910   25.29700   27.69700  163.16860  -16.22100    9.12120    0.00600    3.83370    2.68860    0.00980    0.10410   -9999.25   -9999.25   -9999.25
 14324.00000   60.57260  108.94790   37.77420   32.48260   40.84770  151.09590  -16.21800    9.13640    0.00000    3.80390    2.65860    0.01970    0.07970   -9999.25   -9999.25   -9999.25
 14324.50000   61.46250  109.85820   49.81670   41.70650   45.01890  144.54000  -16.21500    9.13640   -0.00380    3.81930    2.64430    0.03320    0.07010   -9999.25   -9999.25   -9999.25
 14325.00000   62.05660  110.12790   52.29260   45.02200   38.65360  162.07420  -16.21200    9.14140   -0.00450    3.90980    2.63610    0.04310    0.08780   -9999.25   -9999.25   -9999.25
 14325.50000   62.04430  110.12790   26.74380   30.33100   29.76690  181.82280  -16.94930    9.15150   -0.00450    3.95520    2.63910    0.04160    0.11460   -9999.25   -9999.25   -9999.25
 14326.00000   61.43300  109.22500   22.81460   22.98920   22.50940  185.00910  -18.02420    9.15150   -0.00670    3.95550    2.64740    0.03740    0.12060   -9999.25   -9999.25   -9999.25
 14326.50000   60.22010  106.51620   22.04160   21.30490   26.04210  174.63420  -18.93030    9.15150   -0.00820    3.83440    2.65650    0.03130    0.10250   -9999.25   -9999.25   -9999.25
 14327.00000   59.30800  104.10840   38.33160   32.31100   35.58580  154.78400  -19.23040    9.15150   -0.00740    3.66640    2.66550    0.02650    0.06930   -9999.25   -9999.25   -9999.25
 14327.50000   58.69670  103.80740   47.50170   42.65310   43.21890  135.47750  -18.92420    9.15150   -0.00360    3.56540    2.66860    0.02380    0.06130   -9999.25   -9999.25   -9999.25
 14328.00000   57.78450  104.71030   49.52070   49.35400   46.32910  131.61830  -18.61820    9.15150    0.00020    3.68610    2.66710    0.02380    0.05980   -9999.25   -9999.25   -9999.25
 14328.50000   59.68640  108.32200   57.26760   53.65200   46.98260  126.39560  -18.00850    9.15150    0.00090    3.82170    2.65890    0.02840    0.05890   -9999.25   -9999.25   -9999.25
 14329.00000   64.37890  113.43870   61.37600   55.17940   46.99060  121.85460  -17.70250    9.15150   -0.00210    3.92730    2.63630    0.04040    0.05980   -9999.25   -9999.25   -9999.25
 14329.50000   68.27890  119.15730   47.85750   49.45480   38.16890  125.31830  -17.39650    9.16670   -0.00660    4.00280    2.60620    0.05360    0.07780   -9999.25   -9999.25   -9999.25
 14330.00000   70.67500  123.67190   24.73650   27.68170   25.44270  149.13700  -16.78740    9.16670   -0.00650    4.04820    2.59350    0.06200    0.10880   -9999.25   -9999.25   -9999.25
 14330.50000   71.87070  126.68170   19.48400   17.22160   17.55770  178.43230  -16.17840    9.18180   -0.00650    4.09360    2.60260    0.06620    0.14970   -9999.25   -9999.25   -9999.25
 14331.00000   71.55760  127.88560   21.81350   20.20690   20.17290  220.73260  -15.26630    9.18180   -0.00730    4.10890    2.62410    0.05780    0.17110   -9999.25   -9999.25   -9999.25
 14331.50000   70.64550  126.98270   22.37980   19.52350   19.35330  272.96540  -14.35420    9.18180   -0.00800    4.15430    2.63350    0.04810    0.17020   -9999.25   -9999.25   -9999.25
 14332.00000   69.43260  127.58460   18.96090   18.22030   17.93490  300.00000  -13.44210    9.18180   -0.00870    4.16960    2.62970    0.04510    0.16630   -9999.25   -9999.25   -9999.25
 14332.50000   69.72360  128.78860   16.97740   17.24160   16.85190  299.11580  -12.53010    9.18180   -0.00940    4.18500    2.61770    0.05170    0.16600   -9999.25   -9999.25   -9999.25
